{"type":"FeatureCollection","data_type":"Dataset","url_type":null,"permissions":[{"permissions":{"download":true,"view":true},"group_id":"everyone"}],"classification":null,"title":"VelocityDC 2009 Sales by Zip Code","count":225,"stream_id":16881,"contributor":{"url":"http://geocommons.com/users/8972","name":"velocityDC"},"data_attributes":null,"calculation_params":null,"icon_link":null,"link":"http://geocommons.com/overlays/16881.json","extent":[-122.902,26.1293,-69.9695,47.709],"geometry_types":["point"],"unique_name":null,"name":"VelocityDC 2009 Sales by Zip Code","feature_count":225,"description":"","next_feature":null,"is_raster":false,"short_classification":"Y","stats":{"zipcode":{"max":null,"min":null,"median":null},"geo_score":{"max":0.714,"mean":0.707653333333332,"variance":0.00451129000000001,"stdev":0.0671661373014706,"min":0.0,"median":0.714},"tickets":{"max":154.0,"mean":9.67555555555556,"variance":322.541587301587,"stdev":17.9594428449656,"min":1.0,"median":4.0}},"features":[{"properties":{"zipcode":"0","geo_score":0.0,"tickets":32.0,"id":"a6et224vljpn","geo_precision":"unmatched"},"type":"Feature","geometry":null},{"properties":{"zipcode":"10009","geo_score":0.714,"tickets":2.0,"id":"a6et22blk0wc","geo_precision":"zip"},"type":"Feature","geometry":{"type":"Point","coordinates":[-73.980396,40.72775]}},{"properties":{"zipcode":"10021","geo_score":0.714,"tickets":2.0,"id":"a6et22k8qk21","geo_precision":"zip"},"type":"Feature","geometry":{"type":"Point","coordinates":[-73.960257,40.768823]}},{"properties":{"zipcode":"10025","geo_score":0.714,"tickets":2.0,"id":"a6et22g9dbzw","geo_precision":"zip"},"type":"Feature","geometry":{"type":"Point","coordinates":[-73.967778,40.798664]}},{"properties":{"zipcode":"10036","geo_score":0.714,"tickets":3.0,"id":"a6et22kxxwkx","geo_precision":"zip"},"type":"Feature","geometry":{"type":"Point","coordinates":[-73.989847,40.75953]}},{"properties":{"zipcode":"11021","geo_score":0.714,"tickets":1.0,"id":"a6et22db4tlk","geo_precision":"zip"},"type":"Feature","geometry":{"type":"Point","coordinates":[-73.724576,40.781213]}},{"properties":{"zipcode":"11221","geo_score":0.714,"tickets":1.0,"id":"a6et224ktfuu","geo_precision":"zip"},"type":"Feature","geometry":{"type":"Point","coordinates":[-73.918748,40.69427]}},{"properties":{"zipcode":"11542","geo_score":0.714,"tickets":4.0,"id":"a6et224miedv","geo_precision":"zip"},"type":"Feature","geometry":{"type":"Point","coordinates":[-73.601772,40.754757]}},{"properties":{"zipcode":"11733","geo_score":0.714,"tickets":3.0,"id":"a6et22l0x4og","geo_precision":"zip"},"type":"Feature","geometry":{"type":"Point","coordinates":[-73.129553,40.959821]}},{"properties":{"zipcode":"12054","geo_score":0.714,"tickets":1.0,"id":"a6et22ashu1e","geo_precision":"zip"},"type":"Feature","geometry":{"type":"Point","coordinates":[-73.8757,42.605467]}},{"properties":{"zipcode":"17540","geo_score":0.714,"tickets":5.0,"id":"a6et226idaqy","geo_precision":"zip"},"type":"Feature","geometry":{"type":"Point","coordinates":[-76.244958,40.000099]}},{"properties":{"zipcode":"18042","geo_score":0.714,"tickets":4.0,"id":"a6et22kfq9ka","geo_precision":"zip"},"type":"Feature","geometry":{"type":"Point","coordinates":[-75.244344,40.718709]}},{"properties":{"zipcode":"19072","geo_score":0.714,"tickets":2.0,"id":"a6et2274m4zr","geo_precision":"zip"},"type":"Feature","geometry":{"type":"Point","coordinates":[-75.261293,40.018445]}},{"properties":{"zipcode":"19146","geo_score":0.714,"tickets":2.0,"id":"a6et2273s9qc","geo_precision":"zip"},"type":"Feature","geometry":{"type":"Point","coordinates":[-75.175822,39.945112]}},{"properties":{"zipcode":"19348","geo_score":0.714,"tickets":2.0,"id":"a6et22bhvviy","geo_precision":"zip"},"type":"Feature","geometry":{"type":"Point","coordinates":[-75.716333,39.867864]}},{"properties":{"zipcode":"20001","geo_score":0.714,"tickets":92.0,"id":"a6et22gq7got","geo_precision":"zip"},"type":"Feature","geometry":{"type":"Point","coordinates":[-77.011365,38.916778]}},{"properties":{"zipcode":"20002","geo_score":0.714,"tickets":41.0,"id":"a6et22ikra2l","geo_precision":"zip"},"type":"Feature","geometry":{"type":"Point","coordinates":[-76.982147,38.908218]}},{"properties":{"zipcode":"20003","geo_score":0.714,"tickets":53.0,"id":"a6et22e9evcs","geo_precision":"zip"},"type":"Feature","geometry":{"type":"Point","coordinates":[-76.988897,38.860315]}},{"properties":{"zipcode":"20004","geo_score":0.714,"tickets":47.0,"id":"a6et22jg2lan","geo_precision":"zip"},"type":"Feature","geometry":{"type":"Point","coordinates":[-77.019477,38.892247]}},{"properties":{"zipcode":"20005","geo_score":0.714,"tickets":49.0,"id":"a6et22a9e62c","geo_precision":"zip"},"type":"Feature","geometry":{"type":"Point","coordinates":[-77.031695,38.904011]}},{"properties":{"zipcode":"20006","geo_score":0.714,"tickets":4.0,"id":"a6et22eyobl6","geo_precision":"zip"},"type":"Feature","geometry":{"type":"Point","coordinates":[-77.041248,38.897131]}},{"properties":{"zipcode":"20007","geo_score":0.714,"tickets":73.0,"id":"a6et22eaqlab","geo_precision":"zip"},"type":"Feature","geometry":{"type":"Point","coordinates":[-77.075649,38.914561]}},{"properties":{"zipcode":"20008","geo_score":0.714,"tickets":84.0,"id":"a6et22ha2acg","geo_precision":"zip"},"type":"Feature","geometry":{"type":"Point","coordinates":[-77.065533,38.936222]}},{"properties":{"zipcode":"20009","geo_score":0.714,"tickets":154.0,"id":"a6et22df8zfq","geo_precision":"zip"},"type":"Feature","geometry":{"type":"Point","coordinates":[-77.039798,38.919261]}},{"properties":{"zipcode":"20010","geo_score":0.714,"tickets":40.0,"id":"a6et22d2aqzv","geo_precision":"zip"},"type":"Feature","geometry":{"type":"Point","coordinates":[-77.030248,38.932711]}},{"properties":{"zipcode":"20011","geo_score":0.714,"tickets":32.0,"id":"a6et22a9o0gf","geo_precision":"zip"},"type":"Feature","geometry":{"type":"Point","coordinates":[-77.027477,38.961222]}},{"properties":{"zipcode":"20012","geo_score":0.714,"tickets":12.0,"id":"a6et22dwlu5x","geo_precision":"zip"},"type":"Feature","geometry":{"type":"Point","coordinates":[-77.026298,38.980231]}},{"properties":{"zipcode":"20015","geo_score":0.714,"tickets":25.0,"id":"a6et22gxhy52","geo_precision":"zip"},"type":"Feature","geometry":{"type":"Point","coordinates":[-77.070949,38.96926]}},{"properties":{"zipcode":"20016","geo_score":0.714,"tickets":61.0,"id":"a6et22egmukk","geo_precision":"zip"},"type":"Feature","geometry":{"type":"Point","coordinates":[-77.091149,38.93826]}},{"properties":{"zipcode":"20017","geo_score":0.714,"tickets":5.0,"id":"a6et22dvsetr","geo_precision":"zip"},"type":"Feature","geometry":{"type":"Point","coordinates":[-76.993068,38.93846]}},{"properties":{"zipcode":"20018","geo_score":0.714,"tickets":8.0,"id":"a6et22dcla7k","geo_precision":"zip"},"type":"Feature","geometry":{"type":"Point","coordinates":[-76.977953,38.93056]}},{"properties":{"zipcode":"20019","geo_score":0.714,"tickets":6.0,"id":"a6et22hidigl","geo_precision":"zip"},"type":"Feature","geometry":{"type":"Point","coordinates":[-76.948863,38.895112]}},{"properties":{"zipcode":"20020","geo_score":0.714,"tickets":14.0,"id":"a6et229m3agi","geo_precision":"zip"},"type":"Feature","geometry":{"type":"Point","coordinates":[-76.971547,38.85761]}},{"properties":{"zipcode":"20024","geo_score":0.714,"tickets":18.0,"id":"a6et22cbnwyq","geo_precision":"zip"},"type":"Feature","geometry":{"type":"Point","coordinates":[-77.022948,38.876494]}},{"properties":{"zipcode":"20032","geo_score":0.714,"tickets":6.0,"id":"a6et229awe7q","geo_precision":"zip"},"type":"Feature","geometry":{"type":"Point","coordinates":[-76.997697,38.8368]}},{"properties":{"zipcode":"20036","geo_score":0.714,"tickets":111.0,"id":"a6et22bvoegs","geo_precision":"zip"},"type":"Feature","geometry":{"type":"Point","coordinates":[-77.039914,38.900659]}},{"properties":{"zipcode":"20037","geo_score":0.714,"tickets":27.0,"id":"a6et22c26ovr","geo_precision":"zip"},"type":"Feature","geometry":{"type":"Point","coordinates":[-77.061781,38.918903]}},{"properties":{"zipcode":"20044","geo_score":0.714,"tickets":2.0,"id":"a6et228v7pvx","geo_precision":"zip"},"type":"Feature","geometry":{"type":"Point","coordinates":[-77.014647,38.893311]}},{"properties":{"zipcode":"20059","geo_score":0.714,"tickets":7.0,"id":"a6et226ersai","geo_precision":"zip"},"type":"Feature","geometry":{"type":"Point","coordinates":[-77.014647,38.893311]}},{"properties":{"zipcode":"20111","geo_score":0.714,"tickets":2.0,"id":"a6et22hukrlu","geo_precision":"zip"},"type":"Feature","geometry":{"type":"Point","coordinates":[-77.469711,38.784004]}},{"properties":{"zipcode":"20112","geo_score":0.714,"tickets":7.0,"id":"a6et2251h5n6","geo_precision":"zip"},"type":"Feature","geometry":{"type":"Point","coordinates":[-77.427104,38.668375]}},{"properties":{"zipcode":"20118","geo_score":0.714,"tickets":2.0,"id":"a6et22bsjqlp","geo_precision":"zip"},"type":"Feature","geometry":{"type":"Point","coordinates":[-77.765553,39.007548]}},{"properties":{"zipcode":"20120","geo_score":0.714,"tickets":4.0,"id":"a6et229r923k","geo_precision":"zip"},"type":"Feature","geometry":{"type":"Point","coordinates":[-77.46701,38.84479]}},{"properties":{"zipcode":"20136","geo_score":0.714,"tickets":2.0,"id":"a6et22bfuzyw","geo_precision":"zip"},"type":"Feature","geometry":{"type":"Point","coordinates":[-77.547383,38.734255]}},{"properties":{"zipcode":"20147","geo_score":0.714,"tickets":3.0,"id":"a6et22kxyqlf","geo_precision":"zip"},"type":"Feature","geometry":{"type":"Point","coordinates":[-77.480542,39.037339]}},{"properties":{"zipcode":"20148","geo_score":0.714,"tickets":2.0,"id":"a6et225fviwy","geo_precision":"zip"},"type":"Feature","geometry":{"type":"Point","coordinates":[-77.528452,39.014196]}},{"properties":{"zipcode":"20151","geo_score":0.714,"tickets":2.0,"id":"a6et228kxo9o","geo_precision":"zip"},"type":"Feature","geometry":{"type":"Point","coordinates":[-77.44566,38.88668]}},{"properties":{"zipcode":"20155","geo_score":0.714,"tickets":2.0,"id":"a6et228j32bq","geo_precision":"zip"},"type":"Feature","geometry":{"type":"Point","coordinates":[-77.621613,38.815714]}},{"properties":{"zipcode":"20164","geo_score":0.714,"tickets":1.0,"id":"a6et22kxyy5a","geo_precision":"zip"},"type":"Feature","geometry":{"type":"Point","coordinates":[-77.399367,39.023047]}},{"properties":{"zipcode":"20165","geo_score":0.714,"tickets":6.0,"id":"a6et22cx46oe","geo_precision":"zip"},"type":"Feature","geometry":{"type":"Point","coordinates":[-77.386647,39.047157]}},{"properties":{"zipcode":"20170","geo_score":0.714,"tickets":1.0,"id":"a6et22izkvzd","geo_precision":"zip"},"type":"Feature","geometry":{"type":"Point","coordinates":[-77.367457,38.983887]}},{"properties":{"zipcode":"20171","geo_score":0.714,"tickets":5.0,"id":"a6et22j8v6ry","geo_precision":"zip"},"type":"Feature","geometry":{"type":"Point","coordinates":[-77.39284,38.92518]}},{"properties":{"zipcode":"20176","geo_score":0.714,"tickets":5.0,"id":"a6et22cyxtpq","geo_precision":"zip"},"type":"Feature","geometry":{"type":"Point","coordinates":[-77.603458,39.119727]}},{"properties":{"zipcode":"20190","geo_score":0.714,"tickets":4.0,"id":"a6et224xq8ah","geo_precision":"zip"},"type":"Feature","geometry":{"type":"Point","coordinates":[-77.3418,38.96146]}},{"properties":{"zipcode":"20191","geo_score":0.714,"tickets":3.0,"id":"a6et22k8jx7k","geo_precision":"zip"},"type":"Feature","geometry":{"type":"Point","coordinates":[-77.352718,38.93181]}},{"properties":{"zipcode":"20194","geo_score":0.714,"tickets":6.0,"id":"a6et2251jpte","geo_precision":"zip"},"type":"Feature","geometry":{"type":"Point","coordinates":[-77.341878,38.980742]}},{"properties":{"zipcode":"20601","geo_score":0.714,"tickets":4.0,"id":"a6et2269qipx","geo_precision":"zip"},"type":"Feature","geometry":{"type":"Point","coordinates":[-76.956918,38.648729]}},{"properties":{"zipcode":"20603","geo_score":0.714,"tickets":2.0,"id":"a6et22dbipjl","geo_precision":"zip"},"type":"Feature","geometry":{"type":"Point","coordinates":[-77.062012,38.52115]}},{"properties":{"zipcode":"20639","geo_score":0.714,"tickets":4.0,"id":"a6et229m3g6y","geo_precision":"zip"},"type":"Feature","geometry":{"type":"Point","coordinates":[-76.613848,38.592065]}},{"properties":{"zipcode":"20650","geo_score":0.714,"tickets":3.0,"id":"a6et22dyama9","geo_precision":"zip"},"type":"Feature","geometry":{"type":"Point","coordinates":[-76.620238,38.223739]}},{"properties":{"zipcode":"20695","geo_score":0.714,"tickets":5.0,"id":"a6et22hwfdjp","geo_precision":"zip"},"type":"Feature","geometry":{"type":"Point","coordinates":[-76.95664,38.583731]}},{"properties":{"zipcode":"20706","geo_score":0.714,"tickets":4.0,"id":"a6et22evis3v","geo_precision":"zip"},"type":"Feature","geometry":{"type":"Point","coordinates":[-76.845361,38.966908]}},{"properties":{"zipcode":"20708","geo_score":0.714,"tickets":4.0,"id":"a6et2281p5px","geo_precision":"zip"},"type":"Feature","geometry":{"type":"Point","coordinates":[-76.850806,39.061498]}},{"properties":{"zipcode":"20712","geo_score":0.714,"tickets":2.0,"id":"a6et22ktry8r","geo_precision":"zip"},"type":"Feature","geometry":{"type":"Point","coordinates":[-76.967057,38.94266]}},{"properties":{"zipcode":"20715","geo_score":0.714,"tickets":4.0,"id":"a6et228f3017","geo_precision":"zip"},"type":"Feature","geometry":{"type":"Point","coordinates":[-76.74379,38.982612]}},{"properties":{"zipcode":"20720","geo_score":0.714,"tickets":3.0,"id":"a6et22b5vcrb","geo_precision":"zip"},"type":"Feature","geometry":{"type":"Point","coordinates":[-76.79098,38.98851]}},{"properties":{"zipcode":"20721","geo_score":0.714,"tickets":9.0,"id":"a6et225abewz","geo_precision":"zip"},"type":"Feature","geometry":{"type":"Point","coordinates":[-76.787141,38.919357]}},{"properties":{"zipcode":"20724","geo_score":0.714,"tickets":1.0,"id":"a6et226find7","geo_precision":"zip"},"type":"Feature","geometry":{"type":"Point","coordinates":[-76.785241,39.080141]}},{"properties":{"zipcode":"20735","geo_score":0.714,"tickets":2.0,"id":"a6et22g5fxv6","geo_precision":"zip"},"type":"Feature","geometry":{"type":"Point","coordinates":[-76.972197,38.700672]}},{"properties":{"zipcode":"20737","geo_score":0.714,"tickets":3.0,"id":"a6et22gs5fa0","geo_precision":"zip"},"type":"Feature","geometry":{"type":"Point","coordinates":[-76.931641,38.963444]}},{"properties":{"zipcode":"20740","geo_score":0.714,"tickets":8.0,"id":"a6et22bohtwl","geo_precision":"zip"},"type":"Feature","geometry":{"type":"Point","coordinates":[-76.932197,39.016499]}},{"properties":{"zipcode":"20741","geo_score":0.714,"tickets":1.0,"id":"a6et224tmfan","geo_precision":"zip"},"type":"Feature","geometry":{"type":"Point","coordinates":[-76.877743,38.833563]}},{"properties":{"zipcode":"20742","geo_score":0.714,"tickets":2.0,"id":"a6et22it9rjc","geo_precision":"zip"},"type":"Feature","geometry":{"type":"Point","coordinates":[-76.877743,38.833563]}},{"properties":{"zipcode":"20743","geo_score":0.714,"tickets":2.0,"id":"a6et22bzvosp","geo_precision":"zip"},"type":"Feature","geometry":{"type":"Point","coordinates":[-76.921085,38.87039]}},{"properties":{"zipcode":"20744","geo_score":0.714,"tickets":8.0,"id":"a6et22jiz9wr","geo_precision":"zip"},"type":"Feature","geometry":{"type":"Point","coordinates":[-77.009698,38.724004]}},{"properties":{"zipcode":"20746","geo_score":0.714,"tickets":8.0,"id":"a6et22dt8ju5","geo_precision":"zip"},"type":"Feature","geometry":{"type":"Point","coordinates":[-76.912745,38.834912]}},{"properties":{"zipcode":"20747","geo_score":0.714,"tickets":11.0,"id":"a6et228uwu2w","geo_precision":"zip"},"type":"Feature","geometry":{"type":"Point","coordinates":[-76.910251,38.860946]}},{"properties":{"zipcode":"20748","geo_score":0.714,"tickets":2.0,"id":"a6et22h37lsz","geo_precision":"zip"},"type":"Feature","geometry":{"type":"Point","coordinates":[-76.961641,38.844002]}},{"properties":{"zipcode":"20753","geo_score":0.714,"tickets":1.0,"id":"a6et228n163k","geo_precision":"zip"},"type":"Feature","geometry":{"type":"Point","coordinates":[-76.877743,38.833563]}},{"properties":{"zipcode":"20770","geo_score":0.714,"tickets":7.0,"id":"a6et22ethrdg","geo_precision":"zip"},"type":"Feature","geometry":{"type":"Point","coordinates":[-76.903029,39.002054]}},{"properties":{"zipcode":"20772","geo_score":0.714,"tickets":4.0,"id":"a6et22eh5gvg","geo_precision":"zip"},"type":"Feature","geometry":{"type":"Point","coordinates":[-76.814693,38.884557]}},{"properties":{"zipcode":"20774","geo_score":0.714,"tickets":11.0,"id":"a6et22hr0tpw","geo_precision":"zip"},"type":"Feature","geometry":{"type":"Point","coordinates":[-76.83886,38.937611]}},{"properties":{"zipcode":"20781","geo_score":0.714,"tickets":3.0,"id":"a6et22e4por8","geo_precision":"zip"},"type":"Feature","geometry":{"type":"Point","coordinates":[-76.91914,38.920945]}},{"properties":{"zipcode":"20782","geo_score":0.714,"tickets":29.0,"id":"a6et22j06jho","geo_precision":"zip"},"type":"Feature","geometry":{"type":"Point","coordinates":[-76.978587,38.967611]}},{"properties":{"zipcode":"20783","geo_score":0.714,"tickets":6.0,"id":"a6et22c1y328","geo_precision":"zip"},"type":"Feature","geometry":{"type":"Point","coordinates":[-76.983309,38.981499]}},{"properties":{"zipcode":"20784","geo_score":0.714,"tickets":2.0,"id":"a6et227kfmgq","geo_precision":"zip"},"type":"Feature","geometry":{"type":"Point","coordinates":[-76.891362,38.949555]}},{"properties":{"zipcode":"20814","geo_score":0.714,"tickets":39.0,"id":"a6et22b2qr3o","geo_precision":"zip"},"type":"Feature","geometry":{"type":"Point","coordinates":[-77.109978,38.98261]}},{"properties":{"zipcode":"20815","geo_score":0.714,"tickets":34.0,"id":"a6et229gvqkm","geo_precision":"zip"},"type":"Feature","geometry":{"type":"Point","coordinates":[-77.097478,38.97011]}},{"properties":{"zipcode":"20816","geo_score":0.714,"tickets":13.0,"id":"a6et2269tb1p","geo_precision":"zip"},"type":"Feature","geometry":{"type":"Point","coordinates":[-77.13359,38.967333]}},{"properties":{"zipcode":"20817","geo_score":0.714,"tickets":21.0,"id":"a6et22h01ygz","geo_precision":"zip"},"type":"Feature","geometry":{"type":"Point","coordinates":[-77.12859,38.985388]}},{"properties":{"zipcode":"20818","geo_score":0.714,"tickets":4.0,"id":"a6et2250t9v7","geo_precision":"zip"},"type":"Feature","geometry":{"type":"Point","coordinates":[-77.180053,39.128407]}},{"properties":{"zipcode":"20832","geo_score":0.714,"tickets":2.0,"id":"a6et22i1ua2f","geo_precision":"zip"},"type":"Feature","geometry":{"type":"Point","coordinates":[-77.077651,39.150364]}},{"properties":{"zipcode":"20849","geo_score":0.714,"tickets":2.0,"id":"a6et22gxg3bk","geo_precision":"zip"},"type":"Feature","geometry":{"type":"Point","coordinates":[-77.207617,39.143979]}},{"properties":{"zipcode":"20850","geo_score":0.714,"tickets":7.0,"id":"a6et229s2yyl","geo_precision":"zip"},"type":"Feature","geometry":{"type":"Point","coordinates":[-77.206926,39.097053]}},{"properties":{"zipcode":"20851","geo_score":0.714,"tickets":6.0,"id":"a6et22gyft9e","geo_precision":"zip"},"type":"Feature","geometry":{"type":"Point","coordinates":[-77.125751,39.077858]}},{"properties":{"zipcode":"20852","geo_score":0.714,"tickets":24.0,"id":"a6et22a0inc4","geo_precision":"zip"},"type":"Feature","geometry":{"type":"Point","coordinates":[-77.119424,39.062609]}},{"properties":{"zipcode":"20853","geo_score":0.714,"tickets":10.0,"id":"a6et22d9050i","geo_precision":"zip"},"type":"Feature","geometry":{"type":"Point","coordinates":[-77.0996,39.107357]}},{"properties":{"zipcode":"20854","geo_score":0.714,"tickets":26.0,"id":"a6et22dq5z72","geo_precision":"zip"},"type":"Feature","geometry":{"type":"Point","coordinates":[-77.230536,39.013443]}},{"properties":{"zipcode":"20855","geo_score":0.714,"tickets":4.0,"id":"a6et22avzzt0","geo_precision":"zip"},"type":"Feature","geometry":{"type":"Point","coordinates":[-77.138145,39.142857]}},{"properties":{"zipcode":"20874","geo_score":0.714,"tickets":9.0,"id":"a6et22f27ulf","geo_precision":"zip"},"type":"Feature","geometry":{"type":"Point","coordinates":[-77.282223,39.135512]}},{"properties":{"zipcode":"20876","geo_score":0.714,"tickets":2.0,"id":"a6et22bjzcz0","geo_precision":"zip"},"type":"Feature","geometry":{"type":"Point","coordinates":[-77.239729,39.210218]}},{"properties":{"zipcode":"20877","geo_score":0.714,"tickets":11.0,"id":"a6et22f7da98","geo_precision":"zip"},"type":"Feature","geometry":{"type":"Point","coordinates":[-77.182953,39.139336]}},{"properties":{"zipcode":"20878","geo_score":0.714,"tickets":7.0,"id":"a6et22658ylg","geo_precision":"zip"},"type":"Feature","geometry":{"type":"Point","coordinates":[-77.252483,39.117886]}},{"properties":{"zipcode":"20879","geo_score":0.714,"tickets":3.0,"id":"a6et227r5zov","geo_precision":"zip"},"type":"Feature","geometry":{"type":"Point","coordinates":[-77.187482,39.20344]}},{"properties":{"zipcode":"20886","geo_score":0.714,"tickets":4.0,"id":"a6et22itrwl0","geo_precision":"zip"},"type":"Feature","geometry":{"type":"Point","coordinates":[-77.18725,39.175703]}},{"properties":{"zipcode":"20895","geo_score":0.714,"tickets":13.0,"id":"a6et22hpqkjo","geo_precision":"zip"},"type":"Feature","geometry":{"type":"Point","coordinates":[-77.062756,39.025387]}},{"properties":{"zipcode":"20896","geo_score":0.714,"tickets":2.0,"id":"a6et22i5nudz","geo_precision":"zip"},"type":"Feature","geometry":{"type":"Point","coordinates":[-77.0931,39.036496]}},{"properties":{"zipcode":"20901","geo_score":0.714,"tickets":20.0,"id":"a6et22abbyt2","geo_precision":"zip"},"type":"Feature","geometry":{"type":"Point","coordinates":[-77.004421,39.035665]}},{"properties":{"zipcode":"20902","geo_score":0.714,"tickets":22.0,"id":"a6et224m8xnh","geo_precision":"zip"},"type":"Feature","geometry":{"type":"Point","coordinates":[-77.060256,39.045665]}},{"properties":{"zipcode":"20903","geo_score":0.714,"tickets":3.0,"id":"a6et225lu5ox","geo_precision":"zip"},"type":"Feature","geometry":{"type":"Point","coordinates":[-76.990532,38.997055]}},{"properties":{"zipcode":"20904","geo_score":0.714,"tickets":18.0,"id":"a6et22asv5vd","geo_precision":"zip"},"type":"Feature","geometry":{"type":"Point","coordinates":[-76.962475,39.016499]}},{"properties":{"zipcode":"20905","geo_score":0.714,"tickets":12.0,"id":"a6et22aa3qkh","geo_precision":"zip"},"type":"Feature","geometry":{"type":"Point","coordinates":[-77.00587,39.114753]}},{"properties":{"zipcode":"20906","geo_score":0.714,"tickets":12.0,"id":"a6et22duwsng","geo_precision":"zip"},"type":"Feature","geometry":{"type":"Point","coordinates":[-77.077756,39.062609]}},{"properties":{"zipcode":"20910","geo_score":0.714,"tickets":37.0,"id":"a6et22ks9i7w","geo_precision":"zip"},"type":"Feature","geometry":{"type":"Point","coordinates":[-77.060533,39.022332]}},{"properties":{"zipcode":"20912","geo_score":0.714,"tickets":23.0,"id":"a6et22jceosz","geo_precision":"zip"},"type":"Feature","geometry":{"type":"Point","coordinates":[-76.99831,38.988444]}},{"properties":{"zipcode":"20913","geo_score":0.714,"tickets":1.0,"id":"a6et227i9tah","geo_precision":"zip"},"type":"Feature","geometry":{"type":"Point","coordinates":[-77.026088,38.990666]}},{"properties":{"zipcode":"21029","geo_score":0.714,"tickets":2.0,"id":"a6et22bqlgx9","geo_precision":"zip"},"type":"Feature","geometry":{"type":"Point","coordinates":[-76.951498,39.212456]}},{"properties":{"zipcode":"21030","geo_score":0.714,"tickets":4.0,"id":"a6et22gkbpt2","geo_precision":"zip"},"type":"Feature","geometry":{"type":"Point","coordinates":[-76.664077,39.491227]}},{"properties":{"zipcode":"21042","geo_score":0.714,"tickets":4.0,"id":"a6et22hitfde","geo_precision":"zip"},"type":"Feature","geometry":{"type":"Point","coordinates":[-76.897247,39.261897]}},{"properties":{"zipcode":"21044","geo_score":0.714,"tickets":9.0,"id":"a6et224mcpye","geo_precision":"zip"},"type":"Feature","geometry":{"type":"Point","coordinates":[-76.886642,39.234828]}},{"properties":{"zipcode":"21045","geo_score":0.714,"tickets":4.0,"id":"a6et224oo5w4","geo_precision":"zip"},"type":"Feature","geometry":{"type":"Point","coordinates":[-76.843863,39.218718]}},{"properties":{"zipcode":"21060","geo_score":0.714,"tickets":2.0,"id":"a6et22868k3s","geo_precision":"zip"},"type":"Feature","geometry":{"type":"Point","coordinates":[-76.579836,39.170158]}},{"properties":{"zipcode":"21061","geo_score":0.714,"tickets":4.0,"id":"a6et22jsa21k","geo_precision":"zip"},"type":"Feature","geometry":{"type":"Point","coordinates":[-76.6258,39.128998]}},{"properties":{"zipcode":"21076","geo_score":0.714,"tickets":2.0,"id":"a6et22gra4o9","geo_precision":"zip"},"type":"Feature","geometry":{"type":"Point","coordinates":[-76.724137,39.192885]}},{"properties":{"zipcode":"21114","geo_score":0.714,"tickets":9.0,"id":"a6et22g55c5u","geo_precision":"zip"},"type":"Feature","geometry":{"type":"Point","coordinates":[-76.622577,39.06436]}},{"properties":{"zipcode":"21117","geo_score":0.714,"tickets":5.0,"id":"a6et227rw35g","geo_precision":"zip"},"type":"Feature","geometry":{"type":"Point","coordinates":[-76.781642,39.443994]}},{"properties":{"zipcode":"21122","geo_score":0.714,"tickets":4.0,"id":"a6et2275yomn","geo_precision":"zip"},"type":"Feature","geometry":{"type":"Point","coordinates":[-76.520796,39.12511]}},{"properties":{"zipcode":"21133","geo_score":0.714,"tickets":8.0,"id":"a6et22furvat","geo_precision":"zip"},"type":"Feature","geometry":{"type":"Point","coordinates":[-76.816675,39.377872]}},{"properties":{"zipcode":"21207","geo_score":0.714,"tickets":1.0,"id":"a6et22527q0s","geo_precision":"zip"},"type":"Feature","geometry":{"type":"Point","coordinates":[-76.728028,39.322884]}},{"properties":{"zipcode":"21209","geo_score":0.714,"tickets":4.0,"id":"a6et228k1yfv","geo_precision":"zip"},"type":"Feature","geometry":{"type":"Point","coordinates":[-76.674137,39.37594]}},{"properties":{"zipcode":"21210","geo_score":0.714,"tickets":2.0,"id":"a6et22emzzgr","geo_precision":"zip"},"type":"Feature","geometry":{"type":"Point","coordinates":[-76.63329,39.352356]}},{"properties":{"zipcode":"21212","geo_score":0.714,"tickets":1.0,"id":"a6et22ag0jav","geo_precision":"zip"},"type":"Feature","geometry":{"type":"Point","coordinates":[-76.603023,39.380662]}},{"properties":{"zipcode":"21214","geo_score":0.714,"tickets":3.0,"id":"a6et22drflgl","geo_precision":"zip"},"type":"Feature","geometry":{"type":"Point","coordinates":[-76.562187,39.350006]}},{"properties":{"zipcode":"21221","geo_score":0.714,"tickets":1.0,"id":"a6et22giq5oj","geo_precision":"zip"},"type":"Feature","geometry":{"type":"Point","coordinates":[-76.449128,39.320386]}},{"properties":{"zipcode":"21401","geo_score":0.714,"tickets":2.0,"id":"a6et22fv9yin","geo_precision":"zip"},"type":"Feature","geometry":{"type":"Point","coordinates":[-76.59163,38.967334]}},{"properties":{"zipcode":"21403","geo_score":0.714,"tickets":4.0,"id":"a6et22eolgau","geo_precision":"zip"},"type":"Feature","geometry":{"type":"Point","coordinates":[-76.475515,38.963724]}},{"properties":{"zipcode":"21655","geo_score":0.714,"tickets":2.0,"id":"a6et22d3l54r","geo_precision":"zip"},"type":"Feature","geometry":{"type":"Point","coordinates":[-75.896047,38.700948]}},{"properties":{"zipcode":"21774","geo_score":0.714,"tickets":2.0,"id":"a6et22jcngzt","geo_precision":"zip"},"type":"Feature","geometry":{"type":"Point","coordinates":[-77.220932,39.432571]}},{"properties":{"zipcode":"21797","geo_score":0.714,"tickets":2.0,"id":"a6et22ezd2l9","geo_precision":"zip"},"type":"Feature","geometry":{"type":"Point","coordinates":[-77.131648,39.281772]}},{"properties":{"zipcode":"22003","geo_score":0.714,"tickets":1.0,"id":"a6et226lzvzv","geo_precision":"zip"},"type":"Feature","geometry":{"type":"Point","coordinates":[-77.239149,38.83539]}},{"properties":{"zipcode":"22015","geo_score":0.714,"tickets":1.0,"id":"a6et225ixwwk","geo_precision":"zip"},"type":"Feature","geometry":{"type":"Point","coordinates":[-77.297485,38.775669]}},{"properties":{"zipcode":"22030","geo_score":0.714,"tickets":6.0,"id":"a6et22hjy1xl","geo_precision":"zip"},"type":"Feature","geometry":{"type":"Point","coordinates":[-77.363875,38.87289]}},{"properties":{"zipcode":"22031","geo_score":0.714,"tickets":5.0,"id":"a6et225v9b74","geo_precision":"zip"},"type":"Feature","geometry":{"type":"Point","coordinates":[-77.284195,38.853962]}},{"properties":{"zipcode":"22033","geo_score":0.714,"tickets":7.0,"id":"a6et22hdcndj","geo_precision":"zip"},"type":"Feature","geometry":{"type":"Point","coordinates":[-77.378858,38.879466]}},{"properties":{"zipcode":"22039","geo_score":0.714,"tickets":6.0,"id":"a6et22ihg1dm","geo_precision":"zip"},"type":"Feature","geometry":{"type":"Point","coordinates":[-77.327485,38.781225]}},{"properties":{"zipcode":"22041","geo_score":0.714,"tickets":5.0,"id":"a6et22gyjhw4","geo_precision":"zip"},"type":"Feature","geometry":{"type":"Point","coordinates":[-77.158869,38.838446]}},{"properties":{"zipcode":"22042","geo_score":0.714,"tickets":2.0,"id":"a6et22glv1l8","geo_precision":"zip"},"type":"Feature","geometry":{"type":"Point","coordinates":[-77.201648,38.87289]}},{"properties":{"zipcode":"22043","geo_score":0.714,"tickets":3.0,"id":"a6et224jev5s","geo_precision":"zip"},"type":"Feature","geometry":{"type":"Point","coordinates":[-77.200814,38.912889]}},{"properties":{"zipcode":"22044","geo_score":0.714,"tickets":2.0,"id":"a6et224oezto","geo_precision":"zip"},"type":"Feature","geometry":{"type":"Point","coordinates":[-77.16248,38.851501]}},{"properties":{"zipcode":"22046","geo_score":0.714,"tickets":7.0,"id":"a6et22ggm94e","geo_precision":"zip"},"type":"Feature","geometry":{"type":"Point","coordinates":[-77.200259,38.884278]}},{"properties":{"zipcode":"22101","geo_score":0.714,"tickets":16.0,"id":"a6et22cni6te","geo_precision":"zip"},"type":"Feature","geometry":{"type":"Point","coordinates":[-77.18672,38.935202]}},{"properties":{"zipcode":"22102","geo_score":0.714,"tickets":1.0,"id":"a6et22g8xmgv","geo_precision":"zip"},"type":"Feature","geometry":{"type":"Point","coordinates":[-77.229496,38.953033]}},{"properties":{"zipcode":"22116","geo_score":0.714,"tickets":4.0,"id":"a6et22it0gl1","geo_precision":"zip"},"type":"Feature","geometry":{"type":"Point","coordinates":[-77.234428,38.871469]}},{"properties":{"zipcode":"22124","geo_score":0.714,"tickets":6.0,"id":"a6et22i8em5o","geo_precision":"zip"},"type":"Feature","geometry":{"type":"Point","coordinates":[-77.369431,38.880945]}},{"properties":{"zipcode":"22151","geo_score":0.714,"tickets":2.0,"id":"a6et22ka6fx8","geo_precision":"zip"},"type":"Feature","geometry":{"type":"Point","coordinates":[-77.220538,38.804002]}},{"properties":{"zipcode":"22152","geo_score":0.714,"tickets":2.0,"id":"a6et22cz2ybs","geo_precision":"zip"},"type":"Feature","geometry":{"type":"Point","coordinates":[-77.221094,38.772614]}},{"properties":{"zipcode":"22153","geo_score":0.714,"tickets":15.0,"id":"a6et225dz87u","geo_precision":"zip"},"type":"Feature","geometry":{"type":"Point","coordinates":[-77.181612,38.757015]}},{"properties":{"zipcode":"22180","geo_score":0.714,"tickets":6.0,"id":"a6et22cp0gcl","geo_precision":"zip"},"type":"Feature","geometry":{"type":"Point","coordinates":[-77.271094,38.930389]}},{"properties":{"zipcode":"22182","geo_score":0.714,"tickets":10.0,"id":"a6et22jaolre","geo_precision":"zip"},"type":"Feature","geometry":{"type":"Point","coordinates":[-77.268022,38.935292]}},{"properties":{"zipcode":"22193","geo_score":0.714,"tickets":1.0,"id":"a6et227z6e85","geo_precision":"zip"},"type":"Feature","geometry":{"type":"Point","coordinates":[-77.359152,38.680395]}},{"properties":{"zipcode":"22194","geo_score":0.714,"tickets":2.0,"id":"a6et22klhq39","geo_precision":"zip"},"type":"Feature","geometry":{"type":"Point","coordinates":[-77.466897,38.721912]}},{"properties":{"zipcode":"22201","geo_score":0.714,"tickets":45.0,"id":"a6et22k04eaz","geo_precision":"zip"},"type":"Feature","geometry":{"type":"Point","coordinates":[-77.099113,38.885484]}},{"properties":{"zipcode":"22202","geo_score":0.714,"tickets":25.0,"id":"a6et22kgc07y","geo_precision":"zip"},"type":"Feature","geometry":{"type":"Point","coordinates":[-77.059721,38.854462]}},{"properties":{"zipcode":"22203","geo_score":0.714,"tickets":12.0,"id":"a6et228aoazx","geo_precision":"zip"},"type":"Feature","geometry":{"type":"Point","coordinates":[-77.119515,38.874775]}},{"properties":{"zipcode":"22204","geo_score":0.714,"tickets":27.0,"id":"a6et225005dj","geo_precision":"zip"},"type":"Feature","geometry":{"type":"Point","coordinates":[-77.100868,38.860335]}},{"properties":{"zipcode":"22205","geo_score":0.714,"tickets":8.0,"id":"a6et226kx3mp","geo_precision":"zip"},"type":"Feature","geometry":{"type":"Point","coordinates":[-77.140021,38.875811]}},{"properties":{"zipcode":"22206","geo_score":0.714,"tickets":8.0,"id":"a6et224pj6pd","geo_precision":"zip"},"type":"Feature","geometry":{"type":"Point","coordinates":[-77.088312,38.841779]}},{"properties":{"zipcode":"22207","geo_score":0.714,"tickets":15.0,"id":"a6et22g0308l","geo_precision":"zip"},"type":"Feature","geometry":{"type":"Point","coordinates":[-77.122344,38.907416]}},{"properties":{"zipcode":"22209","geo_score":0.714,"tickets":10.0,"id":"a6et22a75dap","geo_precision":"zip"},"type":"Feature","geometry":{"type":"Point","coordinates":[-77.072478,38.896778]}},{"properties":{"zipcode":"22210","geo_score":0.714,"tickets":10.0,"id":"a6et22fctxjo","geo_precision":"zip"},"type":"Feature","geometry":{"type":"Point","coordinates":[-77.11295,38.880811]}},{"properties":{"zipcode":"22301","geo_score":0.714,"tickets":2.0,"id":"a6et22855tmz","geo_precision":"zip"},"type":"Feature","geometry":{"type":"Point","coordinates":[-77.079622,38.823062]}},{"properties":{"zipcode":"22302","geo_score":0.714,"tickets":6.0,"id":"a6et22gczuzk","geo_precision":"zip"},"type":"Feature","geometry":{"type":"Point","coordinates":[-77.079422,38.837057]}},{"properties":{"zipcode":"22303","geo_score":0.714,"tickets":5.0,"id":"a6et22k0t981","geo_precision":"zip"},"type":"Feature","geometry":{"type":"Point","coordinates":[-77.088867,38.765114]}},{"properties":{"zipcode":"22304","geo_score":0.714,"tickets":13.0,"id":"a6et22gsmda5","geo_precision":"zip"},"type":"Feature","geometry":{"type":"Point","coordinates":[-77.109146,38.815391]}},{"properties":{"zipcode":"22305","geo_score":0.714,"tickets":3.0,"id":"a6et22fmubc6","geo_precision":"zip"},"type":"Feature","geometry":{"type":"Point","coordinates":[-77.063959,38.835412]}},{"properties":{"zipcode":"22306","geo_score":0.714,"tickets":4.0,"id":"a6et22amz851","geo_precision":"zip"},"type":"Feature","geometry":{"type":"Point","coordinates":[-77.066089,38.757336]}},{"properties":{"zipcode":"22307","geo_score":0.714,"tickets":6.0,"id":"a6et22a1q0y4","geo_precision":"zip"},"type":"Feature","geometry":{"type":"Point","coordinates":[-77.063033,38.785392]}},{"properties":{"zipcode":"22308","geo_score":0.714,"tickets":3.0,"id":"a6et22j4nipz","geo_precision":"zip"},"type":"Feature","geometry":{"type":"Point","coordinates":[-77.066922,38.714004]}},{"properties":{"zipcode":"22309","geo_score":0.714,"tickets":6.0,"id":"a6et22cmy5s7","geo_precision":"zip"},"type":"Feature","geometry":{"type":"Point","coordinates":[-77.100812,38.71706]}},{"properties":{"zipcode":"22310","geo_score":0.714,"tickets":5.0,"id":"a6et22f78nij","geo_precision":"zip"},"type":"Feature","geometry":{"type":"Point","coordinates":[-77.104701,38.789002]}},{"properties":{"zipcode":"22311","geo_score":0.714,"tickets":5.0,"id":"a6et22kg36mh","geo_precision":"zip"},"type":"Feature","geometry":{"type":"Point","coordinates":[-77.119627,38.832762]}},{"properties":{"zipcode":"22312","geo_score":0.714,"tickets":2.0,"id":"a6et22b4eeab","geo_precision":"zip"},"type":"Feature","geometry":{"type":"Point","coordinates":[-77.143313,38.818446]}},{"properties":{"zipcode":"22314","geo_score":0.714,"tickets":11.0,"id":"a6et224vggtm","geo_precision":"zip"},"type":"Feature","geometry":{"type":"Point","coordinates":[-77.063587,38.811436]}},{"properties":{"zipcode":"22315","geo_score":0.714,"tickets":6.0,"id":"a6et22gukecm","geo_precision":"zip"},"type":"Feature","geometry":{"type":"Point","coordinates":[-77.147646,38.756466]}},{"properties":{"zipcode":"22448","geo_score":0.714,"tickets":2.0,"id":"a6et229m71vw","geo_precision":"zip"},"type":"Feature","geometry":{"type":"Point","coordinates":[-77.039825,38.326218]}},{"properties":{"zipcode":"22801","geo_score":0.714,"tickets":31.0,"id":"a6et228wxmx9","geo_precision":"zip"},"type":"Feature","geometry":{"type":"Point","coordinates":[-78.959752,38.486235]}},{"properties":{"zipcode":"23454","geo_score":0.714,"tickets":5.0,"id":"a6et226guto1","geo_precision":"zip"},"type":"Feature","geometry":{"type":"Point","coordinates":[-76.041876,36.88237]}},{"properties":{"zipcode":"23508","geo_score":0.714,"tickets":1.0,"id":"a6et22bjhjga","geo_precision":"zip"},"type":"Feature","geometry":{"type":"Point","coordinates":[-76.299963,36.884447]}},{"properties":{"zipcode":"23518","geo_score":0.714,"tickets":3.0,"id":"a6et228wojuf","geo_precision":"zip"},"type":"Feature","geometry":{"type":"Point","coordinates":[-76.216448,36.907997]}},{"properties":{"zipcode":"23789","geo_score":0.714,"tickets":5.0,"id":"a6et22dueqdu","geo_precision":"zip"},"type":"Feature","geometry":{"type":"Point","coordinates":[-76.298274,36.835426]}},{"properties":{"zipcode":"24502","geo_score":0.714,"tickets":1.0,"id":"a6et229f2imj","geo_precision":"zip"},"type":"Feature","geometry":{"type":"Point","coordinates":[-79.243359,37.342087]}},{"properties":{"zipcode":"2492","geo_score":0.714,"tickets":2.0,"id":"a6et227g6pqd","geo_precision":"zip"},"type":"Feature","geometry":{"type":"Point","coordinates":[-71.25006,42.279797]}},{"properties":{"zipcode":"2650","geo_score":0.714,"tickets":3.0,"id":"a6et224levcw","geo_precision":"zip"},"type":"Feature","geometry":{"type":"Point","coordinates":[-69.96946,41.702889]}},{"properties":{"zipcode":"27410","geo_score":0.714,"tickets":2.0,"id":"a6et229ipihf","geo_precision":"zip"},"type":"Feature","geometry":{"type":"Point","coordinates":[-79.953926,36.092081]}},{"properties":{"zipcode":"27513","geo_score":0.714,"tickets":2.0,"id":"a6et22l1br8b","geo_precision":"zip"},"type":"Feature","geometry":{"type":"Point","coordinates":[-78.816564,35.801341]}},{"properties":{"zipcode":"30344","geo_score":0.714,"tickets":1.0,"id":"a6et227gorn4","geo_precision":"zip"},"type":"Feature","geometry":{"type":"Point","coordinates":[-84.448027,33.691858]}},{"properties":{"zipcode":"33314","geo_score":0.714,"tickets":2.0,"id":"a6et2266pv0t","geo_precision":"zip"},"type":"Feature","geometry":{"type":"Point","coordinates":[-80.212548,26.129253]}},{"properties":{"zipcode":"33498","geo_score":0.714,"tickets":1.0,"id":"a6et225hhbz1","geo_precision":"zip"},"type":"Feature","geometry":{"type":"Point","coordinates":[-80.222751,26.39341]}},{"properties":{"zipcode":"33619","geo_score":0.714,"tickets":1.0,"id":"a6et224lcpqb","geo_precision":"zip"},"type":"Feature","geometry":{"type":"Point","coordinates":[-82.364537,27.900302]}},{"properties":{"zipcode":"34233","geo_score":0.714,"tickets":2.0,"id":"a6et22hai44l","geo_precision":"zip"},"type":"Feature","geometry":{"type":"Point","coordinates":[-82.423776,27.127372]}},{"properties":{"zipcode":"34235","geo_score":0.714,"tickets":2.0,"id":"a6et22j44t6a","geo_precision":"zip"},"type":"Feature","geometry":{"type":"Point","coordinates":[-82.478376,27.363072]}},{"properties":{"zipcode":"38111","geo_score":0.714,"tickets":2.0,"id":"a6et22gynyf5","geo_precision":"zip"},"type":"Feature","geometry":{"type":"Point","coordinates":[-89.948119,35.10956]}},{"properties":{"zipcode":"38138","geo_score":0.714,"tickets":2.0,"id":"a6et228qfpmu","geo_precision":"zip"},"type":"Feature","geometry":{"type":"Point","coordinates":[-89.792638,35.08753]}},{"properties":{"zipcode":"43235","geo_score":0.714,"tickets":2.0,"id":"a6et22749y1g","geo_precision":"zip"},"type":"Feature","geometry":{"type":"Point","coordinates":[-82.974204,40.108836]}},{"properties":{"zipcode":"48236","geo_score":0.714,"tickets":2.0,"id":"a6et22j6h15w","geo_precision":"zip"},"type":"Feature","geometry":{"type":"Point","coordinates":[-83.150823,42.239933]}},{"properties":{"zipcode":"55408","geo_score":0.714,"tickets":1.0,"id":"a6et229ssnu0","geo_precision":"zip"},"type":"Feature","geometry":{"type":"Point","coordinates":[-93.288975,44.947515]}},{"properties":{"zipcode":"60068","geo_score":0.714,"tickets":2.0,"id":"a6et226hmmb2","geo_precision":"zip"},"type":"Feature","geometry":{"type":"Point","coordinates":[-87.843714,42.037228]}},{"properties":{"zipcode":"60611","geo_score":0.714,"tickets":2.0,"id":"a6et22g3pk8v","geo_precision":"zip"},"type":"Feature","geometry":{"type":"Point","coordinates":[-87.68732,41.811929]}},{"properties":{"zipcode":"60660","geo_score":0.714,"tickets":2.0,"id":"a6et22jjqchv","geo_precision":"zip"},"type":"Feature","geometry":{"type":"Point","coordinates":[-87.68732,41.811929]}},{"properties":{"zipcode":"6410","geo_score":0.714,"tickets":2.0,"id":"a6et22gfnj1w","geo_precision":"zip"},"type":"Feature","geometry":{"type":"Point","coordinates":[-72.935659,41.522319]}},{"properties":{"zipcode":"70062","geo_score":0.714,"tickets":1.0,"id":"a6et2263b3b9","geo_precision":"zip"},"type":"Feature","geometry":{"type":"Point","coordinates":[-90.20446,29.994398]}},{"properties":{"zipcode":"78704","geo_score":0.714,"tickets":2.0,"id":"a6et22kp33hf","geo_precision":"zip"},"type":"Feature","geometry":{"type":"Point","coordinates":[-97.768832,30.240685]}},{"properties":{"zipcode":"80013","geo_score":0.714,"tickets":1.0,"id":"a6et22inyb74","geo_precision":"zip"},"type":"Feature","geometry":{"type":"Point","coordinates":[-104.76275,39.660654]}},{"properties":{"zipcode":"8054","geo_score":0.714,"tickets":1.0,"id":"a6et22c7um2e","geo_precision":"zip"},"type":"Feature","geometry":{"type":"Point","coordinates":[-74.870165,39.978446]}},{"properties":{"zipcode":"81611","geo_score":0.714,"tickets":4.0,"id":"a6et22k1umdu","geo_precision":"zip"},"type":"Feature","geometry":{"type":"Point","coordinates":[-106.776744,39.169324]}},{"properties":{"zipcode":"8540","geo_score":0.714,"tickets":1.0,"id":"a6et226cf5wp","geo_precision":"zip"},"type":"Feature","geometry":{"type":"Point","coordinates":[-74.64795,40.363882]}},{"properties":{"zipcode":"90046","geo_score":0.714,"tickets":2.0,"id":"a6et22hmvik6","geo_precision":"zip"},"type":"Feature","geometry":{"type":"Point","coordinates":[-118.298662,33.786594]}},{"properties":{"zipcode":"90305","geo_score":0.714,"tickets":1.0,"id":"a6et227vjgc5","geo_precision":"zip"},"type":"Feature","geometry":{"type":"Point","coordinates":[-118.298662,33.786594]}},{"properties":{"zipcode":"94549","geo_score":0.714,"tickets":2.0,"id":"a6et22hhg9sk","geo_precision":"zip"},"type":"Feature","geometry":{"type":"Point","coordinates":[-122.120089,37.901223]}},{"properties":{"zipcode":"94610","geo_score":0.714,"tickets":2.0,"id":"a6et22dms266","geo_precision":"zip"},"type":"Feature","geometry":{"type":"Point","coordinates":[-122.238779,37.811277]}},{"properties":{"zipcode":"94806","geo_score":0.714,"tickets":1.0,"id":"a6et22i9mm63","geo_precision":"zip"},"type":"Feature","geometry":{"type":"Point","coordinates":[-122.334131,37.959573]}},{"properties":{"zipcode":"97005","geo_score":0.714,"tickets":2.0,"id":"a6et225pque9","geo_precision":"zip"},"type":"Feature","geometry":{"type":"Point","coordinates":[-122.902324,45.497617]}},{"properties":{"zipcode":"98121","geo_score":0.714,"tickets":1.0,"id":"a6et22brz3zo","geo_precision":"zip"},"type":"Feature","geometry":{"type":"Point","coordinates":[-121.803388,47.432251]}},{"properties":{"zipcode":"98272","geo_score":0.714,"tickets":1.0,"id":"a6et226waw21","geo_precision":"zip"},"type":"Feature","geometry":{"type":"Point","coordinates":[-121.984566,47.708989]}},{"properties":{"zipcode":"9842","geo_score":0.0,"tickets":4.0,"id":"a6et227btden","geo_precision":"unmatched"},"type":"Feature","geometry":null}],"is_temporal":false,"author":{"url":"","metadata":"","contact_name":"","contact_address":"","source":"","contact_phone":""},"source":"","pagination":{"sort":null,"start":0,"total":225,"limit":1000000},"state":"complete","tags":"dance,zip","published":"2014-08-10T22:07:01-04:00","id":16881}