{"type":"FeatureCollection","data_type":"Dataset","url_type":null,"permissions":[{"permissions":{"download":true,"view":true},"group_id":"everyone"}],"classification":null,"title":"Sparton LTLZip3Count","count":51,"stream_id":17056,"contributor":{"url":"http://geocommons.com/users/6861","name":"pbiegen"},"data_attributes":null,"calculation_params":null,"icon_link":null,"link":"http://geocommons.com/overlays/17056.json","extent":[-118.819,25.729,-72.5938,43.221],"geometry_types":["point"],"unique_name":null,"name":"Sparton LTLZip3Count","feature_count":51,"description":"","next_feature":null,"is_raster":false,"short_classification":"Y","stats":{"latitude":{"max":43.220985,"mean":37.3789633137255,"variance":26.0869819018867,"stdev":5.10754166912877,"min":25.728985,"median":40.259864},"weight":{"max":43.0,"mean":7.33333333333333,"variance":61.3866666666667,"stdev":7.83496436920212,"min":1.0,"median":5.0},"longitude":{"max":-72.593779,"mean":-84.2903870784314,"variance":101.6997221967,"stdev":10.0846280147906,"min":-118.818867,"median":-82.514804}},"features":[{"properties":{"city":"Madison","name":"357","latitude":34.705885,"weight":1.0,"longitude":-86.750929,"id":"a6lhz4b85qg1","state":"AL"},"type":"Feature","geometry":{"type":"Point","coordinates":[-86.750929,34.705885]}},{"properties":{"city":"ENTERPRISE","name":"363","latitude":31.315215,"weight":13.0,"longitude":-85.854674,"id":"a6lhz4all67s","state":"AL"},"type":"Feature","geometry":{"type":"Point","coordinates":[-85.854674,31.315215]}},{"properties":{"city":"Anaheim","name":"928","latitude":33.83276,"weight":1.0,"longitude":-117.915719,"id":"a6lhz4f50k1y","state":"CA"},"type":"Feature","geometry":{"type":"Point","coordinates":[-117.915719,33.83276]}},{"properties":{"city":"San Pedro","name":"907","latitude":33.73787,"weight":1.0,"longitude":-118.284664,"id":"a6lhz4hsnjqa","state":"CA"},"type":"Feature","geometry":{"type":"Point","coordinates":[-118.284664,33.73787]}},{"properties":{"city":"Westlake Village","name":"913","latitude":34.149368,"weight":5.0,"longitude":-118.818867,"id":"a6lhz4eb51af","state":"CA"},"type":"Feature","geometry":{"type":"Point","coordinates":[-118.818867,34.149368]}},{"properties":{"city":"Kissimmee","name":"347","latitude":28.29443,"weight":18.0,"longitude":-81.406744,"id":"a6lhz4b91ade","state":"FL"},"type":"Feature","geometry":{"type":"Point","coordinates":[-81.406744,28.29443]}},{"properties":{"city":"Miami","name":"331","latitude":25.728985,"weight":1.0,"longitude":-80.237419,"id":"a6lhz4hmbxl3","state":"FL"},"type":"Feature","geometry":{"type":"Point","coordinates":[-80.237419,25.728985]}},{"properties":{"city":"Largo","name":"337","latitude":27.916045,"weight":8.0,"longitude":-82.791469,"id":"a6lhz4ad7nj9","state":"FL"},"type":"Feature","geometry":{"type":"Point","coordinates":[-82.791469,27.916045]}},{"properties":{"city":"Zellwood","name":"327","latitude":28.718446,"weight":5.0,"longitude":-81.571133,"id":"a6lhz49np1v4","state":"FL"},"type":"Feature","geometry":{"type":"Point","coordinates":[-81.571133,28.718446]}},{"properties":{"city":"Jacksonville","name":"322","latitude":30.33138,"weight":11.0,"longitude":-81.655799,"id":"a6lhz4nqunrp","state":"FL"},"type":"Feature","geometry":{"type":"Point","coordinates":[-81.655799,30.33138]}},{"properties":{"city":"Boca Raton","name":"334","latitude":26.35049,"weight":13.0,"longitude":-80.089004,"id":"a6lhz4eyfyqm","state":"FL"},"type":"Feature","geometry":{"type":"Point","coordinates":[-80.089004,26.35049]}},{"properties":{"city":"Orlando","name":"328","latitude":28.538235,"weight":10.0,"longitude":-81.377389,"id":"a6lhz49wvefo","state":"FL"},"type":"Feature","geometry":{"type":"Point","coordinates":[-81.377389,28.538235]}},{"properties":{"city":"Valdosta","name":"316","latitude":30.834729,"weight":1.0,"longitude":-83.280929,"id":"a6lhz4av6c3y","state":"GA"},"type":"Feature","geometry":{"type":"Point","coordinates":[-83.280929,30.834729]}},{"properties":{"city":"Duluth","name":"300","latitude":34.003365,"weight":1.0,"longitude":-84.144964,"id":"a6lhz4fjm1wk","state":"GA"},"type":"Feature","geometry":{"type":"Point","coordinates":[-84.144964,34.003365]}},{"properties":{"city":"Rome","name":"301","latitude":34.244895,"weight":10.0,"longitude":-85.166794,"id":"a6lhz4l57h1a","state":"GA"},"type":"Feature","geometry":{"type":"Point","coordinates":[-85.166794,34.244895]}},{"properties":{"city":"Gainesville","name":"305","latitude":34.297274,"weight":43.0,"longitude":-83.825503,"id":"a6lhz4az7m27","state":"GA"},"type":"Feature","geometry":{"type":"Point","coordinates":[-83.825503,34.297274]}},{"properties":{"city":"Schiller Park","name":"601","latitude":41.954925,"weight":5.0,"longitude":-87.866819,"id":"a6lhz4jem2ff","state":"IL"},"type":"Feature","geometry":{"type":"Point","coordinates":[-87.866819,41.954925]}},{"properties":{"city":"Chicago","name":"606","latitude":41.88415,"weight":3.0,"longitude":-87.632409,"id":"a6lhz4lfix1e","state":"IL"},"type":"Feature","geometry":{"type":"Point","coordinates":[-87.632409,41.88415]}},{"properties":{"city":"Lake Zurich","name":"600","latitude":42.197221,"weight":7.0,"longitude":-88.092136,"id":"a6lhz4ohc8h6","state":"IL"},"type":"Feature","geometry":{"type":"Point","coordinates":[-88.092136,42.197221]}},{"properties":{"city":"New Haven","name":"467","latitude":41.072925,"weight":15.0,"longitude":-85.017234,"id":"a6lhz4jsugtq","state":"IN"},"type":"Feature","geometry":{"type":"Point","coordinates":[-85.017234,41.072925]}},{"properties":{"city":"Muncie","name":"473","latitude":40.193165,"weight":1.0,"longitude":-85.381734,"id":"a6lhz4nd0u6x","state":"IN"},"type":"Feature","geometry":{"type":"Point","coordinates":[-85.381734,40.193165]}},{"properties":{"city":"Louisville","name":"402","latitude":38.25486,"weight":5.0,"longitude":-85.766404,"id":"a6lhz4dwgqtg","state":"KY"},"type":"Feature","geometry":{"type":"Point","coordinates":[-85.766404,38.25486]}},{"properties":{"city":"Holyoke","name":"104","latitude":42.206965,"weight":6.0,"longitude":-72.607434,"id":"a6lhz4asu9jx","state":"MA"},"type":"Feature","geometry":{"type":"Point","coordinates":[-72.607434,42.206965]}},{"properties":{"city":"South Hadley","name":"107","latitude":42.214645,"weight":15.0,"longitude":-72.593779,"id":"a6lhz4nfsm95","state":"MA"},"type":"Feature","geometry":{"type":"Point","coordinates":[-72.593779,42.214645]}},{"properties":{"city":"Detroit","name":"482","latitude":42.331685,"weight":8.0,"longitude":-83.047924,"id":"a6lhz4h0483j","state":"MI"},"type":"Feature","geometry":{"type":"Point","coordinates":[-83.047924,42.331685]}},{"properties":{"city":"Jonesville","name":"492","latitude":41.98354,"weight":1.0,"longitude":-84.662574,"id":"a6lhz4e5i7ks","state":"MI"},"type":"Feature","geometry":{"type":"Point","coordinates":[-84.662574,41.98354]}},{"properties":{"city":"Warren","name":"480","latitude":42.511115,"weight":20.0,"longitude":-83.028519,"id":"a6lhz4gc4lly","state":"MI"},"type":"Feature","geometry":{"type":"Point","coordinates":[-83.028519,42.511115]}},{"properties":{"city":"Joplin","name":"648","latitude":37.091455,"weight":3.0,"longitude":-94.513169,"id":"a6lhz4jj0n6t","state":"MO"},"type":"Feature","geometry":{"type":"Point","coordinates":[-94.513169,37.091455]}},{"properties":{"city":"Southaven","name":"386","latitude":34.98794,"weight":16.0,"longitude":-90.004849,"id":"a6lhz4dd3gy2","state":"MS"},"type":"Feature","geometry":{"type":"Point","coordinates":[-90.004849,34.98794]}},{"properties":{"city":"Lincolnton","name":"280","latitude":35.47164,"weight":6.0,"longitude":-81.256074,"id":"a6lhz4a1o2b3","state":"NC"},"type":"Feature","geometry":{"type":"Point","coordinates":[-81.256074,35.47164]}},{"properties":{"city":"Valdese","name":"286","latitude":35.744015,"weight":10.0,"longitude":-81.564794,"id":"a6lhz4oyrfx0","state":"NC"},"type":"Feature","geometry":{"type":"Point","coordinates":[-81.564794,35.744015]}},{"properties":{"city":"South Plainfield","name":"708","latitude":40.584949,"weight":7.0,"longitude":-74.417187,"id":"a6lhz4j0tnx9","state":"NJ"},"type":"Feature","geometry":{"type":"Point","coordinates":[-74.417187,40.584949]}},{"properties":{"city":"Ronkonkoma","name":"117","latitude":40.81122,"weight":16.0,"longitude":-73.098744,"id":"a6lhz4dibyeh","state":"NY"},"type":"Feature","geometry":{"type":"Point","coordinates":[-73.098744,40.81122]}},{"properties":{"city":"Roslyn","name":"115","latitude":40.80015,"weight":2.0,"longitude":-73.649939,"id":"a6lhz4kf3glf","state":"NY"},"type":"Feature","geometry":{"type":"Point","coordinates":[-73.649939,40.80015]}},{"properties":{"city":"Queens","name":"113","latitude":40.713985,"weight":1.0,"longitude":-73.829959,"id":"a6lhz4jycnor","state":"NY"},"type":"Feature","geometry":{"type":"Point","coordinates":[-73.829959,40.713985]}},{"properties":{"city":"Liverpool","name":"130","latitude":43.10424,"weight":1.0,"longitude":-76.209649,"id":"a6lhz4ouxowb","state":"NY"},"type":"Feature","geometry":{"type":"Point","coordinates":[-76.209649,43.10424]}},{"properties":{"city":"Wallkill","name":"125","latitude":41.463666,"weight":1.0,"longitude":-74.370534,"id":"a6lhz4ed5zyi","state":"NY"},"type":"Feature","geometry":{"type":"Point","coordinates":[-74.370534,41.463666]}},{"properties":{"city":"Mansfield","name":"449","latitude":40.758515,"weight":2.0,"longitude":-82.514804,"id":"a6lhz4m3zelf","state":"OH"},"type":"Feature","geometry":{"type":"Point","coordinates":[-82.514804,40.758515]}},{"properties":{"city":"Dundee","name":"446","latitude":40.587701,"weight":8.0,"longitude":-81.607075,"id":"a6lhz4h4kenu","state":"OH"},"type":"Feature","geometry":{"type":"Point","coordinates":[-81.607075,40.587701]}},{"properties":{"city":"Elyria","name":"440","latitude":41.36768,"weight":23.0,"longitude":-82.105839,"id":"a6lhz4kp5jbk","state":"OH"},"type":"Feature","geometry":{"type":"Point","coordinates":[-82.105839,41.36768]}},{"properties":{"city":"Akron","name":"443","latitude":41.084195,"weight":1.0,"longitude":-81.514059,"id":"a6lhz4gcwhy4","state":"OH"},"type":"Feature","geometry":{"type":"Point","coordinates":[-81.514059,41.084195]}},{"properties":{"city":"London","name":"N5Z","latitude":42.986895,"weight":16.0,"longitude":-81.246214,"id":"a6lhz4c4o86l","state":"ON"},"type":"Feature","geometry":{"type":"Point","coordinates":[-81.246214,42.986895]}},{"properties":{"city":"Bechtelsville","name":"195","latitude":40.374005,"weight":2.0,"longitude":-75.628909,"id":"a6lhz4gf10xm","state":"PA"},"type":"Feature","geometry":{"type":"Point","coordinates":[-75.628909,40.374005]}},{"properties":{"city":"Jonestown","name":"170","latitude":40.414055,"weight":2.0,"longitude":-76.478329,"id":"a6lhz4ol1vua","state":"PA"},"type":"Feature","geometry":{"type":"Point","coordinates":[-76.478329,40.414055]}},{"properties":{"city":"Harrisburg","name":"171","latitude":40.259864,"weight":5.0,"longitude":-76.882229,"id":"a6lhz4ktcynl","state":"PA"},"type":"Feature","geometry":{"type":"Point","coordinates":[-76.882229,40.259864]}},{"properties":{"city":"East Butler","name":"160","latitude":40.87826,"weight":4.0,"longitude":-79.847249,"id":"a6lhz4d4wjdy","state":"PA"},"type":"Feature","geometry":{"type":"Point","coordinates":[-79.847249,40.87826]}},{"properties":{"city":"Hendersonville","name":"370","latitude":36.304861,"weight":1.0,"longitude":-86.620214,"id":"a6lhz4n2rkdq","state":"TN"},"type":"Feature","geometry":{"type":"Point","coordinates":[-86.620214,36.304861]}},{"properties":{"city":"Mckinney","name":"750","latitude":33.19895,"weight":1.0,"longitude":-96.614994,"id":"a6lhz4gow3hh","state":"TX"},"type":"Feature","geometry":{"type":"Point","coordinates":[-96.614994,33.19895]}},{"properties":{"city":"Roanoke","name":"240","latitude":37.271525,"weight":3.0,"longitude":-79.940534,"id":"a6lhz4bkam5w","state":"VA"},"type":"Feature","geometry":{"type":"Point","coordinates":[-79.940534,37.271525]}},{"properties":{"city":"Germantown","name":"530","latitude":43.220985,"weight":2.0,"longitude":-88.118584,"id":"a6lhz4aaubg2","state":"WI"},"type":"Feature","geometry":{"type":"Point","coordinates":[-88.118584,43.220985]}},{"properties":{"city":"Milwaukee","name":"532","latitude":43.04181,"weight":13.0,"longitude":-87.906844,"id":"a6lhz4akvlok","state":"WI"},"type":"Feature","geometry":{"type":"Point","coordinates":[-87.906844,43.04181]}}],"is_temporal":false,"author":{"url":"","metadata":"","contact_name":"","contact_address":"","source":"","contact_phone":""},"source":"","pagination":{"sort":null,"start":0,"total":51,"limit":1000000},"state":"complete","tags":"","published":"2014-08-10T22:19:24-04:00","id":17056}