{"type":"FeatureCollection","data_type":"Dataset","url_type":null,"permissions":[{"permissions":{"download":true,"edit":true,"view":true},"group_id":34863},{"permissions":{"download":true,"view":true},"group_id":"everyone"}],"classification":null,"title":"INJURY DUI COLLISION DATA","count":61,"stream_id":170893,"contributor":{"url":"http://geocommons.com/users/33375","name":"lakeit"},"data_attributes":null,"calculation_params":null,"icon_link":null,"link":"http://geocommons.com/overlays/170893.json","extent":[-122.922,38.7524,-122.558,39.1646],"geometry_types":["point"],"unique_name":null,"name":"INJURY DUI COLLISION DATA","feature_count":61,"description":"This Lake County News special series was produced as a project for the California Endowment Health Journalism Fellowships, a program of the University of Southern Californiaâ€™s Annenberg School for Communication &amp; Journalism.","next_feature":null,"is_raster":false,"short_classification":"Y","stats":{},"features":[{"properties":{"collision type:":"Injury  DUI","city":"Lakeport","date:":"Sun, Mar 26, 06","time:":"1752","additional factors:":"DUI","agency":"LPD","id":"0","weather":"Clear, Daylight, Dry","address":"Beach Ln at Beach Ct.","state":"California"},"type":"Feature","geometry":{"type":"Point","coordinates":[-122.914683,39.062164]}},{"properties":{"collision type:":"Injury  DUI","city":"Lakeport","date:":"Tue, Dec 19, 06","time:":"0211","additional factors:":"DUI","agency":"LPD","id":"1","weather":"Clear, Cold, Dark, Dry","address":"11th St  at Manzinita St","state":"California"},"type":"Feature","geometry":{"type":"Point","coordinates":[-122.920693,39.048994]}},{"properties":{"collision type:":"Injury  DUI","city":"Lakeport","date:":"Sun, Mar 16, 08","time:":"1620","additional factors:":"DUI","agency":"LPD","id":"2","weather":"Clear, Daylight, Dry","address":"Cherry St. at Sixth St.","state":"California"},"type":"Feature","geometry":{"type":"Point","coordinates":[-122.919667,39.04596]}},{"properties":{"collision type:":"Injury  DUI","city":"Lakeport","date:":"Fri, Aug 1, 08","time:":"0100","additional factors:":"DUI","agency":"LPD","id":"3","weather":"Clear, Dark, Other","address":"300 block of Fourth St","state":"California"},"type":"Feature","geometry":{"type":"Point","coordinates":[-122.917038,39.044628]}},{"properties":{"collision type:":"Injury  DUI","city":"Lakeport","date:":"Sun, Dec 6, 09","time:":"2155","additional factors:":"DUI","agency":"LPD","id":"4","weather":"Cloudy, Dark, Clear","address":"Anastasia Dr. at Hartley Dr.","state":"California"},"type":"Feature","geometry":{"type":"Point","coordinates":[-122.921577,39.060363]}},{"properties":{"collision type:":"Injury  DUI","city":"Lakeport","date:":"Mon, Dec 28, 09","time:":"2335","additional factors:":"DUI","agency":"LPD","id":"5","weather":"Clear, Dark, Clean","address":"S. Main St","state":"California"},"type":"Feature","geometry":{"type":"Point","coordinates":[-122.916064,39.029619]}},{"properties":{"collision type:":"Injury  DUI","city":"Lakeport","date:":"Wed, Dec 22, 10","time:":"1634","additional factors:":"DUI","agency":"LPD","id":"6","weather":"Clear, Dusk, Clear","address":"Fifth St. at N. Main St","state":"California"},"type":"Feature","geometry":{"type":"Point","coordinates":[-122.915126,39.045303]}},{"properties":{"collision type:":"Injury  DUI","city":"Lakeport","date:":"Fri, Feb 13, 09","time:":"1112","additional factors:":"DUI","agency":"LPD","id":"7","weather":"Rain, Day, Wet","address":"Forbes St. at Eleventh St.","state":"California"},"type":"Feature","geometry":{"type":"Point","coordinates":[-122.916077,39.048945]}},{"properties":{"collision type:":"Injury  DUI","city":"Lakeport","date:":"Sat, Jul 2, 11","time:":"0340","additional factors:":"DUI","agency":"LPD","id":"8","weather":"Clear, Dusk, Clear","address":"N. Main Street at Clearlake Ave.","state":"California"},"type":"Feature","geometry":{"type":"Point","coordinates":[-122.915091,39.049917]}},{"properties":{"collision type:":"Injury  DUI","city":"Nice","date:":"Wed, Feb 9, 05","time:":"1:30","additional factors:":"DUI","agency":"CHP","id":"9","weather":"Clear, cold, dry","address":"Bartlett Springs Road","state":"California"},"type":"Feature","geometry":{"type":"Point","coordinates":[-122.815522,39.124636]}},{"properties":{"collision type:":"Injury  DUI","city":"Cobb","date:":"Tue, Apr 11, 06","time:":"21:40","additional factors:":"DUI","agency":"CHP","id":"10","weather":"Rain","address":"SR-29 at SR-175","state":"California"},"type":"Feature","geometry":{"type":"Point","coordinates":[-122.720299,38.83886]}},{"properties":{"collision type:":"Injury  DUI","city":"Middletown","date:":"Sat, May 27, 06","time:":"16:45","additional factors:":"DUI","agency":"CHP","id":"11","weather":"Clear, dry, warm","address":"SR-29 Coyote Grade","state":"California"},"type":"Feature","geometry":{"type":"Point","coordinates":[-122.614985,38.752404]}},{"properties":{"collision type:":"Injury  DUI","city":"Clearlake Oaks","date:":"Sun, Aug 13, 06","time:":"21:50","additional factors:":"DUI","agency":"CHP","id":"12","weather":"Clear,","address":"High Valley Road at Lakeview Drive","state":"California"},"type":"Feature","geometry":{"type":"Point","coordinates":[-122.667775,39.028323]}},{"properties":{"collision type:":"Injury  DUI","city":"Cobb","date:":"Mon, Aug 21, 06","time:":"15:00","additional factors:":"DUI","agency":"CHP","id":"13","weather":"Clear, dry, warm","address":"SR-175 at Loch Lomond Road","state":"California"},"type":"Feature","geometry":{"type":"Point","coordinates":[-122.718829,38.863538]}},{"properties":{"collision type:":"Injury  DUI","city":"Middletown","date:":"Fri, Sep 15, 06","time:":"18:40","additional factors:":"Speed DUI","agency":"CHP","id":"14","weather":"Cool, dry","address":"Big Canyon Road at Wardlaw Street","state":"California"},"type":"Feature","geometry":{"type":"Point","coordinates":[-122.616227,38.755102]}},{"properties":{"collision type:":"Injury  DUI","city":"Hidden Valley Lake","date:":"Wed, Sep 20, 06","time:":"n/a","additional factors:":"DUI","agency":"CHP","id":"15","weather":"Warm, clear","address":"SR-29 at Spruce Grove Road (South)","state":"California"},"type":"Feature","geometry":{"type":"Point","coordinates":[-122.576607,38.819894]}},{"properties":{"collision type:":"Injury  DUI","city":"Clearlake","date:":"Tue, Feb 27, 07","time:":"18:18","additional factors:":"DUI","agency":"CHP","id":"16","weather":"Light, Rain","address":"SR-20 at Hudson Avenue","state":"California"},"type":"Feature","geometry":{"type":"Point","coordinates":[-122.84004,39.121766]}},{"properties":{"collision type:":"Injury  DUI","city":"Upper Lake","date:":"Sat, Mar 24, 07","time:":"1:45","additional factors:":"DUI","agency":"CHP","id":"17","weather":"Calm, clear","address":"Elk Mountain Road at the air strip","state":"California"},"type":"Feature","geometry":{"type":"Point","coordinates":[-122.910551,39.164613]}},{"properties":{"collision type:":"Injury  DUI","city":"Lucerne","date:":"Wed, Jul 18, 07","time:":"19:10","additional factors:":"DUI","agency":"CHP","id":"18","weather":"Clear,","address":"SR-20 at Cora Drive","state":"California"},"type":"Feature","geometry":{"type":"Point","coordinates":[-122.765622,39.039099]}},{"properties":{"collision type:":"Injury  DUI","city":"Clearlake","date:":"Mon, Sep 3, 07","time:":"20:30","additional factors:":"DUI","agency":"CHP","id":"19","weather":"Clear,","address":"Dirt Fire Trail at Davis Street","state":"California"},"type":"Feature","geometry":{"type":"Point","coordinates":[-122.589427,38.965657]}},{"properties":{"collision type:":"Injury  DUI","city":"Kelseyville","date:":"Wed, Sep 12, 07","time:":"18:30","additional factors:":"DUI","agency":"CHP","id":"20","weather":"Cool, clear","address":"Live Oak Drive at Cole Creek Drive","state":"California"},"type":"Feature","geometry":{"type":"Point","coordinates":[-122.825251,38.944619]}},{"properties":{"collision type:":"Injury  DUI","city":"Upper Lake","date:":"Sun, Dec 23, 07","time:":"18:15","additional factors:":"DUI","agency":"CHP","id":"21","weather":"clear, cool,","address":"SR-29 at Mockingbird","state":"California"},"type":"Feature","geometry":{"type":"Point","coordinates":[-122.912751,39.140921]}},{"properties":{"collision type:":"Injury  DUI","city":"Lucerne","date:":"Sun, Jan 20, 08","time:":"15:10","additional factors:":"DUI","agency":"CHP","id":"22","weather":"Clear,","address":"SR-20 at Rancho Vista Drive","state":"California"},"type":"Feature","geometry":{"type":"Point","coordinates":[-122.783441,39.077172]}},{"properties":{"collision type:":"Injury  DUI","city":"Kelseyville","date:":"Mon, Apr 28, 08","time:":"2:14","additional factors:":"DUI","agency":"CHP","id":"23","weather":"Clear, dry","address":"Soda Bay Road at Clark Drive","state":"California"},"type":"Feature","geometry":{"type":"Point","coordinates":[-122.817971,39.007661]}},{"properties":{"collision type:":"Injury  DUI","city":"Kelseyville","date:":"Sat, Aug 2, 08","time:":"9:55","additional factors:":"DUI","agency":"CHP","id":"24","weather":"n/a","address":"Soda Bay Road at Montezuma Wa","state":"California"},"type":"Feature","geometry":{"type":"Point","coordinates":[-122.839438,38.977953]}},{"properties":{"collision type:":"Injury  DUI","city":"Middletown","date:":"Thu, Dec 25, 08","time:":"17:46","additional factors:":"DUI","agency":"CHP","id":"25","weather":"Cold, dry","address":"SR-29 1 mile at Napa County Line","state":"California"},"type":"Feature","geometry":{"type":"Point","coordinates":[-122.614985,38.752404]}},{"properties":{"collision type:":"Injury  DUI","city":"Cobb","date:":"Tue, Dec 30, 08","time:":"12:01","additional factors:":"DUI","agency":"CHP","id":"26","weather":"Cold, wet","address":"Fox Drive at Emerford Road","state":"California"},"type":"Feature","geometry":{"type":"Point","coordinates":[-122.728666,38.846817]}},{"properties":{"collision type:":"Injury  DUI","city":"Lucerne","date:":"Thu, May 21, 09","time:":"13:13","additional factors:":"DUI","agency":"CHP","id":"27","weather":"Sunny, warm, clear, dry","address":"CA-20 at 13th Avenue","state":"California"},"type":"Feature","geometry":{"type":"Point","coordinates":[-122.791674,39.088546]}},{"properties":{"collision type:":"Injury  DUI","city":"Clearlake Oaks","date:":"Sat, Jul 11, 09","time:":"18:14","additional factors:":"DUI","agency":"CHP","id":"28","weather":"Warm","address":"SR-20 at Harvey Street","state":"California"},"type":"Feature","geometry":{"type":"Point","coordinates":[-122.724267,39.023729]}},{"properties":{"collision type:":"Injury  DUI","city":"Lakeport","date:":"Tue, Aug 18, 09","time:":"19:00","additional factors:":"DUI","agency":"CHP","id":"29","weather":"Warm","address":"SR-29 at Whalen Way undercross","state":"California"},"type":"Feature","geometry":{"type":"Point","coordinates":[-122.915829,39.042951]}},{"properties":{"collision type:":"Injury  DUI","city":"Upper Lake","date:":"Tue, Sep 15, 09","time:":"12:55","additional factors:":"DUI","agency":"CHP","id":"30","weather":"Clear,","address":"Nice-Lucerne Cutoff at SR-29","state":"California"},"type":"Feature","geometry":{"type":"Point","coordinates":[-122.90494,39.116762]}},{"properties":{"collision type:":"Injury  DUI","city":"Lakeport","date:":"Sat, Mar 27, 10","time:":"23:03","additional factors:":"DUI","agency":"CHP","id":"31","weather":"Clear,","address":"Lakeshore Boulevard at Hill Road","state":"California"},"type":"Feature","geometry":{"type":"Point","coordinates":[-122.915829,39.042951]}},{"properties":{"collision type:":"Injury  DUI","city":"Kelseyville","date:":"Wed, Apr 7, 10","time:":"1:17","additional factors:":"DUI","agency":"CHP","id":"32","weather":"Clear,","address":"Bell Hill Road","state":"California"},"type":"Feature","geometry":{"type":"Point","coordinates":[-122.868087,38.968436]}},{"properties":{"collision type:":"Injury  DUI","city":"Hidden Valley Lake","date:":"Fri, Feb 4, 11","time:":"21:25","additional factors:":"DUI","agency":"CHP","id":"33","weather":"Clear, dry, cool, night","address":"Northshore Drive @ Northshore Court","state":"California"},"type":"Feature","geometry":{"type":"Point","coordinates":[-122.558315,38.807957]}},{"properties":{"collision type:":"Injury  DUI","city":"Kelseyville","date:":"Thu, May 19, 11","time:":"14:40","additional factors:":"DUI","agency":"CHP","id":"34","weather":"Clear, warm","address":"Kelsey Creek Drive at Wight Way","state":"California"},"type":"Feature","geometry":{"type":"Point","coordinates":[-122.842043,38.94932]}},{"properties":{"collision type:":"Injury  DUI","city":"Clearlake","date:":"Wed, Jun 1, 11","time:":"15:50","additional factors:":"DUI","agency":"CHP","id":"35","weather":"Overcast","address":"Sulphur Bank Road at North Drive","state":"California"},"type":"Feature","geometry":{"type":"Point","coordinates":[-122.680715,38.994742]}},{"properties":{"collision type:":"Injury  DUI","city":"Clearlake","date:":"Sat, Dec 30, 06","time:":"1410","additional factors:":"DUI","agency":"CPD","id":"36","weather":"Weather, conditions, n/a","address":"3612 SYCAMORE","state":"California"},"type":"Feature","geometry":{"type":"Point","coordinates":[-122.637064,38.960264]}},{"properties":{"collision type:":"Injury  DUI","city":"Clearlake","date:":"Tue, Feb 6, 07","time:":"1855","additional factors:":"DUI","agency":"CPD","id":"37","weather":"Weather, conditions, n/a","address":"LAKESHORE at MANAKEE","state":"California"},"type":"Feature","geometry":{"type":"Point","coordinates":[-122.626373,38.958231]}},{"properties":{"collision type:":"Injury  DUI","city":"Clearlake","date:":"Fri, Mar 30, 07","time:":"1830","additional factors:":"DUI","agency":"CPD","id":"38","weather":"Weather, conditions, n/a","address":"14922 OLYMPIC DR","state":"California"},"type":"Feature","geometry":{"type":"Point","coordinates":[-122.632159,38.962495]}},{"properties":{"collision type:":"Injury  DUI","city":"Clearlake","date:":"Fri, Jun 1, 07","time:":"1815","additional factors:":"DUI","agency":"CPD","id":"39","weather":"Weather, conditions, n/a","address":"OLD HIGHWAY 53 at CLEMENT DR","state":"California"},"type":"Feature","geometry":{"type":"Point","coordinates":[-122.631275,38.944391]}},{"properties":{"collision type:":"Injury  DUI","city":"Clearlake","date:":"Thu, Jul 19, 07","time:":"2115","additional factors:":"DUI","agency":"CPD","id":"40","weather":"Weather, conditions, n/a","address":"LAKESHORE DR at  MANAKEE","state":"California"},"type":"Feature","geometry":{"type":"Point","coordinates":[-122.626373,38.958231]}},{"properties":{"collision type:":"Injury  DUI","city":"Clearlake","date:":"Tue, Jul 31, 07","time:":"1759","additional factors:":"DUI","agency":"CPD","id":"41","weather":"Weather, conditions, n/a","address":"LAKESHORE at SCENIC","state":"California"},"type":"Feature","geometry":{"type":"Point","coordinates":[-122.650849,38.965864]}},{"properties":{"collision type:":"Injury  DUI","city":"Clearlake","date:":"Wed, Aug 29, 07","time:":"801","additional factors:":"DUI","agency":"CPD","id":"42","weather":"Weather, conditions, n/a","address":"15010 LAKESHORE DR","state":"California"},"type":"Feature","geometry":{"type":"Point","coordinates":[-122.631471,38.949948]}},{"properties":{"collision type:":"Injury  DUI","city":"Clearlake","date:":"Fri, Oct 12, 07","time:":"1711","additional factors:":"DUI","agency":"CPD","id":"43","weather":"Weather, conditions, n/a","address":"18TH AV at IRVING AV","state":"California"},"type":"Feature","geometry":{"type":"Point","coordinates":[-122.61311,38.93608]}},{"properties":{"collision type:":"Injury  DUI","city":"Clearlake","date:":"Sat, Apr 12, 08","time:":"1545","additional factors:":"DUI","agency":"CPD","id":"44","weather":"Weather, conditions, n/a","address":"12973 LAKESHORE DR","state":"California"},"type":"Feature","geometry":{"type":"Point","coordinates":[-122.669031,38.971923]}},{"properties":{"collision type:":"Injury  DUI","city":"Clearlake","date:":"Tue, May 27, 08","time:":"2027","additional factors:":"DUI","agency":"CPD","id":"45","weather":"Weather, conditions, n/a","address":"PINE AV  at  40TH AV","state":"California"},"type":"Feature","geometry":{"type":"Point","coordinates":[-122.621652,38.950674]}},{"properties":{"collision type:":"Injury  DUI","city":"Clearlake","date:":"Tue, Jun 17, 08","time:":"145","additional factors:":"DUI","agency":"CPD","id":"46","weather":"Weather, conditions, n/a","address":"OLD HWY 53 at  BALLPARK","state":"California"},"type":"Feature","geometry":{"type":"Point","coordinates":[-122.631278,38.94835]}},{"properties":{"collision type:":"Injury  DUI","city":"Clearlake","date:":"Wed, Nov 12, 08","time:":"2230","additional factors:":"DUI","agency":"CPD","id":"47","weather":"Weather, conditions, n/a","address":"CYPRESS ST  at  AUSTIN RD","state":"California"},"type":"Feature","geometry":{"type":"Point","coordinates":[-122.638045,38.958849]}},{"properties":{"collision type:":"Injury  DUI","city":"Clearlake","date:":"Mon, Dec 29, 08","time:":"1900","additional factors:":"DUI","agency":"CPD","id":"48","weather":"Weather, conditions, n/a","address":"14425 BURNS VALLEY RD","state":"California"},"type":"Feature","geometry":{"type":"Point","coordinates":[-122.641681,38.969016]}},{"properties":{"collision type:":"Injury  DUI","city":"Clearlake","date:":"Fri, Mar 27, 09","time:":"1630","additional factors:":"DUI","agency":"CPD","id":"49","weather":"Weather, conditions, n/a","address":"40TH AV at PHILLIPS AV","state":"California"},"type":"Feature","geometry":{"type":"Point","coordinates":[-122.615159,38.950582]}},{"properties":{"collision type:":"Injury  DUI","city":"Clearlake","date:":"Tue, Dec 22, 09","time:":"1555","additional factors:":"DUI","agency":"CPD","id":"50","weather":"Weather, conditions, n/a","address":"STATE HIGHWAY 53 at DAM RD","state":"California"},"type":"Feature","geometry":{"type":"Point","coordinates":[-122.618887,38.930062]}},{"properties":{"collision type:":"Injury  DUI","city":"Clearlake","date:":"Sat, Jun 5, 10","time:":"145","additional factors:":"DUI","agency":"CPD","id":"51","weather":"Weather, conditions, n/a","address":"OLD HIGHWAY 53 at MENDO MILL","state":"California"},"type":"Feature","geometry":{"type":"Point","coordinates":[-122.626373,38.958231]}},{"properties":{"collision type:":"Injury  DUI","city":"Clearlake","date:":"Fri, Jun 18, 10","time:":"1647","additional factors:":"DUI","agency":"CPD","id":"52","weather":"Weather, conditions, n/a","address":"2941 10TH ST","state":"California"},"type":"Feature","geometry":{"type":"Point","coordinates":[-122.66196,38.97985]}},{"properties":{"collision type:":"Injury  DUI","city":"Clearlake","date:":"Sat, Jun 19, 10","time:":"345","additional factors:":"DUI","agency":"CPD","id":"53","weather":"Weather, conditions, n/a","address":"OLD HIGHWAY 53 at DAVIS","state":"California"},"type":"Feature","geometry":{"type":"Point","coordinates":[-122.6307,38.95448]}},{"properties":{"collision type:":"Injury  DUI","city":"Clearlake","date:":"Sat, Jul 3, 10","time:":"2230","additional factors:":"DUI","agency":"CPD","id":"54","weather":"Weather, conditions, n/a","address":"AUSTIN DR at OLD HIGHWAY 53","state":"California"},"type":"Feature","geometry":{"type":"Point","coordinates":[-122.631369,38.958323]}},{"properties":{"collision type:":"Injury  DUI","city":"Clearlake","date:":"Sun, Nov 21, 10","time:":"100","additional factors:":"DUI","agency":"CPD","id":"55","weather":"Weather, conditions, n/a","address":"HWY 53 at 18TH AV","state":"California"},"type":"Feature","geometry":{"type":"Point","coordinates":[-122.622243,38.936926]}},{"properties":{"collision type:":"Injury  DUI","city":"Clearlake","date:":"Wed, Mar 23, 11","time:":"1915","additional factors:":"DUI","agency":"CPD","id":"56","weather":"Weather, conditions, n/a","address":"14050 OLYMPIC DR","state":"California"},"type":"Feature","geometry":{"type":"Point","coordinates":[-122.649139,38.961338]}},{"properties":{"collision type:":"Injury  DUI","city":"Clearlake","date:":"Sat, Apr 2, 11","time:":"1813","additional factors:":"DUI","agency":"CPD","id":"57","weather":"Weather, conditions, n/a","address":"BOYLES AV  at  24TH AV","state":"California"},"type":"Feature","geometry":{"type":"Point","coordinates":[-122.610586,38.940019]}},{"properties":{"collision type:":"Injury  DUI","city":"Clearlake","date:":"Sun, May 29, 11","time:":"1930","additional factors:":"DUI","agency":"CPD","id":"58","weather":"Weather, conditions, n/a","address":"BURNS VALLEY RD at WOODLAND","state":"California"},"type":"Feature","geometry":{"type":"Point","coordinates":[-122.642058,38.969191]}},{"properties":{"collision type:":"Injury  DUI","city":"Clearlake","date:":"Mon, Jul 4, 11","time:":"400","additional factors:":"DUI","agency":"CPD","id":"59","weather":"Weather, conditions, n/a","address":"3874 OAKMONT DR","state":"California"},"type":"Feature","geometry":{"type":"Point","coordinates":[-122.6985,38.979727]}},{"properties":{"collision type:":"Injury  DUI","city":"Kelseyville","date:":"Tue, Jul 19, 11","time:":"06:20 PM","additional factors:":"DUI","agency":"CHP","id":"60","weather":"n/a","address":"SR-29 at Soda Bay Road","state":"California"},"type":"Feature","geometry":{"type":"Point","coordinates":[-122.741459,38.929699]}}],"is_temporal":false,"author":{"url":"http://www.lakeconews.com","metadata":"","contact_name":"","contact_address":"","source":"CALIFORNIA HIGHWAY PATROL, LAKEPORT POLICE DEPARTMENT, CLEARLAKE POLICE DEPARTMENT","contact_phone":""},"source":"http://www.lakeconews.com","pagination":{"sort":null,"start":0,"total":61,"limit":1000000},"state":"complete","tags":"accidents,california,chp,clearlake,county,lake,lake county accidents,lakeport,lcn","published":"2011-10-31T01:57:45Z","id":170893}