{"type":"FeatureCollection","data_type":"Dataset","url_type":null,"permissions":[{"permissions":{"download":true,"edit":true,"view":true},"group_id":34863},{"permissions":{"download":true,"view":true},"group_id":"everyone"}],"classification":null,"title":"NON-INJURY COLLISION DATA","count":313,"stream_id":170895,"contributor":{"url":"http://geocommons.com/users/33375","name":"lakeit"},"data_attributes":null,"calculation_params":null,"icon_link":null,"link":"http://geocommons.com/overlays/170895.json","extent":[-122.92,38.9103,-122.604,39.0499],"geometry_types":["point"],"unique_name":null,"name":"NON-INJURY COLLISION DATA","feature_count":313,"description":"This Lake County News special series was produced as a project for the California Endowment Health Journalism Fellowships, a program of the University of Southern Californiaâ€™s Annenberg School for Communication &amp; Journalism.","next_feature":null,"is_raster":false,"short_classification":"Y","stats":{},"features":[{"properties":{"collision type:":"Non-Injury","city":"Clearlake","date:":"Tue, Aug 7, 07","time:":"1150","additional factors:":"21208","agency":"CPD","id":"0","weather":"Weather, conditions, n/a","address":"BANK OF THE WEST","state":"California"},"type":"Feature","geometry":{"type":"Point","coordinates":[-122.626373,38.958231]}},{"properties":{"collision type:":"Non-Injury","city":"Clearlake","date:":"Sat, Sep 29, 07","time:":"1600","additional factors:":"21806","agency":"CPD","id":"1","weather":"Weather, conditions, n/a","address":"15290 LAKESHORE DR","state":"California"},"type":"Feature","geometry":{"type":"Point","coordinates":[-122.626879,38.949871]}},{"properties":{"collision type:":"Non-Injury","city":"Clearlake","date:":"Mon, Jan 28, 08","time:":"2007","additional factors:":"Driver Error","agency":"CPD","id":"2","weather":"Weather, conditions, n/a","address":"SR 53  at  40TH AV","state":"California"},"type":"Feature","geometry":{"type":"Point","coordinates":[-122.623107,38.950713]}},{"properties":{"collision type:":"Non-Injury","city":"Clearlake","date:":"Sat, Aug 4, 07","time:":"2224","additional factors:":"Driving on wrong side of road","agency":"CPD","id":"3","weather":"Weather, conditions, n/a","address":"OLD HIGHWAY 53 at LAKEVIEW WY","state":"California"},"type":"Feature","geometry":{"type":"Point","coordinates":[-122.627463,38.936867]}},{"properties":{"collision type:":"Non-Injury","city":"Clearlake","date:":"Mon, May 12, 08","time:":"1630","additional factors:":"Failure to heed stoplight or sign","agency":"CPD","id":"4","weather":"Weather, conditions, n/a","address":"STATE HIGHWAY 53 at 18TH AV","state":"California"},"type":"Feature","geometry":{"type":"Point","coordinates":[-122.622243,38.936926]}},{"properties":{"collision type:":"Non-Injury","city":"Clearlake","date:":"Sat, Dec 22, 07","time:":"1705","additional factors:":"Failure to signal","agency":"CPD","id":"5","weather":"Weather, conditions, n/a","address":"30TH AV at EUREKA AV","state":"California"},"type":"Feature","geometry":{"type":"Point","coordinates":[-122.617586,38.944029]}},{"properties":{"collision type:":"Non-Injury","city":"Clearlake","date:":"Mon, Sep 1, 08","time:":"1925","additional factors:":"Failure to signal","agency":"CPD","id":"6","weather":"Weather, conditions, n/a","address":"13929 LAKESHORE DR","state":"California"},"type":"Feature","geometry":{"type":"Point","coordinates":[-122.651292,38.96594]}},{"properties":{"collision type:":"Non-Injury","city":"Clearlake","date:":"Wed, Sep 3, 08","time:":"1515","additional factors:":"Failure to signal","agency":"CPD","id":"7","weather":"Weather, conditions, n/a","address":"15960 DAM RD","state":"California"},"type":"Feature","geometry":{"type":"Point","coordinates":[-122.616458,38.931276]}},{"properties":{"collision type:":"Non-Injury","city":"Clearlake","date:":"Sun, Dec 28, 08","time:":"2020","additional factors:":"Failure to signal","agency":"CPD","id":"8","weather":"Weather, conditions, n/a","address":"16020 40TH AV","state":"California"},"type":"Feature","geometry":{"type":"Point","coordinates":[-122.612361,38.950749]}},{"properties":{"collision type:":"Non-Injury","city":"Clearlake","date:":"Sun, Jan 11, 09","time:":"1700","additional factors:":"Failure to signal","agency":"CPD","id":"9","weather":"Weather, conditions, n/a","address":"BURNS VALLEY at COVELO","state":"California"},"type":"Feature","geometry":{"type":"Point","coordinates":[-122.643949,38.969054]}},{"properties":{"collision type:":"Non-Injury","city":"Clearlake","date:":"Tue, Jan 27, 09","time:":"1700","additional factors:":"Failure to signal","agency":"CPD","id":"10","weather":"Weather, conditions, n/a","address":"14260 WOODLAND DR","state":"California"},"type":"Feature","geometry":{"type":"Point","coordinates":[-122.644705,38.967843]}},{"properties":{"collision type:":"Non-Injury","city":"Clearlake","date:":"Mon, Apr 13, 09","time:":"145","additional factors:":"Failure to signal","agency":"CPD","id":"11","weather":"Weather, conditions, n/a","address":"OLD HIGHWAY 53 at OLYMPIC DR","state":"California"},"type":"Feature","geometry":{"type":"Point","coordinates":[-122.62178,38.963752]}},{"properties":{"collision type:":"Non-Injury","city":"Clearlake","date:":"Tue, Jan 12, 10","time:":"2237","additional factors:":"Failure to signal","agency":"CPD","id":"12","weather":"Weather, conditions, n/a","address":"14815 HILLCREST AV","state":"California"},"type":"Feature","geometry":{"type":"Point","coordinates":[-122.63524,38.952531]}},{"properties":{"collision type:":"Non-Injury","city":"Clearlake","date:":"Thu, Jun 21, 07","time:":"1941","additional factors:":"Failure to stop","agency":"CPD","id":"13","weather":"Weather, conditions, n/a","address":"OLIVE AV at  WALNUT AV","state":"California"},"type":"Feature","geometry":{"type":"Point","coordinates":[-122.643673,38.960473]}},{"properties":{"collision type:":"Non-Injury","city":"Clearlake","date:":"Mon, Jan 8, 07","time:":"2000","additional factors:":"Speeding","agency":"CPD","id":"14","weather":"Weather, conditions, n/a","address":"6600 BLOCK OLD HIGHWAY 53","state":"California"},"type":"Feature","geometry":{"type":"Point","coordinates":[-122.626279,38.935149]}},{"properties":{"collision type:":"Non-Injury","city":"Clearlake","date:":"Mon, Aug 27, 07","time:":"1200","additional factors:":"Speeding","agency":"CPD","id":"15","weather":"Weather, conditions, n/a","address":"14050 OLYMPIC DR","state":"California"},"type":"Feature","geometry":{"type":"Point","coordinates":[-122.649139,38.961338]}},{"properties":{"collision type:":"Non-Injury","city":"Clearlake","date:":"Fri, Oct 26, 07","time:":"1630","additional factors:":"Speeding","agency":"CPD","id":"16","weather":"Weather, conditions, n/a","address":"STATE HWY 53 at  LAKESHORE DR","state":"California"},"type":"Feature","geometry":{"type":"Point","coordinates":[-122.623107,38.950713]}},{"properties":{"collision type:":"Non-Injury","city":"Clearlake","date:":"Thu, Jan 31, 08","time:":"2305","additional factors:":"Speeding","agency":"CPD","id":"17","weather":"Weather, conditions, n/a","address":"13995 MORGAN ST","state":"California"},"type":"Feature","geometry":{"type":"Point","coordinates":[-122.650075,38.967082]}},{"properties":{"collision type:":"Non-Injury","city":"Clearlake","date:":"Sat, Sep 15, 07","time:":"1530","additional factors:":"Starting Parked Vehicles or Backing into roadway","agency":"CPD","id":"18","weather":"Weather, conditions, n/a","address":"5938 VALLEJO AV","state":"California"},"type":"Feature","geometry":{"type":"Point","coordinates":[-122.62495,38.94031]}},{"properties":{"collision type:":"Non-Injury","city":"Clearlake","date:":"Sat, Oct 20, 07","time:":"2034","additional factors:":"Starting Parked Vehicles or Backing into roadway","agency":"CPD","id":"19","weather":"Weather, conditions, n/a","address":"13422 SANTA CLARA AV","state":"California"},"type":"Feature","geometry":{"type":"Point","coordinates":[-122.660698,38.972294]}},{"properties":{"collision type:":"Non-Injury","city":"Clearlake","date:":"Wed, Jun 25, 08","time:":"1654","additional factors:":"Starting Parked Vehicles or Backing into roadway","agency":"CPD","id":"20","weather":"Weather, conditions, n/a","address":"15342 LAKESHORE DR","state":"California"},"type":"Feature","geometry":{"type":"Point","coordinates":[-122.624562,38.951187]}},{"properties":{"collision type:":"Non-Injury","city":"Clearlake","date:":"Thu, Jan 7, 10","time:":"1730","additional factors:":"14050 OLYMPIC DR","agency":"CPD","id":"21","weather":"Weather, conditions, n/a","address":"14050 OLYMPIC DR","state":"California"},"type":"Feature","geometry":{"type":"Point","coordinates":[-122.649139,38.961338]}},{"properties":{"collision type:":"Non-Injury","city":"Clearlake","date:":"Thu, Mar 20, 08","time:":"750","additional factors:":"Crossing double yellow lines","agency":"CPD","id":"22","weather":"Weather, conditions, n/a","address":"OLD HIGHWAY 53 at PUTNAM LN","state":"California"},"type":"Feature","geometry":{"type":"Point","coordinates":[-122.63035,38.947722]}},{"properties":{"collision type:":"Non-Injury","city":"Clearlake","date:":"Fri, Apr 4, 08","time:":"2140","additional factors:":"Crossing double yellow lines","agency":"CPD","id":"23","weather":"Weather, conditions, n/a","address":"40TH AV  at  MOSS AV","state":"California"},"type":"Feature","geometry":{"type":"Point","coordinates":[-122.622285,38.950701]}},{"properties":{"collision type:":"Non-Injury","city":"Clearlake","date:":"Sat, May 17, 08","time:":"1320","additional factors:":"Driver error","agency":"CPD","id":"24","weather":"Weather, conditions, n/a","address":"14642 LAKESHORE DR","state":"California"},"type":"Feature","geometry":{"type":"Point","coordinates":[-122.63846,38.950586]}},{"properties":{"collision type:":"Non-Injury","city":"Clearlake","date:":"Sat, Mar 24, 07","time:":"2227","additional factors:":"Driving on wrong side of road","agency":"CPD","id":"25","weather":"Weather, conditions, n/a","address":"15890 20TH AV","state":"California"},"type":"Feature","geometry":{"type":"Point","coordinates":[-122.615525,38.937604]}},{"properties":{"collision type:":"Non-Injury","city":"Clearlake","date:":"Thu, Sep 27, 07","time:":"1800","additional factors:":"Driving on wrong side of road","agency":"CPD","id":"26","weather":"Weather, conditions, n/a","address":"BAYLIS AV at PEARL AV","state":"California"},"type":"Feature","geometry":{"type":"Point","coordinates":[-122.647214,38.957062]}},{"properties":{"collision type:":"Non-Injury","city":"Clearlake","date:":"Tue, Nov 2, 10","time:":"1428","additional factors:":"Driving on wrong side of road","agency":"CPD","id":"27","weather":"Weather, conditions, n/a","address":"HWY 53 at POLK AV","state":"California"},"type":"Feature","geometry":{"type":"Point","coordinates":[-122.622153,38.959962]}},{"properties":{"collision type:":"Non-Injury","city":"Clearlake","date:":"Thu, Dec 9, 10","time:":"30","additional factors:":"Evading a Police Officer","agency":"CPD","id":"28","weather":"Weather, conditions, n/a","address":"35TH AV at KONOCTI AV","state":"California"},"type":"Feature","geometry":{"type":"Point","coordinates":[-122.608282,38.947197]}},{"properties":{"collision type:":"Non-Injury","city":"Clearlake","date:":"Sat, Jan 27, 07","time:":"1735","additional factors:":"Failure to heed stoplight or sign","agency":"CPD","id":"29","weather":"Weather, conditions, n/a","address":"SR 53  at  40TH AVE","state":"California"},"type":"Feature","geometry":{"type":"Point","coordinates":[-122.623107,38.950713]}},{"properties":{"collision type:":"Non-Injury","city":"Clearlake","date:":"Mon, May 7, 07","time:":"635","additional factors:":"Failure to heed stoplight or sign","agency":"CPD","id":"30","weather":"Weather, conditions, n/a","address":"OLD HIGHWAY 53  at  LAKESHORE DR","state":"California"},"type":"Feature","geometry":{"type":"Point","coordinates":[-122.631412,38.949934]}},{"properties":{"collision type:":"Non-Injury","city":"Clearlake","date:":"Sun, Aug 5, 07","time:":"855","additional factors:":"Failure to heed stoplight or sign","agency":"CPD","id":"31","weather":"Weather, conditions, n/a","address":"REDWOOD AV  at  OLYMPIC DR","state":"California"},"type":"Feature","geometry":{"type":"Point","coordinates":[-122.636375,38.961828]}},{"properties":{"collision type:":"Non-Injury","city":"Clearlake","date:":"Mon, Jan 7, 08","time:":"1354","additional factors:":"Failure to heed stoplight or sign","agency":"CPD","id":"32","weather":"Weather, conditions, n/a","address":"SR 53 at  LAKESHORE DR","state":"California"},"type":"Feature","geometry":{"type":"Point","coordinates":[-122.623107,38.950713]}},{"properties":{"collision type:":"Non-Injury","city":"Clearlake","date:":"Wed, Nov 26, 08","time:":"1250","additional factors:":"Failure to heed stoplight or sign","agency":"CPD","id":"33","weather":"Weather, conditions, n/a","address":"STATE HIGHWAY 53 at DAM RD","state":"California"},"type":"Feature","geometry":{"type":"Point","coordinates":[-122.618887,38.930062]}},{"properties":{"collision type:":"Non-Injury","city":"Clearlake","date:":"Fri, Sep 10, 10","time:":"1505","additional factors:":"Failure to heed stoplight or sign","agency":"CPD","id":"34","weather":"Weather, conditions, n/a","address":"OLYMPIC DR at HWY 53","state":"California"},"type":"Feature","geometry":{"type":"Point","coordinates":[-122.618908,38.964091]}},{"properties":{"collision type:":"Non-Injury","city":"Clearlake","date:":"Tue, Jul 26, 11","time:":"949","additional factors:":"Failure to heed stoplight or sign","agency":"CPD","id":"35","weather":"Weather, conditions, n/a","address":"HWY 53  at  LAKESHORE DR","state":"California"},"type":"Feature","geometry":{"type":"Point","coordinates":[-122.623107,38.950713]}},{"properties":{"collision type:":"Non-Injury","city":"Clearlake","date:":"Sat, Dec 1, 07","time:":"1053","additional factors:":"Failure to heed stoplight or sign","agency":"CPD","id":"36","weather":"Weather, conditions, n/a","address":"SR 53 at POLK","state":"California"},"type":"Feature","geometry":{"type":"Point","coordinates":[-122.622153,38.959962]}},{"properties":{"collision type:":"Non-Injury","city":"Clearlake","date:":"Wed, Jun 18, 08","time:":"1105","additional factors:":"Failure to heed stoplight or sign","agency":"CPD","id":"37","weather":"Weather, conditions, n/a","address":"STATE HIGHWAY 53 at DAM RD","state":"California"},"type":"Feature","geometry":{"type":"Point","coordinates":[-122.618887,38.930062]}},{"properties":{"collision type:":"Non-Injury","city":"Clearlake","date:":"Sat, Aug 6, 11","time:":"1225","additional factors:":"Failure to heed stoplight or sign","agency":"CPD","id":"38","weather":"Weather, conditions, n/a","address":"OLD HWY 53 at  HIGHLANDS AV","state":"California"},"type":"Feature","geometry":{"type":"Point","coordinates":[-122.631416,38.955881]}},{"properties":{"collision type:":"Non-Injury","city":"Clearlake","date:":"Wed, Jun 3, 09","time:":"1634","additional factors:":"Failure to heed stoplight or sign","agency":"CPD","id":"39","weather":"Weather, conditions, n/a","address":"OLYMPIC DR at HWY 53","state":"California"},"type":"Feature","geometry":{"type":"Point","coordinates":[-122.618908,38.964091]}},{"properties":{"collision type:":"Non-Injury","city":"Clearlake","date:":"Fri, Nov 10, 06","time:":"2251","additional factors:":"Failure to signal","agency":"CPD","id":"40","weather":"Weather, conditions, n/a","address":"35TH AVE  at  PHILLIPS AVE","state":"California"},"type":"Feature","geometry":{"type":"Point","coordinates":[-122.615277,38.947308]}},{"properties":{"collision type:":"Non-Injury","city":"Clearlake","date:":"Fri, Jan 5, 07","time:":"2000","additional factors:":"Failure to signal","agency":"CPD","id":"41","weather":"Weather, conditions, n/a","address":"OAK AV  at  40TH AV","state":"California"},"type":"Feature","geometry":{"type":"Point","coordinates":[-122.613077,38.950556]}},{"properties":{"collision type:":"Non-Injury","city":"Clearlake","date:":"Sat, Jan 6, 07","time:":"1733","additional factors:":"Failure to signal","agency":"CPD","id":"42","weather":"Weather, conditions, n/a","address":"SR 53 at 18TH AV","state":"California"},"type":"Feature","geometry":{"type":"Point","coordinates":[-122.622243,38.936926]}},{"properties":{"collision type:":"Non-Injury","city":"Clearlake","date:":"Sun, Jan 21, 07","time:":"1300","additional factors:":"Failure to signal","agency":"CPD","id":"43","weather":"Weather, conditions, n/a","address":"3830 HOWARD AVE.","state":"California"},"type":"Feature","geometry":{"type":"Point","coordinates":[-122.641536,38.957203]}},{"properties":{"collision type:":"Non-Injury","city":"Clearlake","date:":"Sat, Jan 27, 07","time:":"20","additional factors:":"Failure to signal","agency":"CPD","id":"44","weather":"Weather, conditions, n/a","address":"DEXTER LN at AUSTIN DR","state":"California"},"type":"Feature","geometry":{"type":"Point","coordinates":[-122.627578,38.95815]}},{"properties":{"collision type:":"Non-Injury","city":"Clearlake","date:":"Wed, Jan 31, 07","time:":"1200","additional factors:":"Failure to signal","agency":"CPD","id":"45","weather":"Weather, conditions, n/a","address":"LAKESHORE DR  at  NAPA ST","state":"California"},"type":"Feature","geometry":{"type":"Point","coordinates":[-122.668359,38.972297]}},{"properties":{"collision type:":"Non-Injury","city":"Clearlake","date:":"Wed, Jan 31, 07","time:":"1844","additional factors:":"Failure to signal","agency":"CPD","id":"46","weather":"Weather, conditions, n/a","address":"LAKESHORE DRIVE  at  NAPA STREET","state":"California"},"type":"Feature","geometry":{"type":"Point","coordinates":[-122.668359,38.972297]}},{"properties":{"collision type:":"Non-Injury","city":"Clearlake","date:":"Tue, Feb 27, 07","time:":"2321","additional factors:":"Failure to signal","agency":"CPD","id":"47","weather":"Weather, conditions, n/a","address":"SULPHUR BANK DR at BORAX LAKE","state":"California"},"type":"Feature","geometry":{"type":"Point","coordinates":[-122.626373,38.958231]}},{"properties":{"collision type:":"Non-Injury","city":"Clearlake","date:":"Fri, Mar 9, 07","time:":"1714","additional factors:":"Failure to signal","agency":"CPD","id":"48","weather":"Weather, conditions, n/a","address":"MODOC ST  at SONOMA AVE","state":"California"},"type":"Feature","geometry":{"type":"Point","coordinates":[-122.655298,38.971278]}},{"properties":{"collision type:":"Non-Injury","city":"Clearlake","date:":"Fri, Mar 9, 07","time:":"1800","additional factors:":"Failure to signal","agency":"CPD","id":"49","weather":"Weather, conditions, n/a","address":"37TH AVE at PHILLIPS","state":"California"},"type":"Feature","geometry":{"type":"Point","coordinates":[-122.615221,38.948629]}},{"properties":{"collision type:":"Non-Injury","city":"Clearlake","date:":"Sat, Mar 17, 07","time:":"2215","additional factors:":"Failure to signal","agency":"CPD","id":"50","weather":"Weather, conditions, n/a","address":"3724 BUCKEYE ST","state":"California"},"type":"Feature","geometry":{"type":"Point","coordinates":[-122.63965,38.957345]}},{"properties":{"collision type:":"Non-Injury","city":"Clearlake","date:":"Mon, Mar 26, 07","time:":"1445","additional factors:":"Failure to signal","agency":"CPD","id":"51","weather":"Weather, conditions, n/a","address":"3000 10TH ST at 3001 10TH ST","state":"California"},"type":"Feature","geometry":{"type":"Point","coordinates":[-122.661514,38.97888]}},{"properties":{"collision type:":"Non-Injury","city":"Clearlake","date:":"Thu, Apr 19, 07","time:":"935","additional factors:":"Failure to signal","agency":"CPD","id":"52","weather":"Weather, conditions, n/a","address":"14340 LAKESHORE DR","state":"California"},"type":"Feature","geometry":{"type":"Point","coordinates":[-122.644329,38.954229]}},{"properties":{"collision type:":"Non-Injury","city":"Clearlake","date:":"Sat, May 5, 07","time:":"1932","additional factors:":"Failure to signal","agency":"CPD","id":"53","weather":"Weather, conditions, n/a","address":"OLD HIGHWAY 53  at  RIDGEVIEW DR","state":"California"},"type":"Feature","geometry":{"type":"Point","coordinates":[-122.630941,38.939103]}},{"properties":{"collision type:":"Non-Injury","city":"Clearlake","date:":"Fri, Jun 15, 07","time:":"1733","additional factors:":"Failure to signal","agency":"CPD","id":"54","weather":"Weather, conditions, n/a","address":"4995 PINE AV","state":"California"},"type":"Feature","geometry":{"type":"Point","coordinates":[-122.622128,38.94665]}},{"properties":{"collision type:":"Non-Injury","city":"Clearlake","date:":"Fri, Jun 22, 07","time:":"1921","additional factors:":"Failure to signal","agency":"CPD","id":"55","weather":"Weather, conditions, n/a","address":"14201 WOODLAND DR","state":"California"},"type":"Feature","geometry":{"type":"Point","coordinates":[-122.646147,38.964645]}},{"properties":{"collision type:":"Non-Injury","city":"Clearlake","date:":"Mon, Jun 25, 07","time:":"1820","additional factors:":"Failure to signal","agency":"CPD","id":"56","weather":"Weather, conditions, n/a","address":"PALMER AV at MULLEN AV","state":"California"},"type":"Feature","geometry":{"type":"Point","coordinates":[-122.641351,38.952887]}},{"properties":{"collision type:":"Non-Injury","city":"Clearlake","date:":"Mon, Jul 2, 07","time:":"1340","additional factors:":"Failure to signal","agency":"CPD","id":"57","weather":"Weather, conditions, n/a","address":"14883 LAKESHORE DR","state":"California"},"type":"Feature","geometry":{"type":"Point","coordinates":[-122.633814,38.949667]}},{"properties":{"collision type:":"Non-Injury","city":"Clearlake","date:":"Tue, Jul 10, 07","time:":"2200","additional factors:":"Failure to signal","agency":"CPD","id":"58","weather":"Weather, conditions, n/a","address":"16021 32ND AV","state":"California"},"type":"Feature","geometry":{"type":"Point","coordinates":[-122.612542,38.945089]}},{"properties":{"collision type:":"Non-Injury","city":"Clearlake","date:":"Wed, Jul 25, 07","time:":"1942","additional factors:":"Failure to signal","agency":"CPD","id":"59","weather":"Weather, conditions, n/a","address":"OLD HIGHWAY 53 at CRAWFORD AV","state":"California"},"type":"Feature","geometry":{"type":"Point","coordinates":[-122.629316,38.939188]}},{"properties":{"collision type:":"Non-Injury","city":"Clearlake","date:":"Fri, Aug 31, 07","time:":"0","additional factors:":"Failure to signal","agency":"CPD","id":"60","weather":"Weather, conditions, n/a","address":"HWY 53 at DAM RD","state":"California"},"type":"Feature","geometry":{"type":"Point","coordinates":[-122.618887,38.930062]}},{"properties":{"collision type:":"Non-Injury","city":"Clearlake","date:":"Fri, Aug 31, 07","time:":"2334","additional factors:":"Failure to signal","agency":"CPD","id":"61","weather":"Weather, conditions, n/a","address":"14212 UHL AV","state":"California"},"type":"Feature","geometry":{"type":"Point","coordinates":[-122.645681,38.958008]}},{"properties":{"collision type:":"Non-Injury","city":"Clearlake","date:":"Sat, Sep 1, 07","time:":"930","additional factors:":"Failure to signal","agency":"CPD","id":"62","weather":"Weather, conditions, n/a","address":"LAKESHORE DR at ALPINE","state":"California"},"type":"Feature","geometry":{"type":"Point","coordinates":[-122.656899,38.968948]}},{"properties":{"collision type:":"Non-Injury","city":"Clearlake","date:":"Sat, Sep 1, 07","time:":"2345","additional factors:":"Failure to signal","agency":"CPD","id":"63","weather":"Weather, conditions, n/a","address":"16535 DAM RD","state":"California"},"type":"Feature","geometry":{"type":"Point","coordinates":[-122.603714,38.923365]}},{"properties":{"collision type:":"Non-Injury","city":"Clearlake","date:":"Fri, Sep 14, 07","time:":"1145","additional factors:":"Failure to signal","agency":"CPD","id":"64","weather":"Weather, conditions, n/a","address":"LAKESHORE DR at HUNTINGTON AV","state":"California"},"type":"Feature","geometry":{"type":"Point","coordinates":[-122.652954,38.966566]}},{"properties":{"collision type:":"Non-Injury","city":"Clearlake","date:":"Fri, Sep 14, 07","time:":"1350","additional factors:":"Failure to signal","agency":"CPD","id":"65","weather":"Weather, conditions, n/a","address":"OLD HWY 53  at PARK ST","state":"California"},"type":"Feature","geometry":{"type":"Point","coordinates":[-122.631415,38.939516]}},{"properties":{"collision type:":"Non-Injury","city":"Clearlake","date:":"Wed, Oct 3, 07","time:":"1400","additional factors:":"Failure to signal","agency":"CPD","id":"66","weather":"Weather, conditions, n/a","address":"14086 LAKESHORE DR","state":"California"},"type":"Feature","geometry":{"type":"Point","coordinates":[-122.648646,38.958708]}},{"properties":{"collision type:":"Non-Injury","city":"Clearlake","date:":"Sat, Oct 27, 07","time:":"900","additional factors:":"Failure to signal","agency":"CPD","id":"67","weather":"Weather, conditions, n/a","address":"3526 BLUE GUM ST","state":"California"},"type":"Feature","geometry":{"type":"Point","coordinates":[-122.641029,38.961585]}},{"properties":{"collision type:":"Non-Injury","city":"Clearlake","date:":"Sun, Nov 18, 07","time:":"2206","additional factors:":"Failure to signal","agency":"CPD","id":"68","weather":"Weather, conditions, n/a","address":"RUMSEY RD  at  PAMELA LN","state":"California"},"type":"Feature","geometry":{"type":"Point","coordinates":[-122.626558,38.968097]}},{"properties":{"collision type:":"Non-Injury","city":"Clearlake","date:":"Wed, Nov 21, 07","time:":"0","additional factors:":"Failure to signal","agency":"CPD","id":"69","weather":"Weather, conditions, n/a","address":"5287 CRAWFORD AV","state":"California"},"type":"Feature","geometry":{"type":"Point","coordinates":[-122.624717,38.944399]}},{"properties":{"collision type:":"Non-Injury","city":"Clearlake","date:":"Sun, Nov 25, 07","time:":"257","additional factors:":"Failure to signal","agency":"CPD","id":"70","weather":"Weather, conditions, n/a","address":"OLD HWY 53  at  DAVIS AV","state":"California"},"type":"Feature","geometry":{"type":"Point","coordinates":[-122.6307,38.95448]}},{"properties":{"collision type:":"Non-Injury","city":"Clearlake","date:":"Fri, Jan 4, 08","time:":"1900","additional factors:":"Failure to signal","agency":"CPD","id":"71","weather":"Weather, conditions, n/a","address":"14225 LAKESHORE DR","state":"California"},"type":"Feature","geometry":{"type":"Point","coordinates":[-122.646332,38.954229]}},{"properties":{"collision type:":"Non-Injury","city":"Clearlake","date:":"Tue, Feb 12, 08","time:":"1542","additional factors:":"Failure to signal","agency":"CPD","id":"72","weather":"Weather, conditions, n/a","address":"5825 OLD HIGHWAY 53","state":"California"},"type":"Feature","geometry":{"type":"Point","coordinates":[-122.633871,38.941266]}},{"properties":{"collision type:":"Non-Injury","city":"Clearlake","date:":"Fri, Feb 22, 08","time:":"700","additional factors:":"Failure to signal","agency":"CPD","id":"73","weather":"Weather, conditions, n/a","address":"4314 OLD HIGHWAY 53","state":"California"},"type":"Feature","geometry":{"type":"Point","coordinates":[-122.631156,38.951992]}},{"properties":{"collision type:":"Non-Injury","city":"Clearlake","date:":"Tue, May 6, 08","time:":"2154","additional factors:":"Failure to signal","agency":"CPD","id":"74","weather":"Weather, conditions, n/a","address":"5865 OLD HIGHWAY 53","state":"California"},"type":"Feature","geometry":{"type":"Point","coordinates":[-122.633952,38.940754]}},{"properties":{"collision type:":"Non-Injury","city":"Clearlake","date:":"Sat, Jul 19, 08","time:":"1145","additional factors:":"Failure to signal","agency":"CPD","id":"75","weather":"Weather, conditions, n/a","address":"PINE AV  at  CEDAR AV","state":"California"},"type":"Feature","geometry":{"type":"Point","coordinates":[-122.620826,38.956164]}},{"properties":{"collision type:":"Non-Injury","city":"Clearlake","date:":"Thu, Sep 18, 08","time:":"1548","additional factors:":"Failure to signal","agency":"CPD","id":"76","weather":"Weather, conditions, n/a","address":"REDWOOD ST at AUSTIN DR","state":"California"},"type":"Feature","geometry":{"type":"Point","coordinates":[-122.636392,38.95884]}},{"properties":{"collision type:":"Non-Injury","city":"Clearlake","date:":"Sat, Nov 1, 08","time:":"0","additional factors:":"Failure to signal","agency":"CPD","id":"77","weather":"Weather, conditions, n/a","address":"3385 12TH ST","state":"California"},"type":"Feature","geometry":{"type":"Point","coordinates":[-122.663675,38.97382]}},{"properties":{"collision type:":"Non-Injury","city":"Clearlake","date:":"Wed, Apr 8, 09","time:":"230","additional factors:":"Failure to signal","agency":"CPD","id":"78","weather":"Weather, conditions, n/a","address":"BUCKEYE AV 40TH","state":"California"},"type":"Feature","geometry":{"type":"Point","coordinates":[-122.626373,38.958231]}},{"properties":{"collision type:":"Non-Injury","city":"Clearlake","date:":"Wed, May 20, 09","time:":"850","additional factors:":"Failure to signal","agency":"CPD","id":"79","weather":"Weather, conditions, n/a","address":"OLD HIGHWAY 53 at DAVIS AV","state":"California"},"type":"Feature","geometry":{"type":"Point","coordinates":[-122.6307,38.95448]}},{"properties":{"collision type:":"Non-Injury","city":"Clearlake","date:":"Fri, Jun 5, 09","time:":"1710","additional factors:":"Failure to signal","agency":"CPD","id":"80","weather":"Weather, conditions, n/a","address":"MULLEN AV  at  AUSTIN DR","state":"California"},"type":"Feature","geometry":{"type":"Point","coordinates":[-122.638196,38.95885]}},{"properties":{"collision type:":"Non-Injury","city":"Clearlake","date:":"Fri, Jun 19, 09","time:":"2341","additional factors:":"Failure to signal","agency":"CPD","id":"81","weather":"Weather, conditions, n/a","address":"OLYMPIC DR  at  COTTONWOOD DR","state":"California"},"type":"Feature","geometry":{"type":"Point","coordinates":[-122.642036,38.961765]}},{"properties":{"collision type:":"Non-Injury","city":"Clearlake","date:":"Mon, Aug 31, 09","time:":"630","additional factors:":"Failure to signal","agency":"CPD","id":"82","weather":"Weather, conditions, n/a","address":"17TH ST at SULPHER BANK","state":"California"},"type":"Feature","geometry":{"type":"Point","coordinates":[-122.626373,38.958231]}},{"properties":{"collision type:":"Non-Injury","city":"Clearlake","date:":"Mon, Dec 14, 09","time:":"1029","additional factors:":"Failure to signal","agency":"CPD","id":"83","weather":"Weather, conditions, n/a","address":"13911 LAKESHORE DR","state":"California"},"type":"Feature","geometry":{"type":"Point","coordinates":[-122.651769,38.965529]}},{"properties":{"collision type:":"Non-Injury","city":"Clearlake","date:":"Mon, Feb 8, 10","time:":"900","additional factors:":"Failure to signal","agency":"CPD","id":"84","weather":"Weather, conditions, n/a","address":"LAKESHORE DR  at MULLEN AV","state":"California"},"type":"Feature","geometry":{"type":"Point","coordinates":[-122.642388,38.95182]}},{"properties":{"collision type:":"Non-Injury","city":"Clearlake","date:":"Wed, Mar 10, 10","time:":"2045","additional factors:":"Failure to signal","agency":"CPD","id":"85","weather":"Weather, conditions, n/a","address":"14050 OLYMPIC DR","state":"California"},"type":"Feature","geometry":{"type":"Point","coordinates":[-122.649139,38.961338]}},{"properties":{"collision type:":"Non-Injury","city":"Clearlake","date:":"Sun, Jun 6, 10","time:":"724","additional factors:":"Failure to signal","agency":"CPD","id":"86","weather":"Weather, conditions, n/a","address":"3595 OLD HIGHWAY 53","state":"California"},"type":"Feature","geometry":{"type":"Point","coordinates":[-122.632929,38.960288]}},{"properties":{"collision type:":"Non-Injury","city":"Clearlake","date:":"Tue, Jun 29, 10","time:":"1345","additional factors:":"Failure to signal","agency":"CPD","id":"87","weather":"Weather, conditions, n/a","address":"HWY 53 at OLD HIGHWAY 53","state":"California"},"type":"Feature","geometry":{"type":"Point","coordinates":[-122.612697,38.976361]}},{"properties":{"collision type:":"Non-Injury","city":"Clearlake","date:":"Sun, Oct 3, 10","time:":"1500","additional factors:":"Failure to signal","agency":"CPD","id":"88","weather":"Weather, conditions, n/a","address":"18TH AV at KONOCTI AV","state":"California"},"type":"Feature","geometry":{"type":"Point","coordinates":[-122.60833,38.936015]}},{"properties":{"collision type:":"Non-Injury","city":"Clearlake","date:":"Sat, Oct 30, 10","time:":"0","additional factors:":"Failure to signal","agency":"CPD","id":"89","weather":"Weather, conditions, n/a","address":"5810 OLD HIGHWAY 53","state":"California"},"type":"Feature","geometry":{"type":"Point","coordinates":[-122.631147,38.94151]}},{"properties":{"collision type:":"Non-Injury","city":"Clearlake","date:":"Sat, Nov 20, 10","time:":"2220","additional factors:":"Failure to signal","agency":"CPD","id":"90","weather":"Weather, conditions, n/a","address":"32D AV at BOYLES AV","state":"California"},"type":"Feature","geometry":{"type":"Point","coordinates":[-122.610564,38.94527]}},{"properties":{"collision type:":"Non-Injury","city":"Clearlake","date:":"Sat, Jan 22, 11","time:":"0","additional factors:":"Failure to signal","agency":"CPD","id":"91","weather":"Weather, conditions, n/a","address":"11911 LAKESHORE DR","state":"California"},"type":"Feature","geometry":{"type":"Point","coordinates":[-122.687874,38.980807]}},{"properties":{"collision type:":"Non-Injury","city":"Clearlake","date:":"Sat, Feb 26, 11","time:":"2300","additional factors:":"Failure to signal","agency":"CPD","id":"92","weather":"Weather, conditions, n/a","address":"16111 40TH AV","state":"California"},"type":"Feature","geometry":{"type":"Point","coordinates":[-122.610795,38.950338]}},{"properties":{"collision type:":"Non-Injury","city":"Clearlake","date:":"Sun, Mar 6, 11","time:":"1130","additional factors:":"Failure to signal","agency":"CPD","id":"93","weather":"Weather, conditions, n/a","address":"ARROWHEAD RD  at  FRESNO ST","state":"California"},"type":"Feature","geometry":{"type":"Point","coordinates":[-122.659514,38.970694]}},{"properties":{"collision type:":"Non-Injury","city":"Clearlake","date:":"Sun, Apr 3, 11","time:":"100","additional factors:":"Failure to signal","agency":"CPD","id":"94","weather":"Weather, conditions, n/a","address":"2992 11TH ST","state":"California"},"type":"Feature","geometry":{"type":"Point","coordinates":[-122.662318,38.979169]}},{"properties":{"collision type:":"Non-Injury","city":"Clearlake","date:":"Fri, Jun 10, 11","time:":"1343","additional factors:":"Failure to signal","agency":"CPD","id":"95","weather":"Weather, conditions, n/a","address":"3700 OLD HIGHWAY 53","state":"California"},"type":"Feature","geometry":{"type":"Point","coordinates":[-122.630307,38.958885]}},{"properties":{"collision type:":"Non-Injury","city":"Clearlake","date:":"Sun, Jun 12, 11","time:":"2131","additional factors:":"Failure to signal","agency":"CPD","id":"96","weather":"Weather, conditions, n/a","address":"3300 2ND AV","state":"California"},"type":"Feature","geometry":{"type":"Point","coordinates":[-122.655111,38.974696]}},{"properties":{"collision type:":"Non-Injury","city":"Clearlake","date:":"Tue, Apr 3, 07","time:":"1943","additional factors:":"Failure to signal","agency":"CPD","id":"97","weather":"Weather, conditions, n/a","address":"OLD HWY 53 at RIDGEVIEW Road","state":"California"},"type":"Feature","geometry":{"type":"Point","coordinates":[-122.630941,38.939103]}},{"properties":{"collision type:":"Non-Injury","city":"Clearlake","date:":"Fri, Apr 25, 08","time:":"1329","additional factors:":"Failure to signal","agency":"CPD","id":"98","weather":"Weather, conditions, n/a","address":"OLYMPIC DR  at  OLD HIGHWAY 53","state":"California"},"type":"Feature","geometry":{"type":"Point","coordinates":[-122.62178,38.963752]}},{"properties":{"collision type:":"Non-Injury","city":"Clearlake","date:":"Sat, Oct 11, 08","time:":"109","additional factors:":"Failure to signal","agency":"CPD","id":"99","weather":"Weather, conditions, n/a","address":"14930 BURNS VALLEY RD","state":"California"},"type":"Feature","geometry":{"type":"Point","coordinates":[-122.632036,38.96599]}},{"properties":{"collision type:":"Non-Injury","city":"Clearlake","date:":"Thu, Jun 3, 10","time:":"1800","additional factors:":"Failure to signal PC","agency":"CPD","id":"100","weather":"Weather, conditions, n/a","address":"15880 DAM RD EXT","state":"California"},"type":"Feature","geometry":{"type":"Point","coordinates":[-122.614318,38.931897]}},{"properties":{"collision type:":"Non-Injury","city":"Clearlake","date:":"Mon, Dec 4, 06","time:":"1605","additional factors:":"Failure to stop","agency":"CPD","id":"101","weather":"Weather, conditions, n/a","address":"LAKESHORE DR at MULLEN AV","state":"California"},"type":"Feature","geometry":{"type":"Point","coordinates":[-122.642388,38.95182]}},{"properties":{"collision type:":"Non-Injury","city":"Clearlake","date:":"Thu, Oct 9, 08","time:":"1217","additional factors:":"Failure to stop","agency":"CPD","id":"102","weather":"Weather, conditions, n/a","address":"DAM RD at DAM RD EXT","state":"California"},"type":"Feature","geometry":{"type":"Point","coordinates":[-122.626373,38.958231]}},{"properties":{"collision type:":"Non-Injury","city":"Clearlake","date:":"Thu, Mar 29, 07","time:":"1605","additional factors:":"Failure to stop","agency":"CPD","id":"103","weather":"Weather, conditions, n/a","address":"HWY 53 at OLYMPIC","state":"California"},"type":"Feature","geometry":{"type":"Point","coordinates":[-122.618908,38.964091]}},{"properties":{"collision type:":"Non-Injury","city":"Clearlake","date:":"Wed, Apr 18, 07","time:":"1030","additional factors:":"Failure to stop","agency":"CPD","id":"104","weather":"Weather, conditions, n/a","address":"UHL AV at DIVISON AV","state":"California"},"type":"Feature","geometry":{"type":"Point","coordinates":[-122.64639,38.958858]}},{"properties":{"collision type:":"Non-Injury","city":"Clearlake","date:":"Sat, Sep 1, 07","time:":"1030","additional factors:":"Failure to stop","agency":"CPD","id":"105","weather":"Weather, conditions, n/a","address":"MANAKEE ST","state":"California"},"type":"Feature","geometry":{"type":"Point","coordinates":[-122.652596,38.967083]}},{"properties":{"collision type:":"Non-Injury","city":"Clearlake","date:":"Mon, May 5, 08","time:":"1103","additional factors:":"Failure to stop","agency":"CPD","id":"106","weather":"Weather, conditions, n/a","address":"UHL AV at DIVISION AV","state":"California"},"type":"Feature","geometry":{"type":"Point","coordinates":[-122.64639,38.958858]}},{"properties":{"collision type:":"Non-Injury","city":"Clearlake","date:":"Sun, Sep 13, 09","time:":"2050","additional factors:":"Failure to stop","agency":"CPD","id":"107","weather":"Weather, conditions, n/a","address":"OLD HIGHWAY 53 at AUSTIN DR","state":"California"},"type":"Feature","geometry":{"type":"Point","coordinates":[-122.631369,38.958323]}},{"properties":{"collision type:":"Non-Injury","city":"Clearlake","date:":"Sat, Jun 26, 10","time:":"1540","additional factors:":"Failure to stop  PC","agency":"CPD","id":"108","weather":"Weather, conditions, n/a","address":"3590 REDWOOD ST","state":"California"},"type":"Feature","geometry":{"type":"Point","coordinates":[-122.636152,38.96054]}},{"properties":{"collision type:":"Non-Injury","city":"Clearlake","date:":"Tue, Nov 7, 06","time:":"1615","additional factors:":"Failure to yield","agency":"CPD","id":"109","weather":"Weather, conditions, n/a","address":"18TH AVE  at  HWY 53","state":"California"},"type":"Feature","geometry":{"type":"Point","coordinates":[-122.622243,38.936926]}},{"properties":{"collision type:":"Non-Injury","city":"Clearlake","date:":"Sat, Mar 29, 08","time:":"1910","additional factors:":"Failure to yield","agency":"CPD","id":"110","weather":"Weather, conditions, n/a","address":"15010 LAKESHORE DR","state":"California"},"type":"Feature","geometry":{"type":"Point","coordinates":[-122.631471,38.949948]}},{"properties":{"collision type:":"Non-Injury","city":"Clearlake","date:":"Mon, Jan 12, 09","time:":"2331","additional factors:":"Failure to yield","agency":"CPD","id":"111","weather":"Weather, conditions, n/a","address":"15881 29TH AV","state":"California"},"type":"Feature","geometry":{"type":"Point","coordinates":[-122.615539,38.943164]}},{"properties":{"collision type:":"Non-Injury","city":"Clearlake","date:":"Fri, Jan 22, 10","time:":"1400","additional factors:":"Failure to yield","agency":"CPD","id":"112","weather":"Weather, conditions, n/a","address":"31ST AV at PHILLIPS AV","state":"California"},"type":"Feature","geometry":{"type":"Point","coordinates":[-122.615317,38.944675]}},{"properties":{"collision type:":"Non-Injury","city":"Clearlake","date:":"Sun, Apr 15, 07","time:":"1155","additional factors:":"Failure to yield at intersection","agency":"CPD","id":"113","weather":"Weather, conditions, n/a","address":"PALMER AV at MULLEN AV","state":"California"},"type":"Feature","geometry":{"type":"Point","coordinates":[-122.641351,38.952887]}},{"properties":{"collision type:":"Non-Injury","city":"Clearlake","date:":"Wed, Apr 18, 07","time:":"1313","additional factors:":"Failure to yield at intersection","agency":"CPD","id":"114","weather":"Weather, conditions, n/a","address":"RIDGEVIEW DR at LAKESIDE DR","state":"California"},"type":"Feature","geometry":{"type":"Point","coordinates":[-122.630478,38.93798]}},{"properties":{"collision type:":"Non-Injury","city":"Clearlake","date:":"Fri, Aug 3, 07","time:":"1235","additional factors:":"Failure to yield at intersection","agency":"CPD","id":"115","weather":"Weather, conditions, n/a","address":"STATE HWY 53 at OLYMPIC","state":"California"},"type":"Feature","geometry":{"type":"Point","coordinates":[-122.618908,38.964091]}},{"properties":{"collision type:":"Non-Injury","city":"Clearlake","date:":"Sun, Aug 9, 09","time:":"1645","additional factors:":"Failure to yield at intersection","agency":"CPD","id":"116","weather":"Weather, conditions, n/a","address":"16363 33RD AV","state":"California"},"type":"Feature","geometry":{"type":"Point","coordinates":[-122.606396,38.945712]}},{"properties":{"collision type:":"Non-Injury","city":"Clearlake","date:":"Mon, Dec 15, 08","time:":"750","additional factors:":"Failure to yield right of way","agency":"CPD","id":"117","weather":"Weather, conditions, n/a","address":"MANAKEE at HUNTINGTON","state":"California"},"type":"Feature","geometry":{"type":"Point","coordinates":[-122.651541,38.968466]}},{"properties":{"collision type:":"Non-Injury","city":"Clearlake","date:":"Sat, May 10, 08","time:":"1140","additional factors:":"Following to closely","agency":"CPD","id":"118","weather":"Weather, conditions, n/a","address":"OLYMPIC DR at HWY 53","state":"California"},"type":"Feature","geometry":{"type":"Point","coordinates":[-122.618908,38.964091]}},{"properties":{"collision type:":"Non-Injury","city":"Clearlake","date:":"Tue, Jan 23, 07","time:":"1400","additional factors:":"Following too close","agency":"CPD","id":"119","weather":"Weather, conditions, n/a","address":"14800 LAKESHORE DRIVE","state":"California"},"type":"Feature","geometry":{"type":"Point","coordinates":[-122.635211,38.949949]}},{"properties":{"collision type:":"Non-Injury","city":"Clearlake","date:":"Sat, Feb 17, 07","time:":"1155","additional factors:":"Following too close","agency":"CPD","id":"120","weather":"Weather, conditions, n/a","address":"OLD HIGHWAY 53 at HIGHLANDS HARBOR RD","state":"California"},"type":"Feature","geometry":{"type":"Point","coordinates":[-122.62182,38.930984]}},{"properties":{"collision type:":"Non-Injury","city":"Clearlake","date:":"Sun, May 25, 08","time:":"1800","additional factors:":"Following too close","agency":"CPD","id":"121","weather":"Weather, conditions, n/a","address":"OLD HWY 53  at  HIGHLANDS WY","state":"California"},"type":"Feature","geometry":{"type":"Point","coordinates":[-122.631416,38.955881]}},{"properties":{"collision type:":"Non-Injury","city":"Clearlake","date:":"Tue, Dec 11, 07","time:":"1700","additional factors:":"Hit and Run","agency":"CPD","id":"122","weather":"Weather, conditions, n/a","address":"4794 YARRINGTON Court","state":"California"},"type":"Feature","geometry":{"type":"Point","coordinates":[-122.627804,38.948711]}},{"properties":{"collision type:":"Non-Injury","city":"Clearlake","date:":"Mon, Nov 20, 06","time:":"1432","additional factors:":"INATTENTION","agency":"CPD","id":"123","weather":"Weather, conditions, n/a","address":"15135 LAKESHORE DR","state":"California"},"type":"Feature","geometry":{"type":"Point","coordinates":[-122.629382,38.949397]}},{"properties":{"collision type:":"Non-Injury","city":"Clearlake","date:":"Sun, Sep 7, 08","time:":"1205","additional factors:":"Medical condition","agency":"CPD","id":"124","weather":"Weather, conditions, n/a","address":"15895 DAM RD","state":"California"},"type":"Feature","geometry":{"type":"Point","coordinates":[-122.617831,38.932338]}},{"properties":{"collision type:":"Non-Injury","city":"Clearlake","date:":"Sun, Nov 18, 07","time:":"1620","additional factors:":"n/a","agency":"CPD","id":"125","weather":"Weather, conditions, n/a","address":"6673 OLD HIGHWAY 53","state":"California"},"type":"Feature","geometry":{"type":"Point","coordinates":[-122.62692,38.936057]}},{"properties":{"collision type:":"Non-Injury","city":"Clearlake","date:":"Thu, Aug 23, 07","time:":"2005","additional factors:":"NOT DETERMINED","agency":"CPD","id":"126","weather":"Weather, conditions, n/a","address":"16204 19TH AV","state":"California"},"type":"Feature","geometry":{"type":"Point","coordinates":[-122.609504,38.936861]}},{"properties":{"collision type:":"Non-Injury","city":"Clearlake","date:":"Mon, Jun 16, 08","time:":"1139","additional factors:":"OTHER THAN DRIVER","agency":"CPD","id":"127","weather":"Weather, conditions, n/a","address":"14560 LAKESHORE DR","state":"California"},"type":"Feature","geometry":{"type":"Point","coordinates":[-122.640754,38.951539]}},{"properties":{"collision type:":"Non-Injury","city":"Clearlake","date:":"Tue, Jan 20, 09","time:":"650","additional factors:":"Pedestrian on Roadway","agency":"CPD","id":"128","weather":"Weather, conditions, n/a","address":"MODOC at  ARROWHEAD","state":"California"},"type":"Feature","geometry":{"type":"Point","coordinates":[-122.65589,38.969548]}},{"properties":{"collision type:":"Non-Injury","city":"Clearlake","date:":"Tue, Jul 12, 11","time:":"2120","additional factors:":"Pedestrian on Roadway","agency":"CPD","id":"129","weather":"Weather, conditions, n/a","address":"15080 LAKESHORE DR","state":"California"},"type":"Feature","geometry":{"type":"Point","coordinates":[-122.630035,38.950133]}},{"properties":{"collision type:":"Non-Injury","city":"Clearlake","date:":"Sat, Dec 12, 09","time:":"1926","additional factors:":"Pedestrian outside crosswalk","agency":"CPD","id":"130","weather":"Weather, conditions, n/a","address":"15134 HARBOR LN","state":"California"},"type":"Feature","geometry":{"type":"Point","coordinates":[-122.629018,38.931379]}},{"properties":{"collision type:":"Non-Injury","city":"Clearlake","date:":"Wed, Aug 1, 07","time:":"1830","additional factors:":"Riding bicycle under influcence of Alcohol or drugs","agency":"CPD","id":"131","weather":"Weather, conditions, n/a","address":"13630 LOWER LAKESHORE DR","state":"California"},"type":"Feature","geometry":{"type":"Point","coordinates":[-122.656687,38.968378]}},{"properties":{"collision type:":"Non-Injury","city":"Clearlake","date:":"Sun, Jan 9, 11","time:":"910","additional factors:":"Right of way at Crosswalk - Pedestrian at fault","agency":"CPD","id":"132","weather":"Weather, conditions, n/a","address":"15010 LAKESHORE DR","state":"California"},"type":"Feature","geometry":{"type":"Point","coordinates":[-122.631471,38.949948]}},{"properties":{"collision type:":"Non-Injury","city":"Lower Lake","date:":"Sat, Sep 1, 07","time:":"22:22","additional factors:":"Speeding","agency":"CHP","id":"133","weather":"Clear, warm","address":"Main Street at Mill Street","state":"California"},"type":"Feature","geometry":{"type":"Point","coordinates":[-122.605949,38.910325]}},{"properties":{"collision type:":"Non-Injury","city":"Lucerne","date:":"Tue, Oct 9, 07","time:":"21:06","additional factors:":"Speeding","agency":"CHP","id":"134","weather":"Rain","address":"Eastbound SR-20 at Bruner Drive","state":"California"},"type":"Feature","geometry":{"type":"Point","coordinates":[-122.771846,39.043516]}},{"properties":{"collision type:":"Non-Injury","city":"Clearlake","date:":"Fri, Nov 10, 06","time:":"1800","additional factors:":"Speeding","agency":"CPD","id":"135","weather":"Weather, conditions, n/a","address":"AUSTIN DR at OLD HIGHWAY 53","state":"California"},"type":"Feature","geometry":{"type":"Point","coordinates":[-122.631369,38.958323]}},{"properties":{"collision type:":"Non-Injury","city":"Clearlake","date:":"Sun, Nov 19, 06","time:":"630","additional factors:":"Speeding","agency":"CPD","id":"136","weather":"Weather, conditions, n/a","address":"14050 OLYMPIC DR","state":"California"},"type":"Feature","geometry":{"type":"Point","coordinates":[-122.649139,38.961338]}},{"properties":{"collision type:":"Non-Injury","city":"Clearlake","date:":"Fri, Jul 13, 07","time:":"1642","additional factors:":"Speeding","agency":"CPD","id":"137","weather":"Weather, conditions, n/a","address":"DAM RD at STATE HWY 53","state":"California"},"type":"Feature","geometry":{"type":"Point","coordinates":[-122.618887,38.930062]}},{"properties":{"collision type:":"Non-Injury","city":"Clearlake","date:":"Sun, Aug 12, 07","time:":"1600","additional factors:":"Speeding","agency":"CPD","id":"138","weather":"Weather, conditions, n/a","address":"SR 53 at 18TH AV","state":"California"},"type":"Feature","geometry":{"type":"Point","coordinates":[-122.622243,38.936926]}},{"properties":{"collision type:":"Non-Injury","city":"Clearlake","date:":"Wed, Aug 22, 07","time:":"1500","additional factors:":"Speeding","agency":"CPD","id":"139","weather":"Weather, conditions, n/a","address":"OLD14300 BLK LAKESHORE DR","state":"California"},"type":"Feature","geometry":{"type":"Point","coordinates":[-122.674489,38.974193]}},{"properties":{"collision type:":"Non-Injury","city":"Clearlake","date:":"Thu, Oct 25, 07","time:":"1200","additional factors:":"Speeding","agency":"CPD","id":"140","weather":"Weather, conditions, n/a","address":"SR 53 at 18TH AV","state":"California"},"type":"Feature","geometry":{"type":"Point","coordinates":[-122.622243,38.936926]}},{"properties":{"collision type:":"Non-Injury","city":"Clearlake","date:":"Wed, Jun 25, 08","time:":"1424","additional factors:":"Speeding","agency":"CPD","id":"141","weather":"Weather, conditions, n/a","address":"OLD HIGHWAY 53 at OLYMPIC DR","state":"California"},"type":"Feature","geometry":{"type":"Point","coordinates":[-122.62178,38.963752]}},{"properties":{"collision type:":"Non-Injury","city":"Clearlake","date:":"Wed, Jul 2, 08","time:":"942","additional factors:":"Speeding","agency":"CPD","id":"142","weather":"Weather, conditions, n/a","address":"3400 GARFIELD ST","state":"California"},"type":"Feature","geometry":{"type":"Point","coordinates":[-122.622158,38.963093]}},{"properties":{"collision type:":"Non-Injury","city":"Clearlake","date:":"Wed, Sep 17, 08","time:":"1510","additional factors:":"Speeding","agency":"CPD","id":"143","weather":"Weather, conditions, n/a","address":"2979 ROBIN LN","state":"California"},"type":"Feature","geometry":{"type":"Point","coordinates":[-122.624259,38.969317]}},{"properties":{"collision type:":"Non-Injury","city":"Clearlake","date:":"Fri, May 1, 09","time:":"950","additional factors:":"Speeding","agency":"CPD","id":"144","weather":"Weather, conditions, n/a","address":"LAKESHORE DR at HOWARD AV","state":"California"},"type":"Feature","geometry":{"type":"Point","coordinates":[-122.64385,38.953868]}},{"properties":{"collision type:":"Non-Injury","city":"Clearlake","date:":"Thu, Feb 11, 10","time:":"751","additional factors:":"Speeding","agency":"CPD","id":"145","weather":"Weather, conditions, n/a","address":"3230 10TH ST","state":"California"},"type":"Feature","geometry":{"type":"Point","coordinates":[-122.66156,38.975719]}},{"properties":{"collision type:":"Non-Injury","city":"Clearlake","date:":"Tue, Feb 16, 10","time:":"1505","additional factors:":"Speeding","agency":"CPD","id":"146","weather":"Weather, conditions, n/a","address":"OLYMPIC DR at MEMORY LN","state":"California"},"type":"Feature","geometry":{"type":"Point","coordinates":[-122.644536,38.96095]}},{"properties":{"collision type:":"Non-Injury","city":"Clearlake","date:":"Fri, Jan 5, 07","time:":"1245","additional factors:":"Speeding","agency":"CPD","id":"147","weather":"Weather, conditions, n/a","address":"MOSS AVE  at  40TH AVE.","state":"California"},"type":"Feature","geometry":{"type":"Point","coordinates":[-122.622285,38.950701]}},{"properties":{"collision type:":"Non-Injury","city":"Clearlake","date:":"Sat, Jan 6, 07","time:":"935","additional factors:":"Speeding","agency":"CPD","id":"148","weather":"Weather, conditions, n/a","address":"LAKESHORE DR","state":"California"},"type":"Feature","geometry":{"type":"Point","coordinates":[-122.674489,38.974193]}},{"properties":{"collision type:":"Non-Injury","city":"Clearlake","date:":"Thu, Jan 25, 07","time:":"1527","additional factors:":"Speeding","agency":"CPD","id":"149","weather":"Weather, conditions, n/a","address":"HWY 53 at DAM RD","state":"California"},"type":"Feature","geometry":{"type":"Point","coordinates":[-122.618887,38.930062]}},{"properties":{"collision type:":"Non-Injury","city":"Clearlake","date:":"Fri, Apr 6, 07","time:":"1330","additional factors:":"Speeding","agency":"CPD","id":"150","weather":"Weather, conditions, n/a","address":"14624 LAKESHORE DR","state":"California"},"type":"Feature","geometry":{"type":"Point","coordinates":[-122.638835,38.95077]}},{"properties":{"collision type:":"Non-Injury","city":"Clearlake","date:":"Mon, Apr 23, 07","time:":"1647","additional factors:":"Speeding","agency":"CPD","id":"151","weather":"Weather, conditions, n/a","address":"(UNKNOWN ADDRESS)","state":"California"},"type":"Feature","geometry":{"type":"Point","coordinates":[-122.626373,38.958231]}},{"properties":{"collision type:":"Non-Injury","city":"Clearlake","date:":"Sat, Jun 23, 07","time:":"1745","additional factors:":"Speeding","agency":"CPD","id":"152","weather":"Weather, conditions, n/a","address":"5255 OLD HIGHWAY 53","state":"California"},"type":"Feature","geometry":{"type":"Point","coordinates":[-122.632601,38.945238]}},{"properties":{"collision type:":"Non-Injury","city":"Clearlake","date:":"Thu, Jul 12, 07","time:":"1257","additional factors:":"Speeding","agency":"CPD","id":"153","weather":"Weather, conditions, n/a","address":"OLYMPIC DR at GREEN ST","state":"California"},"type":"Feature","geometry":{"type":"Point","coordinates":[-122.626226,38.961844]}},{"properties":{"collision type:":"Non-Injury","city":"Clearlake","date:":"Wed, Jul 25, 07","time:":"1518","additional factors:":"Speeding","agency":"CPD","id":"154","weather":"Weather, conditions, n/a","address":"OLD HIGHWAY 53 at DAVIS","state":"California"},"type":"Feature","geometry":{"type":"Point","coordinates":[-122.6307,38.95448]}},{"properties":{"collision type:":"Non-Injury","city":"Clearlake","date:":"Fri, Aug 3, 07","time:":"1230","additional factors:":"Speeding","agency":"CPD","id":"155","weather":"Weather, conditions, n/a","address":"OLD HIGHWAY 53 at DAVIS","state":"California"},"type":"Feature","geometry":{"type":"Point","coordinates":[-122.6307,38.95448]}},{"properties":{"collision type:":"Non-Injury","city":"Clearlake","date:":"Sat, Aug 4, 07","time:":"1948","additional factors:":"Speeding","agency":"CPD","id":"156","weather":"Weather, conditions, n/a","address":"14380 PEARL AV","state":"California"},"type":"Feature","geometry":{"type":"Point","coordinates":[-122.643604,38.954691]}},{"properties":{"collision type:":"Non-Injury","city":"Clearlake","date:":"Tue, Nov 6, 07","time:":"1815","additional factors:":"Speeding","agency":"CPD","id":"157","weather":"Weather, conditions, n/a","address":"STATE HIGHWAY 53 at POLK AV","state":"California"},"type":"Feature","geometry":{"type":"Point","coordinates":[-122.622153,38.959962]}},{"properties":{"collision type:":"Non-Injury","city":"Clearlake","date:":"Mon, Nov 19, 07","time:":"950","additional factors:":"Speeding","agency":"CPD","id":"158","weather":"Weather, conditions, n/a","address":"3700 OLD HIGHWAY 53","state":"California"},"type":"Feature","geometry":{"type":"Point","coordinates":[-122.630307,38.958885]}},{"properties":{"collision type:":"Non-Injury","city":"Clearlake","date:":"Fri, Dec 7, 07","time:":"2000","additional factors:":"Speeding","agency":"CPD","id":"159","weather":"Weather, conditions, n/a","address":"LAKESHORE DR at EMORY AV","state":"California"},"type":"Feature","geometry":{"type":"Point","coordinates":[-122.63668,38.949953]}},{"properties":{"collision type:":"Non-Injury","city":"Clearlake","date:":"Wed, Jan 23, 08","time:":"0","additional factors:":"Speeding","agency":"CPD","id":"160","weather":"Weather, conditions, n/a","address":"18TH AV at OAK AV","state":"California"},"type":"Feature","geometry":{"type":"Point","coordinates":[-122.61997,38.936178]}},{"properties":{"collision type:":"Non-Injury","city":"Clearlake","date:":"Fri, Jan 25, 08","time:":"824","additional factors:":"Speeding","agency":"CPD","id":"161","weather":"Weather, conditions, n/a","address":"14600 BLK LAKESHORE DR","state":"California"},"type":"Feature","geometry":{"type":"Point","coordinates":[-122.640249,38.95097]}},{"properties":{"collision type:":"Non-Injury","city":"Clearlake","date:":"Sat, Mar 8, 08","time:":"100","additional factors:":"Speeding","agency":"CPD","id":"162","weather":"Weather, conditions, n/a","address":"STATE HIGHWAY 53 at DAM RD","state":"California"},"type":"Feature","geometry":{"type":"Point","coordinates":[-122.618887,38.930062]}},{"properties":{"collision type:":"Non-Injury","city":"Clearlake","date:":"Fri, Apr 4, 08","time:":"1629","additional factors:":"Speeding","agency":"CPD","id":"163","weather":"Weather, conditions, n/a","address":"4394 OLD HIGHWAY 53","state":"California"},"type":"Feature","geometry":{"type":"Point","coordinates":[-122.631164,38.951514]}},{"properties":{"collision type:":"Non-Injury","city":"Clearlake","date:":"Fri, May 9, 08","time:":"1746","additional factors:":"Speeding","agency":"CPD","id":"164","weather":"Weather, conditions, n/a","address":"15090 RUMSEY RD","state":"California"},"type":"Feature","geometry":{"type":"Point","coordinates":[-122.630708,38.967735]}},{"properties":{"collision type:":"Non-Injury","city":"Clearlake","date:":"Thu, Jul 3, 08","time:":"930","additional factors:":"Speeding","agency":"CPD","id":"165","weather":"Weather, conditions, n/a","address":"OLD HWY 53  at  HIGHLANDS HARBOR","state":"California"},"type":"Feature","geometry":{"type":"Point","coordinates":[-122.62182,38.930984]}},{"properties":{"collision type:":"Non-Injury","city":"Clearlake","date:":"Sat, Sep 6, 08","time:":"1405","additional factors:":"Speeding","agency":"CPD","id":"166","weather":"Weather, conditions, n/a","address":"OLD HIGHWAY 53 at CYPRESS AV","state":"California"},"type":"Feature","geometry":{"type":"Point","coordinates":[-122.631418,38.941722]}},{"properties":{"collision type:":"Non-Injury","city":"Clearlake","date:":"Sun, Nov 9, 08","time:":"150","additional factors:":"Speeding","agency":"CPD","id":"167","weather":"Weather, conditions, n/a","address":"UHL AV at HOWARD AV","state":"California"},"type":"Feature","geometry":{"type":"Point","coordinates":[-122.64216,38.955623]}},{"properties":{"collision type:":"Non-Injury","city":"Clearlake","date:":"Mon, Dec 22, 08","time:":"2050","additional factors:":"Speeding","agency":"CPD","id":"168","weather":"Weather, conditions, n/a","address":"(UNKNOWN ADDRESS)","state":"California"},"type":"Feature","geometry":{"type":"Point","coordinates":[-122.626373,38.958231]}},{"properties":{"collision type:":"Non-Injury","city":"Clearlake","date:":"Tue, Jun 30, 09","time:":"1110","additional factors:":"Speeding","agency":"CPD","id":"169","weather":"Weather, conditions, n/a","address":"OLD HIGHWAY 53","state":"California"},"type":"Feature","geometry":{"type":"Point","coordinates":[-122.630662,38.953421]}},{"properties":{"collision type:":"Non-Injury","city":"Clearlake","date:":"Fri, Sep 25, 09","time:":"1602","additional factors:":"Speeding","agency":"CPD","id":"170","weather":"Weather, conditions, n/a","address":"LAKESHORE DR at PALMER AV","state":"California"},"type":"Feature","geometry":{"type":"Point","coordinates":[-122.631792,38.949921]}},{"properties":{"collision type:":"Non-Injury","city":"Clearlake","date:":"Sun, Dec 27, 09","time:":"2350","additional factors:":"Speeding","agency":"CPD","id":"171","weather":"Weather, conditions, n/a","address":"BURNS VALLEY RD at  BEHIND SAFEWAY","state":"California"},"type":"Feature","geometry":{"type":"Point","coordinates":[-122.626373,38.958231]}},{"properties":{"collision type:":"Non-Injury","city":"Clearlake","date:":"Tue, Sep 14, 10","time:":"159","additional factors:":"Speeding","agency":"CPD","id":"172","weather":"Weather, conditions, n/a","address":"OLD HWY 53 at BALLPARK","state":"California"},"type":"Feature","geometry":{"type":"Point","coordinates":[-122.631278,38.94835]}},{"properties":{"collision type:":"Non-Injury","city":"Clearlake","date:":"Fri, Aug 12, 11","time:":"12:00:00 AM","additional factors:":"Speeding","agency":"CPD","id":"173","weather":"Weather, conditions, n/a","address":"7005 MEADOWBROOK DR","state":"California"},"type":"Feature","geometry":{"type":"Point","coordinates":[-122.627441,38.936105]}},{"properties":{"collision type:":"Non-Injury","city":"Clearlake","date:":"Fri, Feb 9, 07","time:":"1820","additional factors:":"Speeding","agency":"CPD","id":"174","weather":"Weather, conditions, n/a","address":"3380 WASHINGTON Street","state":"California"},"type":"Feature","geometry":{"type":"Point","coordinates":[-122.630358,38.963552]}},{"properties":{"collision type:":"Non-Injury","city":"Clearlake","date:":"Fri, Oct 19, 07","time:":"2130","additional factors:":"Speeding","agency":"CPD","id":"175","weather":"Weather, conditions, n/a","address":"16199 21st Avenue","state":"California"},"type":"Feature","geometry":{"type":"Point","coordinates":[-122.609589,38.937805]}},{"properties":{"collision type:":"Non-Injury","city":"Clearlake","date:":"Sat, Jun 30, 07","time:":"1158","additional factors:":"Speeding","agency":"CPD","id":"176","weather":"Weather, conditions, n/a","address":"ALVITA AV at UHL AV","state":"California"},"type":"Feature","geometry":{"type":"Point","coordinates":[-122.645661,38.957567]}},{"properties":{"collision type:":"Non-Injury","city":"Clearlake","date:":"Thu, Jun 14, 07","time:":"945","additional factors:":"Speeding C","agency":"CPD","id":"177","weather":"Weather, conditions, n/a","address":"3645 OLD HIGHWAY 53","state":"California"},"type":"Feature","geometry":{"type":"Point","coordinates":[-122.630766,38.959508]}},{"properties":{"collision type:":"Non-Injury","city":"Clearlake","date:":"Tue, Sep 16, 08","time:":"1820","additional factors:":"Starting Parked Vehicles or Backing into roadway","agency":"CPD","id":"178","weather":"Weather, conditions, n/a","address":"OLD HIGHWAY 53 at LAKEVIEW WY","state":"California"},"type":"Feature","geometry":{"type":"Point","coordinates":[-122.627463,38.936867]}},{"properties":{"collision type:":"Non-Injury","city":"Clearlake","date:":"Tue, Mar 3, 09","time:":"1119","additional factors:":"Starting Parked Vehicles or Backing into roadway","agency":"CPD","id":"179","weather":"Weather, conditions, n/a","address":"CEDAR AV at DAVIS AV","state":"California"},"type":"Feature","geometry":{"type":"Point","coordinates":[-122.621529,38.954356]}},{"properties":{"collision type:":"Non-Injury","city":"Clearlake","date:":"Fri, Jul 30, 10","time:":"950","additional factors:":"Starting Parked Vehicles or Backing into roadway","agency":"CPD","id":"180","weather":"Weather, conditions, n/a","address":"N at A","state":"California"},"type":"Feature","geometry":{"type":"Point","coordinates":[-122.919803,39.049938]}},{"properties":{"collision type:":"Non-Injury","city":"Clearlake","date:":"Tue, Aug 10, 10","time:":"1725","additional factors:":"Starting Parked Vehicles or Backing into roadway","agency":"CPD","id":"181","weather":"Weather, conditions, n/a","address":"14995 PUTNAM Lane","state":"California"},"type":"Feature","geometry":{"type":"Point","coordinates":[-122.630616,38.947493]}},{"properties":{"collision type:":"Non-Injury","city":"Clearlake","date:":"Thu, Nov 16, 06","time:":"1200","additional factors:":"Starting Parked Vehicles or Backing into roadway","agency":"CPD","id":"182","weather":"Weather, conditions, n/a","address":"14922 OLYMPIC DR","state":"California"},"type":"Feature","geometry":{"type":"Point","coordinates":[-122.632159,38.962495]}},{"properties":{"collision type:":"Non-Injury","city":"Clearlake","date:":"Thu, Feb 15, 07","time:":"1200","additional factors:":"Starting Parked Vehicles or Backing into roadway","agency":"CPD","id":"183","weather":"Weather, conditions, n/a","address":"4313 SNOOK AV","state":"California"},"type":"Feature","geometry":{"type":"Point","coordinates":[-122.627421,38.952002]}},{"properties":{"collision type:":"Non-Injury","city":"Clearlake","date:":"Thu, Feb 22, 07","time:":"1820","additional factors:":"Starting Parked Vehicles or Backing into roadway","agency":"CPD","id":"184","weather":"Weather, conditions, n/a","address":"4641 WEST 40TH","state":"California"},"type":"Feature","geometry":{"type":"Point","coordinates":[-122.637998,38.953644]}},{"properties":{"collision type:":"Non-Injury","city":"Clearlake","date:":"Tue, Feb 27, 07","time:":"2059","additional factors:":"Starting Parked Vehicles or Backing into roadway","agency":"CPD","id":"185","weather":"Weather, conditions, n/a","address":"14275 UHL AV","state":"California"},"type":"Feature","geometry":{"type":"Point","coordinates":[-122.645287,38.956074]}},{"properties":{"collision type:":"Non-Injury","city":"Clearlake","date:":"Mon, Jul 2, 07","time:":"1739","additional factors:":"Starting Parked Vehicles or Backing into roadway","agency":"CPD","id":"186","weather":"Weather, conditions, n/a","address":"32ND AV at BOYLES","state":"California"},"type":"Feature","geometry":{"type":"Point","coordinates":[-122.610564,38.94527]}},{"properties":{"collision type:":"Non-Injury","city":"Clearlake","date:":"Mon, Jul 23, 07","time:":"1240","additional factors:":"Starting Parked Vehicles or Backing into roadway","agency":"CPD","id":"187","weather":"Weather, conditions, n/a","address":"3133 11TH ST","state":"California"},"type":"Feature","geometry":{"type":"Point","coordinates":[-122.662805,38.977187]}},{"properties":{"collision type:":"Non-Injury","city":"Clearlake","date:":"Fri, Sep 14, 07","time:":"2020","additional factors:":"Starting Parked Vehicles or Backing into roadway","agency":"CPD","id":"188","weather":"Weather, conditions, n/a","address":"6300 RIDGEVIEW DR","state":"California"},"type":"Feature","geometry":{"type":"Point","coordinates":[-122.629656,38.936974]}},{"properties":{"collision type:":"Non-Injury","city":"Clearlake","date:":"Sun, Feb 10, 08","time:":"1345","additional factors:":"Starting Parked Vehicles or Backing into roadway","agency":"CPD","id":"189","weather":"Weather, conditions, n/a","address":"TANA AV  at  CRAWFORD AV","state":"California"},"type":"Feature","geometry":{"type":"Point","coordinates":[-122.625056,38.944355]}},{"properties":{"collision type:":"Non-Injury","city":"Clearlake","date:":"Sun, Feb 24, 08","time:":"720","additional factors:":"Starting Parked Vehicles or Backing into roadway","agency":"CPD","id":"190","weather":"Weather, conditions, n/a","address":"16108 42ND AV","state":"California"},"type":"Feature","geometry":{"type":"Point","coordinates":[-122.610987,38.952051]}},{"properties":{"collision type:":"Non-Injury","city":"Clearlake","date:":"Sat, Mar 8, 08","time:":"2100","additional factors:":"Starting Parked Vehicles or Backing into roadway","agency":"CPD","id":"191","weather":"Weather, conditions, n/a","address":"3615 HALIKA ST","state":"California"},"type":"Feature","geometry":{"type":"Point","coordinates":[-122.648468,38.965851]}},{"properties":{"collision type:":"Non-Injury","city":"Clearlake","date:":"Fri, Mar 28, 08","time:":"1900","additional factors:":"Starting Parked Vehicles or Backing into roadway","agency":"CPD","id":"192","weather":"Weather, conditions, n/a","address":"15010 LAKESHORE DR","state":"California"},"type":"Feature","geometry":{"type":"Point","coordinates":[-122.631471,38.949948]}},{"properties":{"collision type:":"Non-Injury","city":"Clearlake","date:":"Wed, Jun 17, 09","time:":"2210","additional factors:":"Starting Parked Vehicles or Backing into roadway","agency":"CPD","id":"193","weather":"Weather, conditions, n/a","address":"16044 30TH AV","state":"California"},"type":"Feature","geometry":{"type":"Point","coordinates":[-122.612203,38.944156]}},{"properties":{"collision type:":"Non-Injury","city":"Clearlake","date:":"Thu, Jun 18, 09","time:":"1627","additional factors:":"Starting Parked Vehicles or Backing into roadway","agency":"CPD","id":"194","weather":"Weather, conditions, n/a","address":"OLD HIGHWAY 53  at  WEST 40TH","state":"California"},"type":"Feature","geometry":{"type":"Point","coordinates":[-122.631444,38.950829]}},{"properties":{"collision type:":"Non-Injury","city":"Clearlake","date:":"Wed, Dec 6, 06","time:":"1400","additional factors:":"Sudden stop","agency":"CPD","id":"195","weather":"Weather, conditions, n/a","address":"STATE HIGHWAY 53 at POLK AV","state":"California"},"type":"Feature","geometry":{"type":"Point","coordinates":[-122.622153,38.959962]}},{"properties":{"collision type:":"Non-Injury","city":"Clearlake","date:":"Wed, Jun 15, 11","time:":"1240","additional factors:":"U-Turn in residence district","agency":"CPD","id":"196","weather":"Weather, conditions, n/a","address":"OLD HIGHWAY 53 at HILLCREST AV","state":"California"},"type":"Feature","geometry":{"type":"Point","coordinates":[-122.631179,38.952608]}},{"properties":{"collision type:":"Non-Injury","city":"Clearlake","date:":"Fri, Feb 22, 08","time:":"2216","additional factors:":"Unattended vehicle","agency":"CPD","id":"197","weather":"Weather, conditions, n/a","address":"OLD HIGHWAY 53 at  WAYLAND WAY","state":"California"},"type":"Feature","geometry":{"type":"Point","coordinates":[-122.631227,38.944931]}},{"properties":{"collision type:":"Non-Injury","city":"Clearlake","date:":"Wed, May 5, 10","time:":"728","additional factors:":"Unattended vehicle","agency":"CPD","id":"198","weather":"Weather, conditions, n/a","address":"RISHER at DUNCAN","state":"California"},"type":"Feature","geometry":{"type":"Point","coordinates":[-122.625798,38.958178]}},{"properties":{"collision type:":"Non-Injury","city":"Clearlake","date:":"Tue, Oct 23, 07","time:":"2010","additional factors:":"UNDETERMINED","agency":"CPD","id":"199","weather":"Weather, conditions, n/a","address":"14050 OLYMPIC DR","state":"California"},"type":"Feature","geometry":{"type":"Point","coordinates":[-122.649139,38.961338]}},{"properties":{"collision type:":"Non-Injury","city":"Lower Lake","date:":"Fri, May 5, 06","time:":"20:00","additional factors:":"Undetermined","agency":"CHP","id":"200","weather":"n/a","address":"SR-20 at Garden Drive","state":"California"},"type":"Feature","geometry":{"type":"Point","coordinates":[-122.610261,38.910455]}},{"properties":{"collision type:":"Non-Injury","city":"Clearlake","date:":"Mon, Dec 4, 06","time:":"1300","additional factors:":"Undetermined","agency":"CPD","id":"201","weather":"Weather, conditions, n/a","address":"15413 LAKESHORE DR","state":"California"},"type":"Feature","geometry":{"type":"Point","coordinates":[-122.624771,38.950357]}},{"properties":{"collision type:":"Non-Injury","city":"Clearlake","date:":"Tue, Dec 12, 06","time:":"1330","additional factors:":"Undetermined","agency":"CPD","id":"202","weather":"Weather, conditions, n/a","address":"15184 LAKESHORE DR","state":"California"},"type":"Feature","geometry":{"type":"Point","coordinates":[-122.628365,38.949869]}},{"properties":{"collision type:":"Non-Injury","city":"Clearlake","date:":"Fri, Jan 12, 07","time:":"2310","additional factors:":"Undetermined","agency":"CPD","id":"203","weather":"Weather, conditions, n/a","address":"14922 OLYMPIC DR","state":"California"},"type":"Feature","geometry":{"type":"Point","coordinates":[-122.632159,38.962495]}},{"properties":{"collision type:":"Non-Injury","city":"Clearlake","date:":"Fri, Jan 19, 07","time:":"1740","additional factors:":"Undetermined","agency":"CPD","id":"204","weather":"Weather, conditions, n/a","address":"5645 OLD HIGHWAY 53","state":"California"},"type":"Feature","geometry":{"type":"Point","coordinates":[-122.632522,38.9425]}},{"properties":{"collision type:":"Non-Injury","city":"Clearlake","date:":"Sat, Jan 20, 07","time:":"200","additional factors:":"Undetermined","agency":"CPD","id":"205","weather":"Weather, conditions, n/a","address":"5895 OLD HIGHWAY 53","state":"California"},"type":"Feature","geometry":{"type":"Point","coordinates":[-122.634057,38.94044]}},{"properties":{"collision type:":"Non-Injury","city":"Clearlake","date:":"Mon, Jan 22, 07","time:":"1430","additional factors:":"Undetermined","agency":"CPD","id":"206","weather":"Weather, conditions, n/a","address":"15312 LAKESHORE DR","state":"California"},"type":"Feature","geometry":{"type":"Point","coordinates":[-122.626605,38.949987]}},{"properties":{"collision type:":"Non-Injury","city":"Clearlake","date:":"Fri, Feb 16, 07","time:":"2300","additional factors:":"Undetermined","agency":"CPD","id":"207","weather":"Weather, conditions, n/a","address":"14141 LAKESHORE DR","state":"California"},"type":"Feature","geometry":{"type":"Point","coordinates":[-122.648069,38.955649]}},{"properties":{"collision type:":"Non-Injury","city":"Clearlake","date:":"Mon, Feb 19, 07","time:":"300","additional factors:":"Undetermined","agency":"CPD","id":"208","weather":"Weather, conditions, n/a","address":"DAVIS at KONOCTI AV","state":"California"},"type":"Feature","geometry":{"type":"Point","coordinates":[-122.606657,38.954197]}},{"properties":{"collision type:":"Non-Injury","city":"Clearlake","date:":"Mon, Mar 5, 07","time:":"800","additional factors:":"Undetermined","agency":"CPD","id":"209","weather":"Weather, conditions, n/a","address":"16098 31ST AV","state":"California"},"type":"Feature","geometry":{"type":"Point","coordinates":[-122.611425,38.9448]}},{"properties":{"collision type:":"Non-Injury","city":"Clearlake","date:":"Wed, Mar 14, 07","time:":"1504","additional factors:":"Undetermined","agency":"CPD","id":"210","weather":"Weather, conditions, n/a","address":"PINE AVE at DAVIS AV","state":"California"},"type":"Feature","geometry":{"type":"Point","coordinates":[-122.621712,38.95436]}},{"properties":{"collision type:":"Non-Injury","city":"Clearlake","date:":"Thu, Mar 15, 07","time:":"1900","additional factors:":"Undetermined","agency":"CPD","id":"211","weather":"Weather, conditions, n/a","address":"14360 LAKESHORE DR","state":"California"},"type":"Feature","geometry":{"type":"Point","coordinates":[-122.643352,38.954144]}},{"properties":{"collision type:":"Non-Injury","city":"Clearlake","date:":"Sat, Apr 28, 07","time:":"1240","additional factors:":"Undetermined","agency":"CPD","id":"212","weather":"Weather, conditions, n/a","address":"15960 DAM RD","state":"California"},"type":"Feature","geometry":{"type":"Point","coordinates":[-122.616458,38.931276]}},{"properties":{"collision type:":"Non-Injury","city":"Clearlake","date:":"Wed, May 9, 07","time:":"1736","additional factors:":"Undetermined","agency":"CPD","id":"213","weather":"Weather, conditions, n/a","address":"14922 OLYMPIC DR","state":"California"},"type":"Feature","geometry":{"type":"Point","coordinates":[-122.632159,38.962495]}},{"properties":{"collision type:":"Non-Injury","city":"Clearlake","date:":"Fri, May 11, 07","time:":"1745","additional factors:":"Undetermined","agency":"CPD","id":"214","weather":"Weather, conditions, n/a","address":"15630 18TH AV","state":"California"},"type":"Feature","geometry":{"type":"Point","coordinates":[-122.62023,38.936198]}},{"properties":{"collision type:":"Non-Injury","city":"Clearlake","date:":"Sat, May 19, 07","time:":"1843","additional factors:":"Undetermined","agency":"CPD","id":"215","weather":"Weather, conditions, n/a","address":"15484 HIGHLANDS HARBOR DR","state":"California"},"type":"Feature","geometry":{"type":"Point","coordinates":[-122.623276,38.930086]}},{"properties":{"collision type:":"Non-Injury","city":"Clearlake","date:":"Sun, May 20, 07","time:":"1100","additional factors:":"Undetermined","agency":"CPD","id":"216","weather":"Weather, conditions, n/a","address":"14922 OLYMPIC DR","state":"California"},"type":"Feature","geometry":{"type":"Point","coordinates":[-122.632159,38.962495]}},{"properties":{"collision type:":"Non-Injury","city":"Clearlake","date:":"Sat, May 26, 07","time:":"1730","additional factors:":"Undetermined","agency":"CPD","id":"217","weather":"Weather, conditions, n/a","address":"15040 VILLA WY","state":"California"},"type":"Feature","geometry":{"type":"Point","coordinates":[-122.64658,38.961407]}},{"properties":{"collision type:":"Non-Injury","city":"Clearlake","date:":"Sat, May 26, 07","time:":"2129","additional factors:":"Undetermined","agency":"CPD","id":"218","weather":"Weather, conditions, n/a","address":"15960 DAM RD","state":"California"},"type":"Feature","geometry":{"type":"Point","coordinates":[-122.616458,38.931276]}},{"properties":{"collision type:":"Non-Injury","city":"Clearlake","date:":"Thu, Jun 14, 07","time:":"1610","additional factors:":"Undetermined","agency":"CPD","id":"219","weather":"Weather, conditions, n/a","address":"15230 LAKESHORE DR","state":"California"},"type":"Feature","geometry":{"type":"Point","coordinates":[-122.627718,38.949854]}},{"properties":{"collision type:":"Non-Injury","city":"Clearlake","date:":"Fri, Jun 22, 07","time:":"700","additional factors:":"Undetermined","agency":"CPD","id":"220","weather":"Weather, conditions, n/a","address":"(UNKNOWN ADDRESS)","state":"California"},"type":"Feature","geometry":{"type":"Point","coordinates":[-122.626373,38.958231]}},{"properties":{"collision type:":"Non-Injury","city":"Clearlake","date:":"Tue, Jul 3, 07","time:":"1100","additional factors:":"Undetermined","agency":"CPD","id":"221","weather":"Weather, conditions, n/a","address":"14922 OLYMPIC DR","state":"California"},"type":"Feature","geometry":{"type":"Point","coordinates":[-122.632159,38.962495]}},{"properties":{"collision type:":"Non-Injury","city":"Clearlake","date:":"Tue, Jul 3, 07","time:":"1700","additional factors:":"Undetermined","agency":"CPD","id":"222","weather":"Weather, conditions, n/a","address":"(UNKNOWN ADDRESS)","state":"California"},"type":"Feature","geometry":{"type":"Point","coordinates":[-122.626373,38.958231]}},{"properties":{"collision type:":"Non-Injury","city":"Clearlake","date:":"Wed, Jul 4, 07","time:":"1419","additional factors:":"Undetermined","agency":"CPD","id":"223","weather":"Weather, conditions, n/a","address":"14300 WALNUT AV","state":"California"},"type":"Feature","geometry":{"type":"Point","coordinates":[-122.644813,38.960636]}},{"properties":{"collision type:":"Non-Injury","city":"Clearlake","date:":"Sat, Aug 11, 07","time:":"2200","additional factors:":"Undetermined","agency":"CPD","id":"224","weather":"Weather, conditions, n/a","address":"16224 26TH AV","state":"California"},"type":"Feature","geometry":{"type":"Point","coordinates":[-122.608862,38.94148]}},{"properties":{"collision type:":"Non-Injury","city":"Clearlake","date:":"Sat, Sep 8, 07","time:":"939","additional factors:":"Undetermined","agency":"CPD","id":"225","weather":"Weather, conditions, n/a","address":"15117 OLYMPIC DR","state":"California"},"type":"Feature","geometry":{"type":"Point","coordinates":[-122.629234,38.961798]}},{"properties":{"collision type:":"Non-Injury","city":"Clearlake","date:":"Fri, Dec 28, 07","time:":"1400","additional factors:":"Undetermined","agency":"CPD","id":"226","weather":"Weather, conditions, n/a","address":"15969 32ND AV","state":"California"},"type":"Feature","geometry":{"type":"Point","coordinates":[-122.613817,38.945103]}},{"properties":{"collision type:":"Non-Injury","city":"Clearlake","date:":"Mon, Mar 3, 08","time:":"0","additional factors:":"Undetermined","agency":"CPD","id":"227","weather":"Weather, conditions, n/a","address":"LAKESHORE DR at OLD HIGHWAY 53","state":"California"},"type":"Feature","geometry":{"type":"Point","coordinates":[-122.631412,38.949934]}},{"properties":{"collision type:":"Non-Injury","city":"Clearlake","date:":"Mon, Mar 3, 08","time:":"1539","additional factors:":"Undetermined","agency":"CPD","id":"228","weather":"Weather, conditions, n/a","address":"STATE HIGHWAY 53 at LAKESHORE DR","state":"California"},"type":"Feature","geometry":{"type":"Point","coordinates":[-122.623107,38.950713]}},{"properties":{"collision type:":"Non-Injury","city":"Clearlake","date:":"Mon, Mar 3, 08","time:":"1600","additional factors:":"Undetermined","agency":"CPD","id":"229","weather":"Weather, conditions, n/a","address":"14918 OLYMPIC DR","state":"California"},"type":"Feature","geometry":{"type":"Point","coordinates":[-122.631645,38.962049]}},{"properties":{"collision type:":"Non-Injury","city":"Clearlake","date:":"Tue, Mar 18, 08","time:":"1435","additional factors:":"Undetermined","agency":"CPD","id":"230","weather":"Weather, conditions, n/a","address":"15960 DAM RD","state":"California"},"type":"Feature","geometry":{"type":"Point","coordinates":[-122.616458,38.931276]}},{"properties":{"collision type:":"Non-Injury","city":"Clearlake","date:":"Fri, Apr 25, 08","time:":"1650","additional factors:":"Undetermined","agency":"CPD","id":"231","weather":"Weather, conditions, n/a","address":"6885 OLD HIGHWAY 53","state":"California"},"type":"Feature","geometry":{"type":"Point","coordinates":[-122.622911,38.933829]}},{"properties":{"collision type:":"Non-Injury","city":"Clearlake","date:":"Fri, May 9, 08","time:":"1419","additional factors:":"Undetermined","agency":"CPD","id":"232","weather":"Weather, conditions, n/a","address":"15419 STANYON ST","state":"California"},"type":"Feature","geometry":{"type":"Point","coordinates":[-122.624762,38.947235]}},{"properties":{"collision type:":"Non-Injury","city":"Clearlake","date:":"Sun, May 25, 08","time:":"1030","additional factors:":"Undetermined","agency":"CPD","id":"233","weather":"Weather, conditions, n/a","address":"16126 20TH AV","state":"California"},"type":"Feature","geometry":{"type":"Point","coordinates":[-122.610832,38.937545]}},{"properties":{"collision type:":"Non-Injury","city":"Clearlake","date:":"Fri, May 30, 08","time:":"2243","additional factors:":"Undetermined","agency":"CPD","id":"234","weather":"Weather, conditions, n/a","address":"14922 OLYMPIC DR","state":"California"},"type":"Feature","geometry":{"type":"Point","coordinates":[-122.632159,38.962495]}},{"properties":{"collision type:":"Non-Injury","city":"Clearlake","date:":"Wed, Jun 25, 08","time:":"2034","additional factors:":"Undetermined","agency":"CPD","id":"235","weather":"Weather, conditions, n/a","address":"15322 LAKESHORE DR","state":"California"},"type":"Feature","geometry":{"type":"Point","coordinates":[-122.625685,38.950551]}},{"properties":{"collision type:":"Non-Injury","city":"Clearlake","date:":"Thu, Jul 3, 08","time:":"1348","additional factors:":"Undetermined","agency":"CPD","id":"236","weather":"Weather, conditions, n/a","address":"15010 LAKESHORE DR","state":"California"},"type":"Feature","geometry":{"type":"Point","coordinates":[-122.631471,38.949948]}},{"properties":{"collision type:":"Non-Injury","city":"Clearlake","date:":"Sat, Aug 2, 08","time:":"1300","additional factors:":"Undetermined","agency":"CPD","id":"237","weather":"Weather, conditions, n/a","address":"15960 DAM RD","state":"California"},"type":"Feature","geometry":{"type":"Point","coordinates":[-122.616458,38.931276]}},{"properties":{"collision type:":"Non-Injury","city":"Clearlake","date:":"Mon, Aug 11, 08","time:":"1","additional factors:":"Undetermined","agency":"CPD","id":"238","weather":"Weather, conditions, n/a","address":"14890 LELABELLE BLVD","state":"California"},"type":"Feature","geometry":{"type":"Point","coordinates":[-122.633331,38.945938]}},{"properties":{"collision type:":"Non-Injury","city":"Clearlake","date:":"Wed, Sep 24, 08","time:":"1400","additional factors:":"Undetermined","agency":"CPD","id":"239","weather":"Weather, conditions, n/a","address":"15290 LAKESHORE DR","state":"California"},"type":"Feature","geometry":{"type":"Point","coordinates":[-122.626879,38.949871]}},{"properties":{"collision type:":"Non-Injury","city":"Clearlake","date:":"Tue, Feb 3, 09","time:":"1450","additional factors:":"Undetermined","agency":"CPD","id":"240","weather":"Weather, conditions, n/a","address":"14409 LAKESHORE DR","state":"California"},"type":"Feature","geometry":{"type":"Point","coordinates":[-122.643512,38.95227]}},{"properties":{"collision type:":"Non-Injury","city":"Clearlake","date:":"Sat, Feb 7, 09","time:":"900","additional factors:":"Undetermined","agency":"CPD","id":"241","weather":"Weather, conditions, n/a","address":"14086 LAKESHORE DR","state":"California"},"type":"Feature","geometry":{"type":"Point","coordinates":[-122.648646,38.958708]}},{"properties":{"collision type:":"Non-Injury","city":"Clearlake","date:":"Sat, Feb 7, 09","time:":"1712","additional factors:":"Undetermined","agency":"CPD","id":"242","weather":"Weather, conditions, n/a","address":"14645 UHL AV","state":"California"},"type":"Feature","geometry":{"type":"Point","coordinates":[-122.638587,38.953124]}},{"properties":{"collision type:":"Non-Injury","city":"Clearlake","date:":"Wed, Mar 11, 09","time:":"1350","additional factors:":"Undetermined","agency":"CPD","id":"243","weather":"Weather, conditions, n/a","address":"OLD HIGHWAY 53 at LAKESHORE DR","state":"California"},"type":"Feature","geometry":{"type":"Point","coordinates":[-122.631412,38.949934]}},{"properties":{"collision type:":"Non-Injury","city":"Clearlake","date:":"Sun, Apr 12, 09","time:":"955","additional factors:":"Undetermined","agency":"CPD","id":"244","weather":"Weather, conditions, n/a","address":"LAKESHORE DR at OLD HIGHWAY 53","state":"California"},"type":"Feature","geometry":{"type":"Point","coordinates":[-122.631412,38.949934]}},{"properties":{"collision type:":"Non-Injury","city":"Clearlake","date:":"Tue, Jul 14, 09","time:":"1742","additional factors:":"Undetermined","agency":"CPD","id":"245","weather":"Weather, conditions, n/a","address":"15960 DAM RD","state":"California"},"type":"Feature","geometry":{"type":"Point","coordinates":[-122.616458,38.931276]}},{"properties":{"collision type:":"Non-Injury","city":"Clearlake","date:":"Mon, Aug 17, 09","time:":"2341","additional factors:":"Undetermined","agency":"CPD","id":"246","weather":"Weather, conditions, n/a","address":"MENDOCINO at SAN JOAQUIN AV","state":"California"},"type":"Feature","geometry":{"type":"Point","coordinates":[-122.670003,38.97332]}},{"properties":{"collision type:":"Non-Injury","city":"Clearlake","date:":"Mon, Aug 31, 09","time:":"1100","additional factors:":"Undetermined","agency":"CPD","id":"247","weather":"Weather, conditions, n/a","address":"CASS AV at BROWN AV","state":"California"},"type":"Feature","geometry":{"type":"Point","coordinates":[-122.628342,38.943587]}},{"properties":{"collision type:":"Non-Injury","city":"Clearlake","date:":"Sat, Mar 6, 10","time:":"845","additional factors:":"Undetermined","agency":"CPD","id":"248","weather":"Weather, conditions, n/a","address":"14922 OLYMPIC DR","state":"California"},"type":"Feature","geometry":{"type":"Point","coordinates":[-122.632159,38.962495]}},{"properties":{"collision type:":"Non-Injury","city":"Clearlake","date:":"Thu, Mar 11, 10","time:":"1000","additional factors:":"Undetermined","agency":"CPD","id":"249","weather":"Weather, conditions, n/a","address":"4860  OLD HWY 53","state":"California"},"type":"Feature","geometry":{"type":"Point","coordinates":[-122.630289,38.947908]}},{"properties":{"collision type:":"Non-Injury","city":"Clearlake","date:":"Sat, Mar 20, 10","time:":"940","additional factors:":"Undetermined","agency":"CPD","id":"250","weather":"Weather, conditions, n/a","address":"LAKESHORE DR at KABAL","state":"California"},"type":"Feature","geometry":{"type":"Point","coordinates":[-122.649507,38.963108]}},{"properties":{"collision type:":"Non-Injury","city":"Clearlake","date:":"Fri, Mar 26, 10","time:":"1615","additional factors:":"Undetermined","agency":"CPD","id":"251","weather":"Weather, conditions, n/a","address":"OLD HWY 53  at  AUSTIN DR","state":"California"},"type":"Feature","geometry":{"type":"Point","coordinates":[-122.631369,38.958323]}},{"properties":{"collision type:":"Non-Injury","city":"Clearlake","date:":"Fri, Mar 26, 10","time:":"1830","additional factors:":"Undetermined","agency":"CPD","id":"252","weather":"Weather, conditions, n/a","address":"4146 LASKY AV","state":"California"},"type":"Feature","geometry":{"type":"Point","coordinates":[-122.632832,38.95347]}},{"properties":{"collision type:":"Non-Injury","city":"Clearlake","date:":"Mon, May 10, 10","time:":"0","additional factors:":"Undetermined","agency":"CPD","id":"253","weather":"Weather, conditions, n/a","address":"HWY 53 at LAKESHORE DR","state":"California"},"type":"Feature","geometry":{"type":"Point","coordinates":[-122.623107,38.950713]}},{"properties":{"collision type:":"Non-Injury","city":"Clearlake","date:":"Fri, Jul 9, 10","time:":"130","additional factors:":"Undetermined","agency":"CPD","id":"254","weather":"Weather, conditions, n/a","address":"5895 OLD HIGHWAY 53","state":"California"},"type":"Feature","geometry":{"type":"Point","coordinates":[-122.634057,38.94044]}},{"properties":{"collision type:":"Non-Injury","city":"Clearlake","date:":"Sat, Oct 2, 10","time:":"1748","additional factors:":"Undetermined","agency":"CPD","id":"255","weather":"Weather, conditions, n/a","address":"40TH AV at PHILLIPS AV","state":"California"},"type":"Feature","geometry":{"type":"Point","coordinates":[-122.615159,38.950582]}},{"properties":{"collision type:":"Non-Injury","city":"Clearlake","date:":"Sat, Nov 27, 10","time:":"1320","additional factors:":"Undetermined","agency":"CPD","id":"256","weather":"Weather, conditions, n/a","address":"15960 DAM RD EXT","state":"California"},"type":"Feature","geometry":{"type":"Point","coordinates":[-122.614318,38.931897]}},{"properties":{"collision type:":"Non-Injury","city":"Clearlake","date:":"Mon, Jan 17, 11","time:":"1739","additional factors:":"Undetermined","agency":"CPD","id":"257","weather":"Weather, conditions, n/a","address":"LAKESHORE DR at HWY 53","state":"California"},"type":"Feature","geometry":{"type":"Point","coordinates":[-122.623107,38.950713]}},{"properties":{"collision type:":"Non-Injury","city":"Clearlake","date:":"Thu, Feb 10, 11","time:":"0","additional factors:":"Undetermined","agency":"CPD","id":"258","weather":"Weather, conditions, n/a","address":"14050 OLYMPIC DR","state":"California"},"type":"Feature","geometry":{"type":"Point","coordinates":[-122.649139,38.961338]}},{"properties":{"collision type:":"Non-Injury","city":"Clearlake","date:":"Tue, Feb 15, 11","time:":"1520","additional factors:":"Undetermined","agency":"CPD","id":"259","weather":"Weather, conditions, n/a","address":"5645 OLD HIGHWAY 53","state":"California"},"type":"Feature","geometry":{"type":"Point","coordinates":[-122.632522,38.9425]}},{"properties":{"collision type:":"Non-Injury","city":"Clearlake","date:":"Sun, Feb 27, 11","time:":"49","additional factors:":"Undetermined","agency":"CPD","id":"260","weather":"Weather, conditions, n/a","address":"37TH AT PARKER AV","state":"California"},"type":"Feature","geometry":{"type":"Point","coordinates":[-122.60419,38.937333]}},{"properties":{"collision type:":"Non-Injury","city":"Clearlake","date:":"Tue, Mar 8, 11","time:":"0","additional factors:":"Undetermined","agency":"CPD","id":"261","weather":"Weather, conditions, n/a","address":"14096 LAKESHORE DR","state":"California"},"type":"Feature","geometry":{"type":"Point","coordinates":[-122.648233,38.957836]}},{"properties":{"collision type:":"Non-Injury","city":"Clearlake","date:":"Tue, Mar 15, 11","time:":"1600","additional factors:":"Undetermined","agency":"CPD","id":"262","weather":"Weather, conditions, n/a","address":"15960 DAM RD","state":"California"},"type":"Feature","geometry":{"type":"Point","coordinates":[-122.616458,38.931276]}},{"properties":{"collision type:":"Non-Injury","city":"Clearlake","date:":"Sat, Apr 16, 11","time:":"1904","additional factors:":"Undetermined","agency":"CPD","id":"263","weather":"Weather, conditions, n/a","address":"36TH AV at PHILLIPS AV","state":"California"},"type":"Feature","geometry":{"type":"Point","coordinates":[-122.61524,38.94795]}},{"properties":{"collision type:":"Non-Injury","city":"Clearlake","date:":"Mon, Jun 6, 11","time:":"1320","additional factors:":"Undetermined","agency":"CPD","id":"264","weather":"Weather, conditions, n/a","address":"15875 DAM RD EXT","state":"California"},"type":"Feature","geometry":{"type":"Point","coordinates":[-122.618611,38.93176]}},{"properties":{"collision type:":"Non-Injury","city":"Clearlake","date:":"Mon, Jun 20, 11","time:":"1012","additional factors:":"Undetermined","agency":"CPD","id":"265","weather":"Weather, conditions, n/a","address":"15630 18TH AV","state":"California"},"type":"Feature","geometry":{"type":"Point","coordinates":[-122.62023,38.936198]}},{"properties":{"collision type:":"Non-Injury","city":"Clearlake","date:":"Thu, Jun 23, 11","time:":"2240","additional factors:":"Undetermined","agency":"CPD","id":"266","weather":"Weather, conditions, n/a","address":"14922 OLYMPIC DR","state":"California"},"type":"Feature","geometry":{"type":"Point","coordinates":[-122.632159,38.962495]}},{"properties":{"collision type:":"Non-Injury","city":"Clearlake","date:":"Tue, Jun 28, 11","time:":"0","additional factors:":"Undetermined","agency":"CPD","id":"267","weather":"Weather, conditions, n/a","address":"CRAWFORD AV at CYPRESS AV","state":"California"},"type":"Feature","geometry":{"type":"Point","coordinates":[-122.628234,38.94173]}},{"properties":{"collision type:":"Non-Injury","city":"Clearlake","date:":"Sun, Jul 3, 11","time:":"847","additional factors:":"Undetermined","agency":"CPD","id":"268","weather":"Weather, conditions, n/a","address":"N at A","state":"California"},"type":"Feature","geometry":{"type":"Point","coordinates":[-122.919803,39.049938]}},{"properties":{"collision type:":"Non-Injury","city":"Clearlake","date:":"Sat, Jul 9, 11","time:":"2200","additional factors:":"Undetermined","agency":"CPD","id":"269","weather":"Weather, conditions, n/a","address":"14595 ROBINSON AV","state":"California"},"type":"Feature","geometry":{"type":"Point","coordinates":[-122.640085,38.953653]}},{"properties":{"collision type:":"Non-Injury","city":"Clearlake","date:":"Mon, Aug 15, 11","time:":"2000","additional factors:":"Undetermined","agency":"CPD","id":"270","weather":"Weather, conditions, n/a","address":"5645 OLD HIGHWAY 53","state":"California"},"type":"Feature","geometry":{"type":"Point","coordinates":[-122.632522,38.9425]}},{"properties":{"collision type:":"Non-Injury","city":"Clearlake","date:":"Mon, Aug 6, 07","time:":"1100","additional factors:":"Undetermined","agency":"CPD","id":"271","weather":"Weather, conditions, n/a","address":"14624 LAKESHORE Drive","state":"California"},"type":"Feature","geometry":{"type":"Point","coordinates":[-122.638835,38.95077]}},{"properties":{"collision type:":"Non-Injury","city":"Clearlake","date:":"Sat, Aug 18, 07","time:":"36","additional factors:":"Undetermined","agency":"CPD","id":"272","weather":"Weather, conditions, n/a","address":"14395 LAKESHORE Drive","state":"California"},"type":"Feature","geometry":{"type":"Point","coordinates":[-122.643766,38.953168]}},{"properties":{"collision type:":"Non-Injury","city":"Lakeport","date:":"Thu, Mar 8, 07","time:":"14:20","additional factors:":"Undetermined","agency":"CHP","id":"273","weather":"Clear, dry","address":"Nice-Lucerne Cutoff at Rodman Slough","state":"California"},"type":"Feature","geometry":{"type":"Point","coordinates":[-122.915829,39.042951]}},{"properties":{"collision type:":"Non-Injury","city":"Clearlake","date:":"Sun, Apr 20, 08","time:":"1335","additional factors:":"Undetermined","agency":"CPD","id":"274","weather":"Weather, conditions, n/a","address":"32ND AV  at  IRVING AV","state":"California"},"type":"Feature","geometry":{"type":"Point","coordinates":[-122.613047,38.945287]}},{"properties":{"collision type:":"Non-Injury","city":"Clearlake","date:":"Fri, Apr 25, 08","time:":"1700","additional factors:":"Undetermined","agency":"CPD","id":"275","weather":"Weather, conditions, n/a","address":"6100 OLD HIGHWAY 53","state":"California"},"type":"Feature","geometry":{"type":"Point","coordinates":[-122.62932,38.939173]}},{"properties":{"collision type:":"Non-Injury","city":"Clearlake","date:":"Fri, May 16, 08","time:":"925","additional factors:":"Undetermined","agency":"CPD","id":"276","weather":"Weather, conditions, n/a","address":"14825 LAKESHORE DR","state":"California"},"type":"Feature","geometry":{"type":"Point","coordinates":[-122.634871,38.949678]}},{"properties":{"collision type:":"Non-Injury","city":"Clearlake","date:":"Thu, Apr 2, 09","time:":"2155","additional factors:":"Unsafe Backing","agency":"CPD","id":"277","weather":"Weather, conditions, n/a","address":"15010 LAKESHORE DR","state":"California"},"type":"Feature","geometry":{"type":"Point","coordinates":[-122.631471,38.949948]}},{"properties":{"collision type:":"Non-Injury","city":"Clearlake","date:":"Sat, Mar 15, 08","time:":"1418","additional factors:":"Unsafe entry Onto Highway","agency":"CPD","id":"278","weather":"Weather, conditions, n/a","address":"7050 OLD HIGHWAY 53","state":"California"},"type":"Feature","geometry":{"type":"Point","coordinates":[-122.622966,38.932013]}},{"properties":{"collision type:":"Non-Injury","city":"Clearlake","date:":"Mon, Mar 3, 08","time:":"2039","additional factors:":"Unsafe entry Onto Highway","agency":"CPD","id":"279","weather":"Weather, conditions, n/a","address":"13804 LAKESHORE DR","state":"California"},"type":"Feature","geometry":{"type":"Point","coordinates":[-122.653997,38.967699]}},{"properties":{"collision type:":"Non-Injury","city":"Clearlake","date:":"Sun, Mar 30, 08","time:":"935","additional factors:":"Unsafe entry Onto Highway","agency":"CPD","id":"280","weather":"Weather, conditions, n/a","address":"HWY 53  at  LAKESHORE DR","state":"California"},"type":"Feature","geometry":{"type":"Point","coordinates":[-122.623107,38.950713]}},{"properties":{"collision type:":"Non-Injury","city":"Clearlake","date:":"Fri, Oct 3, 08","time:":"1610","additional factors:":"Unsafe entry Onto Highway","agency":"CPD","id":"281","weather":"Weather, conditions, n/a","address":"STATE HIGHWAY 53 at LAKESHORE DR","state":"California"},"type":"Feature","geometry":{"type":"Point","coordinates":[-122.623107,38.950713]}},{"properties":{"collision type:":"Non-Injury","city":"Clearlake","date:":"Fri, Mar 20, 09","time:":"1716","additional factors:":"Unsafe entry Onto Highway","agency":"CPD","id":"282","weather":"Weather, conditions, n/a","address":"15290 LAKESHORE DR","state":"California"},"type":"Feature","geometry":{"type":"Point","coordinates":[-122.626879,38.949871]}},{"properties":{"collision type:":"Non-Injury","city":"Clearlake","date:":"Fri, Nov 28, 08","time:":"1835","additional factors:":"Unsafe left or U turn","agency":"CPD","id":"283","weather":"Weather, conditions, n/a","address":"LAKESHORE at PARK AVE","state":"California"},"type":"Feature","geometry":{"type":"Point","coordinates":[-122.654586,38.968133]}},{"properties":{"collision type:":"Non-Injury","city":"Clearlake","date:":"Sun, Oct 29, 06","time:":"2024","additional factors:":"Unsafe left turn","agency":"CPD","id":"284","weather":"Weather, conditions, n/a","address":"14910 DAVIS AV","state":"California"},"type":"Feature","geometry":{"type":"Point","coordinates":[-122.633323,38.954681]}},{"properties":{"collision type:":"Non-Injury","city":"Clearlake","date:":"Tue, Nov 28, 06","time:":"1450","additional factors:":"Unsafe left turn","agency":"CPD","id":"285","weather":"Weather, conditions, n/a","address":"BURNS VALLEY RD at YOUNG AV","state":"California"},"type":"Feature","geometry":{"type":"Point","coordinates":[-122.626373,38.958231]}},{"properties":{"collision type:":"Non-Injury","city":"Clearlake","date:":"Thu, Feb 8, 07","time:":"900","additional factors:":"Unsafe left turn","agency":"CPD","id":"286","weather":"Weather, conditions, n/a","address":"14409 LAKESHORE DR","state":"California"},"type":"Feature","geometry":{"type":"Point","coordinates":[-122.643512,38.95227]}},{"properties":{"collision type:":"Non-Injury","city":"Clearlake","date:":"Sun, Apr 1, 07","time:":"315","additional factors:":"Unsafe left turn","agency":"CPD","id":"287","weather":"Weather, conditions, n/a","address":"14948 LELABELLE BL","state":"California"},"type":"Feature","geometry":{"type":"Point","coordinates":[-122.632245,38.94581]}},{"properties":{"collision type:":"Non-Injury","city":"Clearlake","date:":"Sun, Apr 8, 07","time:":"1917","additional factors:":"Unsafe left turn","agency":"CPD","id":"288","weather":"Weather, conditions, n/a","address":"15885 37TH AV","state":"California"},"type":"Feature","geometry":{"type":"Point","coordinates":[-122.615444,38.948585]}},{"properties":{"collision type:":"Non-Injury","city":"Clearlake","date:":"Wed, Jun 20, 07","time:":"1200","additional factors:":"Unsafe left turn","agency":"CPD","id":"289","weather":"Weather, conditions, n/a","address":"6215 OLD HIGHWAY 53","state":"California"},"type":"Feature","geometry":{"type":"Point","coordinates":[-122.628499,38.937576]}},{"properties":{"collision type:":"Non-Injury","city":"Clearlake","date:":"Sat, Aug 25, 07","time:":"2320","additional factors:":"Unsafe left turn","agency":"CPD","id":"290","weather":"Weather, conditions, n/a","address":"15969 32ND AV","state":"California"},"type":"Feature","geometry":{"type":"Point","coordinates":[-122.613817,38.945103]}},{"properties":{"collision type:":"Non-Injury","city":"Clearlake","date:":"Wed, Sep 5, 07","time:":"2148","additional factors:":"Unsafe left turn","agency":"CPD","id":"291","weather":"Weather, conditions, n/a","address":"COTTONWOOD at OLYMPIC DR","state":"California"},"type":"Feature","geometry":{"type":"Point","coordinates":[-122.642036,38.961765]}},{"properties":{"collision type:":"Non-Injury","city":"Clearlake","date:":"Tue, Oct 30, 07","time:":"1703","additional factors:":"Unsafe left turn","agency":"CPD","id":"292","weather":"Weather, conditions, n/a","address":"OLD HIGHWAY 53 at AIRPORT RD","state":"California"},"type":"Feature","geometry":{"type":"Point","coordinates":[-122.624592,38.933246]}},{"properties":{"collision type:":"Non-Injury","city":"Clearlake","date:":"Tue, Dec 11, 07","time:":"2046","additional factors:":"Unsafe left turn","agency":"CPD","id":"293","weather":"Weather, conditions, n/a","address":"14520 BURNS VALLEY RD","state":"California"},"type":"Feature","geometry":{"type":"Point","coordinates":[-122.639951,38.966019]}},{"properties":{"collision type:":"Non-Injury","city":"Clearlake","date:":"Mon, Jan 7, 08","time:":"1220","additional factors:":"Unsafe left turn","agency":"CPD","id":"294","weather":"Weather, conditions, n/a","address":"OLYMPIC DR at GARFIELD","state":"California"},"type":"Feature","geometry":{"type":"Point","coordinates":[-122.622385,38.963429]}},{"properties":{"collision type:":"Non-Injury","city":"Clearlake","date:":"Fri, Mar 14, 08","time:":"2020","additional factors:":"Unsafe left turn","agency":"CPD","id":"295","weather":"Weather, conditions, n/a","address":"14860 VALLEY AV","state":"California"},"type":"Feature","geometry":{"type":"Point","coordinates":[-122.634391,38.953565]}},{"properties":{"collision type:":"Non-Injury","city":"Clearlake","date:":"Sat, Mar 29, 08","time:":"1640","additional factors:":"Unsafe left turn","agency":"CPD","id":"296","weather":"Weather, conditions, n/a","address":"40TH AV  at  BOYLES AV","state":"California"},"type":"Feature","geometry":{"type":"Point","coordinates":[-122.610443,38.95054]}},{"properties":{"collision type:":"Non-Injury","city":"Clearlake","date:":"Sun, Jul 20, 08","time:":"1300","additional factors:":"Unsafe left turn","agency":"CPD","id":"297","weather":"Weather, conditions, n/a","address":"33RD AV","state":"California"},"type":"Feature","geometry":{"type":"Point","coordinates":[-122.613145,38.945962]}},{"properties":{"collision type:":"Non-Injury","city":"Clearlake","date:":"Thu, Sep 25, 08","time:":"735","additional factors:":"Unsafe left turn","agency":"CPD","id":"298","weather":"Weather, conditions, n/a","address":"14086 LAKESHORE DR","state":"California"},"type":"Feature","geometry":{"type":"Point","coordinates":[-122.648646,38.958708]}},{"properties":{"collision type:":"Non-Injury","city":"Clearlake","date:":"Tue, Sep 1, 09","time:":"730","additional factors:":"Unsafe left turn","agency":"CPD","id":"299","weather":"Weather, conditions, n/a","address":"40TH AV at OAK AV","state":"California"},"type":"Feature","geometry":{"type":"Point","coordinates":[-122.619847,38.947399]}},{"properties":{"collision type:":"Non-Injury","city":"Clearlake","date:":"Sun, Jan 24, 10","time:":"1730","additional factors:":"Unsafe left turn","agency":"CPD","id":"300","weather":"Weather, conditions, n/a","address":"13711 ARROWHEAD RD","state":"California"},"type":"Feature","geometry":{"type":"Point","coordinates":[-122.655209,38.969017]}},{"properties":{"collision type:":"Non-Injury","city":"Clearlake","date:":"Sat, Aug 21, 10","time:":"2230","additional factors:":"Unsafe left turn","agency":"CPD","id":"301","weather":"Weather, conditions, n/a","address":"14825 CLEMENT DR","state":"California"},"type":"Feature","geometry":{"type":"Point","coordinates":[-122.634895,38.944113]}},{"properties":{"collision type:":"Non-Injury","city":"Clearlake","date:":"Tue, Oct 19, 10","time:":"2045","additional factors:":"Unsafe left turn","agency":"CPD","id":"302","weather":"Weather, conditions, n/a","address":"REDWOOD ST at AUSTIN RD","state":"California"},"type":"Feature","geometry":{"type":"Point","coordinates":[-122.636392,38.95884]}},{"properties":{"collision type:":"Non-Injury","city":"Clearlake","date:":"Wed, Nov 17, 10","time:":"2115","additional factors:":"Unsafe left turn","agency":"CPD","id":"303","weather":"Weather, conditions, n/a","address":"OLD HWY 53 at HWY 53","state":"California"},"type":"Feature","geometry":{"type":"Point","coordinates":[-122.612697,38.976361]}},{"properties":{"collision type:":"Non-Injury","city":"Clearlake","date:":"Fri, Nov 26, 10","time:":"1300","additional factors:":"Unsafe left turn","agency":"CPD","id":"304","weather":"Weather, conditions, n/a","address":"3D ST at OAK","state":"California"},"type":"Feature","geometry":{"type":"Point","coordinates":[-122.656074,38.979006]}},{"properties":{"collision type:":"Non-Injury","city":"Clearlake","date:":"Tue, Nov 30, 10","time:":"1300","additional factors:":"Unsafe left turn","agency":"CPD","id":"305","weather":"Weather, conditions, n/a","address":"4TH ST at BUSH","state":"California"},"type":"Feature","geometry":{"type":"Point","coordinates":[-122.656944,38.976181]}},{"properties":{"collision type:":"Non-Injury","city":"Clearlake","date:":"Sun, Jan 16, 11","time:":"150","additional factors:":"Unsafe left turn","agency":"CPD","id":"306","weather":"Weather, conditions, n/a","address":"EASTLAKE at BETWEEN 2ND ACACIA","state":"California"},"type":"Feature","geometry":{"type":"Point","coordinates":[-122.626373,38.958231]}},{"properties":{"collision type:":"Non-Injury","city":"Clearlake","date:":"Thu, May 12, 11","time:":"943","additional factors:":"Unsafe left turn","agency":"CPD","id":"307","weather":"Weather, conditions, n/a","address":"14151 LAKESHORE DR","state":"California"},"type":"Feature","geometry":{"type":"Point","coordinates":[-122.647952,38.955376]}},{"properties":{"collision type:":"Non-Injury","city":"Clearlake","date:":"Wed, Aug 10, 11","time:":"1805","additional factors:":"Unsafe left turn","agency":"CPD","id":"308","weather":"Weather, conditions, n/a","address":"3730 MANCHESTER AV","state":"California"},"type":"Feature","geometry":{"type":"Point","coordinates":[-122.63621,38.958585]}},{"properties":{"collision type:":"Non-Injury","city":"Clearlake","date:":"Thu, Feb 1, 07","time:":"1715","additional factors:":"Unsafe speed","agency":"CPD","id":"309","weather":"Weather, conditions, n/a","address":"14922 OLYMPIC DR","state":"California"},"type":"Feature","geometry":{"type":"Point","coordinates":[-122.632159,38.962495]}},{"properties":{"collision type:":"Non-Injury","city":"Clearlake","date:":"Wed, Apr 4, 07","time:":"2150","additional factors:":"Unsafe trailer","agency":"CPD","id":"310","weather":"Weather, conditions, n/a","address":"14961 LAKESHORE DR","state":"California"},"type":"Feature","geometry":{"type":"Point","coordinates":[-122.632279,38.949891]}},{"properties":{"collision type:":"Non-Injury","city":"Clearlake","date:":"Mon, Dec 22, 08","time:":"1445","additional factors:":"unsafe turning","agency":"CPD","id":"311","weather":"Weather, conditions, n/a","address":"15960 DAM RD","state":"California"},"type":"Feature","geometry":{"type":"Point","coordinates":[-122.616458,38.931276]}},{"properties":{"collision type:":"Non-Injury","city":"Clearlake","date:":"Wed, Oct 15, 08","time:":"1620","additional factors:":"Unsafe turning movem","agency":"CPD","id":"312","weather":"Weather, conditions, n/a","address":"15010 LAKESHORE DR","state":"California"},"type":"Feature","geometry":{"type":"Point","coordinates":[-122.631471,38.949948]}}],"is_temporal":false,"author":{"url":"http://www.lakeconews.com","metadata":"","contact_name":"","contact_address":"","source":"CALIFORNIA HIGHWAY PATROL, LAKEPORT POLICE DEPARTMENT, CLEARLAKE POLICE DEPARTMENT","contact_phone":""},"source":"http://www.lakeconews.com","pagination":{"sort":null,"start":0,"total":313,"limit":1000000},"state":"complete","tags":"accidents,california,chp,clearlake,county,lake,lake county accidents,lakeport,lcn","published":"2011-10-31T01:38:25Z","id":170895}