{"type":"FeatureCollection","data_type":"Dataset","url_type":null,"permissions":[{"permissions":{"download":true,"view":true},"group_id":"everyone"}],"classification":null,"title":"pnpm offices indonesia2","count":372,"stream_id":170851,"contributor":{"url":"http://geocommons.com/users/24918","name":"juliazhu"},"data_attributes":null,"calculation_params":null,"icon_link":null,"link":"http://geocommons.com/overlays/170851.json","extent":[95.8216,-8.75964,128.204,5.27537],"geometry_types":["point"],"unique_name":null,"name":"pnpm offices indonesia2","feature_count":372,"description":"","next_feature":null,"is_raster":false,"short_classification":"Y","stats":{"sub-district code":{"max":8201090,"mean":3546892.6344086,"variance":2923838304201.6,"stdev":1709923.47904858,"min":1109030,"median":3307040},"latitude":{"max":5.275371315,"mean":-5.07469872224193,"variance":12.5474238583,"stdev":3.54223430313411,"min":-8.759638179,"median":-6.882015767},"province code":{"max":444,"mean":258.5,"variance":11563.0,"stdev":107.531390765674,"min":73,"median":259},"longitude":{"max":128.204287,"mean":109.630060239704,"variance":35.4637648347729,"stdev":5.95514608005319,"min":95.82158125,"median":109.4171671},"district code":{"max":8201,"mean":3546.79838709677,"variance":2923850.25304321,"stdev":1709.9269730147,"min":1109,"median":3307}},"features":[{"properties":{"sub-district code":7317040,"latitude":-3.360015865,"pnpm office":"<a href=\"http://www.facebook.com/profile.php?id=100001185281827\">Upk Bajo</a>","district":"KAB. LUWU","province code":73,"longitude":120.2982101,"id":"a6656h38nr84","province":"SULAWESI SELATAN","district code":7317,"sub-district":"BAJO"},"type":"Feature","geometry":{"type":"Point","coordinates":[120.2982101,-3.360015865]}},{"properties":{"sub-district code":3509080,"latitude":-8.213209728,"pnpm office":"<a href=\"http://www.facebook.com/pnpm.mayang\">Upk Mayang</a>","district":"KAB. JEMBER","province code":74,"longitude":113.7830221,"id":"a6656h2ov9pw","province":"JAWA TIMUR","district code":3509,"sub-district":"MAYANG"},"type":"Feature","geometry":{"type":"Point","coordinates":[113.7830221,-8.213209728]}},{"properties":{"sub-district code":3205261,"latitude":-7.07314574,"pnpm office":"<a href=\"http://www.facebook.com/profile.php?id=100000911552950\">Upk Kersamanah</a>","district":"KAB. GARUT","province code":75,"longitude":108.0249432,"id":"a6656gtrfaw7","province":"JAWA BARAT","district code":3205,"sub-district":"KERSAMANAH"},"type":"Feature","geometry":{"type":"Point","coordinates":[108.0249432,-7.07314574]}},{"properties":{"sub-district code":3507110,"latitude":-8.139900343,"pnpm office":"<a href=\"http://www.facebook.com/profile.php?id=100001565427742\">Upk Wajak</a>","district":"KAB. MALANG","province code":76,"longitude":112.779499,"id":"a6656gxcqjc2","province":"JAWA TIMUR","district code":3507,"sub-district":"WAJAK"},"type":"Feature","geometry":{"type":"Point","coordinates":[112.779499,-8.139900343]}},{"properties":{"sub-district code":3203080,"latitude":-7.103640055,"pnpm office":"<a href=\"http://www.facebook.com/profile.php?id=100001072143973\">Upk Takokak Cianjur</a>","district":"KAB. CIANJUR","province code":77,"longitude":106.9873131,"id":"a6656gvsin3h","province":"JAWA BARAT","district code":3203,"sub-district":"TAKOKAK"},"type":"Feature","geometry":{"type":"Point","coordinates":[106.9873131,-7.103640055]}},{"properties":{"sub-district code":1219030,"latitude":3.16739377,"pnpm office":"<a href=\"http://www.facebook.com/upk.talawi\">Upk Kecamatan Talawi</a>","district":"KAB. BATU BARA","province code":78,"longitude":99.53443469,"id":"a6656gznhs4h","province":"SUMATERA UTARA","district code":1219,"sub-district":"TALAWI"},"type":"Feature","geometry":{"type":"Point","coordinates":[99.53443469,3.16739377]}},{"properties":{"sub-district code":3505160,"latitude":-8.034145335,"pnpm office":"<a href=\"http://www.facebook.com/upk.garum\">Upk Garum</a>","district":"KAB. BLITAR","province code":79,"longitude":112.2411418,"id":"a6656h5x5i8d","province":"JAWA TIMUR","district code":3505,"sub-district":"GARUM"},"type":"Feature","geometry":{"type":"Point","coordinates":[112.2411418,-8.034145335]}},{"properties":{"sub-district code":3521060,"latitude":-7.498496479,"pnpm office":"<a href=\"http://www.facebook.com/profile.php?id=100000671316416\">Upk Kwadungan</a>","district":"KAB. NGAWI","province code":80,"longitude":111.4851762,"id":"a6656gs2dyos","province":"JAWA TIMUR","district code":3521,"sub-district":"KWADUNGAN"},"type":"Feature","geometry":{"type":"Point","coordinates":[111.4851762,-7.498496479]}},{"properties":{"sub-district code":3320040,"latitude":-6.702289169,"pnpm office":"<a href=\"http://www.facebook.com/profile.php?id=100000834730042\">Upk Mayong</a>","district":"KAB. JEPARA","province code":81,"longitude":110.7820266,"id":"a6656gu7xw17","province":"JAWA TENGAH","district code":3320,"sub-district":"MAYONG"},"type":"Feature","geometry":{"type":"Point","coordinates":[110.7820266,-6.702289169]}},{"properties":{"sub-district code":3301030,"latitude":-7.261799441,"pnpm office":"<a href=\"http://www.facebook.com/profile.php?id=100000088826275\">Upk Majenang Kabupaten Cilacap</a>","district":"KAB. CILACAP","province code":82,"longitude":108.7610157,"id":"a6656h2v5ymu","province":"JAWA TENGAH","district code":3301,"sub-district":"MAJENANG"},"type":"Feature","geometry":{"type":"Point","coordinates":[108.7610157,-7.261799441]}},{"properties":{"sub-district code":3206020,"latitude":-7.635540914,"pnpm office":"<a href=\"http://www.facebook.com/upk.karangnunggal\">Upk Karangnunggal</a>","district":"KAB. TASIKMALAYA","province code":83,"longitude":108.162914,"id":"a6656h4obo4s","province":"JAWA BARAT","district code":3206,"sub-district":"KARANGNUNGGAL"},"type":"Feature","geometry":{"type":"Point","coordinates":[108.162914,-7.635540914]}},{"properties":{"sub-district code":1111070,"latitude":4.871280887,"pnpm office":"<a href=\"http://www.facebook.com/profile.php?id=100001482014284\">Pnpm Mp Upk Cotgirek</a>","district":"KAB. ACEH UTARA","province code":84,"longitude":97.31915109,"id":"a6656gtt7ana","province":"NANGGROE ACEH DARUSSALAM","district code":1111,"sub-district":"COT GIREK"},"type":"Feature","geometry":{"type":"Point","coordinates":[97.31915109,4.871280887]}},{"properties":{"sub-district code":3214060,"latitude":-6.67616073,"pnpm office":"<a href=\"http://www.facebook.com/upkbinangkit\">Upk Darangdan Purwakarta</a>","district":"KAB. PURWAKARTA","province code":85,"longitude":107.4506305,"id":"a6656gvk6tnp","province":"JAWA BARAT","district code":3214,"sub-district":"DARANGDAN"},"type":"Feature","geometry":{"type":"Point","coordinates":[107.4506305,-6.67616073]}},{"properties":{"sub-district code":3514130,"latitude":-7.593187692,"pnpm office":"<a href=\"http://www.facebook.com/profile.php?id=100000530934129\">Upk Gempol</a>","district":"KAB. PASURUAN","province code":86,"longitude":112.6838262,"id":"a6656gt0j4cd","province":"JAWA TIMUR","district code":3514,"sub-district":"GEMPOL"},"type":"Feature","geometry":{"type":"Point","coordinates":[112.6838262,-7.593187692]}},{"properties":{"sub-district code":7405080,"latitude":-4.130078481,"pnpm office":"<a href=\"http://www.facebook.com/profile.php?id=100001244297248\">Ex Upk Konda Pnpm</a>","district":"KAB. KONAWE SELATAN","province code":87,"longitude":122.479254,"id":"a6656gtg0h8a","province":"SULAWESI TENGGARA","district code":7405,"sub-district":"KONDA"},"type":"Feature","geometry":{"type":"Point","coordinates":[122.479254,-4.130078481]}},{"properties":{"sub-district code":3206261,"latitude":-7.129767676,"pnpm office":"<a href=\"http://www.facebook.com/profile.php?id=100000437122655\">Upk Kadipaten Tasikmalaya</a>","district":"KAB. TASIKMALAYA","province code":88,"longitude":108.1167945,"id":"a6656h2mjdn5","province":"JAWA BARAT","district code":3206,"sub-district":"KADIPATEN"},"type":"Feature","geometry":{"type":"Point","coordinates":[108.1167945,-7.129767676]}},{"properties":{"sub-district code":3321120,"latitude":-6.813597076,"pnpm office":"<a href=\"http://www.facebook.com/upkmijen\">Upk Mijen Demak</a>","district":"KAB. DEMAK","province code":89,"longitude":110.6965296,"id":"a6656gvnsrxe","province":"JAWA TENGAH","district code":3321,"sub-district":"MIJEN"},"type":"Feature","geometry":{"type":"Point","coordinates":[110.6965296,-6.813597076]}},{"properties":{"sub-district code":1607030,"latitude":-2.556671614,"pnpm office":"<a href=\"http://www.facebook.com/profile.php?id=1824120338\">Mrd Tamim Upk</a>","district":"KAB. BANYU ASIN","province code":90,"longitude":104.36909,"id":"a6656h24ws08","province":"SUMATERA SELATAN","district code":1607,"sub-district":"PULAU RIMAU"},"type":"Feature","geometry":{"type":"Point","coordinates":[104.36909,-2.556671614]}},{"properties":{"sub-district code":1403120,"latitude":0.162069743,"pnpm office":"<a href=\"http://www.facebook.com/profile.php?id=100002365210727\">Upk Kateman</a>","district":"KAB. INDRAGIRI HILIR","province code":91,"longitude":103.6783999,"id":"a6656gt7aaum","province":"RIAU","district code":1403,"sub-district":"KATEMAN"},"type":"Feature","geometry":{"type":"Point","coordinates":[103.6783999,0.162069743]}},{"properties":{"sub-district code":3529190,"latitude":-6.967460962,"pnpm office":"<a href=\"http://www.facebook.com/profile.php?id=100002567614818\">Upk Dungkek</a>","district":"KAB. SUMENEP","province code":92,"longitude":114.0655628,"id":"a6656h46m7np","province":"JAWA TIMUR","district code":3529,"sub-district":"DUNGKEK"},"type":"Feature","geometry":{"type":"Point","coordinates":[114.0655628,-6.967460962]}},{"properties":{"sub-district code":1706030,"latitude":-2.581547129,"pnpm office":"<a href=\"http://www.facebook.com/profile.php?id=100002560717345\">Upk Terasterunjam</a>","district":"KAB. MUKOMUKO","province code":93,"longitude":101.2521822,"id":"a6656h4spw24","province":"BENGKULU","district code":1706,"sub-district":"TERAS TERUNJAM"},"type":"Feature","geometry":{"type":"Point","coordinates":[101.2521822,-2.581547129]}},{"properties":{"sub-district code":3212200,"latitude":-6.392529002,"pnpm office":"<a href=\"http://www.facebook.com/upk.bongas\">Upk Bongas</a>","district":"KAB. INDRAMAYU","province code":94,"longitude":108.0221611,"id":"a6656gzl9dgy","province":"JAWA BARAT","district code":3212,"sub-district":"BONGAS"},"type":"Feature","geometry":{"type":"Point","coordinates":[108.0221611,-6.392529002]}},{"properties":{"sub-district code":3307090,"latitude":-7.373138319,"pnpm office":"<a href=\"http://www.facebook.com/profile.php?id=100000207611138\">Titien Upk</a>","district":"KAB. WONOSOBO","province code":95,"longitude":109.916725,"id":"a6656h5toxvw","province":"JAWA TENGAH","district code":3307,"sub-district":"WONOSOBO"},"type":"Feature","geometry":{"type":"Point","coordinates":[109.916725,-7.373138319]}},{"properties":{"sub-district code":6404041,"latitude":0.839451473,"pnpm office":"<a href=\"http://www.facebook.com/profile.php?id=100000208433213\">Upk Pnpm Bengalon</a>","district":"KAB. KUTAI TIMUR","province code":96,"longitude":117.4416143,"id":"a6656gwb9ko3","province":"KALIMANTAN TIMUR","district code":6404,"sub-district":"BENGALON"},"type":"Feature","geometry":{"type":"Point","coordinates":[117.4416143,0.839451473]}},{"properties":{"sub-district code":1206070,"latitude":2.463775957,"pnpm office":"<a href=\"http://www.facebook.com/delima.h.upkporsea\">Delima Herty Upk Porsea</a>","district":"KAB. TOBA SAMOSIR","province code":97,"longitude":99.1595075,"id":"a6656h1c7c3r","province":"SUMATERA UTARA","district code":1206,"sub-district":"PORSEA"},"type":"Feature","geometry":{"type":"Point","coordinates":[99.1595075,2.463775957]}},{"properties":{"sub-district code":3206111,"latitude":-7.413280716,"pnpm office":"<a href=\"http://www.facebook.com/profile.php?id=100000112084229\">Upk Puspahiang</a>","district":"KAB. TASIKMALAYA","province code":98,"longitude":108.0185088,"id":"a6656h4qi9p6","province":"JAWA BARAT","district code":3206,"sub-district":"PUSPAHIANG"},"type":"Feature","geometry":{"type":"Point","coordinates":[108.0185088,-7.413280716]}},{"properties":{"sub-district code":3507330,"latitude":-7.809631385,"pnpm office":"<a href=\"http://www.facebook.com/profile.php?id=100000129989228\">Upk Pnpm Kasembon</a>","district":"KAB. MALANG","province code":99,"longitude":112.3540532,"id":"a6656h788wlq","province":"JAWA TIMUR","district code":3507,"sub-district":"KASEMBON"},"type":"Feature","geometry":{"type":"Point","coordinates":[112.3540532,-7.809631385]}},{"properties":{"sub-district code":3506050,"latitude":-7.970194299,"pnpm office":"<a href=\"http://www.facebook.com/profile.php?id=100000392359416\">Upk Ringinrejo</a>","district":"KAB. KEDIRI","province code":100,"longitude":112.0682007,"id":"a6656h1v8f04","province":"JAWA TIMUR","district code":3506,"sub-district":"RINGINREJO"},"type":"Feature","geometry":{"type":"Point","coordinates":[112.0682007,-7.970194299]}},{"properties":{"sub-district code":1206060,"latitude":2.392082177,"pnpm office":"<a href=\"http://www.facebook.com/profile.php?id=100000263729095\">Upk Silaen</a>","district":"KAB. TOBA SAMOSIR","province code":101,"longitude":99.23429303,"id":"a6656gy4q0l6","province":"SUMATERA UTARA","district code":1206,"sub-district":"SILAEN"},"type":"Feature","geometry":{"type":"Point","coordinates":[99.23429303,2.392082177]}},{"properties":{"sub-district code":3308030,"latitude":-7.654427217,"pnpm office":"<a href=\"http://www.facebook.com/profile.php?id=100000170786157\">Upk Ngluwar</a>","district":"KAB. MAGELANG","province code":102,"longitude":110.2787365,"id":"a6656h5q0uem","province":"JAWA TENGAH","district code":3308,"sub-district":"NGLUWAR"},"type":"Feature","geometry":{"type":"Point","coordinates":[110.2787365,-7.654427217]}},{"properties":{"sub-district code":1214030,"latitude":0.63814792,"pnpm office":"<a href=\"http://www.facebook.com/profile.php?id=100000165578681\">Upk Teluk Dalam Asahan</a>","district":"KAB. NIAS SELATAN","province code":103,"longitude":97.79568521,"id":"a6656h52vsr7","province":"SUMATERA UTARA","district code":1214,"sub-district":"TELUK DALAM"},"type":"Feature","geometry":{"type":"Point","coordinates":[97.79568521,0.63814792]}},{"properties":{"sub-district code":7201061,"latitude":-1.453923112,"pnpm office":"<a href=\"http://www.facebook.com/upkpnpm.bulangoselatan\">Upk Pnpm Bulango Selatan</a>","district":"KAB. BANGGAI KEPULAUAN","province code":104,"longitude":122.9625712,"id":"a6656h1p5kv4","province":"SULAWESI TENGAH","district code":7201,"sub-district":"BULAGI SELATAN"},"type":"Feature","geometry":{"type":"Point","coordinates":[122.9625712,-1.453923112]}},{"properties":{"sub-district code":3518020,"latitude":-7.738486267,"pnpm office":"<a href=\"http://www.facebook.com/profile.php?id=100000102516934\">Upk Ngetos</a>","district":"KAB. NGANJUK","province code":105,"longitude":111.8321392,"id":"a6656h50pkfs","province":"JAWA TIMUR","district code":3518,"sub-district":"NGETOS"},"type":"Feature","geometry":{"type":"Point","coordinates":[111.8321392,-7.738486267]}},{"properties":{"sub-district code":3402020,"latitude":-7.978686873,"pnpm office":"<a href=\"http://www.facebook.com/profile.php?id=100000037262390\">Upk Pnpm</a>","district":"KAB. BANTUL","province code":106,"longitude":110.2720572,"id":"a6656gxn25k1","province":"DAERAH ISTIMEWA YOGYAKARTA","district code":3402,"sub-district":"SANDEN"},"type":"Feature","geometry":{"type":"Point","coordinates":[110.2720572,-7.978686873]}},{"properties":{"sub-district code":7504010,"latitude":0.673709118,"pnpm office":"<a href=\"http://www.facebook.com/profile.php?id=100000010730293\">Upk Tapa</a>","district":"KAB. BONE BOLANGO","province code":107,"longitude":123.1441812,"id":"a6656h72nzdw","province":"GORONTALO","district code":7504,"sub-district":"TAPA"},"type":"Feature","geometry":{"type":"Point","coordinates":[123.1441812,0.673709118]}},{"properties":{"sub-district code":3301170,"latitude":-7.577169779,"pnpm office":"<a href=\"http://www.facebook.com/profile.php?id=100000372814397\">Upk Sampang Cilacap Pnpm</a>","district":"KAB. CILACAP","province code":108,"longitude":109.1904619,"id":"a6656h58v5ro","province":"JAWA TENGAH","district code":3301,"sub-district":"SAMPANG"},"type":"Feature","geometry":{"type":"Point","coordinates":[109.1904619,-7.577169779]}},{"properties":{"sub-district code":7502030,"latitude":0.685075731,"pnpm office":"<a href=\"http://www.facebook.com/profile.php?id=100000028249537\">Upk Tibawa</a>","district":"KAB. GORONTALO","province code":109,"longitude":122.8185635,"id":"a6656gvycphx","province":"GORONTALO","district code":7502,"sub-district":"TIBAWA"},"type":"Feature","geometry":{"type":"Point","coordinates":[122.8185635,0.685075731]}},{"properties":{"sub-district code":3404080,"latitude":-7.807389004,"pnpm office":"<a href=\"http://www.facebook.com/profile.php?id=100000124034130\">Upkppkberbah Pnpm Mpd</a>","district":"KAB. SLEMAN","province code":110,"longitude":110.4525212,"id":"a6656h1ew1wj","province":"DAERAH ISTIMEWA YOGYAKARTA","district code":3404,"sub-district":"BERBAH"},"type":"Feature","geometry":{"type":"Point","coordinates":[110.4525212,-7.807389004]}},{"properties":{"sub-district code":3305160,"latitude":-7.658661317,"pnpm office":"<a href=\"http://www.facebook.com/profile.php?id=100000321430490\">Upk Pnpm Kuwarasan</a>","district":"KAB. KEBUMEN","province code":111,"longitude":109.509973,"id":"a6656h5bs7bo","province":"JAWA TENGAH","district code":3305,"sub-district":"KUWARASAN"},"type":"Feature","geometry":{"type":"Point","coordinates":[109.509973,-7.658661317]}},{"properties":{"sub-district code":1208040,"latitude":2.865441948,"pnpm office":"<a href=\"http://www.facebook.com/profile.php?id=100000113398781\">Upk Seikepayang Asahan</a>","district":"KAB. ASAHAN","province code":112,"longitude":99.87325025,"id":"a6656h50b5lq","province":"SUMATERA UTARA","district code":1208,"sub-district":"SEI KEPAYANG"},"type":"Feature","geometry":{"type":"Point","coordinates":[99.87325025,2.865441948]}},{"properties":{"sub-district code":7308070,"latitude":-4.81073019,"pnpm office":"<a href=\"http://www.facebook.com/profile.php?id=100000279158272\">Upk Mallawa</a>","district":"KAB. MAROS","province code":113,"longitude":119.8770603,"id":"a6656gvprpod","province":"SULAWESI SELATAN","district code":7308,"sub-district":"MALLAWA"},"type":"Feature","geometry":{"type":"Point","coordinates":[119.8770603,-4.81073019]}},{"properties":{"sub-district code":3301160,"latitude":-7.602279974,"pnpm office":"<a href=\"http://www.facebook.com/profile.php?id=100000511758306\">Upk Maos</a>","district":"KAB. CILACAP","province code":114,"longitude":109.1384866,"id":"a6656h3gebcc","province":"JAWA TENGAH","district code":3301,"sub-district":"MAOS"},"type":"Feature","geometry":{"type":"Point","coordinates":[109.1384866,-7.602279974]}},{"properties":{"sub-district code":3209011,"latitude":-6.952006343,"pnpm office":"<a href=\"http://www.facebook.com/profile.php?id=100000628553095\">Ike Upk Pasaleman</a>","district":"KAB. CIREBON","province code":115,"longitude":108.7388831,"id":"a6656h7g0f75","province":"JAWA BARAT","district code":3209,"sub-district":"PASALEMAN"},"type":"Feature","geometry":{"type":"Point","coordinates":[108.7388831,-6.952006343]}},{"properties":{"sub-district code":3205010,"latitude":-7.372648641,"pnpm office":"<a href=\"http://www.facebook.com/upk.cisewu\">Upk Cisewu (Upk Kec Cisewu)</a>","district":"KAB. GARUT","province code":116,"longitude":107.525445,"id":"a6656h4bw8dd","province":"JAWA BARAT","district code":3205,"sub-district":"CISEWU"},"type":"Feature","geometry":{"type":"Point","coordinates":[107.525445,-7.372648641]}},{"properties":{"sub-district code":3507240,"latitude":-8.010402839,"pnpm office":"<a href=\"http://www.facebook.com/profile.php?id=100000644857947\">Upk Tumpang</a>","district":"KAB. MALANG","province code":117,"longitude":112.7465348,"id":"a6656h6z0z6x","province":"JAWA TIMUR","district code":3507,"sub-district":"TUMPANG"},"type":"Feature","geometry":{"type":"Point","coordinates":[112.7465348,-8.010402839]}},{"properties":{"sub-district code":6102061,"latitude":1.025648604,"pnpm office":"<a href=\"http://www.facebook.com/profile.php?id=100000591500643\">Upktujuhbelas Bky</a>","district":"KAB. BENGKAYANG","province code":118,"longitude":109.7861916,"id":"a6656h33tg7k","province":"KALIMANTAN BARAT","district code":6102,"sub-district":"TUJUHBELAS"},"type":"Feature","geometry":{"type":"Point","coordinates":[109.7861916,1.025648604]}},{"properties":{"sub-district code":3517020,"latitude":-7.570635083,"pnpm office":"<a href=\"http://www.facebook.com/profile.php?id=100000617577364\">Upk Perak</a>","district":"KAB. JOMBANG","province code":119,"longitude":112.1739917,"id":"a6656gskprbc","province":"JAWA TIMUR","district code":3517,"sub-district":"PERAK"},"type":"Feature","geometry":{"type":"Point","coordinates":[112.1739917,-7.570635083]}},{"properties":{"sub-district code":6301030,"latitude":-3.597232353,"pnpm office":"<a href=\"http://www.facebook.com/profile.php?id=100000417076006\">Upk Kurau</a>","district":"KAB. TANAH LAUT","province code":120,"longitude":114.6448724,"id":"a6656h2fszkr","province":"KALIMANTAN SELATAN","district code":6301,"sub-district":"KURAU"},"type":"Feature","geometry":{"type":"Point","coordinates":[114.6448724,-3.597232353]}},{"properties":{"sub-district code":1301020,"latitude":-2.19716598,"pnpm office":"<a href=\"http://www.facebook.com/profile.php?id=100000569175790\">Upk Laggaisimaeruk</a>","district":"KAB. KEPULAUAN MENTAWAI","province code":121,"longitude":99.66770712,"id":"a6656h4l605t","province":"SUMATERA BARAT","district code":1301,"sub-district":"SIPORA"},"type":"Feature","geometry":{"type":"Point","coordinates":[99.66770712,-2.19716598]}},{"properties":{"sub-district code":3301110,"latitude":-7.512810069,"pnpm office":"<a href=\"http://www.facebook.com/profile.php?id=100000479686994\">Upk Bantarsari</a>","district":"KAB. CILACAP","province code":122,"longitude":108.9093,"id":"a6656gr82roq","province":"JAWA TENGAH","district code":3301,"sub-district":"BANTARSARI"},"type":"Feature","geometry":{"type":"Point","coordinates":[108.9093,-7.512810069]}},{"properties":{"sub-district code":3213060,"latitude":-6.576438374,"pnpm office":"<a href=\"http://www.facebook.com/profile.php?id=100000591289649\">Upk Cibogo</a>","district":"KAB. SUBANG","province code":123,"longitude":107.8206847,"id":"a6656h67iecz","province":"JAWA BARAT","district code":3213,"sub-district":"CIBOGO"},"type":"Feature","geometry":{"type":"Point","coordinates":[107.8206847,-6.576438374]}},{"properties":{"sub-district code":3326080,"latitude":-7.064661979,"pnpm office":"<a href=\"http://www.facebook.com/profile.php?id=100000520272225\">Upk Kajen-Pekalongan</a>","district":"KAB. PEKALONGAN","province code":124,"longitude":109.5725874,"id":"a6656h4r7ld3","province":"JAWA TENGAH","district code":3326,"sub-district":"KAJEN"},"type":"Feature","geometry":{"type":"Point","coordinates":[109.5725874,-7.064661979]}},{"properties":{"sub-district code":1305110,"latitude":-0.34163298,"pnpm office":"<a href=\"http://www.facebook.com/profile.php?id=100000443749186\">Upk Vela Inda Slp</a>","district":"KAB. TANAH DATAR","province code":125,"longitude":100.5470965,"id":"a6656h4tnilb","province":"SUMATERA BARAT","district code":1305,"sub-district":"SALIMPAUNG"},"type":"Feature","geometry":{"type":"Point","coordinates":[100.5470965,-0.34163298]}},{"properties":{"sub-district code":3320101,"latitude":-6.529217555,"pnpm office":"<a href=\"http://www.facebook.com/profile.php?id=100000617121808\">Upkembang Jepara</a>","district":"KAB. JEPARA","province code":126,"longitude":110.84895,"id":"a6656gy6qs9p","province":"JAWA TENGAH","district code":3320,"sub-district":"KEMBANG"},"type":"Feature","geometry":{"type":"Point","coordinates":[110.84895,-6.529217555]}},{"properties":{"sub-district code":3604240,"latitude":-6.100387133,"pnpm office":"<a href=\"http://www.facebook.com/profile.php?id=100000506781161\">Upk Ciruas</a>","district":"KAB. SERANG","province code":127,"longitude":106.2401021,"id":"a6656h4ejsnh","province":"BANTEN","district code":3604,"sub-district":"CIRUAS"},"type":"Feature","geometry":{"type":"Point","coordinates":[106.2401021,-6.100387133]}},{"properties":{"sub-district code":3210110,"latitude":-6.781700035,"pnpm office":"<a href=\"http://www.facebook.com/profile.php?id=100000645828821\">Upk Sindangwangi</a>","district":"KAB. MAJALENGKA","province code":128,"longitude":108.3754485,"id":"a6656h7hwfvf","province":"JAWA BARAT","district code":3210,"sub-district":"SINDANGWANGI"},"type":"Feature","geometry":{"type":"Point","coordinates":[108.3754485,-6.781700035]}},{"properties":{"sub-district code":7310030,"latitude":-4.423068617,"pnpm office":"<a href=\"http://www.facebook.com/profile.php?id=100000644343390\">Upk Berru</a>","district":"KAB. BARRU","province code":129,"longitude":119.6905648,"id":"a6656h6p228b","province":"SULAWESI SELATAN","district code":7310,"sub-district":"BARRU"},"type":"Feature","geometry":{"type":"Point","coordinates":[119.6905648,-4.423068617]}},{"properties":{"sub-district code":7504011,"latitude":0.760263478,"pnpm office":"<a href=\"http://www.facebook.com/profile.php?id=100000038538807\">Upk Bulango Timur</a>","district":"KAB. BONE BOLANGO","province code":130,"longitude":123.1668625,"id":"a6656grmytis","province":"GORONTALO","district code":7504,"sub-district":"BULANGO UTARA"},"type":"Feature","geometry":{"type":"Point","coordinates":[123.1668625,0.760263478]}},{"properties":{"sub-district code":3301010,"latitude":-7.211166895,"pnpm office":"<a href=\"http://www.facebook.com/profile.php?id=100000494120614\">Upk Dayeuhluhur</a>","district":"KAB. CILACAP","province code":131,"longitude":108.6252,"id":"a6656h77co7f","province":"JAWA TENGAH","district code":3301,"sub-district":"DAYEUHLUHUR"},"type":"Feature","geometry":{"type":"Point","coordinates":[108.6252,-7.211166895]}},{"properties":{"sub-district code":3329100,"latitude":-6.917163672,"pnpm office":"<a href=\"http://www.facebook.com/profile.php?id=100000587025988\">Upk Losari</a>","district":"KAB. BREBES","province code":132,"longitude":108.788875,"id":"a6656gyre1op","province":"JAWA TENGAH","district code":3329,"sub-district":"LOSARI"},"type":"Feature","geometry":{"type":"Point","coordinates":[108.788875,-6.917163672]}},{"properties":{"sub-district code":1219030,"latitude":3.16739377,"pnpm office":"<a href=\"http://www.facebook.com/profile.php?id=100000605026624\">Upk Kecamatan Talawi</a>","district":"KAB. BATU BARA","province code":133,"longitude":99.53443469,"id":"a6656gxc8x66","province":"SUMATERA UTARA","district code":1219,"sub-district":"TALAWI"},"type":"Feature","geometry":{"type":"Point","coordinates":[99.53443469,3.16739377]}},{"properties":{"sub-district code":6304110,"latitude":-3.135763862,"pnpm office":"<a href=\"http://www.facebook.com/profile.php?id=100000624870423\">Upk Kalsel</a>","district":"KAB. BARITO KUALA","province code":134,"longitude":114.689999,"id":"a6656h3v99z3","province":"KALIMANTAN SELATAN","district code":6304,"sub-district":"RANTAU BADAUH"},"type":"Feature","geometry":{"type":"Point","coordinates":[114.689999,-3.135763862]}},{"properties":{"sub-district code":3206200,"latitude":-7.298923259,"pnpm office":"<a href=\"http://www.facebook.com/profile.php?id=100000581318938\">Upk Cigalontang</a>","district":"KAB. TASIKMALAYA","province code":135,"longitude":108.0022118,"id":"a6656gv5es34","province":"JAWA BARAT","district code":3206,"sub-district":"CIGALONTANG"},"type":"Feature","geometry":{"type":"Point","coordinates":[108.0022118,-7.298923259]}},{"properties":{"sub-district code":6304030,"latitude":-3.268895488,"pnpm office":"<a href=\"http://www.facebook.com/profile.php?id=100000257884870\">Upkmekar Sari</a>","district":"KAB. BARITO KUALA","province code":136,"longitude":114.4437409,"id":"a6656h6sw94t","province":"KALIMANTAN SELATAN","district code":6304,"sub-district":"MEKAR SARI"},"type":"Feature","geometry":{"type":"Point","coordinates":[114.4437409,-3.268895488]}},{"properties":{"sub-district code":7603081,"latitude":-2.864216205,"pnpm office":"<a href=\"http://www.facebook.com/profile.php?id=100000541968804\">Bambang Upk Upk Ckd</a>","district":"KAB. MAMASA","province code":137,"longitude":119.2521606,"id":"a6656h361azg","province":"SULAWESI BARAT","district code":7603,"sub-district":"BAMBANG"},"type":"Feature","geometry":{"type":"Point","coordinates":[119.2521606,-2.864216205]}},{"properties":{"sub-district code":3213180,"latitude":-6.348811542,"pnpm office":"<a href=\"http://www.facebook.com/profile.php?id=100000427206652\">Upk Ciasem</a>","district":"KAB. SUBANG","province code":138,"longitude":107.6618867,"id":"a6656h5s9irc","province":"JAWA BARAT","district code":3213,"sub-district":"CIASEM"},"type":"Feature","geometry":{"type":"Point","coordinates":[107.6618867,-6.348811542]}},{"properties":{"sub-district code":3321100,"latitude":-6.887981388,"pnpm office":"<a href=\"http://www.facebook.com/profile.php?id=1809267858\">Upkgajah Demak</a>","district":"KAB. DEMAK","province code":139,"longitude":110.74155,"id":"a6656gutj89d","province":"JAWA TENGAH","district code":3321,"sub-district":"GAJAH"},"type":"Feature","geometry":{"type":"Point","coordinates":[110.74155,-6.887981388]}},{"properties":{"sub-district code":3316120,"latitude":-6.934348143,"pnpm office":"<a href=\"http://www.facebook.com/profile.php?id=100000699530893\">Upk Tunjungan</a>","district":"KAB. BLORA","province code":140,"longitude":111.3662304,"id":"a6656h77ejtl","province":"JAWA TENGAH","district code":3316,"sub-district":"TUNJUNGAN"},"type":"Feature","geometry":{"type":"Point","coordinates":[111.3662304,-6.934348143]}},{"properties":{"sub-district code":3328150,"latitude":-6.930902319,"pnpm office":"<a href=\"http://www.facebook.com/upktarub\">Upk Tarub Kab Tegal</a>","district":"KAB. TEGAL","province code":141,"longitude":109.1852627,"id":"a6656gzyswil","province":"JAWA TENGAH","district code":3328,"sub-district":"TARUB"},"type":"Feature","geometry":{"type":"Point","coordinates":[109.1852627,-6.930902319]}},{"properties":{"sub-district code":3203051,"latitude":-7.307501928,"pnpm office":"<a href=\"http://www.facebook.com/group.php?gid=332533721802\">Upk Cikadu</a>","district":"KAB. CIANJUR","province code":142,"longitude":107.263668,"id":"a6656h6b5rrk","province":"JAWA BARAT","district code":3203,"sub-district":"CIKADU"},"type":"Feature","geometry":{"type":"Point","coordinates":[107.263668,-7.307501928]}},{"properties":{"sub-district code":3503100,"latitude":-8.087279459,"pnpm office":"<a href=\"http://www.facebook.com/profile.php?id=100000832924098\">Upk Pogalan</a>","district":"KAB. TRENGGALEK","province code":143,"longitude":111.7502877,"id":"a6656gvqe8fw","province":"JAWA TIMUR","district code":3503,"sub-district":"POGALAN"},"type":"Feature","geometry":{"type":"Point","coordinates":[111.7502877,-8.087279459]}},{"properties":{"sub-district code":3206271,"latitude":-7.165760726,"pnpm office":"<a href=\"http://www.facebook.com/profile.php?id=100000864134581\">Upk Sukaresik</a>","district":"KAB. TASIKMALAYA","province code":144,"longitude":108.1818518,"id":"a6656gr7mk6k","province":"JAWA BARAT","district code":3206,"sub-district":"SUKARESIK"},"type":"Feature","geometry":{"type":"Point","coordinates":[108.1818518,-7.165760726]}},{"properties":{"sub-district code":3602191,"latitude":-6.467779612,"pnpm office":"<a href=\"http://www.facebook.com/profile.php?id=100000766105887\">Upk Curugbitung</a>","district":"KAB. LEBAK","province code":145,"longitude":106.3952191,"id":"a6656gztv9oa","province":"BANTEN","district code":3602,"sub-district":"CURUGBITUNG"},"type":"Feature","geometry":{"type":"Point","coordinates":[106.3952191,-6.467779612]}},{"properties":{"sub-district code":3513100,"latitude":-7.877328887,"pnpm office":"<a href=\"http://www.facebook.com/profile.php?id=100000725780601\">Upk Gading</a>","district":"KAB. PROBOLINGGO","province code":146,"longitude":113.4968242,"id":"a6656h1lb07f","province":"JAWA TIMUR","district code":3513,"sub-district":"GADING"},"type":"Feature","geometry":{"type":"Point","coordinates":[113.4968242,-7.877328887]}},{"properties":{"sub-district code":3206141,"latitude":-7.503459691,"pnpm office":"<a href=\"http://www.facebook.com/profile.php?id=100000785457473\">Upk Jatiwaras</a>","district":"KAB. TASIKMALAYA","province code":147,"longitude":108.2123315,"id":"a6656gz1dkwv","province":"JAWA BARAT","district code":3206,"sub-district":"JATIWARAS"},"type":"Feature","geometry":{"type":"Point","coordinates":[108.2123315,-7.503459691]}},{"properties":{"sub-district code":3316080,"latitude":-6.920281419,"pnpm office":"<a href=\"http://www.facebook.com/profile.php?id=100000764019981\">Upk Bogorejo</a>","district":"KAB. BLORA","province code":148,"longitude":111.5209,"id":"a6656gwi0yt3","province":"JAWA TENGAH","district code":3316,"sub-district":"BOGOREJO"},"type":"Feature","geometry":{"type":"Point","coordinates":[111.5209,-6.920281419]}},{"properties":{"sub-district code":3203040,"latitude":-7.349059674,"pnpm office":"<a href=\"http://www.facebook.com/profile.php?id=100000713916871\">Upk Naringgul</a>","district":"KAB. CIANJUR","province code":149,"longitude":107.3511202,"id":"a6656h4j9awz","province":"JAWA BARAT","district code":3203,"sub-district":"NARINGGUL"},"type":"Feature","geometry":{"type":"Point","coordinates":[107.3511202,-7.349059674]}},{"properties":{"sub-district code":3602121,"latitude":-6.645201149,"pnpm office":"<a href=\"http://www.facebook.com/profile.php?id=100000733348458\">Upk Lebakgedong</a>","district":"KAB. LEBAK","province code":150,"longitude":106.4097532,"id":"a6656grbif7o","province":"BANTEN","district code":3602,"sub-district":"LEBAKGEDONG"},"type":"Feature","geometry":{"type":"Point","coordinates":[106.4097532,-6.645201149]}},{"properties":{"sub-district code":3206270,"latitude":-7.099886473,"pnpm office":"<a href=\"http://www.facebook.com/profile.php?id=100000709550018\">Upk Pagerageung</a>","district":"KAB. TASIKMALAYA","province code":151,"longitude":108.1715503,"id":"a6656gx9cw87","province":"JAWA BARAT","district code":3206,"sub-district":"PAGERAGEUNG"},"type":"Feature","geometry":{"type":"Point","coordinates":[108.1715503,-7.099886473]}},{"properties":{"sub-district code":3206140,"latitude":-7.514430173,"pnpm office":"<a href=\"http://www.facebook.com/profile.php?id=100000838847282\">Upk Salopa</a>","district":"KAB. TASIKMALAYA","province code":152,"longitude":108.2864737,"id":"a6656gww4h76","province":"JAWA BARAT","district code":3206,"sub-district":"SALOPA"},"type":"Feature","geometry":{"type":"Point","coordinates":[108.2864737,-7.514430173]}},{"properties":{"sub-district code":6106010,"latitude":-2.582909302,"pnpm office":"<a href=\"http://www.facebook.com/profile.php?id=100000759344311\">Upk Kendawangan</a>","district":"KAB. KETAPANG","province code":153,"longitude":110.5385451,"id":"a6656gwlfn9m","province":"KALIMANTAN BARAT","district code":6106,"sub-district":"KENDAWANGAN"},"type":"Feature","geometry":{"type":"Point","coordinates":[110.5385451,-2.582909302]}},{"properties":{"sub-district code":3217140,"latitude":-6.749889292,"pnpm office":"<a href=\"http://www.facebook.com/profile.php?id=100000695646545\">Upk Bina Lestari Cikalongwetan</a>","district":"KAB. BANDUNG BARAT","province code":154,"longitude":107.456895,"id":"a6656gwdftww","province":"JAWA BARAT","district code":3217,"sub-district":"CIKALONG WETAN"},"type":"Feature","geometry":{"type":"Point","coordinates":[107.456895,-6.749889292]}},{"properties":{"sub-district code":3307060,"latitude":-7.413947022,"pnpm office":"<a href=\"http://www.facebook.com/profile.php?id=100000783670420\">Upk Selomerto</a>","district":"KAB. WONOSOBO","province code":155,"longitude":109.9127526,"id":"a6656grhb9wg","province":"JAWA TENGAH","district code":3307,"sub-district":"SELOMERTO"},"type":"Feature","geometry":{"type":"Point","coordinates":[109.9127526,-7.413947022]}},{"properties":{"sub-district code":3507070,"latitude":-8.244030925,"pnpm office":"<a href=\"http://www.facebook.com/profile.php?id=100000867109527\">Upk Dampit Pnpm-Mp</a>","district":"KAB. MALANG","province code":156,"longitude":112.7704774,"id":"a6656h3tt82c","province":"JAWA TIMUR","district code":3507,"sub-district":"DAMPIT"},"type":"Feature","geometry":{"type":"Point","coordinates":[112.7704774,-8.244030925]}},{"properties":{"sub-district code":3216090,"latitude":-6.117749303,"pnpm office":"<a href=\"http://www.facebook.com/profile.php?id=100000679026414\">Babelan Upk</a>","district":"KAB. BEKASI","province code":157,"longitude":107.0345399,"id":"a6656h1bpol2","province":"JAWA BARAT","district code":3216,"sub-district":"BABELAN"},"type":"Feature","geometry":{"type":"Point","coordinates":[107.0345399,-6.117749303]}},{"properties":{"sub-district code":3205110,"latitude":-7.471174356,"pnpm office":"<a href=\"http://www.facebook.com/profile.php?id=100000673415455\">Upk Singajaya Garut</a>","district":"KAB. GARUT","province code":158,"longitude":107.9139642,"id":"a6656h54mjyp","province":"JAWA BARAT","district code":3205,"sub-district":"SINGAJAYA"},"type":"Feature","geometry":{"type":"Point","coordinates":[107.9139642,-7.471174356]}},{"properties":{"sub-district code":1805070,"latitude":-4.912403072,"pnpm office":"<a href=\"http://www.facebook.com/profile.php?id=100000672280585\">Upk Seputih Raman</a>","district":"KAB. LAMPUNG TENGAH","province code":159,"longitude":105.3427722,"id":"a6656gr2klk2","province":"LAMPUNG","district code":1805,"sub-district":"SEPUTIH RAMAN"},"type":"Feature","geometry":{"type":"Point","coordinates":[105.3427722,-4.912403072]}},{"properties":{"sub-district code":3523070,"latitude":-7.097273286,"pnpm office":"<a href=\"http://www.facebook.com/profile.php?id=100000755454170\">Upk-Soko Tuban Jawa Timur</a>","district":"KAB. TUBAN","province code":160,"longitude":111.938,"id":"a6656gsn0w8n","province":"JAWA TIMUR","district code":3523,"sub-district":"SOKO"},"type":"Feature","geometry":{"type":"Point","coordinates":[111.938,-7.097273286]}},{"properties":{"sub-district code":3603081,"latitude":-6.34614311,"pnpm office":"<a href=\"http://www.facebook.com/profile.php?id=100000698066891\">Upk Cisauk Makmur</a>","district":"KAB. TANGERANG","province code":161,"longitude":106.6288,"id":"a6656h1iyfr5","province":"BANTEN","district code":3603,"sub-district":"CISAUK"},"type":"Feature","geometry":{"type":"Point","coordinates":[106.6288,-6.34614311]}},{"properties":{"sub-district code":1705040,"latitude":-4.034472307,"pnpm office":"<a href=\"http://www.facebook.com/profile.php?id=100000847021337\">Upk Pnpm-Mp Seluma Kota</a>","district":"KAB. SELUMA","province code":162,"longitude":102.5882011,"id":"a6656gzli7yn","province":"BENGKULU","district code":1705,"sub-district":"SELUMA"},"type":"Feature","geometry":{"type":"Point","coordinates":[102.5882011,-4.034472307]}},{"properties":{"sub-district code":7502080,"latitude":0.629346635,"pnpm office":"<a href=\"http://www.facebook.com/profile.php?id=100000934287519\">'Upk Telaga'</a>","district":"KAB. GORONTALO","province code":163,"longitude":123.066929,"id":"a6656h2n13gn","province":"GORONTALO","district code":7502,"sub-district":"TELAGA"},"type":"Feature","geometry":{"type":"Point","coordinates":[123.066929,0.629346635]}},{"properties":{"sub-district code":3514020,"latitude":-7.908697396,"pnpm office":"<a href=\"http://www.facebook.com/profile.php?id=100000925065560\">Upk Tutur</a>","district":"KAB. PASURUAN","province code":164,"longitude":112.8310855,"id":"a6656h6cww8z","province":"JAWA TIMUR","district code":3514,"sub-district":"TUTUR"},"type":"Feature","geometry":{"type":"Point","coordinates":[112.8310855,-7.908697396]}},{"properties":{"sub-district code":3301150,"latitude":-7.662246122,"pnpm office":"<a href=\"http://www.facebook.com/profile.php?id=100000889845924\">Upk Adipala</a>","district":"KAB. CILACAP","province code":165,"longitude":109.1524412,"id":"a6656h526wnd","province":"JAWA TENGAH","district code":3301,"sub-district":"ADIPALA"},"type":"Feature","geometry":{"type":"Point","coordinates":[109.1524412,-7.662246122]}},{"properties":{"sub-district code":1111110,"latitude":5.019910511,"pnpm office":"<a href=\"http://www.facebook.com/upklhoksukon\">Upk Lhoksukon</a>","district":"KAB. ACEH UTARA","province code":166,"longitude":97.30174695,"id":"a6656h0uut5c","province":"NANGGROE ACEH DARUSSALAM","district code":1111,"sub-district":"LHOKSUKON"},"type":"Feature","geometry":{"type":"Point","coordinates":[97.30174695,5.019910511]}},{"properties":{"sub-district code":3529010,"latitude":-7.089057217,"pnpm office":"<a href=\"http://www.facebook.com/profile.php?id=100001003734327\">Upk Pragaan Sumenep Madura</a>","district":"KAB. SUMENEP","province code":167,"longitude":113.6611322,"id":"a6656gynyhxs","province":"JAWA TIMUR","district code":3529,"sub-district":"PRAGAAN"},"type":"Feature","geometry":{"type":"Point","coordinates":[113.6611322,-7.089057217]}},{"properties":{"sub-district code":3514160,"latitude":-7.652484288,"pnpm office":"<a href=\"http://www.facebook.com/profile.php?id=100001001025657\">Upk Rembang</a>","district":"KAB. PASURUAN","province code":168,"longitude":112.7959236,"id":"a6656gtk28g3","province":"JAWA TIMUR","district code":3514,"sub-district":"REMBANG"},"type":"Feature","geometry":{"type":"Point","coordinates":[112.7959236,-7.652484288]}},{"properties":{"sub-district code":3214091,"latitude":-6.61852664,"pnpm office":"<a href=\"http://www.facebook.com/profile.php?id=100000987335631\">Upk Pondoksalam</a>","district":"KAB. PURWAKARTA","province code":169,"longitude":107.4870835,"id":"a6656gwmas74","province":"JAWA BARAT","district code":3214,"sub-district":"PONDOK SALAM"},"type":"Feature","geometry":{"type":"Point","coordinates":[107.4870835,-6.61852664]}},{"properties":{"sub-district code":3204280,"latitude":-6.9873563,"pnpm office":"<a href=\"http://www.facebook.com/profile.php?id=100000891648404\">Upksauyunan Bojongsoang</a>","district":"KAB. BANDUNG","province code":170,"longitude":107.6653021,"id":"a6656gsg9pmx","province":"JAWA BARAT","district code":3204,"sub-district":"BOJONGSOANG"},"type":"Feature","geometry":{"type":"Point","coordinates":[107.6653021,-6.9873563]}},{"properties":{"sub-district code":3301121,"latitude":-7.64562157,"pnpm office":"<a href=\"http://www.facebook.com/bintangbumi\">Upk Bahari</a>","district":"KAB. CILACAP","province code":171,"longitude":108.881925,"id":"a6656gylfgfw","province":"JAWA TENGAH","district code":3301,"sub-district":"KAMPUNG LAUT"},"type":"Feature","geometry":{"type":"Point","coordinates":[108.881925,-7.64562157]}},{"properties":{"sub-district code":6308011,"latitude":-2.450447327,"pnpm office":"<a href=\"http://www.facebook.com/profile.php?id=100000897023551\">Upk Paminggir</a>","district":"KAB. HULU SUNGAI UTARA","province code":172,"longitude":114.9697714,"id":"a6656gvvvewu","province":"KALIMANTAN SELATAN","district code":6308,"sub-district":"PAMINGGIR"},"type":"Feature","geometry":{"type":"Point","coordinates":[114.9697714,-2.450447327]}},{"properties":{"sub-district code":3514210,"latitude":-7.750187981,"pnpm office":"<a href=\"http://www.facebook.com/profile.php?id=100000931084671\">Upk Winongan</a>","district":"KAB. PASURUAN","province code":173,"longitude":112.9359735,"id":"a6656h739kqj","province":"JAWA TIMUR","district code":3514,"sub-district":"WINONGAN"},"type":"Feature","geometry":{"type":"Point","coordinates":[112.9359735,-7.750187981]}},{"properties":{"sub-district code":3515030,"latitude":-7.515867715,"pnpm office":"<a href=\"http://www.facebook.com/profile.php?id=100001002686670\">Upk Krembung</a>","district":"KAB. SIDOARJO","province code":174,"longitude":112.6423639,"id":"a6656h6ujv0x","province":"JAWA TIMUR","district code":3515,"sub-district":"KREMBUNG"},"type":"Feature","geometry":{"type":"Point","coordinates":[112.6423639,-7.515867715]}},{"properties":{"sub-district code":3205300,"latitude":-7.006716776,"pnpm office":"<a href=\"http://www.facebook.com/profile.php?id=100000948301161\">Upk Selaawi</a>","district":"KAB. GARUT","province code":175,"longitude":107.993572,"id":"a6656gz6x8i8","province":"JAWA BARAT","district code":3205,"sub-district":"SELAAWI"},"type":"Feature","geometry":{"type":"Point","coordinates":[107.993572,-7.006716776]}},{"properties":{"sub-district code":1508030,"latitude":-1.329146672,"pnpm office":"<a href=\"http://www.facebook.com/profile.php?id=100000995182140\">Upk Rimbo Bujang Jambi</a>","district":"KAB. TEBO","province code":176,"longitude":102.1517611,"id":"a6656gut4e2o","province":"JAMBI","district code":1508,"sub-district":"RIMBO BUJANG"},"type":"Feature","geometry":{"type":"Point","coordinates":[102.1517611,-1.329146672]}},{"properties":{"sub-district code":3302720,"latitude":-7.418347962,"pnpm office":"<a href=\"http://www.facebook.com/profile.php?id=100000932597036\">Didi Wahyudi Upk</a>","district":"KAB. BANYUMAS","province code":177,"longitude":109.2151868,"id":"a6656h0b417i","province":"JAWA TENGAH","district code":3302,"sub-district":"PURWOKERTO BARAT"},"type":"Feature","geometry":{"type":"Point","coordinates":[109.2151868,-7.418347962]}},{"properties":{"sub-district code":3305050,"latitude":-7.732665257,"pnpm office":"<a href=\"http://www.facebook.com/WawanSetiawanSadja\">Upk Klirong Kebumen</a>","district":"KAB. KEBUMEN","province code":178,"longitude":109.6344886,"id":"a6656h5wyic5","province":"JAWA TENGAH","district code":3305,"sub-district":"KLIRONG"},"type":"Feature","geometry":{"type":"Point","coordinates":[109.6344886,-7.732665257]}},{"properties":{"sub-district code":3302040,"latitude":-7.515168024,"pnpm office":"<a href=\"http://www.facebook.com/profile.php?id=100000877968717\">Upk Pnpm-Mp Rawalo</a>","district":"KAB. BANYUMAS","province code":179,"longitude":109.1666484,"id":"a6656grma3vm","province":"JAWA TENGAH","district code":3302,"sub-district":"RAWALO"},"type":"Feature","geometry":{"type":"Point","coordinates":[109.1666484,-7.515168024]}},{"properties":{"sub-district code":3318190,"latitude":-6.5361977,"pnpm office":"<a href=\"http://www.facebook.com/upkcluwak\">Upk Cluwak</a>","district":"KAB. PATI","province code":180,"longitude":110.9455105,"id":"a6656gsc7ig9","province":"JAWA TENGAH","district code":3318,"sub-district":"CLUWAK"},"type":"Feature","geometry":{"type":"Point","coordinates":[110.9455105,-6.5361977]}},{"properties":{"sub-district code":3308030,"latitude":-7.654427217,"pnpm office":"<a href=\"http://www.facebook.com/profile.php?id=100000899825329\">Upk Pnpm Ngluwar</a>","district":"KAB. MAGELANG","province code":181,"longitude":110.2787365,"id":"a6656gwivhf7","province":"JAWA TENGAH","district code":3308,"sub-district":"NGLUWAR"},"type":"Feature","geometry":{"type":"Point","coordinates":[110.2787365,-7.654427217]}},{"properties":{"sub-district code":3509190,"latitude":-8.116535073,"pnpm office":"<a href=\"http://www.facebook.com/profile.php?id=100000926966763\">Upk Bangsalsari Jember</a>","district":"KAB. JEMBER","province code":182,"longitude":113.5525097,"id":"a6656gxf41ej","province":"JAWA TIMUR","district code":3509,"sub-district":"BANGSALSARI"},"type":"Feature","geometry":{"type":"Point","coordinates":[113.5525097,-8.116535073]}},{"properties":{"sub-district code":3305110,"latitude":-7.627755712,"pnpm office":"<a href=\"http://www.facebook.com/upkpnpm.alian\">Upk Pnpm Kec Alian</a>","district":"KAB. KEBUMEN","province code":183,"longitude":109.7051308,"id":"a6656h6lr7sh","province":"JAWA TENGAH","district code":3305,"sub-district":"ALIAN"},"type":"Feature","geometry":{"type":"Point","coordinates":[109.7051308,-7.627755712]}},{"properties":{"sub-district code":3301100,"latitude":-7.500111669,"pnpm office":"<a href=\"http://www.facebook.com/profile.php?id=100001000145724\">Upk Gandrungmangu</a>","district":"KAB. CILACAP","province code":184,"longitude":108.8517395,"id":"a6656guoxq1i","province":"JAWA TENGAH","district code":3301,"sub-district":"GANDRUNGMANGU"},"type":"Feature","geometry":{"type":"Point","coordinates":[108.8517395,-7.500111669]}},{"properties":{"sub-district code":3324070,"latitude":-7.102567154,"pnpm office":"<a href=\"http://www.facebook.com/upkboja.binamandiri\">Upk Boja Bina Mandiri</a>","district":"KAB. KENDAL","province code":185,"longitude":110.27705,"id":"a6656h0jy5y0","province":"JAWA TENGAH","district code":3324,"sub-district":"BOJA"},"type":"Feature","geometry":{"type":"Point","coordinates":[110.27705,-7.102567154]}},{"properties":{"sub-district code":3512090,"latitude":-7.702269396,"pnpm office":"<a href=\"http://www.facebook.com/profile.php?id=100000891019653\">Fka Upk Panarukan Stb</a>","district":"KAB. SITUBONDO","province code":186,"longitude":113.9758105,"id":"a6656gxzcitj","province":"JAWA TIMUR","district code":3512,"sub-district":"PANARUKAN"},"type":"Feature","geometry":{"type":"Point","coordinates":[113.9758105,-7.702269396]}},{"properties":{"sub-district code":3401090,"latitude":-7.746729058,"pnpm office":"<a href=\"http://www.facebook.com/profile.php?id=100001148077316\">Upk Girimulyo</a>","district":"KAB. KULON PROGO","province code":187,"longitude":110.180625,"id":"a6656h387l11","province":"DAERAH ISTIMEWA YOGYAKARTA","district code":3401,"sub-district":"GIRIMULYO"},"type":"Feature","geometry":{"type":"Point","coordinates":[110.180625,-7.746729058]}},{"properties":{"sub-district code":3310130,"latitude":-7.681838714,"pnpm office":"<a href=\"http://www.facebook.com/profile.php?id=100001084494815\">Upk Ceper</a>","district":"KAB. KLATEN","province code":188,"longitude":110.6656391,"id":"a6656gsy8lii","province":"JAWA TENGAH","district code":3310,"sub-district":"CEPER"},"type":"Feature","geometry":{"type":"Point","coordinates":[110.6656391,-7.681838714]}},{"properties":{"sub-district code":3515050,"latitude":-7.547048913,"pnpm office":"<a href=\"http://www.facebook.com/profile.php?id=100001088856780\">Upk Jabon</a>","district":"KAB. SIDOARJO","province code":189,"longitude":112.7828009,"id":"a6656gxoxq69","province":"JAWA TIMUR","district code":3515,"sub-district":"JABON"},"type":"Feature","geometry":{"type":"Point","coordinates":[112.7828009,-7.547048913]}},{"properties":{"sub-district code":1213200,"latitude":4.215252185,"pnpm office":"<a href=\"http://www.facebook.com/profile.php?id=100001072490975\">Upk Pangkalansusu</a>","district":"KAB. LANGKAT","province code":190,"longitude":98.18048215,"id":"a6656gth7ywb","province":"SUMATERA UTARA","district code":1213,"sub-district":"PANGKALAN SUSU"},"type":"Feature","geometry":{"type":"Point","coordinates":[98.18048215,4.215252185]}},{"properties":{"sub-district code":3502190,"latitude":-7.83737171,"pnpm office":"<a href=\"http://www.facebook.com/profile.php?id=100001071066374\">Upk Jenangan</a>","district":"KAB. PONOROGO","province code":191,"longitude":111.5328912,"id":"a6656gsu1iiz","province":"JAWA TIMUR","district code":3502,"sub-district":"JENANGAN"},"type":"Feature","geometry":{"type":"Point","coordinates":[111.5328912,-7.83737171]}},{"properties":{"sub-district code":3213160,"latitude":-6.41176314,"pnpm office":"<a href=\"http://www.facebook.com/upk.compreng\">Upk Compreng</a>","district":"KAB. SUBANG","province code":192,"longitude":107.865505,"id":"a6656gzlu26m","province":"JAWA BARAT","district code":3213,"sub-district":"COMPRENG"},"type":"Feature","geometry":{"type":"Point","coordinates":[107.865505,-6.41176314]}},{"properties":{"sub-district code":3508050,"latitude":-8.217408557,"pnpm office":"<a href=\"http://www.facebook.com/profile.php?id=100001061212527\">Upk Tempeh</a>","district":"KAB. LUMAJANG","province code":193,"longitude":113.2026295,"id":"a6656guidg9m","province":"JAWA TIMUR","district code":3508,"sub-district":"TEMPEH"},"type":"Feature","geometry":{"type":"Point","coordinates":[113.2026295,-8.217408557]}},{"properties":{"sub-district code":6172040,"latitude":0.903302764,"pnpm office":"<a href=\"http://www.facebook.com/profile.php?id=100001134648368\">Suhari Upk</a>","district":"KOTA SINGKAWANG","province code":194,"longitude":108.9712695,"id":"a6656h73h9vz","province":"KALIMANTAN BARAT","district code":6172,"sub-district":"SINGKAWANG BARAT"},"type":"Feature","geometry":{"type":"Point","coordinates":[108.9712695,0.903302764]}},{"properties":{"sub-district code":3522240,"latitude":-7.116000834,"pnpm office":"<a href=\"http://www.facebook.com/profile.php?id=100001058433418\">Upk Kasiman</a>","district":"KAB. BOJONEGORO","province code":195,"longitude":111.6509207,"id":"a6656h5impfc","province":"JAWA TIMUR","district code":3522,"sub-district":"KASIMAN"},"type":"Feature","geometry":{"type":"Point","coordinates":[111.6509207,-7.116000834]}},{"properties":{"sub-district code":3209031,"latitude":-6.849412432,"pnpm office":"<a href=\"http://www.facebook.com/profile.php?id=100001048406599\">Upk Pabedilan</a>","district":"KAB. CIREBON","province code":196,"longitude":108.757233,"id":"a6656h74zypj","province":"JAWA BARAT","district code":3209,"sub-district":"PABEDILAN"},"type":"Feature","geometry":{"type":"Point","coordinates":[108.757233,-6.849412432]}},{"properties":{"sub-district code":3206120,"latitude":-7.411113936,"pnpm office":"<a href=\"http://www.facebook.com/upk.tanjungjaya\">Upk Tanjungjaya</a>","district":"KAB. TASIKMALAYA","province code":197,"longitude":108.1165934,"id":"a6656gwvx7v9","province":"JAWA BARAT","district code":3206,"sub-district":"TANJUNGJAYA"},"type":"Feature","geometry":{"type":"Point","coordinates":[108.1165934,-7.411113936]}},{"properties":{"sub-district code":3210100,"latitude":-6.822823765,"pnpm office":"<a href=\"http://www.facebook.com/profile.php?id=100001048365778\">Upk Rajagaluh</a>","district":"KAB. MAJALENGKA","province code":198,"longitude":108.3681903,"id":"a6656gzlkj3t","province":"JAWA BARAT","district code":3210,"sub-district":"RAJAGALUH"},"type":"Feature","geometry":{"type":"Point","coordinates":[108.3681903,-6.822823765]}},{"properties":{"sub-district code":7303012,"latitude":-5.494949625,"pnpm office":"<a href=\"http://www.facebook.com/profile.php?id=100001065697057\">Upk Sinoa</a>","district":"KAB. BANTAENG","province code":199,"longitude":119.9264885,"id":"a6656h1a5qh1","province":"SULAWESI SELATAN","district code":7303,"sub-district":"SINOA"},"type":"Feature","geometry":{"type":"Point","coordinates":[119.9264885,-5.494949625]}},{"properties":{"sub-district code":3207040,"latitude":-7.525783504,"pnpm office":"<a href=\"http://www.facebook.com/profile.php?id=100001040012010\">Upk Langkaplancar</a>","district":"KAB. CIAMIS","province code":200,"longitude":108.4345895,"id":"a6656gykpj4w","province":"JAWA BARAT","district code":3207,"sub-district":"LANGKAPLANCAR"},"type":"Feature","geometry":{"type":"Point","coordinates":[108.4345895,-7.525783504]}},{"properties":{"sub-district code":3523110,"latitude":-6.933187743,"pnpm office":"<a href=\"http://www.facebook.com/profile.php?id=100001146438346\">Upk Palang</a>","district":"KAB. TUBAN","province code":201,"longitude":112.1435238,"id":"a6656gz428t5","province":"JAWA TIMUR","district code":3523,"sub-district":"PALANG"},"type":"Feature","geometry":{"type":"Point","coordinates":[112.1435238,-6.933187743]}},{"properties":{"sub-district code":1202050,"latitude":0.86453895,"pnpm office":"<a href=\"http://www.facebook.com/profile.php?id=100001127259882\">Upk Kecamatan Panyabungan</a>","district":"KAB. MANDAILING NATAL","province code":202,"longitude":99.65458725,"id":"a6656gsm1za7","province":"SUMATERA UTARA","district code":1202,"sub-district":"PANYABUNGAN"},"type":"Feature","geometry":{"type":"Point","coordinates":[99.65458725,0.86453895]}},{"properties":{"sub-district code":6101010,"latitude":1.036423228,"pnpm office":"<a href=\"http://www.facebook.com/upk.sambaskalbar\">Upk Selakau Sambas Kalbar</a>","district":"KAB. SAMBAS","province code":203,"longitude":109.0228582,"id":"a6656h23n3nj","province":"KALIMANTAN BARAT","district code":6101,"sub-district":"SELAKAU"},"type":"Feature","geometry":{"type":"Point","coordinates":[109.0228582,1.036423228]}},{"properties":{"sub-district code":3210200,"latitude":-6.662740575,"pnpm office":"<a href=\"http://www.facebook.com/profile.php?id=100001107877605\">Upk Pnpm Kec Ligung</a>","district":"KAB. MAJALENGKA","province code":204,"longitude":108.2786633,"id":"a6656gwwrjn9","province":"JAWA BARAT","district code":3210,"sub-district":"LIGUNG"},"type":"Feature","geometry":{"type":"Point","coordinates":[108.2786633,-6.662740575]}},{"properties":{"sub-district code":3515010,"latitude":-7.4502426,"pnpm office":"<a href=\"http://www.facebook.com/profile.php?id=100001132832163\">Upk Pnpm-Mp Tarik</a>","district":"KAB. SIDOARJO","province code":205,"longitude":112.5215167,"id":"a6656h6q38gz","province":"JAWA TIMUR","district code":3515,"sub-district":"TARIK"},"type":"Feature","geometry":{"type":"Point","coordinates":[112.5215167,-7.4502426]}},{"properties":{"sub-district code":3502150,"latitude":-7.827161293,"pnpm office":"<a href=\"http://www.facebook.com/profile.php?id=100001035117999\">Upk Sampung Ponorogo</a>","district":"KAB. PONOROGO","province code":206,"longitude":111.3419317,"id":"a6656h517r5e","province":"JAWA TIMUR","district code":3502,"sub-district":"SAMPUNG"},"type":"Feature","geometry":{"type":"Point","coordinates":[111.3419317,-7.827161293]}},{"properties":{"sub-district code":7316020,"latitude":-3.565197309,"pnpm office":"<a href=\"http://www.facebook.com/profile.php?id=100001184662809\">Upk Enrekang</a>","district":"KAB. ENREKANG","province code":207,"longitude":119.793518,"id":"a6656guf5s89","province":"SULAWESI SELATAN","district code":7316,"sub-district":"ENREKANG"},"type":"Feature","geometry":{"type":"Point","coordinates":[119.793518,-3.565197309]}},{"properties":{"sub-district code":1109030,"latitude":5.192633569,"pnpm office":"<a href=\"http://www.facebook.com/profile.php?id=100001223281325\">Upk Bandardua</a>","district":"KAB. PIDIE","province code":208,"longitude":96.25757119,"id":"a6656h35l6vk","province":"NANGGROE ACEH DARUSSALAM","district code":1109,"sub-district":"BANDAR DUA"},"type":"Feature","geometry":{"type":"Point","coordinates":[96.25757119,5.192633569]}},{"properties":{"sub-district code":6202050,"latitude":-2.881132148,"pnpm office":"<a href=\"http://www.facebook.com/reza.sri\">Upk Pulau Hanaut</a>","district":"KAB. KOTAWARINGIN TIMUR","province code":209,"longitude":113.0601352,"id":"a6656h48bx95","province":"KALIMANTAN TENGAH","district code":6202,"sub-district":"PULAU HANAUT"},"type":"Feature","geometry":{"type":"Point","coordinates":[113.0601352,-2.881132148]}},{"properties":{"sub-district code":8171020,"latitude":-3.690820088,"pnpm office":"<a href=\"http://www.facebook.com/profile.php?id=100001282970987\">Upk Serasi Amantelu</a>","district":"KOTA AMBON","province code":210,"longitude":128.204287,"id":"a6656gu4mm9r","province":"M A L U K U","district code":8171,"sub-district":"SIRIMAU"},"type":"Feature","geometry":{"type":"Point","coordinates":[128.204287,-3.690820088]}},{"properties":{"sub-district code":1805080,"latitude":-4.890689287,"pnpm office":"<a href=\"http://www.facebook.com/profile.php?id=100001465141679\">Upk Tb Lamteng</a>","district":"KAB. LAMPUNG TENGAH","province code":211,"longitude":105.2237795,"id":"a6656h7ifyvr","province":"LAMPUNG","district code":1805,"sub-district":"TERBANGGI BESAR"},"type":"Feature","geometry":{"type":"Point","coordinates":[105.2237795,-4.890689287]}},{"properties":{"sub-district code":3211161,"latitude":-6.833881412,"pnpm office":"<a href=\"http://www.facebook.com/upkcsr\">Ellys Upkcsr</a>","district":"KAB. SUMEDANG","province code":212,"longitude":107.9732099,"id":"a6656h6wxmal","province":"JAWA BARAT","district code":3211,"sub-district":"CISARUA"},"type":"Feature","geometry":{"type":"Point","coordinates":[107.9732099,-6.833881412]}},{"properties":{"sub-district code":3210031,"latitude":-7.042232007,"pnpm office":"<a href=\"http://www.facebook.com/profile.php?id=100001367634027\">Upk Cingambul</a>","district":"KAB. MAJALENGKA","province code":213,"longitude":108.3342347,"id":"a6656h0n6yd1","province":"JAWA BARAT","district code":3210,"sub-district":"CINGAMBUL"},"type":"Feature","geometry":{"type":"Point","coordinates":[108.3342347,-7.042232007]}},{"properties":{"sub-district code":7303032,"latitude":-5.527353721,"pnpm office":"<a href=\"http://www.facebook.com/profile.php?id=100001248388436\">Upk Gantarangkeke Bantaeng</a>","district":"KAB. BANTAENG","province code":214,"longitude":120.0556974,"id":"a6656gwza8w6","province":"SULAWESI SELATAN","district code":7303,"sub-district":"GANTARANGKEKE"},"type":"Feature","geometry":{"type":"Point","coordinates":[120.0556974,-5.527353721]}},{"properties":{"sub-district code":3401060,"latitude":-7.854773974,"pnpm office":"<a href=\"http://www.facebook.com/profile.php?id=100001211027869\">Upk Sentolo Sejahtera</a>","district":"KAB. KULON PROGO","province code":215,"longitude":110.2267681,"id":"a6656h3n7lrj","province":"DAERAH ISTIMEWA YOGYAKARTA","district code":3401,"sub-district":"SENTOLO"},"type":"Feature","geometry":{"type":"Point","coordinates":[110.2267681,-7.854773974]}},{"properties":{"sub-district code":1208040,"latitude":2.865441948,"pnpm office":"<a href=\"http://www.facebook.com/profile.php?id=100001269414675\">Upk Sungkep Timur</a>","district":"KAB. ASAHAN","province code":216,"longitude":99.87325025,"id":"a6656h4za9ez","province":"SUMATERA UTARA","district code":1208,"sub-district":"SEI KEPAYANG"},"type":"Feature","geometry":{"type":"Point","coordinates":[99.87325025,2.865441948]}},{"properties":{"sub-district code":3325040,"latitude":-7.057019,"pnpm office":"<a href=\"http://www.facebook.com/profile.php?id=100001480991107\">Upk Mukti Reban</a>","district":"KAB. BATANG","province code":217,"longitude":109.9123,"id":"a6656guqj816","province":"JAWA TENGAH","district code":3325,"sub-district":"REBAN"},"type":"Feature","geometry":{"type":"Point","coordinates":[109.9123,-7.057019]}},{"properties":{"sub-district code":1805040,"latitude":-4.976274187,"pnpm office":"<a href=\"http://www.facebook.com/profile.php?id=100001269022650\">Upkpnpmgsugih Lamteng</a>","district":"KAB. LAMPUNG TENGAH","province code":218,"longitude":105.2543,"id":"a6656h6aezlb","province":"LAMPUNG","district code":1805,"sub-district":"GUNUNG SUGIH"},"type":"Feature","geometry":{"type":"Point","coordinates":[105.2543,-4.976274187]}},{"properties":{"sub-district code":3309030,"latitude":-7.508844216,"pnpm office":"<a href=\"http://www.facebook.com/profile.php?id=100001309507331\">Upk Pnpm Cepogo</a>","district":"KAB. BOYOLALI","province code":219,"longitude":110.5272263,"id":"a6656gxd979g","province":"JAWA TENGAH","district code":3309,"sub-district":"CEPOGO"},"type":"Feature","geometry":{"type":"Point","coordinates":[110.5272263,-7.508844216]}},{"properties":{"sub-district code":1305040,"latitude":-0.519477166,"pnpm office":"<a href=\"http://www.facebook.com/profile.php?id=100001286049054\">Upk Rangkiang Mandiri</a>","district":"KAB. TANAH DATAR","province code":220,"longitude":100.5698243,"id":"a6656gxmvdxk","province":"SUMATERA BARAT","district code":1305,"sub-district":"RAMBATAN"},"type":"Feature","geometry":{"type":"Point","coordinates":[100.5698243,-0.519477166]}},{"properties":{"sub-district code":3514050,"latitude":-7.824997522,"pnpm office":"<a href=\"http://www.facebook.com/profile.php?id=100001307100458\">Upk Lumbang Pasuruan</a>","district":"KAB. PASURUAN","province code":221,"longitude":112.9769182,"id":"a6656h3c6sim","province":"JAWA TIMUR","district code":3514,"sub-district":"LUMBANG"},"type":"Feature","geometry":{"type":"Point","coordinates":[112.9769182,-7.824997522]}},{"properties":{"sub-district code":3502080,"latitude":-7.928463092,"pnpm office":"<a href=\"http://www.facebook.com/profile.php?id=100001478629542\">Upk Mlarak</a>","district":"KAB. PONOROGO","province code":222,"longitude":111.5362896,"id":"a6656h56ync9","province":"JAWA TIMUR","district code":3502,"sub-district":"MLARAK"},"type":"Feature","geometry":{"type":"Point","coordinates":[111.5362896,-7.928463092]}},{"properties":{"sub-district code":3506210,"latitude":-7.784091645,"pnpm office":"<a href=\"http://www.facebook.com/profile.php?id=100001399025657\">Upk Banyakan Kdr</a>","district":"KAB. KEDIRI","province code":223,"longitude":111.9249816,"id":"a6656gwxmk40","province":"JAWA TIMUR","district code":3506,"sub-district":"BANYAKAN"},"type":"Feature","geometry":{"type":"Point","coordinates":[111.9249816,-7.784091645]}},{"properties":{"sub-district code":3316100,"latitude":-6.954405505,"pnpm office":"<a href=\"http://www.facebook.com/profile.php?id=100001456868184\">Upk Blora</a>","district":"KAB. BLORA","province code":224,"longitude":111.4259559,"id":"a6656gx32sh4","province":"JAWA TENGAH","district code":3316,"sub-district":"KOTA BLORA"},"type":"Feature","geometry":{"type":"Point","coordinates":[111.4259559,-6.954405505]}},{"properties":{"sub-district code":1213160,"latitude":4.008571467,"pnpm office":"<a href=\"http://www.facebook.com/profile.php?id=100001221852693\">Upk Babalan</a>","district":"KAB. LANGKAT","province code":225,"longitude":98.34231533,"id":"a6656gu8rdji","province":"SUMATERA UTARA","district code":1213,"sub-district":"BABALAN"},"type":"Feature","geometry":{"type":"Point","coordinates":[98.34231533,4.008571467]}},{"properties":{"sub-district code":3310050,"latitude":-7.760612762,"pnpm office":"<a href=\"http://www.facebook.com/upkkecamatancawas\">Upk Cawas</a>","district":"KAB. KLATEN","province code":226,"longitude":110.7112154,"id":"a6656h28o1lp","province":"JAWA TENGAH","district code":3310,"sub-district":"CAWAS"},"type":"Feature","geometry":{"type":"Point","coordinates":[110.7112154,-7.760612762]}},{"properties":{"sub-district code":3307100,"latitude":-7.314299756,"pnpm office":"<a href=\"http://www.facebook.com/profile.php?id=100001467132058\">Upk Watumalang</a>","district":"KAB. WONOSOBO","province code":227,"longitude":109.84665,"id":"a6656gun1a67","province":"JAWA TENGAH","district code":3307,"sub-district":"WATUMALANG"},"type":"Feature","geometry":{"type":"Point","coordinates":[109.84665,-7.314299756]}},{"properties":{"sub-district code":3213220,"latitude":-6.276810667,"pnpm office":"<a href=\"http://www.facebook.com/profile.php?id=100001223450535\">Upk Kec Blanakan</a>","district":"KAB. SUBANG","province code":228,"longitude":107.6785465,"id":"a6656gzcnvi0","province":"JAWA BARAT","district code":3213,"sub-district":"BLANAKAN"},"type":"Feature","geometry":{"type":"Point","coordinates":[107.6785465,-6.276810667]}},{"properties":{"sub-district code":3509250,"latitude":-8.151859078,"pnpm office":"<a href=\"http://www.facebook.com/profile.php?id=100001406061821\">Upk-Pnpm Ledokombo</a>","district":"KAB. JEMBER","province code":229,"longitude":113.9316738,"id":"a6656gw2yoc5","province":"JAWA TIMUR","district code":3509,"sub-district":"LEDOKOMBO"},"type":"Feature","geometry":{"type":"Point","coordinates":[113.9316738,-8.151859078]}},{"properties":{"sub-district code":1805100,"latitude":-4.779115642,"pnpm office":"<a href=\"http://www.facebook.com/profile.php?id=100001277924676\">Upkseputih Mataram</a>","district":"KAB. LAMPUNG TENGAH","province code":230,"longitude":105.3528529,"id":"a6656gwkernf","province":"LAMPUNG","district code":1805,"sub-district":"SEPUTIH MATARAM"},"type":"Feature","geometry":{"type":"Point","coordinates":[105.3528529,-4.779115642]}},{"properties":{"sub-district code":1610040,"latitude":-3.341180656,"pnpm office":"<a href=\"http://www.facebook.com/upk.tra\">Upk Tanjung Raja Oganilir</a>","district":"KAB. OGAN ILIR","province code":231,"longitude":104.7466645,"id":"a6656gywlol9","province":"SUMATERA SELATAN","district code":1610,"sub-district":"TANJUNG RAJA"},"type":"Feature","geometry":{"type":"Point","coordinates":[104.7466645,-3.341180656]}},{"properties":{"sub-district code":3207140,"latitude":-7.384564992,"pnpm office":"<a href=\"http://www.facebook.com/profile.php?id=100001203170942\">Upk Cimaragas</a>","district":"KAB. CIAMIS","province code":232,"longitude":108.4394405,"id":"a6656gwzibyj","province":"JAWA BARAT","district code":3207,"sub-district":"CIMARAGAS"},"type":"Feature","geometry":{"type":"Point","coordinates":[108.4394405,-7.384564992]}},{"properties":{"sub-district code":3317110,"latitude":-6.726656038,"pnpm office":"<a href=\"http://www.facebook.com/profile.php?id=100001181538722\">Upk Pancur Rembang</a>","district":"KAB. REMBANG","province code":233,"longitude":111.4809707,"id":"a6656gs8y3f8","province":"JAWA TENGAH","district code":3317,"sub-district":"PANCUR"},"type":"Feature","geometry":{"type":"Point","coordinates":[111.4809707,-6.726656038]}},{"properties":{"sub-district code":5206071,"latitude":-8.350194687,"pnpm office":"<a href=\"http://www.facebook.com/profile.php?id=100002418436949\">Upk Kecamatan Ambalawi</a>","district":"KAB. BIMA","province code":234,"longitude":118.8353093,"id":"a6656guqnxi1","province":"NUSA TENGGARA BARAT","district code":5206,"sub-district":"AMBALAWI"},"type":"Feature","geometry":{"type":"Point","coordinates":[118.8353093,-8.350194687]}},{"properties":{"sub-district code":3212030,"latitude":-6.443401855,"pnpm office":"<a href=\"http://www.facebook.com/profile.php?id=100001592775810\">Upk Gabuswetan</a>","district":"KAB. INDRAMAYU","province code":235,"longitude":108.0688992,"id":"a6656gr9tnwt","province":"JAWA BARAT","district code":3212,"sub-district":"GABUSWETAN"},"type":"Feature","geometry":{"type":"Point","coordinates":[108.0688992,-6.443401855]}},{"properties":{"sub-district code":7313090,"latitude":-4.000375966,"pnpm office":"<a href=\"http://www.facebook.com/profile.php?id=100001583422432\">Upk Belawa Wajo</a>","district":"KAB. WAJO","province code":236,"longitude":119.94291,"id":"a6656h4dysjy","province":"SULAWESI SELATAN","district code":7313,"sub-district":"BELAWA"},"type":"Feature","geometry":{"type":"Point","coordinates":[119.94291,-4.000375966]}},{"properties":{"sub-district code":3202172,"latitude":-6.937262699,"pnpm office":"<a href=\"http://www.facebook.com/profile.php?id=100001534115978\">Upk Cireunghas</a>","district":"KAB. SUKABUMI","province code":237,"longitude":107.0224166,"id":"a6656gs4zbut","province":"JAWA BARAT","district code":3202,"sub-district":"CIREUNGHAS"},"type":"Feature","geometry":{"type":"Point","coordinates":[107.0224166,-6.937262699]}},{"properties":{"sub-district code":3205212,"latitude":-7.173084018,"pnpm office":"<a href=\"http://www.facebook.com/profile.php?id=100001583244888\">Upk Pangatikan</a>","district":"KAB. GARUT","province code":238,"longitude":108.0037157,"id":"a6656h2jobeu","province":"JAWA BARAT","district code":3205,"sub-district":"PANGATIKAN"},"type":"Feature","geometry":{"type":"Point","coordinates":[108.0037157,-7.173084018]}},{"properties":{"sub-district code":7317070,"latitude":-3.130701691,"pnpm office":"<a href=\"http://www.facebook.com/profile.php?id=100001599436980\">Upk Bua Ponrang</a>","district":"KAB. LUWU","province code":239,"longitude":120.2082044,"id":"a6656gt165iv","province":"SULAWESI SELATAN","district code":7317,"sub-district":"BUA"},"type":"Feature","geometry":{"type":"Point","coordinates":[120.2082044,-3.130701691]}},{"properties":{"sub-district code":1406021,"latitude":0.279181994,"pnpm office":"<a href=\"http://www.facebook.com/profile.php?id=100001593743982\">Upk Tigabelas Kotokampar</a>","district":"KAB. KAMPAR","province code":240,"longitude":100.5953178,"id":"a6656gwefm9d","province":"RIAU","district code":1406,"sub-district":"KOTO KAMPAR HULU"},"type":"Feature","geometry":{"type":"Point","coordinates":[100.5953178,0.279181994]}},{"properties":{"sub-district code":3310060,"latitude":-7.72924508,"pnpm office":"<a href=\"http://www.facebook.com/upk.ronggowarsito\">Upk Trucuk</a>","district":"KAB. KLATEN","province code":241,"longitude":110.66645,"id":"a6656h7gnc5e","province":"JAWA TENGAH","district code":3310,"sub-district":"TRUCUK"},"type":"Feature","geometry":{"type":"Point","coordinates":[110.66645,-7.72924508]}},{"properties":{"sub-district code":3507160,"latitude":-8.128085816,"pnpm office":"<a href=\"http://www.facebook.com/profile.php?id=100001607354808\">Upkpnpm Kepanjen</a>","district":"KAB. MALANG","province code":242,"longitude":112.5726048,"id":"a6656gu6cxsw","province":"JAWA TIMUR","district code":3507,"sub-district":"KEPANJEN"},"type":"Feature","geometry":{"type":"Point","coordinates":[112.5726048,-8.128085816]}},{"properties":{"sub-district code":3514040,"latitude":-7.899900333,"pnpm office":"<a href=\"http://www.facebook.com/profile.php?id=100001562138168\">Upk Tosari</a>","district":"KAB. PASURUAN","province code":243,"longitude":112.9038864,"id":"a6656h6dztgx","province":"JAWA TIMUR","district code":3514,"sub-district":"TOSARI"},"type":"Feature","geometry":{"type":"Point","coordinates":[112.9038864,-7.899900333]}},{"properties":{"sub-district code":3305010,"latitude":-7.711939129,"pnpm office":"<a href=\"http://www.facebook.com/profile.php?id=100001531244001\">Upk Ayah</a>","district":"KAB. KEBUMEN","province code":244,"longitude":109.4171671,"id":"a6656gwldqw0","province":"JAWA TENGAH","district code":3305,"sub-district":"AYAH"},"type":"Feature","geometry":{"type":"Point","coordinates":[109.4171671,-7.711939129]}},{"properties":{"sub-district code":3205250,"latitude":-7.118934829,"pnpm office":"<a href=\"http://www.facebook.com/profile.php?id=100001658575620\">Upk Leuwigoong</a>","district":"KAB. GARUT","province code":245,"longitude":107.9297288,"id":"a6656gyzu4ul","province":"JAWA BARAT","district code":3205,"sub-district":"LEUWIGOONG"},"type":"Feature","geometry":{"type":"Point","coordinates":[107.9297288,-7.118934829]}},{"properties":{"sub-district code":1506050,"latitude":-1.104297129,"pnpm office":"<a href=\"http://www.facebook.com/profile.php?id=100001653752007\">Upk Nipah Panjang</a>","district":"KAB. TANJUNG JABUNG TIMUR","province code":246,"longitude":104.2737695,"id":"a6656h14mggr","province":"JAMBI","district code":1506,"sub-district":"NIPAH PANJANG"},"type":"Feature","geometry":{"type":"Point","coordinates":[104.2737695,-1.104297129]}},{"properties":{"sub-district code":3517200,"latitude":-7.423865324,"pnpm office":"<a href=\"http://www.facebook.com/profile.php?id=100001621431477\">Upk Plandaan</a>","district":"KAB. JOMBANG","province code":247,"longitude":112.0983505,"id":"a6656gssbcbu","province":"JAWA TIMUR","district code":3517,"sub-district":"PLANDAAN"},"type":"Feature","geometry":{"type":"Point","coordinates":[112.0983505,-7.423865324]}},{"properties":{"sub-district code":1208031,"latitude":2.613797902,"pnpm office":"<a href=\"http://www.facebook.com/profile.php?id=100001654755430\">Upk Aek Songsongan Asahan</a>","district":"KAB. ASAHAN","province code":248,"longitude":99.654472,"id":"a6656h1fbou5","province":"SUMATERA UTARA","district code":1208,"sub-district":"AEK KUASAN"},"type":"Feature","geometry":{"type":"Point","coordinates":[99.654472,2.613797902]}},{"properties":{"sub-district code":1213020,"latitude":3.385236473,"pnpm office":"<a href=\"http://www.facebook.com/profile.php?id=100001565357160\">Upk Salapian</a>","district":"KAB. LANGKAT","province code":249,"longitude":98.28733134,"id":"a6656gu1iegg","province":"SUMATERA UTARA","district code":1213,"sub-district":"SALAPIAN"},"type":"Feature","geometry":{"type":"Point","coordinates":[98.28733134,3.385236473]}},{"properties":{"sub-district code":1210070,"latitude":2.842273235,"pnpm office":"<a href=\"http://www.facebook.com/profile.php?id=100001595774788\">Upk Siempatnempu Hilir</a>","district":"KAB. DAIRI","province code":250,"longitude":98.19400993,"id":"a6656grheg1p","province":"SUMATERA UTARA","district code":1210,"sub-district":"SIEMPAT NEMPU"},"type":"Feature","geometry":{"type":"Point","coordinates":[98.19400993,2.842273235]}},{"properties":{"sub-district code":3202100,"latitude":-7.138326714,"pnpm office":"<a href=\"http://www.facebook.com/profile.php?id=100001664016197\">Upk Lengkong</a>","district":"KAB. SUKABUMI","province code":251,"longitude":106.703243,"id":"a6656gvsewgt","province":"JAWA BARAT","district code":3202,"sub-district":"LENGKONG"},"type":"Feature","geometry":{"type":"Point","coordinates":[106.703243,-7.138326714]}},{"properties":{"sub-district code":3327120,"latitude":-6.890176841,"pnpm office":"<a href=\"http://www.facebook.com/upk.comal\">Upk Comal</a>","district":"KAB. PEMALANG","province code":252,"longitude":109.524812,"id":"a6656gxik5at","province":"JAWA TENGAH","district code":3327,"sub-district":"COMAL"},"type":"Feature","geometry":{"type":"Point","coordinates":[109.524812,-6.890176841]}},{"properties":{"sub-district code":1117070,"latitude":4.820044391,"pnpm office":"<a href=\"http://www.facebook.com/profile.php?id=100001493141501\">Upk Permata</a>","district":"KAB. BENER MERIAH","province code":253,"longitude":96.955925,"id":"a6656gw1omxo","province":"NANGGROE ACEH DARUSSALAM","district code":1117,"sub-district":"PERMATA"},"type":"Feature","geometry":{"type":"Point","coordinates":[96.955925,4.820044391]}},{"properties":{"sub-district code":1117070,"latitude":4.820044391,"pnpm office":"<a href=\"http://www.facebook.com/profile.php?id=100001659138589\">Upk Kecamatan Permata Intan</a>","district":"KAB. BENER MERIAH","province code":254,"longitude":96.955925,"id":"a6656h6nuzwh","province":"NANGGROE ACEH DARUSSALAM","district code":1117,"sub-district":"PERMATA"},"type":"Feature","geometry":{"type":"Point","coordinates":[96.955925,4.820044391]}},{"properties":{"sub-district code":3207240,"latitude":-7.284928955,"pnpm office":"<a href=\"http://www.facebook.com/upksadananya\">Upk Sadananya</a>","district":"KAB. CIAMIS","province code":255,"longitude":108.3221895,"id":"a6656h5qij27","province":"JAWA BARAT","district code":3207,"sub-district":"SADANANYA"},"type":"Feature","geometry":{"type":"Point","coordinates":[108.3221895,-7.284928955]}},{"properties":{"sub-district code":1213030,"latitude":3.359121863,"pnpm office":"<a href=\"http://www.facebook.com/profile.php?id=100001584887258\">Upk Sei Bingai</a>","district":"KAB. LANGKAT","province code":256,"longitude":98.435913,"id":"a6656h2pvisu","province":"SUMATERA UTARA","district code":1213,"sub-district":"SEI BINGAI"},"type":"Feature","geometry":{"type":"Point","coordinates":[98.435913,3.359121863]}},{"properties":{"sub-district code":1610030,"latitude":-3.451424197,"pnpm office":"<a href=\"http://www.facebook.com/profile.php?id=100001503150351\">Upk Rantau Alai</a>","district":"KAB. OGAN ILIR","province code":257,"longitude":104.7423449,"id":"a6656h5st2am","province":"SUMATERA SELATAN","district code":1610,"sub-district":"RANTAU ALAI"},"type":"Feature","geometry":{"type":"Point","coordinates":[104.7423449,-3.451424197]}},{"properties":{"sub-district code":3514040,"latitude":-7.899900333,"pnpm office":"<a href=\"http://www.facebook.com/profile.php?id=100001659949536\">Upktosari Pasuruan</a>","district":"KAB. PASURUAN","province code":258,"longitude":112.9038864,"id":"a6656h1cwtg3","province":"JAWA TIMUR","district code":3514,"sub-district":"TOSARI"},"type":"Feature","geometry":{"type":"Point","coordinates":[112.9038864,-7.899900333]}},{"properties":{"sub-district code":3504060,"latitude":-8.199102718,"pnpm office":"<a href=\"http://www.facebook.com/profile.php?id=100001563007151\">Upk Kec Kalidawir Kalidawir</a>","district":"KAB. TULUNGAGUNG","province code":259,"longitude":111.9490485,"id":"a6656gsv5sfo","province":"JAWA TIMUR","district code":3504,"sub-district":"KALIDAWIR"},"type":"Feature","geometry":{"type":"Point","coordinates":[111.9490485,-8.199102718]}},{"properties":{"sub-district code":1302030,"latitude":-2.038782036,"pnpm office":"<a href=\"http://www.facebook.com/profile.php?id=100001645927209\">Upk Pancung Soal</a>","district":"KAB. PESISIR SELATAN","province code":260,"longitude":100.9668741,"id":"a6656gs4q5r9","province":"SUMATERA BARAT","district code":1302,"sub-district":"PANCUNG SOAL"},"type":"Feature","geometry":{"type":"Point","coordinates":[100.9668741,-2.038782036]}},{"properties":{"sub-district code":3203180,"latitude":-6.763387347,"pnpm office":"<a href=\"http://www.facebook.com/profile.php?id=100001761700065\">Upk Mande</a>","district":"KAB. CIANJUR","province code":261,"longitude":107.2054597,"id":"a6656h7dcmfm","province":"JAWA BARAT","district code":3203,"sub-district":"MANDE"},"type":"Feature","geometry":{"type":"Point","coordinates":[107.2054597,-6.763387347]}},{"properties":{"sub-district code":3404100,"latitude":-7.745449465,"pnpm office":"<a href=\"http://www.facebook.com/profile.php?id=100001879858805\">Upk Kalasan</a>","district":"KAB. SLEMAN","province code":262,"longitude":110.4659265,"id":"a6656gt3q0fv","province":"DAERAH ISTIMEWA YOGYAKARTA","district code":3404,"sub-district":"KALASAN"},"type":"Feature","geometry":{"type":"Point","coordinates":[110.4659265,-7.745449465]}},{"properties":{"sub-district code":3210120,"latitude":-6.734950767,"pnpm office":"<a href=\"http://www.facebook.com/profile.php?id=100001785365366\">Upk Kec Leuwimunding</a>","district":"KAB. MAJALENGKA","province code":263,"longitude":108.3418772,"id":"a6656h1az3bh","province":"JAWA BARAT","district code":3210,"sub-district":"LEUWIMUNDING"},"type":"Feature","geometry":{"type":"Point","coordinates":[108.3418772,-6.734950767]}},{"properties":{"sub-district code":1705052,"latitude":-3.854219106,"pnpm office":"<a href=\"http://www.facebook.com/profile.php?id=100001701169047\">Upk Lubuksandi</a>","district":"KAB. SELUMA","province code":264,"longitude":102.61545,"id":"a6656h5hlesc","province":"BENGKULU","district code":1705,"sub-district":"LUBUK SANDI"},"type":"Feature","geometry":{"type":"Point","coordinates":[102.61545,-3.854219106]}},{"properties":{"sub-district code":3216130,"latitude":-6.159127287,"pnpm office":"<a href=\"http://www.facebook.com/profile.php?id=100001842559287\">Upk Pebayuran</a>","district":"KAB. BEKASI","province code":265,"longitude":107.2498588,"id":"a6656h35lg4c","province":"JAWA BARAT","district code":3216,"sub-district":"PEBAYURAN"},"type":"Feature","geometry":{"type":"Point","coordinates":[107.2498588,-6.159127287]}},{"properties":{"sub-district code":1806011,"latitude":-4.862199502,"pnpm office":"<a href=\"http://www.facebook.com/profile.php?id=100001838041769\">Upk Abung Tinggi</a>","district":"KAB. LAMPUNG UTARA","province code":266,"longitude":104.6505,"id":"a6656h51b26a","province":"LAMPUNG","district code":1806,"sub-district":"ABUNG TINGGI"},"type":"Feature","geometry":{"type":"Point","coordinates":[104.6505,-4.862199502]}},{"properties":{"sub-district code":1804040,"latitude":-5.241427085,"pnpm office":"<a href=\"http://www.facebook.com/profile.php?id=100001742894139\">Upk Margatiga</a>","district":"KAB. LAMPUNG TIMUR","province code":267,"longitude":105.4787,"id":"a6656gy2nsqb","province":"LAMPUNG","district code":1804,"sub-district":"MARGATIGA"},"type":"Feature","geometry":{"type":"Point","coordinates":[105.4787,-5.241427085]}},{"properties":{"sub-district code":3202021,"latitude":-7.273270662,"pnpm office":"<a href=\"http://www.facebook.com/profile.php?id=100001718581693\">Upk Waluran</a>","district":"KAB. SUKABUMI","province code":268,"longitude":106.5488588,"id":"a6656gx2njpc","province":"JAWA BARAT","district code":3202,"sub-district":"WALURAN"},"type":"Feature","geometry":{"type":"Point","coordinates":[106.5488588,-7.273270662]}},{"properties":{"sub-district code":7310050,"latitude":-4.153212102,"pnpm office":"<a href=\"http://www.facebook.com/profile.php?id=100001852007388\">Upk Kec Mallusetasi Pnpm</a>","district":"KAB. BARRU","province code":269,"longitude":119.6782698,"id":"a6656gxkg5et","province":"SULAWESI SELATAN","district code":7310,"sub-district":"MALLUSETASI"},"type":"Feature","geometry":{"type":"Point","coordinates":[119.6782698,-4.153212102]}},{"properties":{"sub-district code":3202111,"latitude":-7.073879027,"pnpm office":"<a href=\"http://www.facebook.com/profile.php?id=100001722756711\">Upk Simpenan</a>","district":"KAB. SUKABUMI","province code":270,"longitude":106.5891512,"id":"a6656guxg5m0","province":"JAWA BARAT","district code":3202,"sub-district":"SIMPENAN"},"type":"Feature","geometry":{"type":"Point","coordinates":[106.5891512,-7.073879027]}},{"properties":{"sub-district code":3216021,"latitude":-6.396634764,"pnpm office":"<a href=\"http://www.facebook.com/profile.php?id=100001682035731\">Upk Serba Serba</a>","district":"KAB. BEKASI","province code":271,"longitude":107.124793,"id":"a6656h02mtmu","province":"JAWA BARAT","district code":3216,"sub-district":"SERANG BARU"},"type":"Feature","geometry":{"type":"Point","coordinates":[107.124793,-6.396634764]}},{"properties":{"sub-district code":3206080,"latitude":-7.574570224,"pnpm office":"<a href=\"http://www.facebook.com/upk.kec.bjg.gambir\">Upk Bojonggambir</a>","district":"KAB. TASIKMALAYA","province code":272,"longitude":107.9563215,"id":"a6656h4upymn","province":"JAWA BARAT","district code":3206,"sub-district":"BOJONGGAMBIR"},"type":"Feature","geometry":{"type":"Point","coordinates":[107.9563215,-7.574570224]}},{"properties":{"sub-district code":3206160,"latitude":-7.369731637,"pnpm office":"<a href=\"http://www.facebook.com/profile.php?id=100001745232467\">Upk Manonjaya</a>","district":"KAB. TASIKMALAYA","province code":273,"longitude":108.3090631,"id":"a6656gtmgd6z","province":"JAWA BARAT","district code":3206,"sub-district":"MANONJAYA"},"type":"Feature","geometry":{"type":"Point","coordinates":[108.3090631,-7.369731637]}},{"properties":{"sub-district code":3203131,"latitude":-6.886491295,"pnpm office":"<a href=\"http://www.facebook.com/profile.php?id=100001824066662\">Upk Gekbrong</a>","district":"KAB. CIANJUR","province code":274,"longitude":107.0522491,"id":"a6656h5tgow7","province":"JAWA BARAT","district code":3203,"sub-district":"GEKBRONG"},"type":"Feature","geometry":{"type":"Point","coordinates":[107.0522491,-6.886491295]}},{"properties":{"sub-district code":1406040,"latitude":0.54679851,"pnpm office":"<a href=\"http://www.facebook.com/profile.php?id=100001726731906\">Upk Kec Tapung Hilir</a>","district":"KAB. KAMPAR","province code":275,"longitude":101.1739385,"id":"a6656h798nhg","province":"RIAU","district code":1406,"sub-district":"TAPUNG"},"type":"Feature","geometry":{"type":"Point","coordinates":[101.1739385,0.54679851]}},{"properties":{"sub-district code":3501070,"latitude":-7.988346517,"pnpm office":"<a href=\"http://www.facebook.com/profile.php?id=100001747144196\">Upk Pnpm Nawangan</a>","district":"KAB. PACITAN","province code":276,"longitude":111.1749051,"id":"a6656h084ux7","province":"JAWA TIMUR","district code":3501,"sub-district":"NAWANGAN"},"type":"Feature","geometry":{"type":"Point","coordinates":[111.1749051,-7.988346517]}},{"properties":{"sub-district code":3529070,"latitude":-7.004226216,"pnpm office":"<a href=\"http://www.facebook.com/profile.php?id=100001866796278\">Upk Kota Sumenep</a>","district":"KAB. SUMENEP","province code":277,"longitude":113.8735627,"id":"a6656h4odtvo","province":"JAWA TIMUR","district code":3529,"sub-district":"KOTA SUMENEP"},"type":"Feature","geometry":{"type":"Point","coordinates":[113.8735627,-7.004226216]}},{"properties":{"sub-district code":3213080,"latitude":-6.549133843,"pnpm office":"<a href=\"http://www.facebook.com/profile.php?id=100001807798025\">Upk Kalijati Subang</a>","district":"KAB. SUBANG","province code":278,"longitude":107.6826504,"id":"a6656h3d810k","province":"JAWA BARAT","district code":3213,"sub-district":"KALIJATI"},"type":"Feature","geometry":{"type":"Point","coordinates":[107.6826504,-6.549133843]}},{"properties":{"sub-district code":1806040,"latitude":-4.850861203,"pnpm office":"<a href=\"http://www.facebook.com/profile.php?id=100001749723438\">Upk Heru Neval</a>","district":"KAB. LAMPUNG UTARA","province code":279,"longitude":104.81605,"id":"a6656gwac4yt","province":"LAMPUNG","district code":1806,"sub-district":"KOTABUMI"},"type":"Feature","geometry":{"type":"Point","coordinates":[104.81605,-4.850861203]}},{"properties":{"sub-district code":1302030,"latitude":-2.038782036,"pnpm office":"<a href=\"http://www.facebook.com/profile.php?id=100001733401112\">Upk Pancung Soal</a>","district":"KAB. PESISIR SELATAN","province code":280,"longitude":100.9668741,"id":"a6656gtwhnz5","province":"SUMATERA BARAT","district code":1302,"sub-district":"PANCUNG SOAL"},"type":"Feature","geometry":{"type":"Point","coordinates":[100.9668741,-2.038782036]}},{"properties":{"sub-district code":1607100,"latitude":-1.862692985,"pnpm office":"<a href=\"http://www.facebook.com/profile.php?id=100001667630676\">Upk Banyuasin Ii (Sungsang)</a>","district":"KAB. BANYU ASIN","province code":281,"longitude":104.379125,"id":"a6656grbltw0","province":"SUMATERA SELATAN","district code":1607,"sub-district":"BANYUASIN II"},"type":"Feature","geometry":{"type":"Point","coordinates":[104.379125,-1.862692985]}},{"properties":{"sub-district code":7503020,"latitude":0.716102551,"pnpm office":"<a href=\"http://www.facebook.com/profile.php?id=100001709824889\">Upk Pnpm-Mpd Lemito</a>","district":"KAB. POHUWATO","province code":282,"longitude":121.5955114,"id":"a6656gzdy24h","province":"GORONTALO","district code":7503,"sub-district":"LEMITO"},"type":"Feature","geometry":{"type":"Point","coordinates":[121.5955114,0.716102551]}},{"properties":{"sub-district code":1116010,"latitude":4.462354309,"pnpm office":"<a href=\"http://www.facebook.com/profile.php?id=100001834172849\">Upk-Pnpm Teunom</a>","district":"KAB. ACEH JAYA","province code":283,"longitude":95.82158125,"id":"a6656h0hzeui","province":"NANGGROE ACEH DARUSSALAM","district code":1116,"sub-district":"TEUNOM"},"type":"Feature","geometry":{"type":"Point","coordinates":[95.82158125,4.462354309]}},{"properties":{"sub-district code":3505010,"latitude":-8.271682697,"pnpm office":"<a href=\"http://www.facebook.com/profile.php?id=100001799194340\">Upk Bakoeng</a>","district":"KAB. BLITAR","province code":284,"longitude":112.0692575,"id":"a6656h6hnf8p","province":"JAWA TIMUR","district code":3505,"sub-district":"BAKUNG"},"type":"Feature","geometry":{"type":"Point","coordinates":[112.0692575,-8.271682697]}},{"properties":{"sub-district code":3509010,"latitude":-8.30196018,"pnpm office":"<a href=\"http://www.facebook.com/profile.php?id=100001802053574\">Upk Kencong</a>","district":"KAB. JEMBER","province code":285,"longitude":113.3632272,"id":"a6656h1tn455","province":"JAWA TIMUR","district code":3509,"sub-district":"KENCONG"},"type":"Feature","geometry":{"type":"Point","coordinates":[113.3632272,-8.30196018]}},{"properties":{"sub-district code":3505090,"latitude":-8.098428966,"pnpm office":"<a href=\"http://www.facebook.com/hanif.upktalun\">Hanif Upk Talun</a>","district":"KAB. BLITAR","province code":286,"longitude":112.2676837,"id":"a6656h55s6zb","province":"JAWA TIMUR","district code":3505,"sub-district":"TALUN"},"type":"Feature","geometry":{"type":"Point","coordinates":[112.2676837,-8.098428966]}},{"properties":{"sub-district code":3301200,"latitude":-7.673781533,"pnpm office":"<a href=\"http://www.facebook.com/profile.php?id=100001687980762\">Upk Punya Nusawungu</a>","district":"KAB. CILACAP","province code":287,"longitude":109.3399696,"id":"a6656h1innbs","province":"JAWA TENGAH","district code":3301,"sub-district":"NUSAWUNGU"},"type":"Feature","geometry":{"type":"Point","coordinates":[109.3399696,-7.673781533]}},{"properties":{"sub-district code":3306010,"latitude":-7.804456756,"pnpm office":"<a href=\"http://www.facebook.com/profile.php?id=100001736946575\">Upk Bahtera Mandiri Grabag</a>","district":"KAB. PURWOREJO","province code":288,"longitude":109.8814043,"id":"a6656gtejsaf","province":"JAWA TENGAH","district code":3306,"sub-district":"GRABAG"},"type":"Feature","geometry":{"type":"Point","coordinates":[109.8814043,-7.804456756]}},{"properties":{"sub-district code":7304010,"latitude":-5.581634177,"pnpm office":"<a href=\"http://www.facebook.com/profile.php?id=100001775745474\">Upk Bangkala Barat Pnpm</a>","district":"KAB. JENEPONTO","province code":289,"longitude":119.5946509,"id":"a6656gzduuxq","province":"SULAWESI SELATAN","district code":7304,"sub-district":"BANGKALA"},"type":"Feature","geometry":{"type":"Point","coordinates":[119.5946509,-5.581634177]}},{"properties":{"sub-district code":3206061,"latitude":-7.489922256,"pnpm office":"<a href=\"http://www.facebook.com/profile.php?id=100001842739384\">Upk Parungponteng</a>","district":"KAB. TASIKMALAYA","province code":290,"longitude":108.1332065,"id":"a6656gtqqxan","province":"JAWA BARAT","district code":3206,"sub-district":"PARUNGPONTENG"},"type":"Feature","geometry":{"type":"Point","coordinates":[108.1332065,-7.489922256]}},{"properties":{"sub-district code":3305090,"latitude":-7.716661511,"pnpm office":"<a href=\"http://www.facebook.com/profile.php?id=100001929170736\">Upk Prembun Prembun</a>","district":"KAB. KEBUMEN","province code":291,"longitude":109.8181,"id":"a6656gw565z9","province":"JAWA TENGAH","district code":3305,"sub-district":"PREMBUN"},"type":"Feature","geometry":{"type":"Point","coordinates":[109.8181,-7.716661511]}},{"properties":{"sub-district code":6211040,"latitude":-0.908248991,"pnpm office":"<a href=\"http://www.facebook.com/profile.php?id=100001892405358\">Upk Kurun</a>","district":"KAB. GUNUNG MAS","province code":292,"longitude":113.840854,"id":"a6656h5dgedf","province":"KALIMANTAN TENGAH","district code":6211,"sub-district":"KURUN"},"type":"Feature","geometry":{"type":"Point","coordinates":[113.840854,-0.908248991]}},{"properties":{"sub-district code":6211040,"latitude":-0.908248991,"pnpm office":"<a href=\"http://www.facebook.com/profile.php?id=100001902455831\">Upk Kurun</a>","district":"KAB. GUNUNG MAS","province code":293,"longitude":113.840854,"id":"a6656gw7a3mi","province":"KALIMANTAN TENGAH","district code":6211,"sub-district":"KURUN"},"type":"Feature","geometry":{"type":"Point","coordinates":[113.840854,-0.908248991]}},{"properties":{"sub-district code":3515090,"latitude":-7.437719574,"pnpm office":"<a href=\"http://www.facebook.com/profile.php?id=100001946702927\">Upk Wonoayu (Sidoarjo)</a>","district":"KAB. SIDOARJO","province code":294,"longitude":112.6366966,"id":"a6656gz647hc","province":"JAWA TIMUR","district code":3515,"sub-district":"WONOAYU"},"type":"Feature","geometry":{"type":"Point","coordinates":[112.6366966,-7.437719574]}},{"properties":{"sub-district code":1213140,"latitude":3.959528113,"pnpm office":"<a href=\"http://www.facebook.com/profile.php?id=100002176144134\">Upk Tanjungpura</a>","district":"KAB. LANGKAT","province code":295,"longitude":98.47273552,"id":"a6656gz8nt21","province":"SUMATERA UTARA","district code":1213,"sub-district":"TANJUNG PURA"},"type":"Feature","geometry":{"type":"Point","coordinates":[98.47273552,3.959528113]}},{"properties":{"sub-district code":3211181,"latitude":-6.636516623,"pnpm office":"<a href=\"http://www.facebook.com/profile.php?id=100002135779671\">Upk Surian</a>","district":"KAB. SUMEDANG","province code":296,"longitude":107.8816628,"id":"a6656gv1fcwl","province":"JAWA BARAT","district code":3211,"sub-district":"SURIAN"},"type":"Feature","geometry":{"type":"Point","coordinates":[107.8816628,-6.636516623]}},{"properties":{"sub-district code":3507160,"latitude":-8.128085816,"pnpm office":"<a href=\"http://www.facebook.com/profile.php?id=100001951733378\">Upk Kepanjen</a>","district":"KAB. MALANG","province code":297,"longitude":112.5726048,"id":"a6656h0zys92","province":"JAWA TIMUR","district code":3507,"sub-district":"KEPANJEN"},"type":"Feature","geometry":{"type":"Point","coordinates":[112.5726048,-8.128085816]}},{"properties":{"sub-district code":7308040,"latitude":-4.983870549,"pnpm office":"<a href=\"http://www.facebook.com/profile.php?id=100002033901362\">Upk Bantimurung</a>","district":"KAB. MAROS","province code":298,"longitude":119.673538,"id":"a6656gsv8lvo","province":"SULAWESI SELATAN","district code":7308,"sub-district":"BANTIMURUNG"},"type":"Feature","geometry":{"type":"Point","coordinates":[119.673538,-4.983870549]}},{"properties":{"sub-district code":3305140,"latitude":-7.64139453,"pnpm office":"<a href=\"http://www.facebook.com/profile.php?id=100002010909566\">Upk Kecamatan Sruweng</a>","district":"KAB. KEBUMEN","province code":299,"longitude":109.6085871,"id":"a6656h6zgkq0","province":"JAWA TENGAH","district code":3305,"sub-district":"SRUWENG"},"type":"Feature","geometry":{"type":"Point","coordinates":[109.6085871,-7.64139453]}},{"properties":{"sub-district code":1802040,"latitude":-5.36379808,"pnpm office":"<a href=\"http://www.facebook.com/upk.talpa\">Upk Talpa</a>","district":"KAB. TANGGAMUS","province code":300,"longitude":104.7712406,"id":"a6656h4uiom0","province":"LAMPUNG","district code":1802,"sub-district":"TALANG PADANG"},"type":"Feature","geometry":{"type":"Point","coordinates":[104.7712406,-5.36379808]}},{"properties":{"sub-district code":1702030,"latitude":-3.385189851,"pnpm office":"<a href=\"http://www.facebook.com/profile.php?id=100002059096997\">Upk Pu Tanding</a>","district":"KAB. REJANG LEBONG","province code":301,"longitude":102.8336527,"id":"a6656h421d1c","province":"BENGKULU","district code":1702,"sub-district":"PADANG ULAK TANDING"},"type":"Feature","geometry":{"type":"Point","coordinates":[102.8336527,-3.385189851]}},{"properties":{"sub-district code":3307040,"latitude":-7.474265129,"pnpm office":"<a href=\"http://www.facebook.com/upk.kaliwiro\">Upk Kaliwiro</a>","district":"KAB. WONOSOBO","province code":302,"longitude":109.84095,"id":"a6656gs8wtjs","province":"JAWA TENGAH","district code":3307,"sub-district":"KALIWIRO"},"type":"Feature","geometry":{"type":"Point","coordinates":[109.84095,-7.474265129]}},{"properties":{"sub-district code":3512060,"latitude":-7.77922757,"pnpm office":"<a href=\"http://www.facebook.com/profile.php?id=100002175409539\">Upk Mlandingan</a>","district":"KAB. SITUBONDO","province code":303,"longitude":113.799495,"id":"a6656h4279gl","province":"JAWA TIMUR","district code":3512,"sub-district":"MLANDINGAN"},"type":"Feature","geometry":{"type":"Point","coordinates":[113.799495,-7.77922757]}},{"properties":{"sub-district code":3301040,"latitude":-7.311555761,"pnpm office":"<a href=\"http://www.facebook.com/profile.php?id=100002057725058\">Upk Cimanggu</a>","district":"KAB. CILACAP","province code":304,"longitude":108.8462981,"id":"a6656h0bdut3","province":"JAWA TENGAH","district code":3301,"sub-district":"CIMANGGU"},"type":"Feature","geometry":{"type":"Point","coordinates":[108.8462981,-7.311555761]}},{"properties":{"sub-district code":1807020,"latitude":-4.705681028,"pnpm office":"<a href=\"http://www.facebook.com/profile.php?id=100001994284943\">Upk Baradatu</a>","district":"KAB. WAY KANAN","province code":305,"longitude":104.5497767,"id":"a6656h1zxazq","province":"LAMPUNG","district code":1807,"sub-district":"BARADATU"},"type":"Feature","geometry":{"type":"Point","coordinates":[104.5497767,-4.705681028]}},{"properties":{"sub-district code":3304080,"latitude":-7.363165174,"pnpm office":"<a href=\"http://www.facebook.com/profile.php?id=100002040477813\">Upk Madukara</a>","district":"KAB. BANJARNEGARA","province code":306,"longitude":109.7342492,"id":"a6656h0a7i1t","province":"JAWA TENGAH","district code":3304,"sub-district":"MADUKARA"},"type":"Feature","geometry":{"type":"Point","coordinates":[109.7342492,-7.363165174]}},{"properties":{"sub-district code":3206192,"latitude":-7.35907239,"pnpm office":"<a href=\"http://www.facebook.com/profile.php?id=100002094413771\">Upk Mangunreja Tasikmalaya</a>","district":"KAB. TASIKMALAYA","province code":307,"longitude":108.1092746,"id":"a6656gtj968f","province":"JAWA BARAT","district code":3206,"sub-district":"MANGUNREJA"},"type":"Feature","geometry":{"type":"Point","coordinates":[108.1092746,-7.35907239]}},{"properties":{"sub-district code":1509023,"latitude":-1.488284565,"pnpm office":"<a href=\"http://www.facebook.com/profile.php?id=100002190314527\">Upk Bungo Dani</a>","district":"KAB. BUNGO","province code":308,"longitude":102.0970696,"id":"a6656gsh9312","province":"JAMBI","district code":1509,"sub-district":"BUNGO DANI"},"type":"Feature","geometry":{"type":"Point","coordinates":[102.0970696,-1.488284565]}},{"properties":{"sub-district code":3207130,"latitude":-7.439699774,"pnpm office":"<a href=\"http://www.facebook.com/profile.php?id=100002150679091\">Upk Cidolog Ciamis</a>","district":"KAB. CIAMIS","province code":309,"longitude":108.4346156,"id":"a6656gxtbf9x","province":"JAWA BARAT","district code":3207,"sub-district":"CIDOLOG"},"type":"Feature","geometry":{"type":"Point","coordinates":[108.4346156,-7.439699774]}},{"properties":{"sub-district code":3206211,"latitude":-7.304334763,"pnpm office":"<a href=\"http://www.facebook.com/profile.php?id=100002128160362\">Upk Sariwangi</a>","district":"KAB. TASIKMALAYA","province code":310,"longitude":108.0528295,"id":"a6656h5360qv","province":"JAWA BARAT","district code":3206,"sub-district":"SARIWANGI"},"type":"Feature","geometry":{"type":"Point","coordinates":[108.0528295,-7.304334763]}},{"properties":{"sub-district code":5101040,"latitude":-8.399744627,"pnpm office":"<a href=\"http://www.facebook.com/profile.php?id=100001981463113\">Pekutatan Upk</a>","district":"KAB. JEMBRANA","province code":311,"longitude":114.8683106,"id":"a6656gu3w191","province":"BALI","district code":5101,"sub-district":"PEKUTATAN"},"type":"Feature","geometry":{"type":"Point","coordinates":[114.8683106,-8.399744627]}},{"properties":{"sub-district code":1607050,"latitude":-2.728305259,"pnpm office":"<a href=\"http://www.facebook.com/profile.php?id=100001885717778\">Upk Talang Kelapa</a>","district":"KAB. BANYU ASIN","province code":312,"longitude":104.6695075,"id":"a6656gtmjumb","province":"SUMATERA SELATAN","district code":1607,"sub-district":"TALANG KELAPA"},"type":"Feature","geometry":{"type":"Point","coordinates":[104.6695075,-2.728305259]}},{"properties":{"sub-district code":1218110,"latitude":3.644392588,"pnpm office":"<a href=\"http://www.facebook.com/profile.php?id=100002062573373\">Upk Pantai Cermin</a>","district":"KAB. SERDANG BEDAGAI","province code":313,"longitude":98.95254525,"id":"a6656h5htwbc","province":"SUMATERA UTARA","district code":1218,"sub-district":"PANTAI CERMIN"},"type":"Feature","geometry":{"type":"Point","coordinates":[98.95254525,3.644392588]}},{"properties":{"sub-district code":3315170,"latitude":-7.066852881,"pnpm office":"<a href=\"http://www.facebook.com/profile.php?id=100001951506686\">Upk Gubug</a>","district":"KAB. GROBOGAN","province code":314,"longitude":110.6807957,"id":"a6656h5b80ay","province":"JAWA TENGAH","district code":3315,"sub-district":"GUBUG"},"type":"Feature","geometry":{"type":"Point","coordinates":[110.6807957,-7.066852881]}},{"properties":{"sub-district code":6202210,"latitude":-2.033521915,"pnpm office":"<a href=\"http://www.facebook.com/profile.php?id=100002145076758\">Upk Mentaya Hulu</a>","district":"KAB. KOTAWARINGIN TIMUR","province code":315,"longitude":112.475184,"id":"a6656gslw4a5","province":"KALIMANTAN TENGAH","district code":6202,"sub-district":"MENTAYA HULU"},"type":"Feature","geometry":{"type":"Point","coordinates":[112.475184,-2.033521915]}},{"properties":{"sub-district code":3207190,"latitude":-7.170769266,"pnpm office":"<a href=\"http://www.facebook.com/profile.php?id=100001995429003\">Upk Rajadesa</a>","district":"KAB. CIAMIS","province code":316,"longitude":108.4536827,"id":"a6656h1opwtc","province":"JAWA BARAT","district code":3207,"sub-district":"RAJADESA"},"type":"Feature","geometry":{"type":"Point","coordinates":[108.4536827,-7.170769266]}},{"properties":{"sub-district code":3213170,"latitude":-6.385847209,"pnpm office":"<a href=\"http://www.facebook.com/profile.php?id=100001907004855\">Upk Binong Sauyunan Satujuan</a>","district":"KAB. SUBANG","province code":317,"longitude":107.8007439,"id":"a6656h1apfbj","province":"JAWA BARAT","district code":3213,"sub-district":"BINONG"},"type":"Feature","geometry":{"type":"Point","coordinates":[107.8007439,-6.385847209]}},{"properties":{"sub-district code":1404030,"latitude":0.22513543,"pnpm office":"<a href=\"http://www.facebook.com/profile.php?id=100002112523701\">Upk Kec Bunut Hilir</a>","district":"KAB. PELALAWAN","province code":318,"longitude":102.1046025,"id":"a6656h0t9zhb","province":"RIAU","district code":1404,"sub-district":"BUNUT"},"type":"Feature","geometry":{"type":"Point","coordinates":[102.1046025,0.22513543]}},{"properties":{"sub-district code":1408050,"latitude":1.516037782,"pnpm office":"<a href=\"http://www.facebook.com/profile.php?id=100002153232730\">Upk Bantan</a>","district":"KAB. BENGKALIS","province code":319,"longitude":102.315529,"id":"a6656h08ceb2","province":"RIAU","district code":1408,"sub-district":"BANTAN"},"type":"Feature","geometry":{"type":"Point","coordinates":[102.315529,1.516037782]}},{"properties":{"sub-district code":3321050,"latitude":-6.916488828,"pnpm office":"<a href=\"http://www.facebook.com/upk.karangtengahdemak\">Upk Karangtengah-Demak</a>","district":"KAB. DEMAK","province code":320,"longitude":110.5745168,"id":"a6656gs7198x","province":"JAWA TENGAH","district code":3321,"sub-district":"KARANG TENGAH"},"type":"Feature","geometry":{"type":"Point","coordinates":[110.5745168,-6.916488828]}},{"properties":{"sub-district code":3323121,"latitude":-7.125098827,"pnpm office":"<a href=\"http://www.facebook.com/profile.php?id=100002093618421\">Upk Bejen</a>","district":"KAB. TEMANGGUNG","province code":321,"longitude":110.1036186,"id":"a6656gw70u0p","province":"JAWA TENGAH","district code":3323,"sub-district":"BEJEN"},"type":"Feature","geometry":{"type":"Point","coordinates":[110.1036186,-7.125098827]}},{"properties":{"sub-district code":3305140,"latitude":-7.64139453,"pnpm office":"<a href=\"http://www.facebook.com/profile.php?id=100001930188409\">Upk Kecamatan Sruweng</a>","district":"KAB. KEBUMEN","province code":322,"longitude":109.6085871,"id":"a6656h3a3x6q","province":"JAWA TENGAH","district code":3305,"sub-district":"SRUWENG"},"type":"Feature","geometry":{"type":"Point","coordinates":[109.6085871,-7.64139453]}},{"properties":{"sub-district code":3205111,"latitude":-7.507070161,"pnpm office":"<a href=\"http://www.facebook.com/profile.php?id=100002159613080\">Upk Cihurip</a>","district":"KAB. GARUT","province code":323,"longitude":107.8569735,"id":"a6656gw2stf3","province":"JAWA BARAT","district code":3205,"sub-district":"CIHURIP"},"type":"Feature","geometry":{"type":"Point","coordinates":[107.8569735,-7.507070161]}},{"properties":{"sub-district code":3507100,"latitude":-8.042329199,"pnpm office":"<a href=\"http://www.facebook.com/profile.php?id=100002062898651\">Upk Poncokusumo</a>","district":"KAB. MALANG","province code":324,"longitude":112.8300886,"id":"a6656h2nplkk","province":"JAWA TIMUR","district code":3507,"sub-district":"PONCOKUSUMO"},"type":"Feature","geometry":{"type":"Point","coordinates":[112.8300886,-8.042329199]}},{"properties":{"sub-district code":1609090,"latitude":-3.973705935,"pnpm office":"<a href=\"http://www.facebook.com/profile.php?id=100002145017808\">Upk Semendawaisuku Tiga</a>","district":"KAB. OGAN KOMERING ULU TIMUR","province code":325,"longitude":104.657379,"id":"a6656gyx58hi","province":"SUMATERA SELATAN","district code":1609,"sub-district":"SEMENDAWAI SUKU III"},"type":"Feature","geometry":{"type":"Point","coordinates":[104.657379,-3.973705935]}},{"properties":{"sub-district code":1609030,"latitude":-4.242870744,"pnpm office":"<a href=\"http://www.facebook.com/profile.php?id=100002067657084\">Upk Buay Madang</a>","district":"KAB. OGAN KOMERING ULU TIMUR","province code":326,"longitude":104.505575,"id":"a6656gzrzk2h","province":"SUMATERA SELATAN","district code":1609,"sub-district":"BUAY MADANG"},"type":"Feature","geometry":{"type":"Point","coordinates":[104.505575,-4.242870744]}},{"properties":{"sub-district code":6108090,"latitude":0.97863745,"pnpm office":"<a href=\"http://www.facebook.com/profile.php?id=100002164275379\">Upk Laksana Mandiri</a>","district":"KAB. KAPUAS HULU","province code":327,"longitude":112.5578573,"id":"a6656h045z22","province":"KALIMANTAN BARAT","district code":6108,"sub-district":"EMBALOH HILIR"},"type":"Feature","geometry":{"type":"Point","coordinates":[112.5578573,0.97863745]}},{"properties":{"sub-district code":1205180,"latitude":2.286946592,"pnpm office":"<a href=\"http://www.facebook.com/profile.php?id=100002178221601\">Upk Pnpm Muara Bengkal</a>","district":"KAB. TAPANULI UTARA","province code":328,"longitude":98.96167375,"id":"a6656h6alk34","province":"SUMATERA UTARA","district code":1205,"sub-district":"MUARA"},"type":"Feature","geometry":{"type":"Point","coordinates":[98.96167375,2.286946592]}},{"properties":{"sub-district code":3315170,"latitude":-7.066852881,"pnpm office":"<a href=\"http://www.facebook.com/profile.php?id=100002191054244\">Upk Gubug</a>","district":"KAB. GROBOGAN","province code":329,"longitude":110.6807957,"id":"a6656gzf4i63","province":"JAWA TENGAH","district code":3315,"sub-district":"GUBUG"},"type":"Feature","geometry":{"type":"Point","coordinates":[110.6807957,-7.066852881]}},{"properties":{"sub-district code":1371090,"latitude":-0.914278628,"pnpm office":"<a href=\"http://www.facebook.com/profile.php?id=100001897956143\">Sayuti Upk Kuranji</a>","district":"KOTA PADANG","province code":330,"longitude":100.4201848,"id":"a6656h6pqqzy","province":"SUMATERA BARAT","district code":1371,"sub-district":"KURANJI"},"type":"Feature","geometry":{"type":"Point","coordinates":[100.4201848,-0.914278628]}},{"properties":{"sub-district code":3207281,"latitude":-7.145673101,"pnpm office":"<a href=\"http://www.facebook.com/profile.php?id=100002145166606\">Upk Lumbung Ciamis</a>","district":"KAB. CIAMIS","province code":331,"longitude":108.3285892,"id":"a6656h72gda1","province":"JAWA BARAT","district code":3207,"sub-district":"LUMBUNG"},"type":"Feature","geometry":{"type":"Point","coordinates":[108.3285892,-7.145673101]}},{"properties":{"sub-district code":3506080,"latitude":-7.946541745,"pnpm office":"<a href=\"http://www.facebook.com/profile.php?id=100002176702381\">Upk Ngancar Ceria</a>","district":"KAB. KEDIRI","province code":332,"longitude":112.1703749,"id":"a6656gr5pa0w","province":"JAWA TIMUR","district code":3506,"sub-district":"NGANCAR"},"type":"Feature","geometry":{"type":"Point","coordinates":[112.1703749,-7.946541745]}},{"properties":{"sub-district code":3211170,"latitude":-6.760098863,"pnpm office":"<a href=\"http://www.facebook.com/profile.php?id=100002206257890\">Upk Tanjungkerta</a>","district":"KAB. SUMEDANG","province code":333,"longitude":107.9054511,"id":"a6656gzuytg2","province":"JAWA BARAT","district code":3211,"sub-district":"TANJUNGKERTA"},"type":"Feature","geometry":{"type":"Point","coordinates":[107.9054511,-6.760098863]}},{"properties":{"sub-district code":3508100,"latitude":-8.163098113,"pnpm office":"<a href=\"http://www.facebook.com/profile.php?id=100002253585082\">Upk Rowokangkung</a>","district":"KAB. LUMAJANG","province code":334,"longitude":113.3271641,"id":"a6656h5mjblp","province":"JAWA TIMUR","district code":3508,"sub-district":"ROWOKANGKUNG"},"type":"Feature","geometry":{"type":"Point","coordinates":[113.3271641,-8.163098113]}},{"properties":{"sub-district code":1207190,"latitude":2.54364155,"pnpm office":"<a href=\"http://www.facebook.com/upkpnpmmp\">Upk Pnpm-Mp Kualuh Hulu</a>","district":"KAB. LABUHAN BATU","province code":335,"longitude":99.62390684,"id":"a6656gzhyd33","province":"SUMATERA UTARA","district code":1207,"sub-district":"KUALUH HULU"},"type":"Feature","geometry":{"type":"Point","coordinates":[99.62390684,2.54364155]}},{"properties":{"sub-district code":3201210,"latitude":-6.480576728,"pnpm office":"<a href=\"http://www.facebook.com/profile.php?id=100002262107851\">Upk Madena</a>","district":"KAB. BOGOR","province code":336,"longitude":106.8370076,"id":"a6656gxkvlgs","province":"JAWA BARAT","district code":3201,"sub-district":"CIBINONG"},"type":"Feature","geometry":{"type":"Point","coordinates":[106.8370076,-6.480576728]}},{"properties":{"sub-district code":1109071,"latitude":5.275371315,"pnpm office":"<a href=\"http://www.facebook.com/upk.glumpangbaro\">Upk Glumpang Baro</a>","district":"KAB. PIDIE","province code":337,"longitude":96.03809433,"id":"a6656grlzqvh","province":"NANGGROE ACEH DARUSSALAM","district code":1109,"sub-district":"GLUMPANG BARO"},"type":"Feature","geometry":{"type":"Point","coordinates":[96.03809433,5.275371315]}},{"properties":{"sub-district code":1219040,"latitude":3.218534669,"pnpm office":"<a href=\"http://www.facebook.com/profile.php?id=100002240198436\">Upk Kecamatan Limapuluh</a>","district":"KAB. BATU BARA","province code":338,"longitude":99.4597785,"id":"a6656gsxa1jg","province":"SUMATERA UTARA","district code":1219,"sub-district":"LIMAPULUH"},"type":"Feature","geometry":{"type":"Point","coordinates":[99.4597785,3.218534669]}},{"properties":{"sub-district code":3211111,"latitude":-6.882015767,"pnpm office":"<a href=\"http://www.facebook.com/profile.php?id=100002196529881\">Upk Jatigede</a>","district":"KAB. SUMEDANG","province code":339,"longitude":108.1415257,"id":"a6656gv8fj11","province":"JAWA BARAT","district code":3211,"sub-district":"JATIGEDE"},"type":"Feature","geometry":{"type":"Point","coordinates":[108.1415257,-6.882015767]}},{"properties":{"sub-district code":1609020,"latitude":-4.234373463,"pnpm office":"<a href=\"http://www.facebook.com/profile.php?id=100002140481611\">Bppeliung Upk</a>","district":"KAB. OGAN KOMERING ULU TIMUR","province code":340,"longitude":104.3762,"id":"a6656gzdf9l9","province":"SUMATERA SELATAN","district code":1609,"sub-district":"BUAY PEMUKA PELIUNG"},"type":"Feature","geometry":{"type":"Point","coordinates":[104.3762,-4.234373463]}},{"properties":{"sub-district code":3511080,"latitude":-7.915172879,"pnpm office":"<a href=\"http://www.facebook.com/profile.php?id=100002374146878\">Upk Wonosari</a>","district":"KAB. BONDOWOSO","province code":341,"longitude":113.8969463,"id":"a6656h2dzu2x","province":"JAWA TIMUR","district code":3511,"sub-district":"WONOSARI"},"type":"Feature","geometry":{"type":"Point","coordinates":[113.8969463,-7.915172879]}},{"properties":{"sub-district code":7318040,"latitude":-3.114662816,"pnpm office":"<a href=\"http://www.facebook.com/profile.php?id=100002284846254\">Upk Makale</a>","district":"KAB. TANA TORAJA","province code":342,"longitude":119.8540498,"id":"a6656gtwy7pa","province":"SULAWESI SELATAN","district code":7318,"sub-district":"MAKALE"},"type":"Feature","geometry":{"type":"Point","coordinates":[119.8540498,-3.114662816]}},{"properties":{"sub-district code":1505050,"latitude":-1.637670563,"pnpm office":"<a href=\"http://www.facebook.com/upkjaluko.biartasejahtera\">Upk Jaluko Biarta Sejahtera</a>","district":"KAB. MUARO JAMBI","province code":343,"longitude":103.546575,"id":"a6656gy29vgh","province":"JAMBI","district code":1505,"sub-district":"JAMBI LUAR KOTA"},"type":"Feature","geometry":{"type":"Point","coordinates":[103.546575,-1.637670563]}},{"properties":{"sub-district code":3604090,"latitude":-6.29014756,"pnpm office":"<a href=\"http://www.facebook.com/profile.php?id=100002372131238\">Upk Pamarayan</a>","district":"KAB. SERANG","province code":344,"longitude":106.3022059,"id":"a6656h6ukjx3","province":"BANTEN","district code":3604,"sub-district":"PAMARAYAN"},"type":"Feature","geometry":{"type":"Point","coordinates":[106.3022059,-6.29014756]}},{"properties":{"sub-district code":3525160,"latitude":-6.938232626,"pnpm office":"<a href=\"http://www.facebook.com/profile.php?id=100002326757069\">Upk Pnpm Ujungpangkah</a>","district":"KAB. GRESIK","province code":345,"longitude":112.541958,"id":"a6656gzhi5yo","province":"JAWA TIMUR","district code":3525,"sub-district":"UJUNGPANGKAH"},"type":"Feature","geometry":{"type":"Point","coordinates":[112.541958,-6.938232626]}},{"properties":{"sub-district code":3201120,"latitude":-6.702729719,"pnpm office":"<a href=\"http://www.facebook.com/profile.php?id=100002301934920\">Upk Megamendung</a>","district":"KAB. BOGOR","province code":346,"longitude":106.9122505,"id":"a6656h6co985","province":"JAWA BARAT","district code":3201,"sub-district":"MEGAMENDUNG"},"type":"Feature","geometry":{"type":"Point","coordinates":[106.9122505,-6.702729719]}},{"properties":{"sub-district code":3201150,"latitude":-6.611470009,"pnpm office":"<a href=\"http://www.facebook.com/profile.php?id=100002272101891\">Upk Soekamakmoer (Upk Amanah)</a>","district":"KAB. BOGOR","province code":347,"longitude":107.0001525,"id":"a6656gwrmx2v","province":"JAWA BARAT","district code":3201,"sub-district":"SUKAMAKMUR"},"type":"Feature","geometry":{"type":"Point","coordinates":[107.0001525,-6.611470009]}},{"properties":{"sub-district code":3207160,"latitude":-7.307169564,"pnpm office":"<a href=\"http://www.facebook.com/profile.php?id=100002318453573\">Upk Cisaga</a>","district":"KAB. CIAMIS","province code":348,"longitude":108.5089227,"id":"a6656h0p9qfh","province":"JAWA BARAT","district code":3207,"sub-district":"CISAGA"},"type":"Feature","geometry":{"type":"Point","coordinates":[108.5089227,-7.307169564]}},{"properties":{"sub-district code":3213140,"latitude":-6.483132097,"pnpm office":"<a href=\"http://www.facebook.com/profile.php?id=100002376142304\">Upk Kecamatan Pagaden</a>","district":"KAB. SUBANG","province code":349,"longitude":107.7815828,"id":"a6656h5jgwth","province":"JAWA BARAT","district code":3213,"sub-district":"PAGADEN"},"type":"Feature","geometry":{"type":"Point","coordinates":[107.7815828,-6.483132097]}},{"properties":{"sub-district code":3210080,"latitude":-6.799022215,"pnpm office":"<a href=\"http://www.facebook.com/profile.php?id=100002265618938\">Upk Cigasong</a>","district":"KAB. MAJALENGKA","province code":350,"longitude":108.238134,"id":"a6656h29e8qe","province":"JAWA BARAT","district code":3210,"sub-district":"CIGASONG"},"type":"Feature","geometry":{"type":"Point","coordinates":[108.238134,-6.799022215]}},{"properties":{"sub-district code":3404040,"latitude":-7.764989393,"pnpm office":"<a href=\"http://www.facebook.com/upk.godean\">Upk Godean</a>","district":"KAB. SLEMAN","province code":351,"longitude":110.3058144,"id":"a6656h358f6r","province":"DAERAH ISTIMEWA YOGYAKARTA","district code":3404,"sub-district":"GODEAN"},"type":"Feature","geometry":{"type":"Point","coordinates":[110.3058144,-7.764989393]}},{"properties":{"sub-district code":1509024,"latitude":-1.477427706,"pnpm office":"<a href=\"http://www.facebook.com/profile.php?id=100002299297321\">Upkpasarmuarabungo Pnpm</a>","district":"KAB. BUNGO","province code":352,"longitude":102.144392,"id":"a6656gwz1xe5","province":"JAMBI","district code":1509,"sub-district":"PASAR MUARA BUNGO"},"type":"Feature","geometry":{"type":"Point","coordinates":[102.144392,-1.477427706]}},{"properties":{"sub-district code":3205270,"latitude":-7.076420085,"pnpm office":"<a href=\"http://www.facebook.com/profile.php?id=100002313257174\">Cibiuk Upk</a>","district":"KAB. GARUT","province code":353,"longitude":107.9360624,"id":"a6656gsnn0hb","province":"JAWA BARAT","district code":3205,"sub-district":"CIBIUK"},"type":"Feature","geometry":{"type":"Point","coordinates":[107.9360624,-7.076420085]}},{"properties":{"sub-district code":3514080,"latitude":-7.717181041,"pnpm office":"<a href=\"http://www.facebook.com/profile.php?id=100002313282507\">Upk Wonorejo</a>","district":"KAB. PASURUAN","province code":354,"longitude":112.7911396,"id":"a6656h1qukg9","province":"JAWA TIMUR","district code":3514,"sub-district":"WONOREJO"},"type":"Feature","geometry":{"type":"Point","coordinates":[112.7911396,-7.717181041]}},{"properties":{"sub-district code":3326161,"latitude":-6.870972933,"pnpm office":"<a href=\"http://www.facebook.com/profile.php?id=100002293719259\">Upk Wonokerto</a>","district":"KAB. PEKALONGAN","province code":355,"longitude":109.6199468,"id":"a6656h3oxh56","province":"JAWA TENGAH","district code":3326,"sub-district":"WONOKERTO"},"type":"Feature","geometry":{"type":"Point","coordinates":[109.6199468,-6.870972933]}},{"properties":{"sub-district code":1702042,"latitude":-3.394090113,"pnpm office":"<a href=\"http://www.facebook.com/profile.php?id=100002360055489\">Upkselupu Rejang</a>","district":"KAB. REJANG LEBONG","province code":356,"longitude":102.6129009,"id":"a6656gsf19vu","province":"BENGKULU","district code":1702,"sub-district":"SELUPU REJANG"},"type":"Feature","geometry":{"type":"Point","coordinates":[102.6129009,-3.394090113]}},{"properties":{"sub-district code":3315120,"latitude":-7.020307182,"pnpm office":"<a href=\"http://www.facebook.com/profile.php?id=100002263352087\">Upk Grobogan</a>","district":"KAB. GROBOGAN","province code":357,"longitude":110.9531966,"id":"a6656h07g2ak","province":"JAWA TENGAH","district code":3315,"sub-district":"GROBOGAN"},"type":"Feature","geometry":{"type":"Point","coordinates":[110.9531966,-7.020307182]}},{"properties":{"sub-district code":6404050,"latitude":1.115856168,"pnpm office":"<a href=\"http://www.facebook.com/profile.php?id=100002303196759\">Upk Sangkulirang</a>","district":"KAB. KUTAI TIMUR","province code":358,"longitude":118.0253761,"id":"a6656gukj52c","province":"KALIMANTAN TIMUR","district code":6404,"sub-district":"SANGKULIRANG"},"type":"Feature","geometry":{"type":"Point","coordinates":[118.0253761,1.115856168]}},{"properties":{"sub-district code":3317070,"latitude":-6.771692462,"pnpm office":"<a href=\"http://www.facebook.com/profile.php?id=100002356814462\">Asrori Upk</a>","district":"KAB. REMBANG","province code":359,"longitude":111.4617485,"id":"a6656h4locb9","province":"JAWA TENGAH","district code":3317,"sub-district":"PAMOTAN"},"type":"Feature","geometry":{"type":"Point","coordinates":[111.4617485,-6.771692462]}},{"properties":{"sub-district code":1504010,"latitude":-1.568877384,"pnpm office":"<a href=\"http://www.facebook.com/upkmersam\">Upk Mersam</a>","district":"KAB. BATANG HARI","province code":360,"longitude":102.9590949,"id":"a6656gu9wl0y","province":"JAMBI","district code":1504,"sub-district":"MERSAM"},"type":"Feature","geometry":{"type":"Point","coordinates":[102.9590949,-1.568877384]}},{"properties":{"sub-district code":1202022,"latitude":0.580191126,"pnpm office":"<a href=\"http://www.facebook.com/profile.php?id=100002340001226\">Upk Ranto</a>","district":"KAB. MANDAILING NATAL","province code":361,"longitude":99.38135212,"id":"a6656gvsp4b7","province":"SUMATERA UTARA","district code":1202,"sub-district":"RANTO BAEK"},"type":"Feature","geometry":{"type":"Point","coordinates":[99.38135212,0.580191126]}},{"properties":{"sub-district code":6401060,"latitude":-1.572725212,"pnpm office":"<a href=\"http://www.facebook.com/profile.php?id=100002285578741\">Upk Long Ikis Paser</a>","district":"KAB. PASIR","province code":362,"longitude":116.1326836,"id":"a6656gupjl4l","province":"KALIMANTAN TIMUR","district code":6401,"sub-district":"LONG IKIS"},"type":"Feature","geometry":{"type":"Point","coordinates":[116.1326836,-1.572725212]}},{"properties":{"sub-district code":1802030,"latitude":-5.147131418,"pnpm office":"<a href=\"http://www.facebook.com/profile.php?id=100002359387163\">Upk Pulaupanggung</a>","district":"KAB. TANGGAMUS","province code":363,"longitude":104.49645,"id":"a6656gwu9o7z","province":"LAMPUNG","district code":1802,"sub-district":"PULAU PANGGUNG"},"type":"Feature","geometry":{"type":"Point","coordinates":[104.49645,-5.147131418]}},{"properties":{"sub-district code":3505090,"latitude":-8.098428966,"pnpm office":"<a href=\"http://www.facebook.com/profile.php?id=100002316639118\">Upk Cakrabuana Talun</a>","district":"KAB. BLITAR","province code":364,"longitude":112.2676837,"id":"a6656gv89485","province":"JAWA TIMUR","district code":3505,"sub-district":"TALUN"},"type":"Feature","geometry":{"type":"Point","coordinates":[112.2676837,-8.098428966]}},{"properties":{"sub-district code":1504030,"latitude":-1.706290286,"pnpm office":"<a href=\"http://www.facebook.com/profile.php?id=100002294366890\">Upk Muara Tembesi</a>","district":"KAB. BATANG HARI","province code":365,"longitude":103.1102531,"id":"a6656gxzicgr","province":"JAMBI","district code":1504,"sub-district":"MUARA TEMBESI"},"type":"Feature","geometry":{"type":"Point","coordinates":[103.1102531,-1.706290286]}},{"properties":{"sub-district code":3212101,"latitude":-6.494568426,"pnpm office":"<a href=\"http://www.facebook.com/profile.php?id=100002324956979\">Upk Pnpm Kedokanbunder</a>","district":"KAB. INDRAMAYU","province code":366,"longitude":108.399957,"id":"a6656gvbsjdu","province":"JAWA BARAT","district code":3212,"sub-district":"KEDOKAN BUNDER"},"type":"Feature","geometry":{"type":"Point","coordinates":[108.399957,-6.494568426]}},{"properties":{"sub-district code":7317051,"latitude":-3.410122583,"pnpm office":"<a href=\"http://www.facebook.com/profile.php?id=100002446479856\">Upk Latimojong</a>","district":"KAB. LUWU","province code":367,"longitude":120.1141259,"id":"a6656h5qdb58","province":"SULAWESI SELATAN","district code":7317,"sub-district":"LATIMOJONG"},"type":"Feature","geometry":{"type":"Point","coordinates":[120.1141259,-3.410122583]}},{"properties":{"sub-district code":7208060,"latitude":0.553973907,"pnpm office":"<a href=\"http://www.facebook.com/profile.php?id=100002536264135\">Upk Moutong (Nova Y. Kamaru)</a>","district":"KAB. PARIGI MOUTONG","province code":368,"longitude":121.1670923,"id":"a6656gvmmiwu","province":"SULAWESI TENGAH","district code":7208,"sub-district":"MOUTONG"},"type":"Feature","geometry":{"type":"Point","coordinates":[121.1670923,0.553973907]}},{"properties":{"sub-district code":3211120,"latitude":-6.790607147,"pnpm office":"<a href=\"http://www.facebook.com/profile.php?id=100002404705348\">Upk Tomo</a>","district":"KAB. SUMEDANG","province code":369,"longitude":108.1219975,"id":"a6656gvjf0nh","province":"JAWA BARAT","district code":3211,"sub-district":"TOMO"},"type":"Feature","geometry":{"type":"Point","coordinates":[108.1219975,-6.790607147]}},{"properties":{"sub-district code":3505090,"latitude":-8.098428966,"pnpm office":"<a href=\"http://www.facebook.com/profile.php?id=100002397800999\">Atik Upk Talun</a>","district":"KAB. BLITAR","province code":370,"longitude":112.2676837,"id":"a6656gyuwg4q","province":"JAWA TIMUR","district code":3505,"sub-district":"TALUN"},"type":"Feature","geometry":{"type":"Point","coordinates":[112.2676837,-8.098428966]}},{"properties":{"sub-district code":1117060,"latitude":4.724264211,"pnpm office":"<a href=\"http://www.facebook.com/profile.php?id=100002389773548\">Upk Syiah Utama</a>","district":"KAB. BENER MERIAH","province code":371,"longitude":97.14486563,"id":"a6656gy7pa25","province":"NANGGROE ACEH DARUSSALAM","district code":1117,"sub-district":"SYIAH UTAMA"},"type":"Feature","geometry":{"type":"Point","coordinates":[97.14486563,4.724264211]}},{"properties":{"sub-district code":3206151,"latitude":-7.444769402,"pnpm office":"<a href=\"http://www.facebook.com/profile.php?id=100002488172749\">Upk Karangjaya</a>","district":"KAB. TASIKMALAYA","province code":372,"longitude":108.3895459,"id":"a6656gsoxsxx","province":"JAWA BARAT","district code":3206,"sub-district":"KARANG JAYA"},"type":"Feature","geometry":{"type":"Point","coordinates":[108.3895459,-7.444769402]}},{"properties":{"sub-district code":1302060,"latitude":-1.599153797,"pnpm office":"<a href=\"http://www.facebook.com/profile.php?id=100002394404481\">Upk Lengayang</a>","district":"KAB. PESISIR SELATAN","province code":373,"longitude":100.8410715,"id":"a6656gtyt1dq","province":"SUMATERA BARAT","district code":1302,"sub-district":"LENGAYANG"},"type":"Feature","geometry":{"type":"Point","coordinates":[100.8410715,-1.599153797]}},{"properties":{"sub-district code":1217090,"latitude":2.647380624,"pnpm office":"<a href=\"http://www.facebook.com/profile.php?id=100002440555844\">Upk Simanindo Samosir</a>","district":"KAB. SAMOSIR","province code":374,"longitude":98.80804446,"id":"a6656gx2o1qq","province":"SUMATERA UTARA","district code":1217,"sub-district":"SIMANINDO"},"type":"Feature","geometry":{"type":"Point","coordinates":[98.80804446,2.647380624]}},{"properties":{"sub-district code":5201020,"latitude":-8.67749484,"pnpm office":"<a href=\"http://www.facebook.com/profile.php?id=100002494627285\">Upk Gerung</a>","district":"KAB. LOMBOK BARAT","province code":375,"longitude":116.1171685,"id":"a6656gxeod5g","province":"NUSA TENGGARA BARAT","district code":5201,"sub-district":"GERUNG"},"type":"Feature","geometry":{"type":"Point","coordinates":[116.1171685,-8.67749484]}},{"properties":{"sub-district code":1801010,"latitude":-5.315117189,"pnpm office":"<a href=\"http://www.facebook.com/profile.php?id=100002528010880\">Upkpnpm Pesisir Selatan</a>","district":"KAB. LAMPUNG BARAT","province code":376,"longitude":104.147775,"id":"a6656h0154z6","province":"LAMPUNG","district code":1801,"sub-district":"PESISIR SELATAN"},"type":"Feature","geometry":{"type":"Point","coordinates":[104.147775,-5.315117189]}},{"properties":{"sub-district code":3509270,"latitude":-8.069527255,"pnpm office":"<a href=\"http://www.facebook.com/profile.php?id=1822617585\">Upk Pnpm Sukowono</a>","district":"KAB. JEMBER","province code":377,"longitude":113.8412406,"id":"a6656gs94izo","province":"JAWA TIMUR","district code":3509,"sub-district":"SUKOWONO"},"type":"Feature","geometry":{"type":"Point","coordinates":[113.8412406,-8.069527255]}},{"properties":{"sub-district code":3211060,"latitude":-6.831955242,"pnpm office":"<a href=\"http://www.facebook.com/profile.php?id=100002413564837\">Upk Sumut</a>","district":"KAB. SUMEDANG","province code":378,"longitude":107.9288153,"id":"a6656h6ovcf7","province":"JAWA BARAT","district code":3211,"sub-district":"SUMEDANG UTARA"},"type":"Feature","geometry":{"type":"Point","coordinates":[107.9288153,-6.831955242]}},{"properties":{"sub-district code":3403150,"latitude":-7.861787021,"pnpm office":"<a href=\"http://www.facebook.com/profile.php?id=100002408465877\">Upk Semin</a>","district":"KAB. GUNUNG KIDUL","province code":379,"longitude":110.7420936,"id":"a6656gwzvw7m","province":"DAERAH ISTIMEWA YOGYAKARTA","district code":3403,"sub-district":"SEMIN"},"type":"Feature","geometry":{"type":"Point","coordinates":[110.7420936,-7.861787021]}},{"properties":{"sub-district code":3316010,"latitude":-7.225031243,"pnpm office":"<a href=\"http://www.facebook.com/profile.php?id=100002474941464\">Upk Jati</a>","district":"KAB. BLORA","province code":380,"longitude":111.2954702,"id":"a6656grqa8nd","province":"JAWA TENGAH","district code":3316,"sub-district":"JATI"},"type":"Feature","geometry":{"type":"Point","coordinates":[111.2954702,-7.225031243]}},{"properties":{"sub-district code":3207211,"latitude":-7.289317774,"pnpm office":"<a href=\"http://www.facebook.com/profile.php?id=100002427603604\">Upk Baregbeg</a>","district":"KAB. CIAMIS","province code":381,"longitude":108.3809368,"id":"a6656h5a8821","province":"JAWA BARAT","district code":3207,"sub-district":"BAREGBEG"},"type":"Feature","geometry":{"type":"Point","coordinates":[108.3809368,-7.289317774]}},{"properties":{"sub-district code":1501090,"latitude":-1.770332515,"pnpm office":"<a href=\"http://www.facebook.com/profile.php?id=100002386266468\">Upk Kayu Aro</a>","district":"KAB. KERINCI","province code":382,"longitude":101.2299939,"id":"a6656grs9cvb","province":"JAMBI","district code":1501,"sub-district":"KAYU ARO"},"type":"Feature","geometry":{"type":"Point","coordinates":[101.2299939,-1.770332515]}},{"properties":{"sub-district code":1306071,"latitude":-0.537571073,"pnpm office":"<a href=\"http://www.facebook.com/profile.php?id=100002409231998\">Upk V Koto Timur</a>","district":"KAB. PADANG PARIAMAN","province code":383,"longitude":100.1663725,"id":"a6656gsdcrly","province":"SUMATERA BARAT","district code":1306,"sub-district":"V KOTO TIMUR"},"type":"Feature","geometry":{"type":"Point","coordinates":[100.1663725,-0.537571073]}},{"properties":{"sub-district code":3321091,"latitude":-7.000695267,"pnpm office":"<a href=\"http://www.facebook.com/profile.php?id=100002381424841\">Upk Kebonagung Demak</a>","district":"KAB. DEMAK","province code":384,"longitude":110.7029001,"id":"a6656h5sh4m8","province":"JAWA TENGAH","district code":3321,"sub-district":"KEBONAGUNG"},"type":"Feature","geometry":{"type":"Point","coordinates":[110.7029001,-7.000695267]}},{"properties":{"sub-district code":1217040,"latitude":2.478691108,"pnpm office":"<a href=\"http://www.facebook.com/profile.php?id=100002499905626\">Upk Kec Onan Runggu</a>","district":"KAB. SAMOSIR","province code":385,"longitude":98.96381725,"id":"a6656gso2unc","province":"SUMATERA UTARA","district code":1217,"sub-district":"ONAN RUNGGU"},"type":"Feature","geometry":{"type":"Point","coordinates":[98.96381725,2.478691108]}},{"properties":{"sub-district code":3504180,"latitude":-7.981079356,"pnpm office":"<a href=\"http://www.facebook.com/profile.php?id=100002519304972\">Upk Pagerwojo</a>","district":"KAB. TULUNGAGUNG","province code":386,"longitude":111.7826493,"id":"a6656h4e0599","province":"JAWA TIMUR","district code":3504,"sub-district":"PAGER WOJO"},"type":"Feature","geometry":{"type":"Point","coordinates":[111.7826493,-7.981079356]}},{"properties":{"sub-district code":3403110,"latitude":-7.858907478,"pnpm office":"<a href=\"http://www.facebook.com/profile.php?id=100002518666598\">Upk Patuk</a>","district":"KAB. GUNUNG KIDUL","province code":387,"longitude":110.5245894,"id":"a6656h73eydy","province":"DAERAH ISTIMEWA YOGYAKARTA","district code":3403,"sub-district":"PATUK"},"type":"Feature","geometry":{"type":"Point","coordinates":[110.5245894,-7.858907478]}},{"properties":{"sub-district code":7317030,"latitude":-3.416688904,"pnpm office":"<a href=\"http://www.facebook.com/profile.php?id=100001894024471\">Upk Belopa Pnpm Mp</a>","district":"KAB. LUWU","province code":388,"longitude":120.365116,"id":"a6656gsj0s9g","province":"SULAWESI SELATAN","district code":7317,"sub-district":"BELOPA"},"type":"Feature","geometry":{"type":"Point","coordinates":[120.365116,-3.416688904]}},{"properties":{"sub-district code":3301040,"latitude":-7.311555761,"pnpm office":"<a href=\"http://www.facebook.com/pages/UPK-CIMANGGU/247218118901\">Upk Cimanggu</a>","district":"KAB. CILACAP","province code":389,"longitude":108.8462981,"id":"a6656h5282x5","province":"JAWA TENGAH","district code":3301,"sub-district":"CIMANGGU"},"type":"Feature","geometry":{"type":"Point","coordinates":[108.8462981,-7.311555761]}},{"properties":{"sub-district code":1803100,"latitude":-5.604065321,"pnpm office":"<a href=\"http://www.facebook.com/pages/Upk-sidomulyo/144702898925274\">Upk Sidomulyo</a>","district":"KAB. LAMPUNG SELATAN","province code":390,"longitude":105.4934981,"id":"a6656gv8bkbe","province":"LAMPUNG","district code":1803,"sub-district":"SIDOMULYO"},"type":"Feature","geometry":{"type":"Point","coordinates":[105.4934981,-5.604065321]}},{"properties":{"sub-district code":3206020,"latitude":-7.635540914,"pnpm office":"<a href=\"http://www.facebook.com/pages/upk-karangnunggal/143813632351037\">Upk Karangnunggal</a>","district":"KAB. TASIKMALAYA","province code":391,"longitude":108.162914,"id":"a6656gybr3gt","province":"JAWA BARAT","district code":3206,"sub-district":"KARANGNUNGGAL"},"type":"Feature","geometry":{"type":"Point","coordinates":[108.162914,-7.635540914]}},{"properties":{"sub-district code":3318190,"latitude":-6.5361977,"pnpm office":"<a href=\"http://www.facebook.com/pages/UPK-Cluwak/115736015124081\">Upk Cluwak</a>","district":"KAB. PATI","province code":392,"longitude":110.9455105,"id":"a6656h680w99","province":"JAWA TENGAH","district code":3318,"sub-district":"CLUWAK"},"type":"Feature","geometry":{"type":"Point","coordinates":[110.9455105,-6.5361977]}},{"properties":{"sub-district code":3215071,"latitude":-6.277947425,"pnpm office":"<a href=\"http://www.facebook.com/profile.php?id=100002487975718\">Upk Banyusari</a>","district":"KAB. KARAWANG","province code":393,"longitude":107.5407074,"id":"a6656h6htbsq","province":"JAWA BARAT","district code":3215,"sub-district":"BANYUSARI"},"type":"Feature","geometry":{"type":"Point","coordinates":[107.5407074,-6.277947425]}},{"properties":{"sub-district code":1508030,"latitude":-1.329146672,"pnpm office":"<a href=\"http://www.facebook.com/profile.php?id=100002504049754\">Upk Rbt</a>","district":"KAB. TEBO","province code":394,"longitude":102.1517611,"id":"a6656gw05zun","province":"JAMBI","district code":1508,"sub-district":"RIMBO BUJANG"},"type":"Feature","geometry":{"type":"Point","coordinates":[102.1517611,-1.329146672]}},{"properties":{"sub-district code":3204100,"latitude":-6.986683552,"pnpm office":"<a href=\"http://www.facebook.com/profile.php?id=100002420099038\">Upk Cicalengka</a>","district":"KAB. BANDUNG","province code":395,"longitude":107.8558166,"id":"a6656gtg01my","province":"JAWA BARAT","district code":3204,"sub-district":"CICALENGKA"},"type":"Feature","geometry":{"type":"Point","coordinates":[107.8558166,-6.986683552]}},{"properties":{"sub-district code":3502090,"latitude":-7.898341568,"pnpm office":"<a href=\"http://www.facebook.com/profile.php?id=100002522297025\">Upk Siman</a>","district":"KAB. PONOROGO","province code":396,"longitude":111.4986931,"id":"a6656gv4ju4p","province":"JAWA TIMUR","district code":3502,"sub-district":"SIMAN"},"type":"Feature","geometry":{"type":"Point","coordinates":[111.4986931,-7.898341568]}},{"properties":{"sub-district code":6306010,"latitude":-2.851793783,"pnpm office":"<a href=\"http://www.facebook.com/profile.php?id=100002451058152\">Upk Padang Batung</a>","district":"KAB. HULU SUNGAI SELATAN","province code":397,"longitude":115.3307713,"id":"a6656gvjuwyj","province":"KALIMANTAN SELATAN","district code":6306,"sub-district":"PADANG BATUNG"},"type":"Feature","geometry":{"type":"Point","coordinates":[115.3307713,-2.851793783]}},{"properties":{"sub-district code":3302110,"latitude":-7.53016963,"pnpm office":"<a href=\"http://www.facebook.com/profile.php?id=100002384247655\">Upk Pnpm-Mp Kecamatan Banyumas</a>","district":"KAB. BANYUMAS","province code":398,"longitude":109.2848,"id":"a6656gtc3wr9","province":"JAWA TENGAH","district code":3302,"sub-district":"BANYUMAS"},"type":"Feature","geometry":{"type":"Point","coordinates":[109.2848,-7.53016963]}},{"properties":{"sub-district code":7313090,"latitude":-4.000375966,"pnpm office":"<a href=\"http://www.facebook.com/profile.php?id=100001588313019\">Upk Belawa Wajo</a>","district":"KAB. WAJO","province code":399,"longitude":119.94291,"id":"a6656gupl7mv","province":"SULAWESI SELATAN","district code":7313,"sub-district":"BELAWA"},"type":"Feature","geometry":{"type":"Point","coordinates":[119.94291,-4.000375966]}},{"properties":{"sub-district code":3215111,"latitude":-6.2821443,"pnpm office":"<a href=\"http://www.facebook.com/profile.php?id=100000786505488\">Upk Majalaya Karawang</a>","district":"KAB. KARAWANG","province code":400,"longitude":107.3686566,"id":"a6656h086eay","province":"JAWA BARAT","district code":3215,"sub-district":"MAJALAYA"},"type":"Feature","geometry":{"type":"Point","coordinates":[107.3686566,-6.2821443]}},{"properties":{"sub-district code":7404031,"latitude":-4.142172778,"pnpm office":"<a href=\"http://www.facebook.com/upk.baula\">Upk Kecamatan Baula</a>","district":"KAB. KOLAKA","province code":401,"longitude":121.7071835,"id":"a6656gsjsx0r","province":"SULAWESI TENGGARA","district code":7404,"sub-district":"BAULA"},"type":"Feature","geometry":{"type":"Point","coordinates":[121.7071835,-4.142172778]}},{"properties":{"sub-district code":5201011,"latitude":-8.759638179,"pnpm office":"<a href=\"http://www.facebook.com/profile.php?id=100001839304843\">Upk Lembar</a>","district":"KAB. LOMBOK BARAT","province code":402,"longitude":116.0939257,"id":"a6656gvfwfyq","province":"NUSA TENGGARA BARAT","district code":5201,"sub-district":"LEMBAR"},"type":"Feature","geometry":{"type":"Point","coordinates":[116.0939257,-8.759638179]}},{"properties":{"sub-district code":3509180,"latitude":-8.109832966,"pnpm office":"<a href=\"http://www.facebook.com/profile.php?id=100001023155742\">Upk Tanggul</a>","district":"KAB. JEMBER","province code":403,"longitude":113.4913537,"id":"a6656h2pyvyt","province":"JAWA TIMUR","district code":3509,"sub-district":"TANGGUL"},"type":"Feature","geometry":{"type":"Point","coordinates":[113.4913537,-8.109832966]}},{"properties":{"sub-district code":5108050,"latitude":-8.200648596,"pnpm office":"<a href=\"http://www.facebook.com/profile.php?id=100002312365819\">Upk Sksd</a>","district":"KAB. BULELENG","province code":404,"longitude":115.1228515,"id":"a6656gyf7f1m","province":"BALI","district code":5108,"sub-district":"SUKASADA"},"type":"Feature","geometry":{"type":"Point","coordinates":[115.1228515,-8.200648596]}},{"properties":{"sub-district code":3511030,"latitude":-8.017717491,"pnpm office":"<a href=\"http://www.facebook.com/profile.php?id=100002331401996\">Upk Tamanan</a>","district":"KAB. BONDOWOSO","province code":405,"longitude":113.829928,"id":"a6656gujamd4","province":"JAWA TIMUR","district code":3511,"sub-district":"TAMANAN"},"type":"Feature","geometry":{"type":"Point","coordinates":[113.829928,-8.017717491]}},{"properties":{"sub-district code":6303120,"latitude":-3.174001577,"pnpm office":"<a href=\"http://www.facebook.com/profile.php?id=100001457379236\">Upk Simpangempat Kab Banjar</a>","district":"KAB. BANJAR","province code":406,"longitude":114.9215061,"id":"a6656gwmzqxr","province":"KALIMANTAN SELATAN","district code":6303,"sub-district":"SIMPANG EMPAT"},"type":"Feature","geometry":{"type":"Point","coordinates":[114.9215061,-3.174001577]}},{"properties":{"sub-district code":3512010,"latitude":-7.881213853,"pnpm office":"<a href=\"http://www.facebook.com/profile.php?id=100000729567733\">Upk Rengganis</a>","district":"KAB. SITUBONDO","province code":407,"longitude":113.6718665,"id":"a6656gsrlg0v","province":"JAWA TIMUR","district code":3512,"sub-district":"SUMBERMALANG"},"type":"Feature","geometry":{"type":"Point","coordinates":[113.6718665,-7.881213853]}},{"properties":{"sub-district code":7405020,"latitude":-4.333351214,"pnpm office":"<a href=\"http://www.facebook.com/profile.php?id=100002140120678\">Upk Andoolo</a>","district":"KAB. KONAWE SELATAN","province code":408,"longitude":122.13385,"id":"a6656h7dl3x3","province":"SULAWESI TENGGARA","district code":7405,"sub-district":"ANDOOLO"},"type":"Feature","geometry":{"type":"Point","coordinates":[122.13385,-4.333351214]}},{"properties":{"sub-district code":3512070,"latitude":-7.733629357,"pnpm office":"<a href=\"http://www.facebook.com/profile.php?id=100002084891308\">Upk Bungatan</a>","district":"KAB. SITUBONDO","province code":409,"longitude":113.8282454,"id":"a6656h0atpmn","province":"JAWA TIMUR","district code":3512,"sub-district":"BUNGATAN"},"type":"Feature","geometry":{"type":"Point","coordinates":[113.8282454,-7.733629357]}},{"properties":{"sub-district code":7313080,"latitude":-4.038833504,"pnpm office":"<a href=\"http://www.facebook.com/profile.php?id=100001700684378\">Upk Tanasitolo</a>","district":"KAB. WAJO","province code":410,"longitude":120.0525382,"id":"a6656h0l7fdi","province":"SULAWESI SELATAN","district code":7313,"sub-district":"TANA SITOLO"},"type":"Feature","geometry":{"type":"Point","coordinates":[120.0525382,-4.038833504]}},{"properties":{"sub-district code":3509260,"latitude":-8.078586778,"pnpm office":"<a href=\"http://www.facebook.com/profile.php?id=100002072713119\">Upk Sumberjambe</a>","district":"KAB. JEMBER","province code":411,"longitude":113.9429914,"id":"a6656gw91pcj","province":"JAWA TIMUR","district code":3509,"sub-district":"SUMBERJAMBE"},"type":"Feature","geometry":{"type":"Point","coordinates":[113.9429914,-8.078586778]}},{"properties":{"sub-district code":5107060,"latitude":-8.423545653,"pnpm office":"<a href=\"http://www.facebook.com/profile.php?id=100002315810833\">Upk Bebandem</a>","district":"KAB. KARANG ASEM","province code":412,"longitude":115.5428011,"id":"a6656h23wwy5","province":"BALI","district code":5107,"sub-district":"BEBANDEM"},"type":"Feature","geometry":{"type":"Point","coordinates":[115.5428011,-8.423545653]}},{"properties":{"sub-district code":3511170,"latitude":-7.855862445,"pnpm office":"<a href=\"http://www.facebook.com/profile.php?id=100002196687480\">Upk Kec Cermee</a>","district":"KAB. BONDOWOSO","province code":413,"longitude":114.0632045,"id":"a6656h1llehz","province":"JAWA TIMUR","district code":3511,"sub-district":"CERMEE"},"type":"Feature","geometry":{"type":"Point","coordinates":[114.0632045,-7.855862445]}},{"properties":{"sub-district code":7405101,"latitude":-4.122766667,"pnpm office":"<a href=\"http://www.facebook.com/profile.php?id=100002332772817\">Upkmowila Mowila</a>","district":"KAB. KONAWE SELATAN","province code":414,"longitude":122.2475617,"id":"a6656guwxo9w","province":"SULAWESI TENGGARA","district code":7405,"sub-district":"MOWILA"},"type":"Feature","geometry":{"type":"Point","coordinates":[122.2475617,-4.122766667]}},{"properties":{"sub-district code":6306010,"latitude":-2.851793783,"pnpm office":"<a href=\"http://www.facebook.com/profile.php?id=100001673085761\">Upk Padang Batung</a>","district":"KAB. HULU SUNGAI SELATAN","province code":415,"longitude":115.3307713,"id":"a6656h0rlz6p","province":"KALIMANTAN SELATAN","district code":6306,"sub-district":"PADANG BATUNG"},"type":"Feature","geometry":{"type":"Point","coordinates":[115.3307713,-2.851793783]}},{"properties":{"sub-district code":3529070,"latitude":-7.004226216,"pnpm office":"<a href=\"http://www.facebook.com/profile.php?id=100001887251784\">Upk Kota Sumenep</a>","district":"KAB. SUMENEP","province code":416,"longitude":113.8735627,"id":"a6656gxftlpz","province":"JAWA TIMUR","district code":3529,"sub-district":"KOTA SUMENEP"},"type":"Feature","geometry":{"type":"Point","coordinates":[113.8735627,-7.004226216]}},{"properties":{"sub-district code":3510171,"latitude":-8.226194416,"pnpm office":"<a href=\"http://www.facebook.com/profile.php?id=100000439019260\">Pnpm Licin Upk</a>","district":"KAB. BANYUWANGI","province code":417,"longitude":114.2648944,"id":"a6656gvbgh54","province":"JAWA TIMUR","district code":3510,"sub-district":"LICIN"},"type":"Feature","geometry":{"type":"Point","coordinates":[114.2648944,-8.226194416]}},{"properties":{"sub-district code":7205010,"latitude":-1.489782605,"pnpm office":"<a href=\"http://www.facebook.com/profile.php?id=100001101899222\">Upk Pnpm-Mp Kulawi</a>","district":"KAB. DONGGALA","province code":418,"longitude":119.9168933,"id":"a6656gspc1py","province":"SULAWESI TENGAH","district code":7205,"sub-district":"KULAWI"},"type":"Feature","geometry":{"type":"Point","coordinates":[119.9168933,-1.489782605]}},{"properties":{"sub-district code":6307010,"latitude":-2.707519585,"pnpm office":"<a href=\"http://www.facebook.com/profile.php?id=100001712388133\">Upk Subdistrict Haruyan</a>","district":"KAB. HULU SUNGAI TENGAH","province code":419,"longitude":115.409825,"id":"a6656h1da695","province":"KALIMANTAN SELATAN","district code":6307,"sub-district":"HARUYAN"},"type":"Feature","geometry":{"type":"Point","coordinates":[115.409825,-2.707519585]}},{"properties":{"sub-district code":8201090,"latitude":1.075132755,"pnpm office":"<a href=\"http://www.facebook.com/profile.php?id=100002275784950\">Upk Kecamatan Jailolo Timur</a>","district":"KAB. HALMAHERA BARAT","province code":420,"longitude":127.525554,"id":"a6656h0vyf7w","province":"MALUKU UTARA","district code":8201,"sub-district":"JAILOLO"},"type":"Feature","geometry":{"type":"Point","coordinates":[127.525554,1.075132755]}},{"properties":{"sub-district code":7101060,"latitude":0.584882154,"pnpm office":"<a href=\"http://www.facebook.com/profile.php?id=100002500086224\">Upk Lolayan</a>","district":"KAB. BOLAANG MONGONDOW","province code":421,"longitude":124.1499499,"id":"a6656gu2r576","province":"SULAWESI UTARA","district code":7101,"sub-district":"LOLAYAN"},"type":"Feature","geometry":{"type":"Point","coordinates":[124.1499499,0.584882154]}},{"properties":{"sub-district code":6403100,"latitude":-0.224187634,"pnpm office":"<a href=\"http://www.facebook.com/profile.php?id=100002471501101\">Upk Sebulu</a>","district":"KAB. KUTAI KARTANEGARA","province code":422,"longitude":116.9846537,"id":"a6656h7adiuk","province":"KALIMANTAN TIMUR","district code":6403,"sub-district":"SEBULU"},"type":"Feature","geometry":{"type":"Point","coordinates":[116.9846537,-0.224187634]}},{"properties":{"sub-district code":7405070,"latitude":-4.190415371,"pnpm office":"<a href=\"http://www.facebook.com/profile.php?id=100002388923927\">Upk Moramo</a>","district":"KAB. KONAWE SELATAN","province code":423,"longitude":122.663728,"id":"a6656guvnwnd","province":"SULAWESI TENGGARA","district code":7405,"sub-district":"MORAMO"},"type":"Feature","geometry":{"type":"Point","coordinates":[122.663728,-4.190415371]}},{"properties":{"sub-district code":3529120,"latitude":-6.900599016,"pnpm office":"<a href=\"http://www.facebook.com/profile.php?id=100002422528909\">Upk Pnpm Ambunten</a>","district":"KAB. SUMENEP","province code":424,"longitude":113.7286977,"id":"a6656h1ovwyb","province":"JAWA TIMUR","district code":3529,"sub-district":"AMBUNTEN"},"type":"Feature","geometry":{"type":"Point","coordinates":[113.7286977,-6.900599016]}},{"properties":{"sub-district code":6213011,"latitude":-0.458109744,"pnpm office":"<a href=\"http://www.facebook.com/profile.php?id=100002487183342\">Upk Sbabuat Tumbang Bantian</a>","district":"KAB. MURUNG RAYA","province code":425,"longitude":114.4561195,"id":"a6656h30g4gp","province":"KALIMANTAN TENGAH","district code":6213,"sub-district":"SUNGAI BABUAT"},"type":"Feature","geometry":{"type":"Point","coordinates":[114.4561195,-0.458109744]}},{"properties":{"sub-district code":6213010,"latitude":-0.720040856,"pnpm office":"<a href=\"http://www.facebook.com/profile.php?id=100002488803115\">Lintas Upk Kab Mura</a>","district":"KAB. MURUNG RAYA","province code":426,"longitude":114.3746523,"id":"a6656h2gbmat","province":"KALIMANTAN TENGAH","district code":6213,"sub-district":"PERMATA INTAN"},"type":"Feature","geometry":{"type":"Point","coordinates":[114.3746523,-0.720040856]}},{"properties":{"sub-district code":3511020,"latitude":-7.975629892,"pnpm office":"<a href=\"http://www.facebook.com/profile.php?id=100002464215519\">Upk Grujugan Bondowoso</a>","district":"KAB. BONDOWOSO","province code":427,"longitude":113.759304,"id":"a6656gwzrml7","province":"JAWA TIMUR","district code":3511,"sub-district":"GRUJUGAN"},"type":"Feature","geometry":{"type":"Point","coordinates":[113.759304,-7.975629892]}},{"properties":{"sub-district code":3203160,"latitude":-6.882437326,"pnpm office":"<a href=\"http://www.facebook.com/pages/UPK-Bojongpicung/170264673014440\">Upk Bojongpicung</a>","district":"KAB. CIANJUR","province code":428,"longitude":107.2744833,"id":"a6656h756zb3","province":"JAWA BARAT","district code":3203,"sub-district":"BOJONGPICUNG"},"type":"Feature","geometry":{"type":"Point","coordinates":[107.2744833,-6.882437326]}},{"properties":{"sub-district code":3206120,"latitude":-7.411113936,"pnpm office":"<a href=\"http://www.facebook.com/pages/UPK-TANJUNGJAYA/115100145197383\">Upk Tanjungjaya</a>","district":"KAB. TASIKMALAYA","province code":429,"longitude":108.1165934,"id":"a6656h52h4hr","province":"JAWA BARAT","district code":3206,"sub-district":"TANJUNGJAYA"},"type":"Feature","geometry":{"type":"Point","coordinates":[108.1165934,-7.411113936]}},{"properties":{"sub-district code":3506010,"latitude":-7.893323445,"pnpm office":"<a href=\"http://www.facebook.com/pages/UPK-Mojo/170241126330822\">Upk Mojo</a>","district":"KAB. KEDIRI","province code":430,"longitude":111.8973887,"id":"a6656h7gdkqr","province":"JAWA TIMUR","district code":3506,"sub-district":"MOJO"},"type":"Feature","geometry":{"type":"Point","coordinates":[111.8973887,-7.893323445]}},{"properties":{"sub-district code":3509070,"latitude":-8.281141921,"pnpm office":"<a href=\"http://www.facebook.com/profile.php?id=100001180126886\">Upk Pnpm-Mpd Silo Jember</a>","district":"KAB. JEMBER","province code":431,"longitude":113.8835094,"id":"a6656gslcm27","province":"JAWA TIMUR","district code":3509,"sub-district":"SILO"},"type":"Feature","geometry":{"type":"Point","coordinates":[113.8835094,-8.281141921]}},{"properties":{"sub-district code":7311730,"latitude":-4.531046362,"pnpm office":"<a href=\"http://www.facebook.com/profile.php?id=100000685703310\">Upk Tanete Riattang Timur</a>","district":"KAB. BONE","province code":432,"longitude":120.3571548,"id":"a6656gxftvis","province":"SULAWESI SELATAN","district code":7311,"sub-district":"TANETE RIATTANG TIMUR"},"type":"Feature","geometry":{"type":"Point","coordinates":[120.3571548,-4.531046362]}},{"properties":{"sub-district code":3603081,"latitude":-6.34614311,"pnpm office":"<a href=\"http://www.facebook.com/profile.php?id=100000883053551\">Upk Kec Cisauk</a>","district":"KAB. TANGERANG","province code":433,"longitude":106.6288,"id":"a6656h21jp6v","province":"BANTEN","district code":3603,"sub-district":"CISAUK"},"type":"Feature","geometry":{"type":"Point","coordinates":[106.6288,-6.34614311]}},{"properties":{"sub-district code":5206071,"latitude":-8.350194687,"pnpm office":"<a href=\"http://www.facebook.com/profile.php?id=100002393836835\">Upk Kec Ambalawi</a>","district":"KAB. BIMA","province code":434,"longitude":118.8353093,"id":"a6656gur5v3r","province":"NUSA TENGGARA BARAT","district code":5206,"sub-district":"AMBALAWI"},"type":"Feature","geometry":{"type":"Point","coordinates":[118.8353093,-8.350194687]}},{"properties":{"sub-district code":3204280,"latitude":-6.9873563,"pnpm office":"<a href=\"http://www.facebook.com/pages/ASSOSIASI-UPK-BANDUNG/233661853591\">Assosiasi Upk Bandung</a>","district":"KAB. BANDUNG","province code":435,"longitude":107.6653021,"id":"a6656gt1upyd","province":"JAWA BARAT","district code":3204,"sub-district":"BOJONGSOANG"},"type":"Feature","geometry":{"type":"Point","coordinates":[107.6653021,-6.9873563]}},{"properties":{"sub-district code":3314160,"latitude":-7.320725318,"pnpm office":"<a href=\"http://www.facebook.com/pages/FORUM-UPK-SRAGEN/128539777158445\">Forum Upk Sragen</a>","district":"KAB. SRAGEN","province code":436,"longitude":110.9314205,"id":"a6656h7cmqb8","province":"JAWA TENGAH","district code":3314,"sub-district":"MONDOKAN"},"type":"Feature","geometry":{"type":"Point","coordinates":[110.9314205,-7.320725318]}},{"properties":{"sub-district code":3207090,"latitude":-7.541856223,"pnpm office":"<a href=\"http://www.facebook.com/pages/UPK-Kecamatan-Padaherang/160763963967976\">Upk Kecamatan Padaherang</a>","district":"KAB. CIAMIS","province code":437,"longitude":108.6939882,"id":"a6656gzls3k3","province":"JAWA BARAT","district code":3207,"sub-district":"PADAHERANG"},"type":"Feature","geometry":{"type":"Point","coordinates":[108.6939882,-7.541856223]}},{"properties":{"sub-district code":3305111,"latitude":-7.655425198,"pnpm office":"<a href=\"http://www.facebook.com/pages/UPK-Kecamatan-Poncowarno/114648171952605\">Upk Kecamatan Poncowarno</a>","district":"KAB. KEBUMEN","province code":438,"longitude":109.7466193,"id":"a6656gvy4se9","province":"JAWA TENGAH","district code":3305,"sub-district":"PONCOWARNO"},"type":"Feature","geometry":{"type":"Point","coordinates":[109.7466193,-7.655425198]}},{"properties":{"sub-district code":6306090,"latitude":-2.719571437,"pnpm office":"<a href=\"http://www.facebook.com/pages/UPK-Daha-Selatan/107126195995596\">Upk Daha Selatan</a>","district":"KAB. HULU SUNGAI SELATAN","province code":439,"longitude":115.0425,"id":"a6656h4yw4do","province":"KALIMANTAN SELATAN","district code":6306,"sub-district":"DAHA SELATAN"},"type":"Feature","geometry":{"type":"Point","coordinates":[115.0425,-2.719571437]}},{"properties":{"sub-district code":1604061,"latitude":-3.945818204,"pnpm office":"<a href=\"http://www.facebook.com/pages/UPK-Pajar-Bulan/113065862050390\">Upk Pajar Bulan</a>","district":"KAB. LAHAT","province code":440,"longitude":103.3400303,"id":"a6656h24xjve","province":"SUMATERA SELATAN","district code":1604,"sub-district":"PAJAR BULAN"},"type":"Feature","geometry":{"type":"Point","coordinates":[103.3400303,-3.945818204]}},{"properties":{"sub-district code":3511060,"latitude":-7.943934897,"pnpm office":"<a href=\"http://www.facebook.com/pages/UPK-Kecamatan-Sukosari/196469090379149\">Upk Kecamatan Sukosari</a>","district":"KAB. BONDOWOSO","province code":441,"longitude":113.9932935,"id":"a6656gsw0tem","province":"JAWA TIMUR","district code":3511,"sub-district":"SUKOSARI"},"type":"Feature","geometry":{"type":"Point","coordinates":[113.9932935,-7.943934897]}},{"properties":{"sub-district code":3204010,"latitude":-7.088862219,"pnpm office":"<a href=\"http://www.facebook.com/pages/Upk-ciwidey/233356593345918\">Upk Ciwidey</a>","district":"KAB. BANDUNG","province code":442,"longitude":107.4450708,"id":"a6656gssxh9d","province":"JAWA BARAT","district code":3204,"sub-district":"CIWIDEY"},"type":"Feature","geometry":{"type":"Point","coordinates":[107.4450708,-7.088862219]}},{"properties":{"sub-district code":7502071,"latitude":0.688731574,"pnpm office":"<a href=\"http://www.facebook.com/pages/UPK-LIMBOTO-BARAT/205578756149446\">Upk Limboto Barat</a>","district":"KAB. GORONTALO","province code":443,"longitude":122.8775894,"id":"a6656h2vutjz","province":"GORONTALO","district code":7502,"sub-district":"LIMBOTO BARAT"},"type":"Feature","geometry":{"type":"Point","coordinates":[122.8775894,0.688731574]}},{"properties":{"sub-district code":3203130,"latitude":-6.854079619,"pnpm office":"<a href=\"http://www.facebook.com/pages/UPK-warung-kondang/171767926215991\">Upk Warung Kondang</a>","district":"KAB. CIANJUR","province code":444,"longitude":107.059395,"id":"a6656h01fi99","province":"JAWA BARAT","district code":3203,"sub-district":"WARUNGKONDANG"},"type":"Feature","geometry":{"type":"Point","coordinates":[107.059395,-6.854079619]}}],"is_temporal":false,"author":{"url":"","metadata":"","contact_name":"","contact_address":"","source":"","contact_phone":""},"source":"","pagination":{"sort":null,"start":0,"total":372,"limit":1000000},"state":"complete","tags":"","published":"2014-08-12T22:44:10-04:00","id":170851}