{"type":"FeatureCollection","data_type":"Dataset","url_type":null,"permissions":[{"permissions":{"download":true,"view":true},"group_id":"everyone"}],"classification":null,"title":"Sparton UPS Zip3CountDeLeon","count":215,"stream_id":17080,"contributor":{"url":"http://geocommons.com/users/6861","name":"pbiegen"},"data_attributes":null,"calculation_params":null,"icon_link":null,"link":"http://geocommons.com/overlays/17080.json","extent":[-123.199,-36.8841,174.77,55.6187],"geometry_types":["point"],"unique_name":null,"name":"Sparton UPS Zip3CountDeLeon","feature_count":215,"description":"","next_feature":null,"is_raster":false,"short_classification":"Y","stats":{"latitude":{"max":55.618748,"mean":37.7354831488372,"variance":57.8361127365645,"stdev":7.60500576834525,"min":-36.884109,"median":39.76691},"weight":{"max":379.0,"mean":23.0976744186047,"variance":2332.48106933275,"stdev":48.2957665777524,"min":1.0,"median":5.0},"longitude":{"max":174.77042,"mean":-81.3984927209302,"variance":1477.75941218569,"stdev":38.4416364400072,"min":-123.199129,"median":-82.662674}},"features":[{"properties":{"city":"SYLACAUGA","name":"351","latitude":33.171565,"weight":19.0,"longitude":-86.250254,"id":"a6akbywp06ts","state":"AL"},"type":"Feature","geometry":{"type":"Point","coordinates":[-86.250254,33.171565]}},{"properties":{"city":"ENTERPRISE","name":"363","latitude":31.315215,"weight":12.0,"longitude":-85.854674,"id":"a6akbykcoei4","state":"AL"},"type":"Feature","geometry":{"type":"Point","coordinates":[-85.854674,31.315215]}},{"properties":{"city":"IRONDALE","name":"352","latitude":33.53794,"weight":1.0,"longitude":-86.706719,"id":"a6akbyohl12i","state":"AL"},"type":"Feature","geometry":{"type":"Point","coordinates":[-86.706719,33.53794]}},{"properties":{"city":"MADISON","name":"357","latitude":34.705885,"weight":1.0,"longitude":-86.750929,"id":"a6akbynhwh4e","state":"AL"},"type":"Feature","geometry":{"type":"Point","coordinates":[-86.750929,34.705885]}},{"properties":{"city":"FLIPPIN","name":"726","latitude":36.277805,"weight":14.0,"longitude":-92.597999,"id":"a6akbyy90a2m","state":"AR"},"type":"Feature","geometry":{"type":"Point","coordinates":[-92.597999,36.277805]}},{"properties":{"city":"TEMPE","name":"852","latitude":33.42551,"weight":15.0,"longitude":-111.937419,"id":"a6akbyjyrx62","state":"AZ"},"type":"Feature","geometry":{"type":"Point","coordinates":[-111.937419,33.42551]}},{"properties":{"city":"PHOENIX","name":"850","latitude":33.44826,"weight":3.0,"longitude":-112.075774,"id":"a6akbylmcv3n","state":"AZ"},"type":"Feature","geometry":{"type":"Point","coordinates":[-112.075774,33.44826]}},{"properties":{"city":"SANTA ANA","name":"927","latitude":33.749074,"weight":3.0,"longitude":-117.873943,"id":"a6akbypis3dw","state":"CA"},"type":"Feature","geometry":{"type":"Point","coordinates":[-117.873943,33.749074]}},{"properties":{"city":"PALO ALTO","name":"943","latitude":37.44466,"weight":1.0,"longitude":-122.160794,"id":"a6akbyzhuzxx","state":"CA"},"type":"Feature","geometry":{"type":"Point","coordinates":[-122.160794,37.44466]}},{"properties":{"city":"LIVERMORE","name":"945","latitude":37.675245,"weight":33.0,"longitude":-121.757829,"id":"a6akbysknwuf","state":"CA"},"type":"Feature","geometry":{"type":"Point","coordinates":[-121.757829,37.675245]}},{"properties":{"city":"SIMI VALLEY","name":"930","latitude":34.28946,"weight":9.0,"longitude":-118.717659,"id":"a6akbylubijj","state":"CA"},"type":"Feature","geometry":{"type":"Point","coordinates":[-118.717659,34.28946]}},{"properties":{"city":"MILPITAS","name":"950","latitude":37.432722,"weight":1.0,"longitude":-121.897253,"id":"a6akbyvvr9z5","state":"CA"},"type":"Feature","geometry":{"type":"Point","coordinates":[-121.897253,37.432722]}},{"properties":{"city":"LOS ANGELES","name":"900","latitude":34.05349,"weight":5.0,"longitude":-118.245319,"id":"a6akbyu4f70l","state":"CA"},"type":"Feature","geometry":{"type":"Point","coordinates":[-118.245319,34.05349]}},{"properties":{"city":"TORRANCE","name":"905","latitude":33.836662,"weight":1.0,"longitude":-118.341662,"id":"a6akbyt8siu6","state":"CA"},"type":"Feature","geometry":{"type":"Point","coordinates":[-118.341662,33.836662]}},{"properties":{"city":"BREA","name":"928","latitude":33.917421,"weight":7.0,"longitude":-117.888215,"id":"a6akbyln6si6","state":"CA"},"type":"Feature","geometry":{"type":"Point","coordinates":[-117.888215,33.917421]}},{"properties":{"city":"MONTEREY","name":"939","latitude":36.597591,"weight":1.0,"longitude":-121.896772,"id":"a6akbymldvbj","state":"CA"},"type":"Feature","geometry":{"type":"Point","coordinates":[-121.896772,36.597591]}},{"properties":{"city":"SAN JOSE","name":"951","latitude":37.338475,"weight":3.0,"longitude":-121.885794,"id":"a6akbyya0tb4","state":"CA"},"type":"Feature","geometry":{"type":"Point","coordinates":[-121.885794,37.338475]}},{"properties":{"city":"CLOVERDALE","name":"954","latitude":38.8061,"weight":1.0,"longitude":-123.017709,"id":"a6akbyuz7cxy","state":"CA"},"type":"Feature","geometry":{"type":"Point","coordinates":[-123.017709,38.8061]}},{"properties":{"city":"WOODLAND","name":"957","latitude":38.678435,"weight":2.0,"longitude":-121.773124,"id":"a6akbyjlo39g","state":"CA"},"type":"Feature","geometry":{"type":"Point","coordinates":[-121.773124,38.678435]}},{"properties":{"city":"HAYWARD","name":"945","latitude":37.671197,"weight":1.0,"longitude":-122.086137,"id":"a6akbyu56m70","state":"CA"},"type":"Feature","geometry":{"type":"Point","coordinates":[-122.086137,37.671197]}},{"properties":{"city":"GARDENA","name":"902","latitude":33.88379,"weight":2.0,"longitude":-118.307504,"id":"a6akbys29f5z","state":"CA"},"type":"Feature","geometry":{"type":"Point","coordinates":[-118.307504,33.88379]}},{"properties":{"city":"SAN MARCOS","name":"920","latitude":33.140862,"weight":2.0,"longitude":-117.158827,"id":"a6akbys1wi9a","state":"CA"},"type":"Feature","geometry":{"type":"Point","coordinates":[-117.158827,33.140862]}},{"properties":{"city":"SANTA FE SPRINGS","name":"906","latitude":33.946154,"weight":4.0,"longitude":-118.082952,"id":"a6akbyqdzb1c","state":"CA"},"type":"Feature","geometry":{"type":"Point","coordinates":[-118.082952,33.946154]}},{"properties":{"city":"WESTLAKE VILLAGE","name":"913","latitude":34.149368,"weight":11.0,"longitude":-118.818867,"id":"a6akbyoj9mjn","state":"CA"},"type":"Feature","geometry":{"type":"Point","coordinates":[-118.818867,34.149368]}},{"properties":{"city":"VAN NUYS","name":"914","latitude":34.18416,"weight":1.0,"longitude":-118.446517,"id":"a6akbyv2t6ap","state":"CA"},"type":"Feature","geometry":{"type":"Point","coordinates":[-118.446517,34.18416]}},{"properties":{"city":"ONTARIO","name":"917","latitude":34.06457,"weight":4.0,"longitude":-117.647809,"id":"a6akbyo6e4sg","state":"CA"},"type":"Feature","geometry":{"type":"Point","coordinates":[-117.647809,34.06457]}},{"properties":{"city":"SAN DIEGO","name":"921","latitude":32.715685,"weight":4.0,"longitude":-117.161724,"id":"a6akbyjc61t3","state":"CA"},"type":"Feature","geometry":{"type":"Point","coordinates":[-117.161724,32.715685]}},{"properties":{"city":"SAN JUAN CAPISTRANO","name":"926","latitude":33.495582,"weight":3.0,"longitude":-117.665328,"id":"a6akbyn8yz6b","state":"CA"},"type":"Feature","geometry":{"type":"Point","coordinates":[-117.665328,33.495582]}},{"properties":{"city":"DONGGUAN","name":"523","latitude":23.046499,"weight":3.0,"longitude":113.735817,"id":"a6akbyr1yi2a","state":"CHINA"},"type":"Feature","geometry":{"type":"Point","coordinates":[113.735817,23.046499]}},{"properties":{"city":"SHANGHAI","name":"201","latitude":31.247709,"weight":16.0,"longitude":121.472618,"id":"a6akbyq68n2g","state":"CHINA"},"type":"Feature","geometry":{"type":"Point","coordinates":[121.472618,31.247709]}},{"properties":{"city":"DENVER","name":"802","latitude":39.74001,"weight":8.0,"longitude":-104.992259,"id":"a6akbyxt2ui4","state":"CO"},"type":"Feature","geometry":{"type":"Point","coordinates":[-104.992259,39.74001]}},{"properties":{"city":"AURORA","name":"800","latitude":39.708709,"weight":4.0,"longitude":-104.812649,"id":"a6akbyjgcf6g","state":"CO"},"type":"Feature","geometry":{"type":"Point","coordinates":[-104.812649,39.708709]}},{"properties":{"city":"FORT COLLINS","name":"805","latitude":40.581505,"weight":8.0,"longitude":-105.076264,"id":"a6akbyuadb9v","state":"CO"},"type":"Feature","geometry":{"type":"Point","coordinates":[-105.076264,40.581505]}},{"properties":{"city":"EAST HAVEN","name":"065","latitude":41.277755,"weight":3.0,"longitude":-72.871384,"id":"a6akbyrvc2pn","state":"CT"},"type":"Feature","geometry":{"type":"Point","coordinates":[-72.871384,41.277755]}},{"properties":{"city":"WALLINGFORD","name":"064","latitude":41.453601,"weight":4.0,"longitude":-72.818724,"id":"a6akbywsnyqm","state":"CT"},"type":"Feature","geometry":{"type":"Point","coordinates":[-72.818724,41.453601]}},{"properties":{"city":"RIVERSIDE","name":"068","latitude":41.041635,"weight":22.0,"longitude":-73.579094,"id":"a6akbyldu8rr","state":"CT"},"type":"Feature","geometry":{"type":"Point","coordinates":[-73.579094,41.041635]}},{"properties":{"city":"STAMFORD","name":"069","latitude":41.05182,"weight":2.0,"longitude":-73.542234,"id":"a6akbynzy1my","state":"CT"},"type":"Feature","geometry":{"type":"Point","coordinates":[-73.542234,41.05182]}},{"properties":{"city":"THOMASTON","name":"067","latitude":41.67287,"weight":1.0,"longitude":-73.074789,"id":"a6akbystcnri","state":"CT"},"type":"Feature","geometry":{"type":"Point","coordinates":[-73.074789,41.67287]}},{"properties":{"city":"PENSACOLA","name":"325","latitude":30.420845,"weight":3.0,"longitude":-87.217239,"id":"a6akbyjxxcjp","state":"FL"},"type":"Feature","geometry":{"type":"Point","coordinates":[-87.217239,30.420845]}},{"properties":{"city":"ORLANDO","name":"328","latitude":28.538235,"weight":260.0,"longitude":-81.377389,"id":"a6akbypsshae","state":"FL"},"type":"Feature","geometry":{"type":"Point","coordinates":[-81.377389,28.538235]}},{"properties":{"city":"MULBERRY","name":"338","latitude":27.89402,"weight":7.0,"longitude":-81.973124,"id":"a6akbytlpmdn","state":"FL"},"type":"Feature","geometry":{"type":"Point","coordinates":[-81.973124,27.89402]}},{"properties":{"city":"WINTER PARK","name":"327","latitude":28.594574,"weight":49.0,"longitude":-81.350716,"id":"a6akbys3iaqp","state":"FL"},"type":"Feature","geometry":{"type":"Point","coordinates":[-81.350716,28.594574]}},{"properties":{"city":"GAINESVILLE","name":"326","latitude":29.65195,"weight":1.0,"longitude":-82.323184,"id":"a6akbyreyp8y","state":"FL"},"type":"Feature","geometry":{"type":"Point","coordinates":[-82.323184,29.65195]}},{"properties":{"city":"BROOKSVILLE","name":"346","latitude":28.554515,"weight":5.0,"longitude":-82.387824,"id":"a6akbyyeiqf9","state":"FL"},"type":"Feature","geometry":{"type":"Point","coordinates":[-82.387824,28.554515]}},{"properties":{"city":"VERO BEACH","name":"329","latitude":27.63885,"weight":11.0,"longitude":-80.394224,"id":"a6akbyvfbht9","state":"FL"},"type":"Feature","geometry":{"type":"Point","coordinates":[-80.394224,27.63885]}},{"properties":{"city":"JACKSONVILLE","name":"322","latitude":30.33138,"weight":101.0,"longitude":-81.655799,"id":"a6akbyp39646","state":"FL"},"type":"Feature","geometry":{"type":"Point","coordinates":[-81.655799,30.33138]}},{"properties":{"city":"DAYTONA BEACH","name":"321","latitude":29.203575,"weight":4.0,"longitude":-81.039404,"id":"a6akbykpxn2k","state":"FL"},"type":"Feature","geometry":{"type":"Point","coordinates":[-81.039404,29.203575]}},{"properties":{"city":"POMPANO BEACH","name":"330","latitude":26.231452,"weight":16.0,"longitude":-80.12522,"id":"a6akbypmtx55","state":"FL"},"type":"Feature","geometry":{"type":"Point","coordinates":[-80.12522,26.231452]}},{"properties":{"city":"VENICE","name":"342","latitude":27.099445,"weight":20.0,"longitude":-82.450009,"id":"a6akbyt8bghj","state":"FL"},"type":"Feature","geometry":{"type":"Point","coordinates":[-82.450009,27.099445]}},{"properties":{"city":"OCALA","name":"344","latitude":29.187525,"weight":1.0,"longitude":-82.140394,"id":"a6akbyvix8g6","state":"FL"},"type":"Feature","geometry":{"type":"Point","coordinates":[-82.140394,29.187525]}},{"properties":{"city":"ST PETERSBURG","name":"337","latitude":27.771185,"weight":79.0,"longitude":-82.639319,"id":"a6akbymroily","state":"FL"},"type":"Feature","geometry":{"type":"Point","coordinates":[-82.639319,27.771185]}},{"properties":{"city":"TAMARAC","name":"333","latitude":26.214297,"weight":251.0,"longitude":-80.271999,"id":"a6akbyn6oc54","state":"FL"},"type":"Feature","geometry":{"type":"Point","coordinates":[-80.271999,26.214297]}},{"properties":{"city":"LAKE PARK","name":"334","latitude":26.798505,"weight":10.0,"longitude":-80.063569,"id":"a6akbyn1b47y","state":"FL"},"type":"Feature","geometry":{"type":"Point","coordinates":[-80.063569,26.798505]}},{"properties":{"city":"PLANT CITY","name":"335","latitude":28.017315,"weight":13.0,"longitude":-82.125394,"id":"a6akbymlaokh","state":"FL"},"type":"Feature","geometry":{"type":"Point","coordinates":[-82.125394,28.017315]}},{"properties":{"city":"TEMPLE TERRACE","name":"336","latitude":28.050445,"weight":33.0,"longitude":-82.393764,"id":"a6akbyo4e98y","state":"FL"},"type":"Feature","geometry":{"type":"Point","coordinates":[-82.393764,28.050445]}},{"properties":{"city":"PORT SAINT LUCIE","name":"349","latitude":27.274187,"weight":9.0,"longitude":-80.363319,"id":"a6akbyxucbok","state":"FL"},"type":"Feature","geometry":{"type":"Point","coordinates":[-80.363319,27.274187]}},{"properties":{"city":"KISSIMMEE","name":"347","latitude":28.29443,"weight":50.0,"longitude":-81.406744,"id":"a6akbyp9rcp7","state":"FL"},"type":"Feature","geometry":{"type":"Point","coordinates":[-81.406744,28.29443]}},{"properties":{"city":"OLDSMAR","name":"346","latitude":28.037035,"weight":379.0,"longitude":-82.662674,"id":"a6akbyvzc0sl","state":"FL"},"type":"Feature","geometry":{"type":"Point","coordinates":[-82.662674,28.037035]}},{"properties":{"city":"ROME","name":"301","latitude":34.244895,"weight":145.0,"longitude":-85.166794,"id":"a6akbyjs59nj","state":"GA"},"type":"Feature","geometry":{"type":"Point","coordinates":[-85.166794,34.244895]}},{"properties":{"city":"SUWANEE","name":"300","latitude":34.056886,"weight":83.0,"longitude":-84.065333,"id":"a6akbys4c0o3","state":"GA"},"type":"Feature","geometry":{"type":"Point","coordinates":[-84.065333,34.056886]}},{"properties":{"city":"MCDONOUGH","name":"302","latitude":33.447745,"weight":2.0,"longitude":-84.147729,"id":"a6akbyws2bwe","state":"GA"},"type":"Feature","geometry":{"type":"Point","coordinates":[-84.147729,33.447745]}},{"properties":{"city":"DALTON","name":"307","latitude":34.76145,"weight":5.0,"longitude":-84.972179,"id":"a6akbypyq6r0","state":"GA"},"type":"Feature","geometry":{"type":"Point","coordinates":[-84.972179,34.76145]}},{"properties":{"city":"ATLANTA","name":"303","latitude":33.748315,"weight":49.0,"longitude":-84.391109,"id":"a6akbyk82pt4","state":"GA"},"type":"Feature","geometry":{"type":"Point","coordinates":[-84.391109,33.748315]}},{"properties":{"city":"FLOWERY BRANCH","name":"305","latitude":34.184895,"weight":1.0,"longitude":-83.924534,"id":"a6akbyn2r6jl","state":"GA"},"type":"Feature","geometry":{"type":"Point","coordinates":[-83.924534,34.184895]}},{"properties":{"city":"NECKARBISCHOFSHEIM","name":"749","latitude":49.292756,"weight":2.0,"longitude":8.961034,"id":"a6akbylqkh2e","state":"GERMANY"},"type":"Feature","geometry":{"type":"Point","coordinates":[8.961034,49.292756]}},{"properties":{"city":"HAWARDEN","name":"510","latitude":42.99746,"weight":2.0,"longitude":-96.488089,"id":"a6akbyvkeplh","state":"IA"},"type":"Feature","geometry":{"type":"Point","coordinates":[-96.488089,42.99746]}},{"properties":{"city":"BLOOMFIELD","name":"525","latitude":40.750125,"weight":2.0,"longitude":-92.413649,"id":"a6akbyx6xtke","state":"IA"},"type":"Feature","geometry":{"type":"Point","coordinates":[-92.413649,40.750125]}},{"properties":{"city":"UNIVERSITY PARK","name":"604","latitude":41.445884,"weight":11.0,"longitude":-87.686528,"id":"a6akbyz6l5fr","state":"IL"},"type":"Feature","geometry":{"type":"Point","coordinates":[-87.686528,41.445884]}},{"properties":{"city":"MARION","name":"629","latitude":37.73082,"weight":1.0,"longitude":-88.930049,"id":"a6akbyvwgydx","state":"IL"},"type":"Feature","geometry":{"type":"Point","coordinates":[-88.930049,37.73082]}},{"properties":{"city":"ROBINSON","name":"624","latitude":39.005805,"weight":1.0,"longitude":-87.739604,"id":"a6akbym64fwq","state":"IL"},"type":"Feature","geometry":{"type":"Point","coordinates":[-87.739604,39.005805]}},{"properties":{"city":"STREATOR","name":"613","latitude":41.12147,"weight":2.0,"longitude":-88.834189,"id":"a6akbyr6qqaz","state":"IL"},"type":"Feature","geometry":{"type":"Point","coordinates":[-88.834189,41.12147]}},{"properties":{"city":"STERLING","name":"610","latitude":41.794044,"weight":4.0,"longitude":-89.69882,"id":"a6akbynl01ms","state":"IL"},"type":"Feature","geometry":{"type":"Point","coordinates":[-89.69882,41.794044]}},{"properties":{"city":"WAUKEGAN","name":"600","latitude":42.36164,"weight":121.0,"longitude":-87.833889,"id":"a6akbyxsgbgj","state":"IL"},"type":"Feature","geometry":{"type":"Point","coordinates":[-87.833889,42.36164]}},{"properties":{"city":"NAPERVILLE","name":"605","latitude":41.770535,"weight":2.0,"longitude":-88.153019,"id":"a6akbyl659lh","state":"IL"},"type":"Feature","geometry":{"type":"Point","coordinates":[-88.153019,41.770535]}},{"properties":{"city":"CHICAGO","name":"606","latitude":41.88415,"weight":55.0,"longitude":-87.632409,"id":"a6akbyrd3nbx","state":"IL"},"type":"Feature","geometry":{"type":"Point","coordinates":[-87.632409,41.88415]}},{"properties":{"city":"SCHILLER PARK","name":"601","latitude":41.954925,"weight":105.0,"longitude":-87.866819,"id":"a6akbywf8elq","state":"IL"},"type":"Feature","geometry":{"type":"Point","coordinates":[-87.866819,41.954925]}},{"properties":{"city":"FORT WAYNE","name":"468","latitude":41.075525,"weight":4.0,"longitude":-85.099064,"id":"a6akbyuxk3c8","state":"IN"},"type":"Feature","geometry":{"type":"Point","coordinates":[-85.099064,41.075525]}},{"properties":{"city":"NEW ALBANY","name":"471","latitude":38.285518,"weight":7.0,"longitude":-85.82463,"id":"a6akbyqq2en9","state":"IN"},"type":"Feature","geometry":{"type":"Point","coordinates":[-85.82463,38.285518]}},{"properties":{"city":"KOKOMO","name":"469","latitude":40.486505,"weight":4.0,"longitude":-86.126239,"id":"a6akbypgmpno","state":"IN"},"type":"Feature","geometry":{"type":"Point","coordinates":[-86.126239,40.486505]}},{"properties":{"city":"AVON","name":"461","latitude":39.762855,"weight":20.0,"longitude":-86.394679,"id":"a6akbyrvzikp","state":"IN"},"type":"Feature","geometry":{"type":"Point","coordinates":[-86.394679,39.762855]}},{"properties":{"city":"INDIANAPOLIS","name":"462","latitude":39.76691,"weight":1.0,"longitude":-86.149964,"id":"a6akbyw320qq","state":"IN"},"type":"Feature","geometry":{"type":"Point","coordinates":[-86.149964,39.76691]}},{"properties":{"city":"WARSAW","name":"465","latitude":41.238565,"weight":5.0,"longitude":-85.852799,"id":"a6akbym4vdhl","state":"IN"},"type":"Feature","geometry":{"type":"Point","coordinates":[-85.852799,41.238565]}},{"properties":{"city":"SOUTH BEND","name":"466","latitude":41.679058,"weight":2.0,"longitude":-86.254044,"id":"a6akbyk0xmwc","state":"IN"},"type":"Feature","geometry":{"type":"Point","coordinates":[-86.254044,41.679058]}},{"properties":{"city":"NEW HAVEN","name":"467","latitude":41.072925,"weight":14.0,"longitude":-85.017234,"id":"a6akbyxpziga","state":"IN"},"type":"Feature","geometry":{"type":"Point","coordinates":[-85.017234,41.072925]}},{"properties":{"city":"RISHON LE ZION","name":"751","latitude":31.96479,"weight":2.0,"longitude":34.805859,"id":"a6akbynfcao8","state":"ISRAEL"},"type":"Feature","geometry":{"type":"Point","coordinates":[34.805859,31.96479]}},{"properties":{"city":"WICHITA","name":"672","latitude":37.68698,"weight":1.0,"longitude":-97.335579,"id":"a6akbyspdyru","state":"KS"},"type":"Feature","geometry":{"type":"Point","coordinates":[-97.335579,37.68698]}},{"properties":{"city":"NORTON","name":"676","latitude":39.828645,"weight":2.0,"longitude":-99.888904,"id":"a6akbyvug2gh","state":"KS"},"type":"Feature","geometry":{"type":"Point","coordinates":[-99.888904,39.828645]}},{"properties":{"city":"LOUISVILLE","name":"402","latitude":38.25486,"weight":4.0,"longitude":-85.766404,"id":"a6akbypn5tlj","state":"KY"},"type":"Feature","geometry":{"type":"Point","coordinates":[-85.766404,38.25486]}},{"properties":{"city":"LEXINGTON","name":"405","latitude":38.048595,"weight":2.0,"longitude":-84.500319,"id":"a6akbyvr4t21","state":"KY"},"type":"Feature","geometry":{"type":"Point","coordinates":[-84.500319,38.048595]}},{"properties":{"city":"BOUTTE","name":"700","latitude":29.901645,"weight":1.0,"longitude":-90.386079,"id":"a6akbykquoxe","state":"LA"},"type":"Feature","geometry":{"type":"Point","coordinates":[-90.386079,29.901645]}},{"properties":{"city":"LEXINGTON","name":"024","latitude":42.446319,"weight":1.0,"longitude":-71.223751,"id":"a6akbyo7jh13","state":"MA"},"type":"Feature","geometry":{"type":"Point","coordinates":[-71.223751,42.446319]}},{"properties":{"city":"WOBURN","name":"018","latitude":42.479195,"weight":73.0,"longitude":-71.150604,"id":"a6akbyyu1asc","state":"MA"},"type":"Feature","geometry":{"type":"Point","coordinates":[-71.150604,42.479195]}},{"properties":{"city":"SOUTH HADLEY","name":"010","latitude":42.214645,"weight":43.0,"longitude":-72.593779,"id":"a6akbypeemaz","state":"MA"},"type":"Feature","geometry":{"type":"Point","coordinates":[-72.593779,42.214645]}},{"properties":{"city":"RAYNHAM","name":"027","latitude":41.922798,"weight":5.0,"longitude":-71.051368,"id":"a6akbyp0eann","state":"MA"},"type":"Feature","geometry":{"type":"Point","coordinates":[-71.051368,41.922798]}},{"properties":{"city":"BEVERLY","name":"019","latitude":42.547745,"weight":2.0,"longitude":-70.878979,"id":"a6akbyrh8h6v","state":"MA"},"type":"Feature","geometry":{"type":"Point","coordinates":[-70.878979,42.547745]}},{"properties":{"city":"SUDBURY","name":"017","latitude":42.384211,"weight":63.0,"longitude":-71.409633,"id":"a6akbyzlioki","state":"MA"},"type":"Feature","geometry":{"type":"Point","coordinates":[-71.409633,42.384211]}},{"properties":{"city":"MIDDLEBORO","name":"023","latitude":41.89442,"weight":11.0,"longitude":-70.906864,"id":"a6akbyxf4e19","state":"MA"},"type":"Feature","geometry":{"type":"Point","coordinates":[-70.906864,41.89442]}},{"properties":{"city":"GAITHERSBURG","name":"208","latitude":39.139866,"weight":1.0,"longitude":-77.193829,"id":"a6akbyvid2hc","state":"MD"},"type":"Feature","geometry":{"type":"Point","coordinates":[-77.193829,39.139866]}},{"properties":{"city":"FREDERICK","name":"217","latitude":39.415745,"weight":2.0,"longitude":-77.412034,"id":"a6akbylvfnre","state":"MD"},"type":"Feature","geometry":{"type":"Point","coordinates":[-77.412034,39.415745]}},{"properties":{"city":"GLEN BURNIE","name":"210","latitude":39.161785,"weight":2.0,"longitude":-76.621845,"id":"a6akbysw0if3","state":"MD"},"type":"Feature","geometry":{"type":"Point","coordinates":[-76.621845,39.161785]}},{"properties":{"city":"SALISBURY","name":"218","latitude":38.365735,"weight":1.0,"longitude":-75.595319,"id":"a6akbypf9qvb","state":"MD"},"type":"Feature","geometry":{"type":"Point","coordinates":[-75.595319,38.365735]}},{"properties":{"city":"STERLING HEIGHTS","name":"483","latitude":42.593309,"weight":3.0,"longitude":-83.01337,"id":"a6akbynby5d4","state":"MI"},"type":"Feature","geometry":{"type":"Point","coordinates":[-83.01337,42.593309]}},{"properties":{"city":"VICKSBURG","name":"490","latitude":42.11995,"weight":6.0,"longitude":-85.530419,"id":"a6akbys8b8vv","state":"MI"},"type":"Feature","geometry":{"type":"Point","coordinates":[-85.530419,42.11995]}},{"properties":{"city":"JONESVILLE","name":"492","latitude":41.98354,"weight":39.0,"longitude":-84.662574,"id":"a6akbyp14qnd","state":"MI"},"type":"Feature","geometry":{"type":"Point","coordinates":[-84.662574,41.98354]}},{"properties":{"city":"WARREN","name":"480","latitude":42.511115,"weight":90.0,"longitude":-83.028519,"id":"a6akbytl0kyf","state":"MI"},"type":"Feature","geometry":{"type":"Point","coordinates":[-83.028519,42.511115]}},{"properties":{"city":"SALINE","name":"481","latitude":42.168285,"weight":184.0,"longitude":-83.779119,"id":"a6akbytyvf2m","state":"MI"},"type":"Feature","geometry":{"type":"Point","coordinates":[-83.779119,42.168285]}},{"properties":{"city":"SHAKOPEE","name":"553","latitude":44.79806,"weight":76.0,"longitude":-93.526654,"id":"a6akbyxkvecv","state":"MN"},"type":"Feature","geometry":{"type":"Point","coordinates":[-93.526654,44.79806]}},{"properties":{"city":"SAINT PAUL","name":"551","latitude":44.943829,"weight":6.0,"longitude":-93.093326,"id":"a6akbyt4e4gk","state":"MN"},"type":"Feature","geometry":{"type":"Point","coordinates":[-93.093326,44.943829]}},{"properties":{"city":"NEW HOPE","name":"554","latitude":45.035138,"weight":45.0,"longitude":-93.385387,"id":"a6akbylgsl85","state":"MN"},"type":"Feature","geometry":{"type":"Point","coordinates":[-93.385387,45.035138]}},{"properties":{"city":"THIEF RIVER FALLS","name":"567","latitude":48.11913,"weight":70.0,"longitude":-96.180774,"id":"a6akbyp872p3","state":"MN"},"type":"Feature","geometry":{"type":"Point","coordinates":[-96.180774,48.11913]}},{"properties":{"city":"KANSAS CITY","name":"641","latitude":39.10296,"weight":1.0,"longitude":-94.583062,"id":"a6akbyt5kddu","state":"MO"},"type":"Feature","geometry":{"type":"Point","coordinates":[-94.583062,39.10296]}},{"properties":{"city":"GRANDVIEW","name":"640","latitude":38.88926,"weight":1.0,"longitude":-94.532539,"id":"a6akbyl0z27f","state":"MO"},"type":"Feature","geometry":{"type":"Point","coordinates":[-94.532539,38.88926]}},{"properties":{"city":"SOUTHAVEN","name":"386","latitude":34.98794,"weight":5.0,"longitude":-90.004849,"id":"a6akbylz8mr5","state":"MS"},"type":"Feature","geometry":{"type":"Point","coordinates":[-90.004849,34.98794]}},{"properties":{"city":"ROCKY MOUNT","name":"278","latitude":35.948199,"weight":20.0,"longitude":-77.795207,"id":"a6akbypnt0lx","state":"NC"},"type":"Feature","geometry":{"type":"Point","coordinates":[-77.795207,35.948199]}},{"properties":{"city":"MOORESVILLE","name":"281","latitude":35.582525,"weight":32.0,"longitude":-80.814689,"id":"a6akbykgok13","state":"NC"},"type":"Feature","geometry":{"type":"Point","coordinates":[-80.814689,35.582525]}},{"properties":{"city":"SANFORD","name":"273","latitude":35.466257,"weight":7.0,"longitude":-79.159328,"id":"a6akbyl9b7sh","state":"NC"},"type":"Feature","geometry":{"type":"Point","coordinates":[-79.159328,35.466257]}},{"properties":{"city":"BELMONT","name":"280","latitude":35.24418,"weight":1.0,"longitude":-81.038024,"id":"a6akbyvlywz8","state":"NC"},"type":"Feature","geometry":{"type":"Point","coordinates":[-81.038024,35.24418]}},{"properties":{"city":"CHARLOTTE","name":"282","latitude":35.2225,"weight":2.0,"longitude":-80.837539,"id":"a6akbyjr4shu","state":"NC"},"type":"Feature","geometry":{"type":"Point","coordinates":[-80.837539,35.2225]}},{"properties":{"city":"VALDESE","name":"286","latitude":35.744015,"weight":41.0,"longitude":-81.564794,"id":"a6akbyrms4pd","state":"NC"},"type":"Feature","geometry":{"type":"Point","coordinates":[-81.564794,35.744015]}},{"properties":{"city":"COLUMBUS","name":"686","latitude":41.430937,"weight":21.0,"longitude":-97.371806,"id":"a6akbyx52x2r","state":"NE"},"type":"Feature","geometry":{"type":"Point","coordinates":[-97.371806,41.430937]}},{"properties":{"city":"NASHUA","name":"030","latitude":42.758365,"weight":11.0,"longitude":-71.464209,"id":"a6akbyvtity0","state":"NH"},"type":"Feature","geometry":{"type":"Point","coordinates":[-71.464209,42.758365]}},{"properties":{"city":"PLAISTOW","name":"038","latitude":42.837395,"weight":14.0,"longitude":-71.095334,"id":"a6akbypakikd","state":"NH"},"type":"Feature","geometry":{"type":"Point","coordinates":[-71.095334,42.837395]}},{"properties":{"city":"LEBANON","name":"037","latitude":43.64481,"weight":1.0,"longitude":-72.25395,"id":"a6akbyjug5a3","state":"NH"},"type":"Feature","geometry":{"type":"Point","coordinates":[-72.25395,43.64481]}},{"properties":{"city":"ROBBINSVILLE","name":"086","latitude":40.220175,"weight":1.0,"longitude":-74.633387,"id":"a6akbyz1gytm","state":"NJ"},"type":"Feature","geometry":{"type":"Point","coordinates":[-74.633387,40.220175]}},{"properties":{"city":"ELIZABETH","name":"072","latitude":40.663517,"weight":1.0,"longitude":-74.211467,"id":"a6akbyt8zc2x","state":"NJ"},"type":"Feature","geometry":{"type":"Point","coordinates":[-74.211467,40.663517]}},{"properties":{"city":"WESTFIELD","name":"070","latitude":40.65439,"weight":6.0,"longitude":-74.345444,"id":"a6akbyo6950r","state":"NJ"},"type":"Feature","geometry":{"type":"Point","coordinates":[-74.345444,40.65439]}},{"properties":{"city":"NORTHVALE","name":"076","latitude":41.007765,"weight":9.0,"longitude":-73.951854,"id":"a6akbyveyx27","state":"NJ"},"type":"Feature","geometry":{"type":"Point","coordinates":[-73.951854,41.007765]}},{"properties":{"city":"DOVER","name":"078","latitude":40.885215,"weight":1.0,"longitude":-74.558621,"id":"a6akbyz20vbg","state":"NJ"},"type":"Feature","geometry":{"type":"Point","coordinates":[-74.558621,40.885215]}},{"properties":{"city":"BURLINGTON","name":"080","latitude":40.076235,"weight":2.0,"longitude":-74.857459,"id":"a6akbyn3fj43","state":"NJ"},"type":"Feature","geometry":{"type":"Point","coordinates":[-74.857459,40.076235]}},{"properties":{"city":"HOPEWELL","name":"085","latitude":40.387994,"weight":2.0,"longitude":-74.758323,"id":"a6akbyyo6xiq","state":"NJ"},"type":"Feature","geometry":{"type":"Point","coordinates":[-74.758323,40.387994]}},{"properties":{"city":"PISCATAWAY","name":"088","latitude":40.539255,"weight":2.0,"longitude":-74.471489,"id":"a6akbyl0rtgq","state":"NJ"},"type":"Feature","geometry":{"type":"Point","coordinates":[-74.471489,40.539255]}},{"properties":{"city":"PATERSON","name":"075","latitude":40.916465,"weight":2.0,"longitude":-74.171084,"id":"a6akbyww4kof","state":"NJ"},"type":"Feature","geometry":{"type":"Point","coordinates":[-74.171084,40.916465]}},{"properties":{"city":"CARSON CITY","name":"897","latitude":39.164885,"weight":2.0,"longitude":-119.766999,"id":"a6akbymwqisp","state":"NV"},"type":"Feature","geometry":{"type":"Point","coordinates":[-119.766999,39.164885]}},{"properties":{"city":"RENO","name":"895","latitude":39.527395,"weight":12.0,"longitude":-119.813414,"id":"a6akbynmgd24","state":"NV"},"type":"Feature","geometry":{"type":"Point","coordinates":[-119.813414,39.527395]}},{"properties":{"city":"NORTH LAS VEGAS","name":"890","latitude":36.19896,"weight":2.0,"longitude":-115.118548,"id":"a6akbysn5pab","state":"NV"},"type":"Feature","geometry":{"type":"Point","coordinates":[-115.118548,36.19896]}},{"properties":{"city":"BUFFALO","name":"142","latitude":42.88544,"weight":1.0,"longitude":-78.878464,"id":"a6akbywqshqz","state":"NY"},"type":"Feature","geometry":{"type":"Point","coordinates":[-78.878464,42.88544]}},{"properties":{"city":"OLEAN","name":"147","latitude":42.077555,"weight":1.0,"longitude":-78.428875,"id":"a6akbystlr2d","state":"NY"},"type":"Feature","geometry":{"type":"Point","coordinates":[-78.428875,42.077555]}},{"properties":{"city":"ROCHESTER","name":"146","latitude":43.1555,"weight":7.0,"longitude":-77.616033,"id":"a6akbyu2kzrd","state":"NY"},"type":"Feature","geometry":{"type":"Point","coordinates":[-77.616033,43.1555]}},{"properties":{"city":"BROOKLYN","name":"112","latitude":40.692385,"weight":1.0,"longitude":-73.989872,"id":"a6akbyzjadnu","state":"NY"},"type":"Feature","geometry":{"type":"Point","coordinates":[-73.989872,40.692385]}},{"properties":{"city":"RONKONKOMA","name":"117","latitude":40.81122,"weight":173.0,"longitude":-73.098744,"id":"a6akbywn3dwq","state":"NY"},"type":"Feature","geometry":{"type":"Point","coordinates":[-73.098744,40.81122]}},{"properties":{"city":"PLATTSBURGH","name":"129","latitude":44.69913,"weight":1.0,"longitude":-73.453032,"id":"a6akbypzdb39","state":"NY"},"type":"Feature","geometry":{"type":"Point","coordinates":[-73.453032,44.69913]}},{"properties":{"city":"LANCASTER","name":"140","latitude":42.900305,"weight":1.0,"longitude":-78.669639,"id":"a6akbyurzj4r","state":"NY"},"type":"Feature","geometry":{"type":"Point","coordinates":[-78.669639,42.900305]}},{"properties":{"city":"HONEOYE FALLS","name":"144","latitude":42.95257,"weight":1.0,"longitude":-77.590687,"id":"a6akbyy1zopr","state":"NY"},"type":"Feature","geometry":{"type":"Point","coordinates":[-77.590687,42.95257]}},{"properties":{"city":"MARATHON","name":"138","latitude":42.44036,"weight":13.0,"longitude":-76.035129,"id":"a6akbynxddci","state":"NY"},"type":"Feature","geometry":{"type":"Point","coordinates":[-76.035129,42.44036]}},{"properties":{"city":"SOUTH OTSELIC","name":"131","latitude":42.647222,"weight":5.0,"longitude":-75.780355,"id":"a6akbyuty69e","state":"NY"},"type":"Feature","geometry":{"type":"Point","coordinates":[-75.780355,42.647222]}},{"properties":{"city":"LIVERPOOL","name":"130","latitude":43.10424,"weight":121.0,"longitude":-76.209649,"id":"a6akbyks1m7s","state":"NY"},"type":"Feature","geometry":{"type":"Point","coordinates":[-76.209649,43.10424]}},{"properties":{"city":"LONG ISLAND CITY","name":"111","latitude":40.75087,"weight":10.0,"longitude":-73.941359,"id":"a6akbym83ey4","state":"NY"},"type":"Feature","geometry":{"type":"Point","coordinates":[-73.941359,40.75087]}},{"properties":{"city":"WALLKILL","name":"125","latitude":41.463666,"weight":6.0,"longitude":-74.370534,"id":"a6akbyvaqy49","state":"NY"},"type":"Feature","geometry":{"type":"Point","coordinates":[-74.370534,41.463666]}},{"properties":{"city":"WHITE PLAINS","name":"106","latitude":41.03354,"weight":1.0,"longitude":-73.764154,"id":"a6akbywr1ygv","state":"NY"},"type":"Feature","geometry":{"type":"Point","coordinates":[-73.764154,41.03354]}},{"properties":{"city":"WEBSTER","name":"145","latitude":43.217305,"weight":51.0,"longitude":-77.430164,"id":"a6akbyx17ziq","state":"NY"},"type":"Feature","geometry":{"type":"Point","coordinates":[-77.430164,43.217305]}},{"properties":{"city":"AUCKLAND","name":"101","latitude":-36.884109,"weight":1.0,"longitude":174.77042,"id":"a6akbyqw9hbd","state":"NZ"},"type":"Feature","geometry":{"type":"Point","coordinates":[174.77042,-36.884109]}},{"properties":{"city":"BATAVIA","name":"451","latitude":39.07859,"weight":1.0,"longitude":-84.179414,"id":"a6akbyjz4qmu","state":"OH"},"type":"Feature","geometry":{"type":"Point","coordinates":[-84.179414,39.07859]}},{"properties":{"city":"VALLEY VIEW","name":"441","latitude":41.379443,"weight":169.0,"longitude":-81.60897,"id":"a6akbynueqzy","state":"OH"},"type":"Feature","geometry":{"type":"Point","coordinates":[-81.60897,41.379443]}},{"properties":{"city":"ELYRIA","name":"440","latitude":41.36768,"weight":102.0,"longitude":-82.105839,"id":"a6akbypss87a","state":"OH"},"type":"Feature","geometry":{"type":"Point","coordinates":[-82.105839,41.36768]}},{"properties":{"city":"GROVE CITY","name":"431","latitude":39.871145,"weight":32.0,"longitude":-83.070344,"id":"a6akbypdkd75","state":"OH"},"type":"Feature","geometry":{"type":"Point","coordinates":[-83.070344,39.871145]}},{"properties":{"city":"ALLIANCE","name":"446","latitude":40.921365,"weight":10.0,"longitude":-81.105844,"id":"a6akbyx6x485","state":"OH"},"type":"Feature","geometry":{"type":"Point","coordinates":[-81.105844,40.921365]}},{"properties":{"city":"AKRON","name":"443","latitude":41.084195,"weight":117.0,"longitude":-81.514059,"id":"a6akbyul7thi","state":"OH"},"type":"Feature","geometry":{"type":"Point","coordinates":[-81.514059,41.084195]}},{"properties":{"city":"CINCINNATI","name":"452","latitude":39.106441,"weight":8.0,"longitude":-84.504694,"id":"a6akbyxxkdn8","state":"OH"},"type":"Feature","geometry":{"type":"Point","coordinates":[-84.504694,39.106441]}},{"properties":{"city":"VANDALIA","name":"453","latitude":39.891275,"weight":190.0,"longitude":-84.193344,"id":"a6akbyqmocey","state":"OH"},"type":"Feature","geometry":{"type":"Point","coordinates":[-84.193344,39.891275]}},{"properties":{"city":"DAYTON","name":"454","latitude":39.75911,"weight":28.0,"longitude":-84.194439,"id":"a6akbyvo00xz","state":"OH"},"type":"Feature","geometry":{"type":"Point","coordinates":[-84.194439,39.75911]}},{"properties":{"city":"MEDINA","name":"442","latitude":41.14032,"weight":16.0,"longitude":-81.864019,"id":"a6akbyxgpn04","state":"OH"},"type":"Feature","geometry":{"type":"Point","coordinates":[-81.864019,41.14032]}},{"properties":{"city":"LIMA","name":"458","latitude":40.742695,"weight":2.0,"longitude":-84.107294,"id":"a6akbyqsh75l","state":"OH"},"type":"Feature","geometry":{"type":"Point","coordinates":[-84.107294,40.742695]}},{"properties":{"city":"MANSFIELD","name":"449","latitude":40.758515,"weight":19.0,"longitude":-82.514804,"id":"a6akbyk5lqdz","state":"OH"},"type":"Feature","geometry":{"type":"Point","coordinates":[-82.514804,40.758515]}},{"properties":{"city":"LONDON","name":"N5V","latitude":42.986895,"weight":5.0,"longitude":-81.246214,"id":"a6akbyw5i76n","state":"ON"},"type":"Feature","geometry":{"type":"Point","coordinates":[-81.246214,42.986895]}},{"properties":{"city":"WHITBY","name":"L1N","latitude":43.899264,"weight":1.0,"longitude":-78.942547,"id":"a6akbyugyjdn","state":"ON"},"type":"Feature","geometry":{"type":"Point","coordinates":[-78.942547,43.899264]}},{"properties":{"city":"SCARBOROUGH","name":"M1H","latitude":43.77223,"weight":97.0,"longitude":-79.256659,"id":"a6akbypgqs1b","state":"ON"},"type":"Feature","geometry":{"type":"Point","coordinates":[-79.256659,43.77223]}},{"properties":{"city":"TORONTO","name":"M1B","latitude":43.648565,"weight":29.0,"longitude":-79.385329,"id":"a6akbypak3os","state":"ON"},"type":"Feature","geometry":{"type":"Point","coordinates":[-79.385329,43.648565]}},{"properties":{"city":"GEORGETOWN","name":"L7G","latitude":43.65001,"weight":1.0,"longitude":-79.898879,"id":"a6akbys66lyo","state":"ON"},"type":"Feature","geometry":{"type":"Point","coordinates":[-79.898879,43.65001]}},{"properties":{"city":"PICKERING","name":"L1W","latitude":43.83765,"weight":7.0,"longitude":-79.082309,"id":"a6akbypdxtci","state":"ON"},"type":"Feature","geometry":{"type":"Point","coordinates":[-79.082309,43.83765]}},{"properties":{"city":"MARKHAM","name":"L3R","latitude":43.856034,"weight":10.0,"longitude":-79.339942,"id":"a6akbyvtmlul","state":"ON"},"type":"Feature","geometry":{"type":"Point","coordinates":[-79.339942,43.856034]}},{"properties":{"city":"MISSISSAUGA","name":"L5T","latitude":43.588285,"weight":8.0,"longitude":-79.643724,"id":"a6akbylh2vjn","state":"ON"},"type":"Feature","geometry":{"type":"Point","coordinates":[-79.643724,43.588285]}},{"properties":{"city":"MCMINNVILLE","name":"971","latitude":45.20894,"weight":1.0,"longitude":-123.199129,"id":"a6akbyvkuudz","state":"OR"},"type":"Feature","geometry":{"type":"Point","coordinates":[-123.199129,45.20894]}},{"properties":{"city":"MEDFORD","name":"975","latitude":42.32356,"weight":1.0,"longitude":-122.875614,"id":"a6akbyqpezzp","state":"OR"},"type":"Feature","geometry":{"type":"Point","coordinates":[-122.875614,42.32356]}},{"properties":{"city":"PORTLAND","name":"972","latitude":45.511795,"weight":1.0,"longitude":-122.675629,"id":"a6akbyu6h7fr","state":"OR"},"type":"Feature","geometry":{"type":"Point","coordinates":[-122.675629,45.511795]}},{"properties":{"city":"PITTSBURGH","name":"152","latitude":40.438315,"weight":9.0,"longitude":-79.997449,"id":"a6akbymvwg95","state":"PA"},"type":"Feature","geometry":{"type":"Point","coordinates":[-79.997449,40.438315]}},{"properties":{"city":"EAST BUTLER","name":"160","latitude":40.87826,"weight":2.0,"longitude":-79.847249,"id":"a6akbyp96fka","state":"PA"},"type":"Feature","geometry":{"type":"Point","coordinates":[-79.847249,40.87826]}},{"properties":{"city":"NEW KINGSTOWN","name":"170","latitude":40.23303,"weight":2.0,"longitude":-77.082604,"id":"a6akbysosj6u","state":"PA"},"type":"Feature","geometry":{"type":"Point","coordinates":[-77.082604,40.23303]}},{"properties":{"city":"PERRYOPOLIS","name":"154","latitude":40.08704,"weight":1.0,"longitude":-79.749084,"id":"a6akbyjhjfky","state":"PA"},"type":"Feature","geometry":{"type":"Point","coordinates":[-79.749084,40.08704]}},{"properties":{"city":"MACKEYVILLE","name":"177","latitude":41.054785,"weight":16.0,"longitude":-77.464905,"id":"a6akbykv0vtj","state":"PA"},"type":"Feature","geometry":{"type":"Point","coordinates":[-77.464905,41.054785]}},{"properties":{"city":"LANGHORNE","name":"190","latitude":40.176396,"weight":3.0,"longitude":-74.918884,"id":"a6akbytnoltk","state":"PA"},"type":"Feature","geometry":{"type":"Point","coordinates":[-74.918884,40.176396]}},{"properties":{"city":"PHILADELPHIA","name":"191","latitude":39.95227,"weight":8.0,"longitude":-75.162369,"id":"a6akbyl0ya1w","state":"PA"},"type":"Feature","geometry":{"type":"Point","coordinates":[-75.162369,39.95227]}},{"properties":{"city":"TELFORD","name":"189","latitude":40.324265,"weight":59.0,"longitude":-75.329684,"id":"a6akbysf6qvr","state":"PA"},"type":"Feature","geometry":{"type":"Point","coordinates":[-75.329684,40.324265]}},{"properties":{"city":"OXFORD","name":"193","latitude":39.78451,"weight":1.0,"longitude":-75.976979,"id":"a6akbymuob3q","state":"PA"},"type":"Feature","geometry":{"type":"Point","coordinates":[-75.976979,39.78451]}},{"properties":{"city":"WORCESTER","name":"194","latitude":40.20004,"weight":10.0,"longitude":-75.347427,"id":"a6akbyqcrioh","state":"PA"},"type":"Feature","geometry":{"type":"Point","coordinates":[-75.347427,40.20004]}},{"properties":{"city":"TAGUIG","name":"163","latitude":14.53072,"weight":3.0,"longitude":121.066704,"id":"a6akbyrq6jtx","state":"PHILIPPINES"},"type":"Feature","geometry":{"type":"Point","coordinates":[121.066704,14.53072]}},{"properties":{"city":"ST LAURENT","name":"H4S","latitude":45.50696,"weight":1.0,"longitude":-73.682929,"id":"a6akbyw9edh0","state":"QC"},"type":"Feature","geometry":{"type":"Point","coordinates":[-73.682929,45.50696]}},{"properties":{"city":"GREENVILLE","name":"296","latitude":34.84802,"weight":1.0,"longitude":-82.400219,"id":"a6akbyr9ls18","state":"SC"},"type":"Feature","geometry":{"type":"Point","coordinates":[-82.400219,34.84802]}},{"properties":{"city":"SPARTANBURG","name":"293","latitude":34.948255,"weight":54.0,"longitude":-81.934869,"id":"a6akbyxow7lq","state":"SC"},"type":"Feature","geometry":{"type":"Point","coordinates":[-81.934869,34.948255]}},{"properties":{"city":"ROCK HILL","name":"297","latitude":34.924025,"weight":20.0,"longitude":-81.026679,"id":"a6akbyzbmjjw","state":"SC"},"type":"Feature","geometry":{"type":"Point","coordinates":[-81.026679,34.924025]}},{"properties":{"city":"W COLUMBIA","name":"291","latitude":33.988977,"weight":61.0,"longitude":-81.073284,"id":"a6akbyve2qhq","state":"SC"},"type":"Feature","geometry":{"type":"Point","coordinates":[-81.073284,33.988977]}},{"properties":{"city":"AIKEN","name":"298","latitude":33.56173,"weight":1.0,"longitude":-81.722394,"id":"a6akbymxzdq3","state":"SC"},"type":"Feature","geometry":{"type":"Point","coordinates":[-81.722394,33.56173]}},{"properties":{"city":"CROSSVILLE","name":"385","latitude":35.948335,"weight":1.0,"longitude":-85.026479,"id":"a6akbyzcdhvn","state":"TN"},"type":"Feature","geometry":{"type":"Point","coordinates":[-85.026479,35.948335]}},{"properties":{"city":"HENDERSONVLLE","name":"370","latitude":36.304861,"weight":6.0,"longitude":-86.620214,"id":"a6akbyumap27","state":"TN"},"type":"Feature","geometry":{"type":"Point","coordinates":[-86.620214,36.304861]}},{"properties":{"city":"MOUNT PLEASANT","name":"384","latitude":35.534214,"weight":1.0,"longitude":-87.207123,"id":"a6akbylx6ss6","state":"TN"},"type":"Feature","geometry":{"type":"Point","coordinates":[-87.207123,35.534214]}},{"properties":{"city":"MORRISTOWN","name":"378","latitude":36.21503,"weight":1.0,"longitude":-83.293044,"id":"a6akbyonfd6l","state":"TN"},"type":"Feature","geometry":{"type":"Point","coordinates":[-83.293044,36.21503]}},{"properties":{"city":"TAIPEI","name":"100","latitude":25.03934,"weight":6.0,"longitude":121.51289,"id":"a6akbyn38miq","state":"TW"},"type":"Feature","geometry":{"type":"Point","coordinates":[121.51289,25.03934]}},{"properties":{"city":"EL PASO","name":"799","latitude":31.759165,"weight":9.0,"longitude":-106.487494,"id":"a6akbymd7qkv","state":"TX"},"type":"Feature","geometry":{"type":"Point","coordinates":[-106.487494,31.759165]}},{"properties":{"city":"PLANO","name":"750","latitude":33.020795,"weight":9.0,"longitude":-96.699214,"id":"a6akbyyfhif0","state":"TX"},"type":"Feature","geometry":{"type":"Point","coordinates":[-96.699214,33.020795]}},{"properties":{"city":"LUFKIN","name":"759","latitude":31.34239,"weight":13.0,"longitude":-94.718264,"id":"a6akbyzkmr4f","state":"TX"},"type":"Feature","geometry":{"type":"Point","coordinates":[-94.718264,31.34239]}},{"properties":{"city":"MANSFIELD","name":"760","latitude":32.564385,"weight":42.0,"longitude":-97.141939,"id":"a6akbyzfssly","state":"TX"},"type":"Feature","geometry":{"type":"Point","coordinates":[-97.141939,32.564385]}},{"properties":{"city":"AUSTIN","name":"787","latitude":30.267605,"weight":10.0,"longitude":-97.742984,"id":"a6akbynvbep1","state":"TX"},"type":"Feature","geometry":{"type":"Point","coordinates":[-97.742984,30.267605]}},{"properties":{"city":"STAFFORD","name":"774","latitude":29.614528,"weight":1.0,"longitude":-95.555512,"id":"a6akbyo5k9h5","state":"TX"},"type":"Feature","geometry":{"type":"Point","coordinates":[-95.555512,29.614528]}},{"properties":{"city":"FORT WORTH","name":"761","latitude":32.74863,"weight":49.0,"longitude":-97.329249,"id":"a6akbyo3uhp5","state":"TX"},"type":"Feature","geometry":{"type":"Point","coordinates":[-97.329249,32.74863]}},{"properties":{"city":"HOUSTON","name":"770","latitude":29.76045,"weight":5.0,"longitude":-95.369784,"id":"a6akbypdrz6d","state":"TX"},"type":"Feature","geometry":{"type":"Point","coordinates":[-95.369784,29.76045]}},{"properties":{"city":"WELLINGBOROUGH","name":"NN0","latitude":52.302421,"weight":2.0,"longitude":-0.696296,"id":"a6akbytf5zo9","state":"UK"},"type":"Feature","geometry":{"type":"Point","coordinates":[-0.696296,52.302421]}},{"properties":{"city":"IRVINE","name":"KA1","latitude":55.618748,"weight":11.0,"longitude":-4.656167,"id":"a6akbyoptdby","state":"UK"},"type":"Feature","geometry":{"type":"Point","coordinates":[-4.656167,55.618748]}},{"properties":{"city":"ROANOKE","name":"240","latitude":37.271525,"weight":1.0,"longitude":-79.940534,"id":"a6akbykjoyhd","state":"VA"},"type":"Feature","geometry":{"type":"Point","coordinates":[-79.940534,37.271525]}},{"properties":{"city":"NINE MILE FALLS","name":"990","latitude":47.773499,"weight":1.0,"longitude":-117.542519,"id":"a6akbyu27emg","state":"WA"},"type":"Feature","geometry":{"type":"Point","coordinates":[-117.542519,47.773499]}},{"properties":{"city":"SEATTLE","name":"981","latitude":47.60356,"weight":3.0,"longitude":-122.329439,"id":"a6akbyjsmx75","state":"WA"},"type":"Feature","geometry":{"type":"Point","coordinates":[-122.329439,47.60356]}},{"properties":{"city":"ALGOMA","name":"542","latitude":44.61004,"weight":5.0,"longitude":-87.438579,"id":"a6akbyu2bi7w","state":"WI"},"type":"Feature","geometry":{"type":"Point","coordinates":[-87.438579,44.61004]}},{"properties":{"city":"JANESVILLE","name":"535","latitude":42.687892,"weight":11.0,"longitude":-89.018214,"id":"a6akbyvjfssl","state":"WI"},"type":"Feature","geometry":{"type":"Point","coordinates":[-89.018214,42.687892]}},{"properties":{"city":"MILWAUKEE","name":"532","latitude":43.04181,"weight":2.0,"longitude":-87.906844,"id":"a6akbylnnodf","state":"WI"},"type":"Feature","geometry":{"type":"Point","coordinates":[-87.906844,43.04181]}},{"properties":{"city":"WAUKESHA","name":"531","latitude":43.014374,"weight":21.0,"longitude":-88.235467,"id":"a6akbypxy6fg","state":"WI"},"type":"Feature","geometry":{"type":"Point","coordinates":[-88.235467,43.014374]}},{"properties":{"city":"HARTLAND","name":"530","latitude":43.10333,"weight":122.0,"longitude":-88.347949,"id":"a6akbyvqajda","state":"WI"},"type":"Feature","geometry":{"type":"Point","coordinates":[-88.347949,43.10333]}},{"properties":{"city":"AUGUSTA","name":"547","latitude":44.6808,"weight":12.0,"longitude":-91.128775,"id":"a6akbyuif5zu","state":"WI"},"type":"Feature","geometry":{"type":"Point","coordinates":[-91.128775,44.6808]}}],"is_temporal":false,"author":{"url":"","metadata":"","contact_name":"","contact_address":"","source":"","contact_phone":""},"source":"","pagination":{"sort":null,"start":0,"total":215,"limit":1000000},"state":"complete","tags":"","published":"2014-08-10T22:20:29-04:00","id":17080}