{"type":"FeatureCollection","data_type":"Dataset","url_type":null,"permissions":[{"permissions":{"download":true,"view":true},"group_id":"everyone"}],"classification":null,"title":"Test data with attributes","count":199,"stream_id":17085,"contributor":{"url":"http://geocommons.com/users/9121","name":"fanofbeach"},"data_attributes":null,"calculation_params":null,"icon_link":null,"link":"http://geocommons.com/overlays/17085.json","extent":[-82.2417,33.956,-78.6386,36.5513],"geometry_types":["point"],"unique_name":null,"name":"Test data with attributes","feature_count":199,"description":"","next_feature":null,"is_raster":false,"short_classification":"Y","stats":{"contracts":{"max":7.0,"mean":2.40201005025126,"variance":5.91837977767625,"stdev":2.43277203569842,"min":0.0,"median":2.0},"geo_score":{"max":0.714,"mean":0.710412060301506,"variance":0.00256178894472358,"stdev":0.0506141180375948,"min":0.0,"median":0.714}},"features":[{"properties":{"contracts":0.0,"zip":"27006","geo_score":0.714,"id":"a69f5878ni9q","geo_precision":"zip"},"type":"Feature","geometry":{"type":"Point","coordinates":[-80.4395,36.005137]}},{"properties":{"contracts":5.0,"zip":"27007","geo_score":0.714,"id":"a69f57rerr9z","geo_precision":"zip"},"type":"Feature","geometry":{"type":"Point","coordinates":[-80.589507,36.385903]}},{"properties":{"contracts":1.0,"zip":"27011","geo_score":0.714,"id":"a69f57ss4yff","geo_precision":"zip"},"type":"Feature","geometry":{"type":"Point","coordinates":[-80.770345,36.147635]}},{"properties":{"contracts":0.0,"zip":"27012","geo_score":0.714,"id":"a69f5804q4gc","geo_precision":"zip"},"type":"Feature","geometry":{"type":"Point","coordinates":[-80.416722,36.054304]}},{"properties":{"contracts":2.0,"zip":"27013","geo_score":0.714,"id":"a69f580paba4","geo_precision":"zip"},"type":"Feature","geometry":{"type":"Point","coordinates":[-80.681056,35.755719]}},{"properties":{"contracts":0.0,"zip":"27014","geo_score":0.714,"id":"a69f5869ytiq","geo_precision":"zip"},"type":"Feature","geometry":{"type":"Point","coordinates":[-80.54826,35.819175]}},{"properties":{"contracts":6.0,"zip":"27017","geo_score":0.714,"id":"a69f58463rll","geo_precision":"zip"},"type":"Feature","geometry":{"type":"Point","coordinates":[-80.628674,36.344581]}},{"properties":{"contracts":4.0,"zip":"27018","geo_score":0.714,"id":"a69f581vwrap","geo_precision":"zip"},"type":"Feature","geometry":{"type":"Point","coordinates":[-80.575334,36.197851]}},{"properties":{"contracts":0.0,"zip":"27020","geo_score":0.714,"id":"a69f586cp59s","geo_precision":"zip"},"type":"Feature","geometry":{"type":"Point","coordinates":[-80.842015,36.134301]}},{"properties":{"contracts":6.0,"zip":"27024","geo_score":0.714,"id":"a69f57sh1ypz","geo_precision":"zip"},"type":"Feature","geometry":{"type":"Point","coordinates":[-80.823878,36.490434]}},{"properties":{"contracts":1.0,"zip":"27028","geo_score":0.714,"id":"a69f57w92mms","geo_precision":"zip"},"type":"Feature","geometry":{"type":"Point","coordinates":[-80.577283,35.974303]}},{"properties":{"contracts":7.0,"zip":"27030","geo_score":0.714,"id":"a69f57r5pybe","geo_precision":"zip"},"type":"Feature","geometry":{"type":"Point","coordinates":[-80.83785,36.482354]}},{"properties":{"contracts":3.0,"zip":"27031","geo_score":0.714,"id":"a69f584my7ss","geo_precision":"zip"},"type":"Feature","geometry":{"type":"Point","coordinates":[-80.70809,36.399366]}},{"properties":{"contracts":4.0,"zip":"27041","geo_score":0.714,"id":"a69f5843znkv","geo_precision":"zip"},"type":"Feature","geometry":{"type":"Point","coordinates":[-80.505421,36.422632]}},{"properties":{"contracts":1.0,"zip":"27043","geo_score":0.714,"id":"a69f5816g1lz","geo_precision":"zip"},"type":"Feature","geometry":{"type":"Point","coordinates":[-80.395333,36.383471]}},{"properties":{"contracts":2.0,"zip":"27047","geo_score":0.714,"id":"a69f57r1weh6","geo_precision":"zip"},"type":"Feature","geometry":{"type":"Point","coordinates":[-80.56777,36.329166]}},{"properties":{"contracts":0.0,"zip":"27049","geo_score":0.714,"id":"a69f57x46nn7","geo_precision":"zip"},"type":"Feature","geometry":{"type":"Point","coordinates":[-80.655786,36.551332]}},{"properties":{"contracts":0.0,"zip":"27053","geo_score":0.714,"id":"a69f57yysjq7","geo_precision":"zip"},"type":"Feature","geometry":{"type":"Point","coordinates":[-80.288942,36.421249]}},{"properties":{"contracts":6.0,"zip":"27054","geo_score":0.714,"id":"a69f57ywxqaz","geo_precision":"zip"},"type":"Feature","geometry":{"type":"Point","coordinates":[-80.605096,35.790116]}},{"properties":{"contracts":2.0,"zip":"27055","geo_score":0.714,"id":"a69f586xv34h","geo_precision":"zip"},"type":"Feature","geometry":{"type":"Point","coordinates":[-80.620618,36.060136]}},{"properties":{"contracts":7.0,"zip":"27685","geo_score":0.714,"id":"a69f57whuotm","geo_precision":"zip"},"type":"Feature","geometry":{"type":"Point","coordinates":[-78.638615,35.772096]}},{"properties":{"contracts":6.0,"zip":"28001","geo_score":0.714,"id":"a69f57rcyc5v","geo_precision":"zip"},"type":"Feature","geometry":{"type":"Point","coordinates":[-80.305339,35.332643]}},{"properties":{"contracts":6.0,"zip":"28002","geo_score":0.714,"id":"a69f582kn28k","geo_precision":"zip"},"type":"Feature","geometry":{"type":"Point","coordinates":[-80.108188,35.264179]}},{"properties":{"contracts":7.0,"zip":"28009","geo_score":0.714,"id":"a69f57sjksf5","geo_precision":"zip"},"type":"Feature","geometry":{"type":"Point","coordinates":[-80.159356,35.41569]}},{"properties":{"contracts":0.0,"zip":"28010","geo_score":0.714,"id":"a69f581r0q13","geo_precision":"zip"},"type":"Feature","geometry":{"type":"Point","coordinates":[-80.89909,35.719228]}},{"properties":{"contracts":2.0,"zip":"28017","geo_score":0.714,"id":"a69f57uvx3op","geo_precision":"zip"},"type":"Feature","geometry":{"type":"Point","coordinates":[-81.691402,35.254876]}},{"properties":{"contracts":7.0,"zip":"28017","geo_score":0.714,"id":"a69f57y67bmj","geo_precision":"zip"},"type":"Feature","geometry":{"type":"Point","coordinates":[-81.691402,35.254876]}},{"properties":{"contracts":4.0,"zip":"28018","geo_score":0.714,"id":"a69f583073sk","geo_precision":"zip"},"type":"Feature","geometry":{"type":"Point","coordinates":[-81.789415,35.440832]}},{"properties":{"contracts":1.0,"zip":"28019","geo_score":0.714,"id":"a69f57u5c2t8","geo_precision":"zip"},"type":"Feature","geometry":{"type":"Point","coordinates":[-81.831944,35.316793]}},{"properties":{"contracts":0.0,"zip":"28020","geo_score":0.714,"id":"a69f583mdo7r","geo_precision":"zip"},"type":"Feature","geometry":{"type":"Point","coordinates":[-81.583704,35.543186]}},{"properties":{"contracts":3.0,"zip":"28020","geo_score":0.714,"id":"a69f586avojh","geo_precision":"zip"},"type":"Feature","geometry":{"type":"Point","coordinates":[-81.583704,35.543186]}},{"properties":{"contracts":4.0,"zip":"28021","geo_score":0.714,"id":"a69f585qq0j9","geo_precision":"zip"},"type":"Feature","geometry":{"type":"Point","coordinates":[-81.409808,35.388744]}},{"properties":{"contracts":0.0,"zip":"28021","geo_score":0.714,"id":"a69f57wnc82r","geo_precision":"zip"},"type":"Feature","geometry":{"type":"Point","coordinates":[-81.409808,35.388744]}},{"properties":{"contracts":6.0,"zip":"28023","geo_score":0.714,"id":"a69f581slrpi","geo_precision":"zip"},"type":"Feature","geometry":{"type":"Point","coordinates":[-80.668124,35.529861]}},{"properties":{"contracts":2.0,"zip":"28024","geo_score":0.714,"id":"a69f586p0z6m","geo_precision":"zip"},"type":"Feature","geometry":{"type":"Point","coordinates":[-81.775456,35.241615]}},{"properties":{"contracts":0.0,"zip":"28025","geo_score":0.714,"id":"a69f580l0rtk","geo_precision":"zip"},"type":"Feature","geometry":{"type":"Point","coordinates":[-80.545899,35.45014]}},{"properties":{"contracts":0.0,"zip":"28026","geo_score":0.714,"id":"a69f583nt1ej","geo_precision":"zip"},"type":"Feature","geometry":{"type":"Point","coordinates":[-80.541088,35.346285]}},{"properties":{"contracts":0.0,"zip":"28027","geo_score":0.714,"id":"a69f57xqbt6j","geo_precision":"zip"},"type":"Feature","geometry":{"type":"Point","coordinates":[-80.658405,35.410688]}},{"properties":{"contracts":0.0,"zip":"28036","geo_score":0.714,"id":"a69f5822eqhz","geo_precision":"zip"},"type":"Feature","geometry":{"type":"Point","coordinates":[-80.844594,35.283427]}},{"properties":{"contracts":0.0,"zip":"28037","geo_score":0.714,"id":"a69f581d2rge","geo_precision":"zip"},"type":"Feature","geometry":{"type":"Point","coordinates":[-80.977576,35.530412]}},{"properties":{"contracts":0.0,"zip":"28038","geo_score":0.714,"id":"a69f582jh5lx","geo_precision":"zip"},"type":"Feature","geometry":{"type":"Point","coordinates":[-81.538645,35.196998]}},{"properties":{"contracts":1.0,"zip":"28038","geo_score":0.714,"id":"a69f57wbvp4v","geo_precision":"zip"},"type":"Feature","geometry":{"type":"Point","coordinates":[-81.538645,35.196998]}},{"properties":{"contracts":7.0,"zip":"28039","geo_score":0.714,"id":"a69f582ptjqa","geo_precision":"zip"},"type":"Feature","geometry":{"type":"Point","coordinates":[-80.44593,35.677889]}},{"properties":{"contracts":0.0,"zip":"28040","geo_score":0.714,"id":"a69f57x56ljd","geo_precision":"zip"},"type":"Feature","geometry":{"type":"Point","coordinates":[-81.730653,35.436237]}},{"properties":{"contracts":3.0,"zip":"28041","geo_score":0.714,"id":"a69f57tfoqz2","geo_precision":"zip"},"type":"Feature","geometry":{"type":"Point","coordinates":[-80.45806,35.58167]}},{"properties":{"contracts":0.0,"zip":"28042","geo_score":0.714,"id":"a69f57yk326j","geo_precision":"zip"},"type":"Feature","geometry":{"type":"Point","coordinates":[-81.543706,35.373884]}},{"properties":{"contracts":0.0,"zip":"28043","geo_score":0.714,"id":"a69f57yaefim","geo_precision":"zip"},"type":"Feature","geometry":{"type":"Point","coordinates":[-81.844547,35.289288]}},{"properties":{"contracts":4.0,"zip":"28071","geo_score":0.714,"id":"a69f57xkz6b5","geo_precision":"zip"},"type":"Feature","geometry":{"type":"Point","coordinates":[-80.335612,35.581251]}},{"properties":{"contracts":1.0,"zip":"28072","geo_score":0.714,"id":"a69f57slmjq1","geo_precision":"zip"},"type":"Feature","geometry":{"type":"Point","coordinates":[-80.436124,35.610921]}},{"properties":{"contracts":0.0,"zip":"28073","geo_score":0.714,"id":"a69f57vmek2c","geo_precision":"zip"},"type":"Feature","geometry":{"type":"Point","coordinates":[-81.471909,35.204027]}},{"properties":{"contracts":0.0,"zip":"28074","geo_score":0.714,"id":"a69f584o085k","geo_precision":"zip"},"type":"Feature","geometry":{"type":"Point","coordinates":[-81.885081,35.224743]}},{"properties":{"contracts":3.0,"zip":"28075","geo_score":0.714,"id":"a69f57yy7ztn","geo_precision":"zip"},"type":"Feature","geometry":{"type":"Point","coordinates":[-80.672368,35.353672]}},{"properties":{"contracts":0.0,"zip":"28076","geo_score":0.714,"id":"a69f57zm2ls3","geo_precision":"zip"},"type":"Feature","geometry":{"type":"Point","coordinates":[-81.790657,35.269567]}},{"properties":{"contracts":4.0,"zip":"28079","geo_score":0.714,"id":"a69f583zgnay","geo_precision":"zip"},"type":"Feature","geometry":{"type":"Point","coordinates":[-80.630346,35.118757]}},{"properties":{"contracts":2.0,"zip":"28081","geo_score":0.714,"id":"a69f57t62owv","geo_precision":"zip"},"type":"Feature","geometry":{"type":"Point","coordinates":[-80.643402,35.47875]}},{"properties":{"contracts":6.0,"zip":"28083","geo_score":0.714,"id":"a69f57x3twxr","geo_precision":"zip"},"type":"Feature","geometry":{"type":"Point","coordinates":[-80.571498,35.476586]}},{"properties":{"contracts":0.0,"zip":"28086","geo_score":0.714,"id":"a69f582th958","geo_precision":"zip"},"type":"Feature","geometry":{"type":"Point","coordinates":[-81.28647,35.243469]}},{"properties":{"contracts":7.0,"zip":"28088","geo_score":0.714,"id":"a69f581wiwlm","geo_precision":"zip"},"type":"Feature","geometry":{"type":"Point","coordinates":[-80.608038,35.545428]}},{"properties":{"contracts":0.0,"zip":"28089","geo_score":0.714,"id":"a69f57tbhzkm","geo_precision":"zip"},"type":"Feature","geometry":{"type":"Point","coordinates":[-81.661675,35.308726]}},{"properties":{"contracts":3.0,"zip":"28090","geo_score":0.714,"id":"a69f582871hd","geo_precision":"zip"},"type":"Feature","geometry":{"type":"Point","coordinates":[-81.63315,35.468184]}},{"properties":{"contracts":3.0,"zip":"28097","geo_score":0.714,"id":"a69f581mqvmu","geo_precision":"zip"},"type":"Feature","geometry":{"type":"Point","coordinates":[-80.424512,35.262131]}},{"properties":{"contracts":1.0,"zip":"28103","geo_score":0.714,"id":"a69f586sz8we","geo_precision":"zip"},"type":"Feature","geometry":{"type":"Point","coordinates":[-80.387287,35.060428]}},{"properties":{"contracts":2.0,"zip":"28104","geo_score":0.714,"id":"a69f5805wr8a","geo_precision":"zip"},"type":"Feature","geometry":{"type":"Point","coordinates":[-80.704424,35.089042]}},{"properties":{"contracts":0.0,"zip":"28105","geo_score":0.714,"id":"a69f57qtuoeb","geo_precision":"zip"},"type":"Feature","geometry":{"type":"Point","coordinates":[-80.704991,35.114887]}},{"properties":{"contracts":0.0,"zip":"28106","geo_score":0.714,"id":"a69f5865zeyy","geo_precision":"zip"},"type":"Feature","geometry":{"type":"Point","coordinates":[-80.804151,35.26002]}},{"properties":{"contracts":4.0,"zip":"28107","geo_score":0.714,"id":"a69f584809b2","geo_precision":"zip"},"type":"Feature","geometry":{"type":"Point","coordinates":[-80.535601,35.250608]}},{"properties":{"contracts":0.0,"zip":"28108","geo_score":0.714,"id":"a69f580f7hjj","geo_precision":"zip"},"type":"Feature","geometry":{"type":"Point","coordinates":[-80.640383,34.916253]}},{"properties":{"contracts":4.0,"zip":"28109","geo_score":0.714,"id":"a69f57x5s2mo","geo_precision":"zip"},"type":"Feature","geometry":{"type":"Point","coordinates":[-80.270445,35.480124]}},{"properties":{"contracts":0.0,"zip":"28110","geo_score":0.714,"id":"a69f585g3sfr","geo_precision":"zip"},"type":"Feature","geometry":{"type":"Point","coordinates":[-80.639513,35.055426]}},{"properties":{"contracts":0.0,"zip":"28111","geo_score":0.714,"id":"a69f57sycz33","geo_precision":"zip"},"type":"Feature","geometry":{"type":"Point","coordinates":[-80.558743,35.011204]}},{"properties":{"contracts":0.0,"zip":"28112","geo_score":0.714,"id":"a69f581ewjk7","geo_precision":"zip"},"type":"Feature","geometry":{"type":"Point","coordinates":[-80.527201,34.901591]}},{"properties":{"contracts":4.0,"zip":"28114","geo_score":0.714,"id":"a69f582tq4qz","geo_precision":"zip"},"type":"Feature","geometry":{"type":"Point","coordinates":[-79.868125,33.955994]}},{"properties":{"contracts":0.0,"zip":"28115","geo_score":0.714,"id":"a69f584qfwnd","geo_precision":"zip"},"type":"Feature","geometry":{"type":"Point","coordinates":[-80.819825,35.688136]}},{"properties":{"contracts":0.0,"zip":"28116","geo_score":0.0,"id":"a69f57y4gi0x","geo_precision":"unmatched"},"type":"Feature","geometry":null},{"properties":{"contracts":0.0,"zip":"28117","geo_score":0.714,"id":"a69f582e71d4","geo_precision":"zip"},"type":"Feature","geometry":{"type":"Point","coordinates":[-80.868463,35.583962]}},{"properties":{"contracts":0.0,"zip":"28123","geo_score":0.714,"id":"a69f584cl0xl","geo_precision":"zip"},"type":"Feature","geometry":{"type":"Point","coordinates":[-80.947028,35.529792]}},{"properties":{"contracts":5.0,"zip":"28124","geo_score":0.714,"id":"a69f5822h6wt","geo_precision":"zip"},"type":"Feature","geometry":{"type":"Point","coordinates":[-80.416474,35.416779]}},{"properties":{"contracts":0.0,"zip":"28125","geo_score":0.714,"id":"a69f57s48n37","geo_precision":"zip"},"type":"Feature","geometry":{"type":"Point","coordinates":[-80.701616,35.656287]}},{"properties":{"contracts":1.0,"zip":"28127","geo_score":0.714,"id":"a69f584evlk8","geo_precision":"zip"},"type":"Feature","geometry":{"type":"Point","coordinates":[-80.117553,35.427363]}},{"properties":{"contracts":2.0,"zip":"28128","geo_score":0.714,"id":"a69f57wlk5k6","geo_precision":"zip"},"type":"Feature","geometry":{"type":"Point","coordinates":[-80.189783,35.19848]}},{"properties":{"contracts":0.0,"zip":"28129","geo_score":0.714,"id":"a69f57u5ocaw","geo_precision":"zip"},"type":"Feature","geometry":{"type":"Point","coordinates":[-80.316451,35.273477]}},{"properties":{"contracts":0.0,"zip":"28133","geo_score":0.714,"id":"a69f5871m0hd","geo_precision":"zip"},"type":"Feature","geometry":{"type":"Point","coordinates":[-80.288396,35.077651]}},{"properties":{"contracts":5.0,"zip":"28136","geo_score":0.714,"id":"a69f583pm74h","geo_precision":"zip"},"type":"Feature","geometry":{"type":"Point","coordinates":[-81.630272,35.396126]}},{"properties":{"contracts":3.0,"zip":"28137","geo_score":0.714,"id":"a69f581amy8s","geo_precision":"zip"},"type":"Feature","geometry":{"type":"Point","coordinates":[-80.242831,35.590695]}},{"properties":{"contracts":4.0,"zip":"28138","geo_score":0.714,"id":"a69f57ror76e","geo_precision":"zip"},"type":"Feature","geometry":{"type":"Point","coordinates":[-80.481451,35.551529]}},{"properties":{"contracts":0.0,"zip":"28139","geo_score":0.714,"id":"a69f57rejyw4","geo_precision":"zip"},"type":"Feature","geometry":{"type":"Point","coordinates":[-81.888991,35.450402]}},{"properties":{"contracts":1.0,"zip":"28144","geo_score":0.714,"id":"a69f57z04eer","geo_precision":"zip"},"type":"Feature","geometry":{"type":"Point","coordinates":[-80.498948,35.721251]}},{"properties":{"contracts":2.0,"zip":"28145","geo_score":0.714,"id":"a69f57xwu04c","geo_precision":"zip"},"type":"Feature","geometry":{"type":"Point","coordinates":[-80.477116,35.682683]}},{"properties":{"contracts":0.0,"zip":"28146","geo_score":0.714,"id":"a69f584kt5m2","geo_precision":"zip"},"type":"Feature","geometry":{"type":"Point","coordinates":[-80.402235,35.618694]}},{"properties":{"contracts":0.0,"zip":"28147","geo_score":0.714,"id":"a69f584ew1nt","geo_precision":"zip"},"type":"Feature","geometry":{"type":"Point","coordinates":[-80.561516,35.681714]}},{"properties":{"contracts":6.0,"zip":"28150","geo_score":0.714,"id":"a69f583vusm0","geo_precision":"zip"},"type":"Feature","geometry":{"type":"Point","coordinates":[-81.629261,35.330961]}},{"properties":{"contracts":6.0,"zip":"28151","geo_score":0.714,"id":"a69f582owkey","geo_precision":"zip"},"type":"Feature","geometry":{"type":"Point","coordinates":[-81.574711,35.233125]}},{"properties":{"contracts":7.0,"zip":"28152","geo_score":0.714,"id":"a69f57twj64i","geo_precision":"zip"},"type":"Feature","geometry":{"type":"Point","coordinates":[-81.580919,35.329336]}},{"properties":{"contracts":0.0,"zip":"28159","geo_score":0.714,"id":"a69f586pc1di","geo_precision":"zip"},"type":"Feature","geometry":{"type":"Point","coordinates":[-80.432679,35.691689]}},{"properties":{"contracts":0.0,"zip":"28160","geo_score":0.714,"id":"a69f57rvsevn","geo_precision":"zip"},"type":"Feature","geometry":{"type":"Point","coordinates":[-81.9211,35.354511]}},{"properties":{"contracts":0.0,"zip":"28163","geo_score":0.714,"id":"a69f57x9tm8v","geo_precision":"zip"},"type":"Feature","geometry":{"type":"Point","coordinates":[-80.359507,35.313476]}},{"properties":{"contracts":0.0,"zip":"28167","geo_score":0.714,"id":"a69f585zutmq","geo_precision":"zip"},"type":"Feature","geometry":{"type":"Point","coordinates":[-82.091774,35.527067]}},{"properties":{"contracts":0.0,"zip":"28168","geo_score":0.714,"id":"a69f57wd7d1n","geo_precision":"zip"},"type":"Feature","geometry":{"type":"Point","coordinates":[-81.410643,35.540133]}},{"properties":{"contracts":3.0,"zip":"28169","geo_score":0.714,"id":"a69f57zyhlaa","geo_precision":"zip"},"type":"Feature","geometry":{"type":"Point","coordinates":[-81.425111,35.35289]}},{"properties":{"contracts":3.0,"zip":"28173","geo_score":0.714,"id":"a69f584szlrq","geo_precision":"zip"},"type":"Feature","geometry":{"type":"Point","coordinates":[-80.814794,34.991815]}},{"properties":{"contracts":4.0,"zip":"28174","geo_score":0.714,"id":"a69f582h3nxv","geo_precision":"zip"},"type":"Feature","geometry":{"type":"Point","coordinates":[-80.427656,34.964812]}},{"properties":{"contracts":0.0,"zip":"28601","geo_score":0.714,"id":"a69f580ddbfv","geo_precision":"zip"},"type":"Feature","geometry":{"type":"Point","coordinates":[-81.323697,35.778188]}},{"properties":{"contracts":0.0,"zip":"28602","geo_score":0.714,"id":"a69f57yctxoa","geo_precision":"zip"},"type":"Feature","geometry":{"type":"Point","coordinates":[-81.368976,35.683188]}},{"properties":{"contracts":0.0,"zip":"28603","geo_score":0.714,"id":"a69f586yilwm","geo_precision":"zip"},"type":"Feature","geometry":{"type":"Point","coordinates":[-81.287181,35.679876]}},{"properties":{"contracts":0.0,"zip":"28604","geo_score":0.714,"id":"a69f584nqj66","geo_precision":"zip"},"type":"Feature","geometry":{"type":"Point","coordinates":[-81.911226,36.17207]}},{"properties":{"contracts":6.0,"zip":"28605","geo_score":0.714,"id":"a69f57s1qsvc","geo_precision":"zip"},"type":"Feature","geometry":{"type":"Point","coordinates":[-81.714505,36.163862]}},{"properties":{"contracts":4.0,"zip":"28606","geo_score":0.714,"id":"a69f585ptck2","geo_precision":"zip"},"type":"Feature","geometry":{"type":"Point","coordinates":[-81.23358,36.122485]}},{"properties":{"contracts":7.0,"zip":"28607","geo_score":0.714,"id":"a69f583biz1e","geo_precision":"zip"},"type":"Feature","geometry":{"type":"Point","coordinates":[-81.683719,36.219017]}},{"properties":{"contracts":3.0,"zip":"28608","geo_score":0.714,"id":"a69f57udv5ew","geo_precision":"zip"},"type":"Feature","geometry":{"type":"Point","coordinates":[-81.713416,36.221334]}},{"properties":{"contracts":0.0,"zip":"28609","geo_score":0.714,"id":"a69f57zpjqil","geo_precision":"zip"},"type":"Feature","geometry":{"type":"Point","coordinates":[-81.089801,35.642078]}},{"properties":{"contracts":0.0,"zip":"28610","geo_score":0.714,"id":"a69f5833nl3f","geo_precision":"zip"},"type":"Feature","geometry":{"type":"Point","coordinates":[-81.12693,35.730213]}},{"properties":{"contracts":4.0,"zip":"28611","geo_score":0.714,"id":"a69f582zmtzi","geo_precision":"zip"},"type":"Feature","geometry":{"type":"Point","coordinates":[-81.726617,35.994554]}},{"properties":{"contracts":7.0,"zip":"28612","geo_score":0.714,"id":"a69f5834xzbe","geo_precision":"zip"},"type":"Feature","geometry":{"type":"Point","coordinates":[-81.538697,35.689483]}},{"properties":{"contracts":3.0,"zip":"28613","geo_score":0.714,"id":"a69f57szm1kj","geo_precision":"zip"},"type":"Feature","geometry":{"type":"Point","coordinates":[-81.209458,35.740848]}},{"properties":{"contracts":0.0,"zip":"28615","geo_score":0.714,"id":"a69f57u9qp4n","geo_precision":"zip"},"type":"Feature","geometry":{"type":"Point","coordinates":[-81.659555,36.440956]}},{"properties":{"contracts":0.0,"zip":"28616","geo_score":0.714,"id":"a69f584g9vew","geo_precision":"zip"},"type":"Feature","geometry":{"type":"Point","coordinates":[-81.889238,36.059123]}},{"properties":{"contracts":0.0,"zip":"28617","geo_score":0.714,"id":"a69f583rl5xo","geo_precision":"zip"},"type":"Feature","geometry":{"type":"Point","coordinates":[-81.373712,36.549291]}},{"properties":{"contracts":4.0,"zip":"28618","geo_score":0.714,"id":"a69f586yzxm9","geo_precision":"zip"},"type":"Feature","geometry":{"type":"Point","coordinates":[-81.541072,36.207343]}},{"properties":{"contracts":3.0,"zip":"28619","geo_score":0.714,"id":"a69f57xaa3sx","geo_precision":"zip"},"type":"Feature","geometry":{"type":"Point","coordinates":[-81.640557,35.717868]}},{"properties":{"contracts":5.0,"zip":"28621","geo_score":0.714,"id":"a69f57ur3y5v","geo_precision":"zip"},"type":"Feature","geometry":{"type":"Point","coordinates":[-80.799944,36.318035]}},{"properties":{"contracts":0.0,"zip":"28622","geo_score":0.714,"id":"a69f57x7ymwo","geo_precision":"zip"},"type":"Feature","geometry":{"type":"Point","coordinates":[-81.933727,36.252068]}},{"properties":{"contracts":0.0,"zip":"28623","geo_score":0.714,"id":"a69f582eaggy","geo_precision":"zip"},"type":"Feature","geometry":{"type":"Point","coordinates":[-80.968133,36.527353]}},{"properties":{"contracts":6.0,"zip":"28624","geo_score":0.714,"id":"a69f57szm94d","geo_precision":"zip"},"type":"Feature","geometry":{"type":"Point","coordinates":[-81.495377,36.121241]}},{"properties":{"contracts":3.0,"zip":"28625","geo_score":0.714,"id":"a69f57udj3be","geo_precision":"zip"},"type":"Feature","geometry":{"type":"Point","coordinates":[-80.89757,35.790866]}},{"properties":{"contracts":0.0,"zip":"28626","geo_score":0.714,"id":"a69f57vb4dxs","geo_precision":"zip"},"type":"Feature","geometry":{"type":"Point","coordinates":[-81.508408,36.330187]}},{"properties":{"contracts":3.0,"zip":"28627","geo_score":0.714,"id":"a69f57ru8tr7","geo_precision":"zip"},"type":"Feature","geometry":{"type":"Point","coordinates":[-80.980911,36.480687]}},{"properties":{"contracts":4.0,"zip":"28628","geo_score":0.714,"id":"a69f57s151tc","geo_precision":"zip"},"type":"Feature","geometry":{"type":"Point","coordinates":[-81.817998,35.721174]}},{"properties":{"contracts":1.0,"zip":"28630","geo_score":0.714,"id":"a69f57s8i5m5","geo_precision":"zip"},"type":"Feature","geometry":{"type":"Point","coordinates":[-81.376478,35.863743]}},{"properties":{"contracts":4.0,"zip":"28631","geo_score":0.714,"id":"a69f57ts5y8o","geo_precision":"zip"},"type":"Feature","geometry":{"type":"Point","coordinates":[-81.468718,36.548178]}},{"properties":{"contracts":2.0,"zip":"28633","geo_score":0.714,"id":"a69f582f7ybw","geo_precision":"zip"},"type":"Feature","geometry":{"type":"Point","coordinates":[-81.539847,35.937564]}},{"properties":{"contracts":6.0,"zip":"28634","geo_score":0.714,"id":"a69f57xqxjbq","geo_precision":"zip"},"type":"Feature","geometry":{"type":"Point","coordinates":[-80.777838,35.964392]}},{"properties":{"contracts":6.0,"zip":"28635","geo_score":0.714,"id":"a69f58273o16","geo_precision":"zip"},"type":"Feature","geometry":{"type":"Point","coordinates":[-81.116941,36.308091]}},{"properties":{"contracts":4.0,"zip":"28636","geo_score":0.714,"id":"a69f57siwy9w","geo_precision":"zip"},"type":"Feature","geometry":{"type":"Point","coordinates":[-81.149233,35.938931]}},{"properties":{"contracts":1.0,"zip":"28637","geo_score":0.714,"id":"a69f57zrdgsd","geo_precision":"zip"},"type":"Feature","geometry":{"type":"Point","coordinates":[-81.497816,35.727107]}},{"properties":{"contracts":0.0,"zip":"28638","geo_score":0.714,"id":"a69f584igmhx","geo_precision":"zip"},"type":"Feature","geometry":{"type":"Point","coordinates":[-81.479726,35.839777]}},{"properties":{"contracts":7.0,"zip":"28640","geo_score":0.714,"id":"a69f582n2r6u","geo_precision":"zip"},"type":"Feature","geometry":{"type":"Point","coordinates":[-81.386488,36.401794]}},{"properties":{"contracts":2.0,"zip":"28641","geo_score":0.714,"id":"a69f58554uuy","geo_precision":"zip"},"type":"Feature","geometry":{"type":"Point","coordinates":[-81.884521,35.938422]}},{"properties":{"contracts":3.0,"zip":"28642","geo_score":0.714,"id":"a69f57t7wg92","geo_precision":"zip"},"type":"Feature","geometry":{"type":"Point","coordinates":[-80.833404,36.227357]}},{"properties":{"contracts":0.0,"zip":"28642","geo_score":0.714,"id":"a69f57xs9n72","geo_precision":"zip"},"type":"Feature","geometry":{"type":"Point","coordinates":[-80.833404,36.227357]}},{"properties":{"contracts":0.0,"zip":"28643","geo_score":0.714,"id":"a69f585gykg6","geo_precision":"zip"},"type":"Feature","geometry":{"type":"Point","coordinates":[-81.510942,36.535678]}},{"properties":{"contracts":0.0,"zip":"28643","geo_score":0.714,"id":"a69f5826uwt0","geo_precision":"zip"},"type":"Feature","geometry":{"type":"Point","coordinates":[-81.510942,36.535678]}},{"properties":{"contracts":0.0,"zip":"28644","geo_score":0.714,"id":"a69f586vemk7","geo_precision":"zip"},"type":"Feature","geometry":{"type":"Point","coordinates":[-81.26287,36.411517]}},{"properties":{"contracts":0.0,"zip":"28646","geo_score":0.714,"id":"a69f581gy78d","geo_precision":"zip"},"type":"Feature","geometry":{"type":"Point","coordinates":[-81.917716,36.040964]}},{"properties":{"contracts":0.0,"zip":"28647","geo_score":0.714,"id":"a69f581zjb8y","geo_precision":"zip"},"type":"Feature","geometry":{"type":"Point","coordinates":[-81.675545,35.779182]}},{"properties":{"contracts":0.0,"zip":"28649","geo_score":0.714,"id":"a69f580whznb","geo_precision":"zip"},"type":"Feature","geometry":{"type":"Point","coordinates":[-81.200766,36.307698]}},{"properties":{"contracts":4.0,"zip":"28650","geo_score":0.714,"id":"a69f57x3gphw","geo_precision":"zip"},"type":"Feature","geometry":{"type":"Point","coordinates":[-81.162793,35.588869]}},{"properties":{"contracts":0.0,"zip":"28651","geo_score":0.714,"id":"a69f57xw5v99","geo_precision":"zip"},"type":"Feature","geometry":{"type":"Point","coordinates":[-81.224811,36.241997]}},{"properties":{"contracts":0.0,"zip":"28652","geo_score":0.714,"id":"a69f57u8k186","geo_precision":"zip"},"type":"Feature","geometry":{"type":"Point","coordinates":[-81.996228,36.082625]}},{"properties":{"contracts":3.0,"zip":"28653","geo_score":0.714,"id":"a69f57zs2zg5","geo_precision":"zip"},"type":"Feature","geometry":{"type":"Point","coordinates":[-81.901715,36.065053]}},{"properties":{"contracts":0.0,"zip":"28654","geo_score":0.714,"id":"a69f586bdrjg","geo_precision":"zip"},"type":"Feature","geometry":{"type":"Point","coordinates":[-81.165221,36.100492]}},{"properties":{"contracts":0.0,"zip":"28655","geo_score":0.714,"id":"a69f586o5s2m","geo_precision":"zip"},"type":"Feature","geometry":{"type":"Point","coordinates":[-81.700375,35.710962]}},{"properties":{"contracts":0.0,"zip":"28656","geo_score":0.714,"id":"a69f57rihdo2","geo_precision":"zip"},"type":"Feature","geometry":{"type":"Point","coordinates":[-81.045963,36.238438]}},{"properties":{"contracts":0.0,"zip":"28657","geo_score":0.714,"id":"a69f5824f1vu","geo_precision":"zip"},"type":"Feature","geometry":{"type":"Point","coordinates":[-81.978448,35.985127]}},{"properties":{"contracts":6.0,"zip":"28657","geo_score":0.714,"id":"a69f57znou9z","geo_precision":"zip"},"type":"Feature","geometry":{"type":"Point","coordinates":[-81.978448,35.985127]}},{"properties":{"contracts":5.0,"zip":"28658","geo_score":0.714,"id":"a69f5870p16t","geo_precision":"zip"},"type":"Feature","geometry":{"type":"Point","coordinates":[-81.375642,35.627355]}},{"properties":{"contracts":0.0,"zip":"28659","geo_score":0.714,"id":"a69f585uj52c","geo_precision":"zip"},"type":"Feature","geometry":{"type":"Point","coordinates":[-81.180642,36.239576]}},{"properties":{"contracts":7.0,"zip":"28660","geo_score":0.714,"id":"a69f57y6hqt7","geo_precision":"zip"},"type":"Feature","geometry":{"type":"Point","coordinates":[-80.864673,35.974905]}},{"properties":{"contracts":0.0,"zip":"28661","geo_score":0.714,"id":"a69f57y3ztk0","geo_precision":"zip"},"type":"Feature","geometry":{"type":"Point","coordinates":[-81.562609,35.99726]}},{"properties":{"contracts":4.0,"zip":"28662","geo_score":0.714,"id":"a69f582zjm5g","geo_precision":"zip"},"type":"Feature","geometry":{"type":"Point","coordinates":[-81.876049,36.085582]}},{"properties":{"contracts":5.0,"zip":"28663","geo_score":0.714,"id":"a69f57tt82ud","geo_precision":"zip"},"type":"Feature","geometry":{"type":"Point","coordinates":[-81.301935,36.527637]}},{"properties":{"contracts":5.0,"zip":"28664","geo_score":0.714,"id":"a69f57vcyggt","geo_precision":"zip"},"type":"Feature","geometry":{"type":"Point","coordinates":[-82.003691,36.044098]}},{"properties":{"contracts":3.0,"zip":"28665","geo_score":0.714,"id":"a69f57vc6rea","geo_precision":"zip"},"type":"Feature","geometry":{"type":"Point","coordinates":[-81.179412,36.223349]}},{"properties":{"contracts":0.0,"zip":"28666","geo_score":0.714,"id":"a69f57wwzhan","geo_precision":"zip"},"type":"Feature","geometry":{"type":"Point","coordinates":[-81.495395,35.73005]}},{"properties":{"contracts":0.0,"zip":"28667","geo_score":0.714,"id":"a69f57vqyztx","geo_precision":"zip"},"type":"Feature","geometry":{"type":"Point","coordinates":[-81.43023,35.777241]}},{"properties":{"contracts":6.0,"zip":"28668","geo_score":0.714,"id":"a69f586rr6fi","geo_precision":"zip"},"type":"Feature","geometry":{"type":"Point","coordinates":[-80.987489,36.398983]}},{"properties":{"contracts":5.0,"zip":"28670","geo_score":0.714,"id":"a69f57v8k8mk","geo_precision":"zip"},"type":"Feature","geometry":{"type":"Point","coordinates":[-80.929782,36.20083]}},{"properties":{"contracts":0.0,"zip":"28671","geo_score":0.714,"id":"a69f57rrlc51","geo_precision":"zip"},"type":"Feature","geometry":{"type":"Point","coordinates":[-81.563674,35.74858]}},{"properties":{"contracts":3.0,"zip":"28672","geo_score":0.714,"id":"a69f57qskipv","geo_precision":"zip"},"type":"Feature","geometry":{"type":"Point","coordinates":[-81.317597,36.515681]}},{"properties":{"contracts":6.0,"zip":"28673","geo_score":0.714,"id":"a69f58261ftn","geo_precision":"zip"},"type":"Feature","geometry":{"type":"Point","coordinates":[-80.997147,35.603076]}},{"properties":{"contracts":6.0,"zip":"28675","geo_score":0.714,"id":"a69f583cdg50","geo_precision":"zip"},"type":"Feature","geometry":{"type":"Point","coordinates":[-81.215925,36.518461]}},{"properties":{"contracts":6.0,"zip":"28676","geo_score":0.714,"id":"a69f57t46g7g","geo_precision":"zip"},"type":"Feature","geometry":{"type":"Point","coordinates":[-80.852275,36.336635]}},{"properties":{"contracts":4.0,"zip":"28677","geo_score":0.714,"id":"a69f57se0orc","geo_precision":"zip"},"type":"Feature","geometry":{"type":"Point","coordinates":[-80.968132,35.816801]}},{"properties":{"contracts":1.0,"zip":"28678","geo_score":0.714,"id":"a69f57z5xknu","geo_precision":"zip"},"type":"Feature","geometry":{"type":"Point","coordinates":[-81.162749,35.88313]}},{"properties":{"contracts":1.0,"zip":"28679","geo_score":0.714,"id":"a69f583k1i8w","geo_precision":"zip"},"type":"Feature","geometry":{"type":"Point","coordinates":[-81.893449,36.290679]}},{"properties":{"contracts":0.0,"zip":"28680","geo_score":0.714,"id":"a69f57r2ya0w","geo_precision":"zip"},"type":"Feature","geometry":{"type":"Point","coordinates":[-81.695292,35.750657]}},{"properties":{"contracts":3.0,"zip":"28681","geo_score":0.714,"id":"a69f586xgob6","geo_precision":"zip"},"type":"Feature","geometry":{"type":"Point","coordinates":[-81.306198,35.889298]}},{"properties":{"contracts":6.0,"zip":"28682","geo_score":0.714,"id":"a69f581wiuw4","geo_precision":"zip"},"type":"Feature","geometry":{"type":"Point","coordinates":[-80.968153,35.579418]}},{"properties":{"contracts":6.0,"zip":"28683","geo_score":0.714,"id":"a69f581uj8to","geo_precision":"zip"},"type":"Feature","geometry":{"type":"Point","coordinates":[-80.989986,36.346341]}},{"properties":{"contracts":2.0,"zip":"28684","geo_score":0.714,"id":"a69f57sy8s24","geo_precision":"zip"},"type":"Feature","geometry":{"type":"Point","coordinates":[-81.563717,36.319293]}},{"properties":{"contracts":5.0,"zip":"28687","geo_score":0.714,"id":"a69f585sewb9","geo_precision":"zip"},"type":"Feature","geometry":{"type":"Point","coordinates":[-80.947028,35.529792]}},{"properties":{"contracts":3.0,"zip":"28688","geo_score":0.714,"id":"a69f57zm54ff","geo_precision":"zip"},"type":"Feature","geometry":{"type":"Point","coordinates":[-80.947028,35.529792]}},{"properties":{"contracts":4.0,"zip":"28689","geo_score":0.714,"id":"a69f583ny1qk","geo_precision":"zip"},"type":"Feature","geometry":{"type":"Point","coordinates":[-80.897573,36.07569]}},{"properties":{"contracts":0.0,"zip":"28690","geo_score":0.714,"id":"a69f57y0r60f","geo_precision":"zip"},"type":"Feature","geometry":{"type":"Point","coordinates":[-81.6166,35.737757]}},{"properties":{"contracts":0.0,"zip":"28691","geo_score":0.714,"id":"a69f57rrm6g0","geo_precision":"zip"},"type":"Feature","geometry":{"type":"Point","coordinates":[-81.778871,36.209158]}},{"properties":{"contracts":0.0,"zip":"28692","geo_score":0.714,"id":"a69f57rdm43m","geo_precision":"zip"},"type":"Feature","geometry":{"type":"Point","coordinates":[-81.849281,36.293458]}},{"properties":{"contracts":4.0,"zip":"28693","geo_score":0.714,"id":"a69f5875cekq","geo_precision":"zip"},"type":"Feature","geometry":{"type":"Point","coordinates":[-81.572935,36.455704]}},{"properties":{"contracts":5.0,"zip":"28694","geo_score":0.714,"id":"a69f57szj5d4","geo_precision":"zip"},"type":"Feature","geometry":{"type":"Point","coordinates":[-81.501773,36.426514]}},{"properties":{"contracts":3.0,"zip":"28697","geo_score":0.714,"id":"a69f586xvqtn","geo_precision":"zip"},"type":"Feature","geometry":{"type":"Point","coordinates":[-81.129235,36.211148]}},{"properties":{"contracts":0.0,"zip":"28698","geo_score":0.714,"id":"a69f57z8ln0h","geo_precision":"zip"},"type":"Feature","geometry":{"type":"Point","coordinates":[-81.751777,36.288182]}},{"properties":{"contracts":2.0,"zip":"28699","geo_score":0.714,"id":"a69f57srlvrf","geo_precision":"zip"},"type":"Feature","geometry":{"type":"Point","coordinates":[-81.00762,35.831037]}},{"properties":{"contracts":4.0,"zip":"28699","geo_score":0.714,"id":"a69f581e2h2d","geo_precision":"zip"},"type":"Feature","geometry":{"type":"Point","coordinates":[-81.00762,35.831037]}},{"properties":{"contracts":3.0,"zip":"28720","geo_score":0.714,"id":"a69f57rgqio7","geo_precision":"zip"},"type":"Feature","geometry":{"type":"Point","coordinates":[-82.241744,35.436893]}},{"properties":{"contracts":6.0,"zip":"28737","geo_score":0.714,"id":"a69f586b28vj","geo_precision":"zip"},"type":"Feature","geometry":{"type":"Point","coordinates":[-82.059494,35.738725]}},{"properties":{"contracts":4.0,"zip":"28746","geo_score":0.714,"id":"a69f58509i4s","geo_precision":"zip"},"type":"Feature","geometry":{"type":"Point","coordinates":[-82.167055,35.42512]}},{"properties":{"contracts":6.0,"zip":"28749","geo_score":0.714,"id":"a69f583lkg4i","geo_precision":"zip"},"type":"Feature","geometry":{"type":"Point","coordinates":[-82.059494,35.738725]}},{"properties":{"contracts":7.0,"zip":"28752","geo_score":0.714,"id":"a69f57r0udvh","geo_precision":"zip"},"type":"Feature","geometry":{"type":"Point","coordinates":[-82.034672,35.684187]}},{"properties":{"contracts":5.0,"zip":"28756","geo_score":0.714,"id":"a69f57yhg31g","geo_precision":"zip"},"type":"Feature","geometry":{"type":"Point","coordinates":[-82.18789,35.374285]}},{"properties":{"contracts":3.0,"zip":"28761","geo_score":0.714,"id":"a69f57rvuxdq","geo_precision":"zip"},"type":"Feature","geometry":{"type":"Point","coordinates":[-81.90205,35.769015]}},{"properties":{"contracts":3.0,"zip":"28762","geo_score":0.714,"id":"a69f5879drec","geo_precision":"zip"},"type":"Feature","geometry":{"type":"Point","coordinates":[-82.164835,35.611788]}}],"is_temporal":false,"author":{"url":"","metadata":"","contact_name":"","contact_address":"","source":"","contact_phone":""},"source":"","pagination":{"sort":null,"start":0,"total":199,"limit":1000000},"state":"complete","tags":"","published":"2014-08-10T22:20:37-04:00","id":17085}