{"type":"FeatureCollection","data_type":"Dataset","url_type":null,"permissions":[{"permissions":{"download":true,"edit":true,"view":true},"group_id":34863},{"permissions":{"download":true,"view":true},"group_id":"everyone"}],"classification":null,"title":"FATAL DUI COLLISIONS","count":12,"stream_id":170890,"contributor":{"url":"http://geocommons.com/users/33375","name":"lakeit"},"data_attributes":null,"calculation_params":null,"icon_link":null,"link":"http://geocommons.com/overlays/170890.json","extent":[-123.032,38.7593,-122.487,39.2047],"geometry_types":["point"],"unique_name":null,"name":"FATAL DUI COLLISIONS","feature_count":12,"description":"This Lake County News special series was produced as a project for the California Endowment Health Journalism Fellowships, a program of the University of Southern Californiaâ€™s Annenberg School for Communication &amp; Journalism.","next_feature":null,"is_raster":false,"short_classification":"Y","stats":{},"features":[{"properties":{"collision type:":"Fatal  DUI","city":"Upper Lake","date:":"Thu, Jul 30, 09","time:":"12:00","additional factors:":"DUI","agency":"CHP","id":"0","weather":"Hot","address":"Mendocino National Forest M-10","state":"California"},"type":"Feature","geometry":{"type":"Point","coordinates":[-122.48664,39.12579]}},{"properties":{"collision type:":"Fatal  DUI","city":"Witter Springs","date:":"Tue, Feb 16, 10","time:":"19:59","additional factors:":"DUI","agency":"CHP","id":"1","weather":"Cool, dry","address":"SR-20 at Witter Springs Road","state":"California"},"type":"Feature","geometry":{"type":"Point","coordinates":[-122.985434,39.204668]}},{"properties":{"collision type:":"Fatal  DUI","city":"Upper Lake","date:":"Fri, Sep 24, 10","time:":"10:38","additional factors:":"DUI","agency":"CHP","id":"2","weather":"Clear, dry","address":"CA-20 West at Shcuette Road","state":"California"},"type":"Feature","geometry":{"type":"Point","coordinates":[-123.032273,39.187695]}},{"properties":{"collision type:":"Fatal  DUI","city":"Upper Lake","date:":"Sun, Jan 2, 11","time:":"16:35","additional factors:":"DUI","agency":"CHP","id":"3","weather":"Overcast","address":"Upper Lake Lucerne Road n/of SR-20","state":"California"},"type":"Feature","geometry":{"type":"Point","coordinates":[-122.910551,39.164613]}},{"properties":{"collision type:":"Fatal  DUI","city":"Cobb","date:":"Tue, Jun 14, 11","time:":"19:35","additional factors:":"DUI","agency":"CHP","id":"4","weather":"Warm","address":"Gifford Springs Road at Tanya Terrace","state":"California"},"type":"Feature","geometry":{"type":"Point","coordinates":[-122.697073,38.815639]}},{"properties":{"collision type:":"Fatal  DUI","city":"Clearlake Oaks","date:":"Sat, Jul 19, 08","time:":"04:35:00 PM","additional factors:":"Speed, DUI, Passing over double yellows","agency":"CHP","id":"5","weather":"Warm, clear, dry","address":"SR-20 at Flagship Marina","state":"California"},"type":"Feature","geometry":{"type":"Point","coordinates":[-122.642581,39.016733]}},{"properties":{"collision type:":"Fatal  DUI","city":"Glenhaven","date:":"Mon, Feb 23, 09","time:":"05:34 PM","additional factors:":"Wrong side head-on","agency":"CHP","id":"6","weather":"Cloudy, and, wet","address":"Highway 20 at Gladys Street","state":"California"},"type":"Feature","geometry":{"type":"Point","coordinates":[-122.739582,39.030646]}},{"properties":{"collision type:":"Fatal  DUI","city":"Lakeport","date:":"Thu, Aug 18, 11","time:":"11:00 PM","additional factors:":"DUI","agency":"CHP","id":"7","weather":"Warm, Clear","address":"Merritt Road at Smith Lane","state":"California"},"type":"Feature","geometry":{"type":"Point","coordinates":[-122.870364,38.982563]}},{"properties":{"collision type:":"Fatal  DUI","city":"Clearlake Oaks","date:":"Wed, Feb 14, 07","time:":"01:49 PM","additional factors:":"Wrong side head-on","agency":"CHP","id":"8","weather":"Clear, and, dry","address":"Highway 20 at Old Long Valley Road","state":"California"},"type":"Feature","geometry":{"type":"Point","coordinates":[-122.596309,39.01825]}},{"properties":{"collision type:":"Fatal  DUI","city":"Middletown","date:":"Mon, Feb 25, 08","time:":"06:23 PM","additional factors:":"Broadside","agency":"CHP","id":"9","weather":"Clear, and, dry,","address":"Highway 29 at Spruce Grove Road","state":"California"},"type":"Feature","geometry":{"type":"Point","coordinates":[-122.576607,38.819894]}},{"properties":{"collision type:":"Fatal DUI","city":"Middletown","date:":"Sun, Feb 17, 08","time:":"0:25","additional factors:":"DUI","agency":"CHP","id":"10","weather":"Clear, cool","address":"SR-175 at Dry Creek Cutoff","state":"California"},"type":"Feature","geometry":{"type":"Point","coordinates":[-122.641006,38.759267]}},{"properties":{"collision type:":"Fatal DUI","city":"Cobb","date:":"Fri, Jun 27, 08","time:":"23:50","additional factors:":"Speed DUI","agency":"CHP","id":"11","weather":"Clear, warm","address":"SR-175 at Dry Creek Cutoff","state":"California"},"type":"Feature","geometry":{"type":"Point","coordinates":[-122.720299,38.83886]}}],"is_temporal":false,"author":{"url":"http://www.lakeconews.com","metadata":"","contact_name":"","contact_address":"","source":"CALIFORNIA HIGHWAY PATROL, LAKEPORT POLICE DEPARTMENT, CLEARLAKE POLICE DEPARTMENT","contact_phone":""},"source":"http://www.lakeconews.com","pagination":{"sort":null,"start":0,"total":12,"limit":1000000},"state":"complete","tags":"","published":"2011-10-31T02:02:43Z","id":170890}