{"type":"FeatureCollection","data_type":"Dataset","url_type":null,"permissions":[{"permissions":{"download":true,"view":true},"group_id":"everyone"}],"classification":null,"title":"Indiana Hospitals","count":188,"stream_id":17134,"contributor":{"url":"http://geocommons.com/users/9169","name":"cdoehrin"},"data_attributes":null,"calculation_params":null,"icon_link":null,"link":"http://geocommons.com/overlays/17134.json","extent":[-87.575,37.9971,-84.891,41.7187],"geometry_types":["point"],"unique_name":null,"name":"Indiana Hospitals","feature_count":188,"description":"All Hospitals in Indiana","next_feature":null,"is_raster":false,"short_classification":"Y","stats":{"hospid":{"max":479.0,"mean":137.72192513369,"variance":20832.3846242309,"stdev":144.334280835257,"min":1.0,"median":94.0},"hospital_number":{"max":999.0,"mean":138.664596273292,"variance":25019.4993012422,"stdev":158.175533194114,"min":1.0,"median":91.0},"geo_score":{"max":0.857,"mean":0.72203743315508,"variance":0.0919806383761715,"stdev":0.303283099390935,"min":0.0,"median":0.857}},"features":[{"properties":{"city":null,"hospid":40.0,"county":"45","hospital_number":null,"geo_score":0.0,"hospname":"Northwest Family Hospital","id":"a665eb9gju17","geo_precision":"unmatched","hospital_name":null,"state":"IN"},"type":"Feature","geometry":null},{"properties":{"city":null,"hospid":132.0,"county":"49","hospital_number":null,"geo_score":0.0,"hospname":"Winona Memorial Hospital","id":"a665eb325p2x","geo_precision":"unmatched","hospital_name":null,"state":"IN"},"type":"Feature","geometry":null},{"properties":{"city":null,"hospid":131.0,"county":null,"hospital_number":null,"geo_score":0.0,"hospname":"St. Elizabeth Ann Seton Specialty Care Hospital","id":"a665eb520ccl","geo_precision":"unmatched","hospital_name":null,"state":"IN"},"type":"Feature","geometry":null},{"properties":{"city":null,"hospid":122.0,"county":"53","hospital_number":null,"geo_score":0.0,"hospname":"Select Specialty Hospital - Bloomington","id":"a665eb98pirt","geo_precision":"unmatched","hospital_name":null,"state":"IN"},"type":"Feature","geometry":null},{"properties":{"city":null,"hospid":112.0,"county":"68","hospital_number":null,"geo_score":0.0,"hospname":"Union City Memorial Hospital","id":"a665eb2a6442","geo_precision":"unmatched","hospital_name":null,"state":"IN"},"type":"Feature","geometry":null},{"properties":{"city":null,"hospid":104.0,"county":"71","hospital_number":null,"geo_score":0.0,"hospname":"Healthwin Hospital","id":"a665eb82upao","geo_precision":"unmatched","hospital_name":null,"state":"IN"},"type":"Feature","geometry":null},{"properties":{"city":null,"hospid":39.0,"county":"45","hospital_number":null,"geo_score":0.0,"hospname":"Illiana Surgery and Medical Center","id":"a665eb9xnbzh","geo_precision":"unmatched","hospital_name":null,"state":"IN"},"type":"Feature","geometry":null},{"properties":{"city":null,"hospid":47.0,"county":"19","hospital_number":null,"geo_score":0.0,"hospname":"St. Joseph's Hospital (Huntingburg)","id":"a665eb1kvvwt","geo_precision":"unmatched","hospital_name":null,"state":"IN"},"type":"Feature","geometry":null},{"properties":{"city":null,"hospid":472.0,"county":"02","hospital_number":null,"geo_score":0.0,"hospname":"Park Center, Inc.","id":"a665eb2m3slb","geo_precision":"unmatched","hospital_name":null,"state":"IN"},"type":"Feature","geometry":null},{"properties":{"city":null,"hospid":29.0,"county":"82","hospital_number":null,"geo_score":0.0,"hospname":"St. Mary's Health Care Services (Riverside)","id":"a665eax2fmz0","geo_precision":"unmatched","hospital_name":null,"state":"IN"},"type":"Feature","geometry":null},{"properties":{"city":null,"hospid":471.0,"county":"34","hospital_number":null,"geo_score":0.0,"hospname":"SCCI Hospital - Kokomo","id":"a665eb4idg1u","geo_precision":"unmatched","hospital_name":null,"state":"IN"},"type":"Feature","geometry":null},{"properties":{"city":null,"hospid":140.0,"county":null,"hospital_number":null,"geo_score":0.0,"hospname":"Fairbanks","id":"a665eavhksjo","geo_precision":"unmatched","hospital_name":null,"state":"IN"},"type":"Feature","geometry":null},{"properties":{"city":null,"hospid":13.0,"county":"90","hospital_number":null,"geo_score":0.0,"hospname":"Wells Community Hospital","id":"a665eb1cesuu","geo_precision":"unmatched","hospital_name":null,"state":"IN"},"type":"Feature","geometry":null},{"properties":{"city":null,"hospid":96.0,"county":"71","hospital_number":null,"geo_score":0.0,"hospname":"St. Mary Community Hospital","id":"a665eb1uwifi","geo_precision":"unmatched","hospital_name":null,"state":"IN"},"type":"Feature","geometry":null},{"properties":{"city":null,"hospid":144.0,"county":"02","hospital_number":null,"geo_score":0.0,"hospname":"Charter Beacon Behavioral Health System, II, LLC","id":"a665eb0llqq5","geo_precision":"unmatched","hospital_name":null,"state":"IN"},"type":"Feature","geometry":null},{"properties":{"city":null,"hospid":145.0,"county":"49","hospital_number":null,"geo_score":0.0,"hospname":"Rehabilitation Hospital of Indiana at St. Vincent","id":"a665eb0s4m8e","geo_precision":"unmatched","hospital_name":null,"state":"IN"},"type":"Feature","geometry":null},{"properties":{"city":null,"hospid":469.0,"county":"84","hospital_number":null,"geo_score":0.0,"hospname":"HealthSouth Hospital of Terre Haute","id":"a665eb58a60o","geo_precision":"unmatched","hospital_name":null,"state":"IN"},"type":"Feature","geometry":null},{"properties":{"city":null,"hospid":148.0,"county":"49","hospital_number":null,"geo_score":0.0,"hospname":"Charter Hospital of Greater Indianapolis","id":"a665eb9i8tie","geo_precision":"unmatched","hospital_name":null,"state":"IN"},"type":"Feature","geometry":null},{"properties":{"city":null,"hospid":149.0,"county":"49","hospital_number":null,"geo_score":0.0,"hospname":"St. Vincent Pediatric Rehabilitation Center","id":"a665eax1uxbc","geo_precision":"unmatched","hospital_name":null,"state":"IN"},"type":"Feature","geometry":null},{"properties":{"city":null,"hospid":86.0,"county":"26","hospital_number":null,"geo_score":0.0,"hospname":"Wirth Regional Hospital","id":"a665eb4eddel","geo_precision":"unmatched","hospital_name":null,"state":"IN"},"type":"Feature","geometry":null},{"properties":{"city":null,"hospid":78.0,"county":"71","hospital_number":null,"geo_score":0.0,"hospname":"Saint Joseph Regional Medical Center - Mishawaka Campus","id":"a665eavkxarg","geo_precision":"unmatched","hospital_name":null,"state":"IN"},"type":"Feature","geometry":null},{"properties":{"city":null,"hospid":76.0,"county":"46","hospital_number":null,"geo_score":0.0,"hospname":"Charter Behavioral Health System of Michigan City","id":"a665eb9u1blg","geo_precision":"unmatched","hospital_name":null,"state":"IN"},"type":"Feature","geometry":null},{"properties":{"city":null,"hospid":73.0,"county":"46","hospital_number":null,"geo_score":0.0,"hospname":"St. Anthony Memorial Health Centers, North Campus","id":"a665eaz38siq","geo_precision":"unmatched","hospital_name":null,"state":"IN"},"type":"Feature","geometry":null},{"properties":{"city":null,"hospid":454.0,"county":"06","hospital_number":null,"geo_score":0.0,"hospname":"Behavioral Healthcare of Lebanon","id":"a665eatytd1b","geo_precision":"unmatched","hospital_name":null,"state":"IN"},"type":"Feature","geometry":null},{"properties":{"city":null,"hospid":455.0,"county":"03","hospital_number":null,"geo_score":0.0,"hospname":"Columbus Behavioral Center for Children and Adolescents","id":"a665eatyx4oe","geo_precision":"unmatched","hospital_name":null,"state":"IN"},"type":"Feature","geometry":null},{"properties":{"city":null,"hospid":56.0,"county":null,"hospital_number":null,"geo_score":0.0,"hospname":"Seton Specialty Hospital","id":"a665eauebckn","geo_precision":"unmatched","hospital_name":null,"state":"IN"},"type":"Feature","geometry":null},{"properties":{"city":null,"hospid":147.0,"county":"10","hospital_number":null,"geo_score":0.0,"hospname":"Charter Behavioral Health System of Indiana at Jefferson, LLC","id":"a665eazjb14v","geo_precision":"unmatched","hospital_name":null,"state":"IN"},"type":"Feature","geometry":null},{"properties":{"city":"Indianapolis","hospid":1.0,"county":"49","hospital_number":1.0,"geo_score":0.857,"hospname":"Clarian Health (IU)","id":"a665eavoayhs","geo_precision":"city","hospital_name":"Clarian Health (IU)","state":"IN"},"type":"Feature","geometry":{"type":"Point","coordinates":[-86.13216,39.775092]}},{"properties":{"city":"Beech Grove","hospid":10.0,"county":"49","hospital_number":10.0,"geo_score":0.857,"hospname":"St. Francis Hospital &amp; Health Centers - Beech Grove","id":"a665eaug7708","geo_precision":"city","hospital_name":"St. Francis Hospital &amp; Health Centers - Beech Grove","state":"IN"},"type":"Feature","geometry":{"type":"Point","coordinates":[-86.093293,39.713893]}},{"properties":{"city":"Rushville","hospid":100.0,"county":"70","hospital_number":100.0,"geo_score":0.857,"hospname":"Rush Memorial Hospital","id":"a665eb0lyrax","geo_precision":"city","hospital_name":"Rush Memorial Hospital","state":"IN"},"type":"Feature","geometry":{"type":"Point","coordinates":[-85.439133,39.612836]}},{"properties":{"city":"Seymour","hospid":101.0,"county":"36","hospital_number":101.0,"geo_score":0.857,"hospname":"Schneck Medical Center","id":"a665eb74pca2","geo_precision":"city","hospital_name":"Schneck Medical Center","state":"IN"},"type":"Feature","geometry":{"type":"Point","coordinates":[-86.010789,38.944827]}},{"properties":{"city":"Shelbyville","hospid":102.0,"county":"73","hospital_number":102.0,"geo_score":0.857,"hospname":"Major Hospital","id":"a665eautpk9d","geo_precision":"city","hospital_name":"Major Hospital","state":"IN"},"type":"Feature","geometry":{"type":"Point","coordinates":[-85.791993,39.511568]}},{"properties":{"city":"South Bend","hospid":103.0,"county":"71","hospital_number":103.0,"geo_score":0.735,"hospname":"Memorial Hospital of South Bend","id":"a665eb1tc95g","geo_precision":"street","hospital_name":"Memorial Hospital of South Bend","state":"IN"},"type":"Feature","geometry":{"type":"Point","coordinates":[-86.372149,41.714963]}},{"properties":{"city":"South Bend","hospid":105.0,"county":"71","hospital_number":105.0,"geo_score":0.735,"hospname":"Saint Joseph Regional Medical Center - South Bend Campus","id":"a665eb2wtknd","geo_precision":"street","hospital_name":"Saint Joseph Regional Medical Center - South Bend Campus","state":"IN"},"type":"Feature","geometry":{"type":"Point","coordinates":[-86.372149,41.714963]}},{"properties":{"city":"Sullivan","hospid":106.0,"county":"77","hospital_number":106.0,"geo_score":0.857,"hospname":"Sullivan County Community Hospital","id":"a665eawown7q","geo_precision":"city","hospital_name":"Sullivan County Community Hospital","state":"IN"},"type":"Feature","geometry":{"type":"Point","coordinates":[-87.419003,39.084199]}},{"properties":{"city":"Tell City","hospid":107.0,"county":"62","hospital_number":107.0,"geo_score":0.857,"hospname":"Perry County Memorial Hospital","id":"a665eaxek3kn","geo_precision":"city","hospital_name":"Perry County Memorial Hospital","state":"IN"},"type":"Feature","geometry":{"type":"Point","coordinates":[-86.731971,37.999711]}},{"properties":{"city":"Terre Haute","hospid":108.0,"county":"84","hospital_number":108.0,"geo_score":0.857,"hospname":"Terre Haute Regional Hospital","id":"a665eb7ebjpa","geo_precision":"city","hospital_name":"Terre Haute Regional Hospital","state":"IN"},"type":"Feature","geometry":{"type":"Point","coordinates":[-87.410094,39.433602]}},{"properties":{"city":"Terre Haute","hospid":109.0,"county":"84","hospital_number":109.0,"geo_score":0.857,"hospname":"Union Hospital, Inc.","id":"a665eauzrj1t","geo_precision":"city","hospital_name":"Union Hospital, Inc.","state":"IN"},"type":"Feature","geometry":{"type":"Point","coordinates":[-87.410094,39.433602]}},{"properties":{"city":"Bloomington","hospid":11.0,"county":"53","hospital_number":11.0,"geo_score":0.857,"hospname":"Bloomington Hospital","id":"a665eb8xgr9d","geo_precision":"city","hospital_name":"Bloomington Hospital","state":"IN"},"type":"Feature","geometry":{"type":"Point","coordinates":[-86.435094,39.07881]}},{"properties":{"city":"Danville","hospid":110.0,"county":"32","hospital_number":110.0,"geo_score":0.857,"hospname":"Hendricks Regional Health","id":"a665eb9402io","geo_precision":"city","hospital_name":"Hendricks Regional Health","state":"IN"},"type":"Feature","geometry":{"type":"Point","coordinates":[-86.530319,39.766794]}},{"properties":{"city":"Indianapolis","hospid":111.0,"county":"49","hospital_number":111.0,"geo_score":0.857,"hospname":"St. Vincent Heart Center of Indiana, LLC","id":"a665eavbhehv","geo_precision":"city","hospital_name":"St. Vincent Heart Center of Indiana, LLC","state":"IN"},"type":"Feature","geometry":{"type":"Point","coordinates":[-86.13216,39.775092]}},{"properties":{"city":"Valparaiso","hospid":113.0,"county":"64","hospital_number":113.0,"geo_score":0.857,"hospname":"Porter - Valparaiso Hospital Campus","id":"a665eazrs0xt","geo_precision":"city","hospital_name":"Porter - Valparaiso Hospital Campus","state":"IN"},"type":"Feature","geometry":{"type":"Point","coordinates":[-87.065565,41.454731]}},{"properties":{"city":"Vincennes","hospid":114.0,"county":"42","hospital_number":114.0,"geo_score":0.857,"hospname":"Good Samaritan Hospital","id":"a665eb6uufwk","geo_precision":"city","hospital_name":"Good Samaritan Hospital","state":"IN"},"type":"Feature","geometry":{"type":"Point","coordinates":[-87.417306,38.707231]}},{"properties":{"city":"Tipton","hospid":115.0,"county":"80","hospital_number":115.0,"geo_score":0.857,"hospname":"Tipton Hospital","id":"a665eaw8yage","geo_precision":"city","hospital_name":"Tipton Hospital","state":"IN"},"type":"Feature","geometry":{"type":"Point","coordinates":[-86.063107,40.311418]}},{"properties":{"city":"Wabash","hospid":116.0,"county":"85","hospital_number":116.0,"geo_score":0.857,"hospname":"Wabash County Hospital","id":"a665eaufo6sb","geo_precision":"city","hospital_name":"Wabash County Hospital","state":"IN"},"type":"Feature","geometry":{"type":"Point","coordinates":[-85.791823,40.801867]}},{"properties":{"city":"Warsaw","hospid":117.0,"county":"43","hospital_number":117.0,"geo_score":0.857,"hospname":"Kosciusko Community Hospital","id":"a665eb1kz4od","geo_precision":"city","hospital_name":"Kosciusko Community Hospital","state":"IN"},"type":"Feature","geometry":{"type":"Point","coordinates":[-85.860179,41.2228]}},{"properties":{"city":"Indianapolis","hospid":118.0,"county":"49","hospital_number":118.0,"geo_score":0.857,"hospname":"Peyton Manning Children's Hospital at St. Vincent","id":"a665eazd0zgc","geo_precision":"city","hospital_name":"Peyton Manning Children's Hospital at St. Vincent","state":"IN"},"type":"Feature","geometry":{"type":"Point","coordinates":[-86.13216,39.775092]}},{"properties":{"city":"Washington","hospid":119.0,"county":"14","hospital_number":119.0,"geo_score":0.857,"hospname":"Daviess Community Hospital","id":"a665eavs2m8q","geo_precision":"city","hospital_name":"Daviess Community Hospital","state":"IN"},"type":"Feature","geometry":{"type":"Point","coordinates":[-87.121505,38.689503]}},{"properties":{"city":"Bluffton","hospid":12.0,"county":"90","hospital_number":12.0,"geo_score":0.857,"hospname":"Bluffton Regional Medical Center","id":"a665eaut2by9","geo_precision":"city","hospital_name":"Bluffton Regional Medical Center","state":"IN"},"type":"Feature","geometry":{"type":"Point","coordinates":[-85.2023,40.71327]}},{"properties":{"city":"Williamsport","hospid":120.0,"county":"86","hospital_number":120.0,"geo_score":0.857,"hospname":"St. Vincent Williamsport Hospital","id":"a665eazwekyv","geo_precision":"city","hospital_name":"St. Vincent Williamsport Hospital","state":"IN"},"type":"Feature","geometry":{"type":"Point","coordinates":[-87.403882,40.314172]}},{"properties":{"city":"Winchester","hospid":121.0,"county":"68","hospital_number":121.0,"geo_score":0.857,"hospname":"St. Vincent Randolph Hospital","id":"a665eavbzuzb","geo_precision":"city","hospital_name":"St. Vincent Randolph Hospital","state":"IN"},"type":"Feature","geometry":{"type":"Point","coordinates":[-84.984682,40.159854]}},{"properties":{"city":"South Bend","hospid":123.0,"county":"71","hospital_number":123.0,"geo_score":0.735,"hospname":"Our Lady of Peace Hospital","id":"a665eb4ueu55","geo_precision":"street","hospital_name":"Our Lady of Peace Hospital","state":"IN"},"type":"Feature","geometry":{"type":"Point","coordinates":[-86.372149,41.714963]}},{"properties":{"city":"Noblesville","hospid":124.0,"county":"29","hospital_number":124.0,"geo_score":0.857,"hospname":"Riverview Hospital","id":"a665eb5bve5h","geo_precision":"city","hospital_name":"Riverview Hospital","state":"IN"},"type":"Feature","geometry":{"type":"Point","coordinates":[-85.999521,40.073328]}},{"properties":{"city":"Fort Wayne","hospid":125.0,"county":"02","hospital_number":125.0,"geo_score":0.857,"hospname":"Parkview North Hospital","id":"a665eb2jjua2","geo_precision":"city","hospital_name":"Parkview North Hospital","state":"IN"},"type":"Feature","geometry":{"type":"Point","coordinates":[-85.12886,41.130604]}},{"properties":{"city":"Fort Wayne","hospid":126.0,"county":"02","hospital_number":126.0,"geo_score":0.857,"hospname":"Orthopaedic Hospital at Parkview North","id":"a665eavnkzpe","geo_precision":"city","hospital_name":"Orthopaedic Hospital at Parkview North","state":"IN"},"type":"Feature","geometry":{"type":"Point","coordinates":[-85.12886,41.130604]}},{"properties":{"city":"Lafayette","hospid":127.0,"county":"79","hospital_number":127.0,"geo_score":0.857,"hospname":"St. Vincent Seton Specialty Hospital of Lafayette","id":"a665eb4q8vih","geo_precision":"city","hospital_name":"St. Vincent Seton Specialty Hospital of Lafayette","state":"IN"},"type":"Feature","geometry":{"type":"Point","coordinates":[-86.830286,40.39905]}},{"properties":{"city":"Winamac","hospid":128.0,"county":"66","hospital_number":128.0,"geo_score":0.857,"hospname":"Pulaski Memorial Hospital","id":"a665eavxu8lg","geo_precision":"city","hospital_name":"Pulaski Memorial Hospital","state":"IN"},"type":"Feature","geometry":{"type":"Point","coordinates":[-86.622156,41.035862]}},{"properties":{"city":"Knox","hospid":129.0,"county":"75","hospital_number":129.0,"geo_score":0.857,"hospname":"Starke Memorial Hospital","id":"a665eaz2cm7n","geo_precision":"city","hospital_name":"Starke Memorial Hospital","state":"IN"},"type":"Feature","geometry":{"type":"Point","coordinates":[-86.608249,41.280907]}},{"properties":{"city":"Indianapolis","hospid":130.0,"county":"49","hospital_number":130.0,"geo_score":0.857,"hospname":"St. Vincent Women's Hospital","id":"a665eb6lo108","geo_precision":"city","hospital_name":"St. Vincent Women's Hospital","state":"IN"},"type":"Feature","geometry":{"type":"Point","coordinates":[-86.13216,39.775092]}},{"properties":{"city":"Goshen","hospid":133.0,"county":"20","hospital_number":133.0,"geo_score":0.857,"hospname":"Goshen General Hospital","id":"a665eb72zssr","geo_precision":"city","hospital_name":"Goshen General Hospital","state":"IN"},"type":"Feature","geometry":{"type":"Point","coordinates":[-85.858059,41.584839]}},{"properties":{"city":"New Albany","hospid":134.0,"county":"22","hospital_number":134.0,"geo_score":0.857,"hospname":"Floyd Memorial Hospital &amp; Health Services","id":"a665eaztgu3t","geo_precision":"city","hospital_name":"Floyd Memorial Hospital &amp; Health Services","state":"IN"},"type":"Feature","geometry":{"type":"Point","coordinates":[-85.837911,38.293355]}},{"properties":{"city":"Portage","hospid":135.0,"county":"64","hospital_number":135.0,"geo_score":0.857,"hospname":"Porter - Portage Hospital Campus","id":"a665eb69kyg8","geo_precision":"city","hospital_name":"Porter - Portage Hospital Campus","state":"IN"},"type":"Feature","geometry":{"type":"Point","coordinates":[-87.12927,41.473367]}},{"properties":{"city":"Monticello","hospid":136.0,"county":"91","hospital_number":136.0,"geo_score":0.857,"hospname":"White County Memorial Hospital","id":"a665eawbqdug","geo_precision":"city","hospital_name":"White County Memorial Hospital","state":"IN"},"type":"Feature","geometry":{"type":"Point","coordinates":[-86.749521,40.779211]}},{"properties":{"city":"Indianapolis","hospid":137.0,"county":"49","hospital_number":137.0,"geo_score":0.857,"hospname":"Community Hospital South","id":"a665eazfp9kb","geo_precision":"city","hospital_name":"Community Hospital South","state":"IN"},"type":"Feature","geometry":{"type":"Point","coordinates":[-86.13216,39.775092]}},{"properties":{"city":"Indianapolis","hospid":138.0,"county":"49","hospital_number":138.0,"geo_score":0.857,"hospname":"Community Hospital East","id":"a665eb2p1dt8","geo_precision":"city","hospital_name":"Community Hospital East","state":"IN"},"type":"Feature","geometry":{"type":"Point","coordinates":[-86.13216,39.775092]}},{"properties":{"city":"Indianapolis","hospid":139.0,"county":"49","hospital_number":139.0,"geo_score":0.857,"hospname":"Community Hospital North","id":"a665eb5lpxj5","geo_precision":"city","hospital_name":"Community Hospital North","state":"IN"},"type":"Feature","geometry":{"type":"Point","coordinates":[-86.13216,39.775092]}},{"properties":{"city":"Brazil","hospid":14.0,"county":"11","hospital_number":14.0,"geo_score":0.857,"hospname":"St. Vincent Clay Hospital","id":"a665eavmg2q8","geo_precision":"city","hospital_name":"St. Vincent Clay Hospital","state":"IN"},"type":"Feature","geometry":{"type":"Point","coordinates":[-87.126509,39.387611]}},{"properties":{"city":"Greenwood","hospid":141.0,"county":"41","hospital_number":141.0,"geo_score":0.857,"hospname":"Valle Vista Health System","id":"a665eb5b175k","geo_precision":"city","hospital_name":"Valle Vista Health System","state":"IN"},"type":"Feature","geometry":{"type":"Point","coordinates":[-86.100454,39.491246]}},{"properties":{"city":"Indianapolis","hospid":142.0,"county":"49","hospital_number":142.0,"geo_score":0.857,"hospname":"Kindred Hospital - Indianapolis","id":"a665eavyvhu1","geo_precision":"city","hospital_name":"Kindred Hospital - Indianapolis","state":"IN"},"type":"Feature","geometry":{"type":"Point","coordinates":[-86.13216,39.775092]}},{"properties":{"city":"Carmel","hospid":143.0,"county":"29","hospital_number":143.0,"geo_score":0.857,"hospname":"St. Vincent Carmel Hospital","id":"a665eb44mu1m","geo_precision":"city","hospital_name":"St. Vincent Carmel Hospital","state":"IN"},"type":"Feature","geometry":{"type":"Point","coordinates":[-86.117215,40.071102]}},{"properties":{"city":"Indianapolis","hospid":146.0,"county":"49","hospital_number":146.0,"geo_score":0.857,"hospname":"St. Vincent Stress Center","id":"a665eb9bthb4","geo_precision":"city","hospital_name":"St. Vincent Stress Center","state":"IN"},"type":"Feature","geometry":{"type":"Point","coordinates":[-86.13216,39.775092]}},{"properties":{"city":"Clinton","hospid":15.0,"county":"83","hospital_number":15.0,"geo_score":0.857,"hospname":"West Central Community Hospital","id":"a665eazywjk2","geo_precision":"city","hospital_name":"West Central Community Hospital","state":"IN"},"type":"Feature","geometry":{"type":"Point","coordinates":[-87.458654,39.746685]}},{"properties":{"city":"Kokomo","hospid":150.0,"county":"34","hospital_number":150.0,"geo_score":0.857,"hospname":"Howard Regional Health System West Campus Specialty Hospital","id":"a665eav4b18q","geo_precision":"city","hospital_name":"Howard Regional Health System West Campus Specialty Hospital","state":"IN"},"type":"Feature","geometry":{"type":"Point","coordinates":[-86.171054,40.506851]}},{"properties":{"city":"Indianapolis","hospid":151.0,"county":"49","hospital_number":151.0,"geo_score":0.857,"hospname":"The Indiana Heart Hospital","id":"a665eb0im2tk","geo_precision":"city","hospital_name":"The Indiana Heart Hospital","state":"IN"},"type":"Feature","geometry":{"type":"Point","coordinates":[-86.13216,39.775092]}},{"properties":{"city":"Avon","hospid":152.0,"county":"32","hospital_number":152.0,"geo_score":0.857,"hospname":"Clarian West Medical Center","id":"a665eauzsh5t","geo_precision":"city","hospital_name":"Clarian West Medical Center","state":"IN"},"type":"Feature","geometry":{"type":"Point","coordinates":[-86.488881,39.721434]}},{"properties":{"city":"Jeffersonville","hospid":153.0,"county":"10","hospital_number":153.0,"geo_score":0.857,"hospname":"Wellstone Regional Hospital","id":"a665eays1zmv","geo_precision":"city","hospital_name":"Wellstone Regional Hospital","state":"IN"},"type":"Feature","geometry":{"type":"Point","coordinates":[-85.716548,38.404909]}},{"properties":{"city":"Indianapolis","hospid":154.0,"county":"49","hospital_number":154.0,"geo_score":0.857,"hospname":"Indiana Orthopaedic Hospital","id":"a665eb0o8ugh","geo_precision":"city","hospital_name":"Indiana Orthopaedic Hospital","state":"IN"},"type":"Feature","geometry":{"type":"Point","coordinates":[-86.13216,39.775092]}},{"properties":{"city":"Carmel","hospid":155.0,"county":"29","hospital_number":155.0,"geo_score":0.857,"hospname":"Clarian North Medical Center","id":"a665eb29cpba","geo_precision":"city","hospital_name":"Clarian North Medical Center","state":"IN"},"type":"Feature","geometry":{"type":"Point","coordinates":[-86.117215,40.071102]}},{"properties":{"city":"Newburgh","hospid":156.0,"county":"87","hospital_number":156.0,"geo_score":0.857,"hospname":"Deaconess Gateway Hospital","id":"a665eb10y6cc","geo_precision":"city","hospital_name":"Deaconess Gateway Hospital","state":"IN"},"type":"Feature","geometry":{"type":"Point","coordinates":[-87.245214,38.06242]}},{"properties":{"city":"Bremen","hospid":157.0,"county":"50","hospital_number":157.0,"geo_score":0.857,"hospname":"Doctor's Hospital","id":"a665eb1x59zx","geo_precision":"city","hospital_name":"Doctor's Hospital","state":"IN"},"type":"Feature","geometry":{"type":"Point","coordinates":[-86.242235,41.40577]}},{"properties":{"city":"Bloomington","hospid":158.0,"county":"53","hospital_number":158.0,"geo_score":0.857,"hospname":"Monroe Hospital","id":"a665eb3yff8j","geo_precision":"city","hospital_name":"Monroe Hospital","state":"IN"},"type":"Feature","geometry":{"type":"Point","coordinates":[-86.435094,39.07881]}},{"properties":{"city":"Hobart","hospid":159.0,"county":"45","hospital_number":159.0,"geo_score":0.857,"hospname":"Hind General Hospital, LLC","id":"a665eav7b44x","geo_precision":"city","hospital_name":"Hind General Hospital, LLC","state":"IN"},"type":"Feature","geometry":{"type":"Point","coordinates":[-87.347486,41.520515]}},{"properties":{"city":"Columbus","hospid":16.0,"county":"03","hospital_number":16.0,"geo_score":0.857,"hospname":"Columbus Regional Hospital","id":"a665eb00p7ta","geo_precision":"city","hospital_name":"Columbus Regional Hospital","state":"IN"},"type":"Feature","geometry":{"type":"Point","coordinates":[-85.891338,39.191447]}},{"properties":{"city":"Connersville","hospid":17.0,"county":"21","hospital_number":17.0,"geo_score":0.857,"hospname":"Fayette Regional Health System","id":"a665eb5pd7rm","geo_precision":"city","hospital_name":"Fayette Regional Health System","state":"IN"},"type":"Feature","geometry":{"type":"Point","coordinates":[-85.168099,39.656933]}},{"properties":{"city":"Crawfordsville","hospid":18.0,"county":"54","hospital_number":18.0,"geo_score":0.857,"hospname":"St. Clare Medical Center","id":"a665eaz3u7ou","geo_precision":"city","hospital_name":"St. Clare Medical Center","state":"IN"},"type":"Feature","geometry":{"type":"Point","coordinates":[-86.893538,40.042425]}},{"properties":{"city":"Corydon","hospid":19.0,"county":"31","hospital_number":19.0,"geo_score":0.857,"hospname":"Harrison County Hospital","id":"a665eatwege7","geo_precision":"city","hospital_name":"Harrison County Hospital","state":"IN"},"type":"Feature","geometry":{"type":"Point","coordinates":[-86.145211,38.1863]}},{"properties":{"city":"Greenfield","hospid":2.0,"county":"30","hospital_number":2.0,"geo_score":0.857,"hospname":"Hancock Regional Hospital","id":"a665eb9ykcm7","geo_precision":"city","hospital_name":"Hancock Regional Hospital","state":"IN"},"type":"Feature","geometry":{"type":"Point","coordinates":[-85.775403,39.821787]}},{"properties":{"city":"Decatur","hospid":20.0,"county":"01","hospital_number":20.0,"geo_score":0.857,"hospname":"Adams Memorial Hospital","id":"a665eaxx4vh2","geo_precision":"city","hospital_name":"Adams Memorial Hospital","state":"IN"},"type":"Feature","geometry":{"type":"Point","coordinates":[-84.93785,40.81911]}},{"properties":{"city":"Dyer","hospid":21.0,"county":"45","hospital_number":21.0,"geo_score":0.857,"hospname":"Saint Margaret Mercy Healthcare Centers, South Campus","id":"a665eav8l5mw","geo_precision":"city","hospital_name":"Saint Margaret Mercy Healthcare Centers, South Campus","state":"IN"},"type":"Feature","geometry":{"type":"Point","coordinates":[-87.499489,41.451993]}},{"properties":{"city":"East Chicago","hospid":22.0,"county":"45","hospital_number":22.0,"geo_score":0.74,"hospname":"St. Catherine Hospital, Inc.","id":"a665eb6cf125","geo_precision":"street","hospital_name":"St. Catherine Hospital, Inc.","state":"IN"},"type":"Feature","geometry":{"type":"Point","coordinates":[-87.470013,41.629324]}},{"properties":{"city":"Elkhart","hospid":23.0,"county":"20","hospital_number":23.0,"geo_score":0.857,"hospname":"Elkhart General Healthcare System","id":"a665eb3m0o5e","geo_precision":"city","hospital_name":"Elkhart General Healthcare System","state":"IN"},"type":"Feature","geometry":{"type":"Point","coordinates":[-85.937024,41.71873]}},{"properties":{"city":"Elwood","hospid":24.0,"county":"48","hospital_number":24.0,"geo_score":0.857,"hospname":"St. Vincent Mercy Hospital","id":"a665eb6qsept","geo_precision":"city","hospital_name":"St. Vincent Mercy Hospital","state":"IN"},"type":"Feature","geometry":{"type":"Point","coordinates":[-85.719657,40.27843]}},{"properties":{"city":"Crown Point","hospid":25.0,"county":"45","hospital_number":25.0,"geo_score":0.796,"hospname":"Saint Anthony Medical Center of Crown Point","id":"a665eavok4vx","geo_precision":"street","hospital_name":"Saint Anthony Medical Center of Crown Point","state":"IN"},"type":"Feature","geometry":{"type":"Point","coordinates":[-87.354779,41.431205]}},{"properties":{"city":"Evansville","hospid":26.0,"county":"82","hospital_number":26.0,"geo_score":0.857,"hospname":"HealthSouth Deaconess Rehabilitation Hospital","id":"a665eb1uf9s8","geo_precision":"city","hospital_name":"HealthSouth Deaconess Rehabilitation Hospital","state":"IN"},"type":"Feature","geometry":{"type":"Point","coordinates":[-87.574963,37.997128]}},{"properties":{"city":"Evansville","hospid":27.0,"county":"82","hospital_number":27.0,"geo_score":0.857,"hospname":"Deaconess Hospital, Inc.","id":"a665eb5a49fn","geo_precision":"city","hospital_name":"Deaconess Hospital, Inc.","state":"IN"},"type":"Feature","geometry":{"type":"Point","coordinates":[-87.574963,37.997128]}},{"properties":{"city":"Evansville","hospid":28.0,"county":"82","hospital_number":28.0,"geo_score":0.857,"hospname":"St. Mary's Medical Center","id":"a665eauiyku0","geo_precision":"city","hospital_name":"St. Mary's Medical Center","state":"IN"},"type":"Feature","geometry":{"type":"Point","coordinates":[-87.574963,37.997128]}},{"properties":{"city":"Anderson","hospid":3.0,"county":"48","hospital_number":3.0,"geo_score":0.857,"hospname":"Saint John's Health System","id":"a665eav0gvs5","geo_precision":"city","hospital_name":"Saint John's Health System","state":"IN"},"type":"Feature","geometry":{"type":"Point","coordinates":[-85.766164,40.141033]}},{"properties":{"city":"Fort Wayne","hospid":30.0,"county":"02","hospital_number":30.0,"geo_score":0.857,"hospname":"Rehabilitation Hospital of Fort Wayne","id":"a665eb8ngny7","geo_precision":"city","hospital_name":"Rehabilitation Hospital of Fort Wayne","state":"IN"},"type":"Feature","geometry":{"type":"Point","coordinates":[-85.12886,41.130604]}},{"properties":{"city":"Fort Wayne","hospid":31.0,"county":"02","hospital_number":31.0,"geo_score":0.857,"hospname":"Lutheran Hospital of Indiana","id":"a665eb3ckebw","geo_precision":"city","hospital_name":"Lutheran Hospital of Indiana","state":"IN"},"type":"Feature","geometry":{"type":"Point","coordinates":[-85.12886,41.130604]}},{"properties":{"city":"Fort Wayne","hospid":32.0,"county":"02","hospital_number":32.0,"geo_score":0.857,"hospname":"Parkview Hospital","id":"a665eb2uwr06","geo_precision":"city","hospital_name":"Parkview Hospital","state":"IN"},"type":"Feature","geometry":{"type":"Point","coordinates":[-85.12886,41.130604]}},{"properties":{"city":"Fort Wayne","hospid":33.0,"county":"02","hospital_number":33.0,"geo_score":0.857,"hospname":"St. Joseph Hospital (Fort Wayne)","id":"a665eb8pk54b","geo_precision":"city","hospital_name":"St. Joseph Hospital (Fort Wayne)","state":"IN"},"type":"Feature","geometry":{"type":"Point","coordinates":[-85.12886,41.130604]}},{"properties":{"city":"Lawrenceburg","hospid":34.0,"county":"15","hospital_number":34.0,"geo_score":0.857,"hospname":"Dearborn County Hospital","id":"a665eb1yz7u3","geo_precision":"city","hospital_name":"Dearborn County Hospital","state":"IN"},"type":"Feature","geometry":{"type":"Point","coordinates":[-84.891015,39.152741]}},{"properties":{"city":"Frankfort","hospid":35.0,"county":"12","hospital_number":35.0,"geo_score":0.857,"hospname":"St. Vincent Frankfort Hospital","id":"a665eatnbnt1","geo_precision":"city","hospital_name":"St. Vincent Frankfort Hospital","state":"IN"},"type":"Feature","geometry":{"type":"Point","coordinates":[-86.468915,40.304355]}},{"properties":{"city":"Paoli","hospid":36.0,"county":"59","hospital_number":36.0,"geo_score":0.857,"hospname":"Bloomington Hospital of Orange County, Inc.","id":"a665eaxry4de","geo_precision":"city","hospital_name":"Bloomington Hospital of Orange County, Inc.","state":"IN"},"type":"Feature","geometry":{"type":"Point","coordinates":[-86.459473,38.513132]}},{"properties":{"city":"Jasper","hospid":37.0,"county":"19","hospital_number":37.0,"geo_score":0.857,"hospname":"Memorial Hospital and Health Care Center","id":"a665eb44x563","geo_precision":"city","hospital_name":"Memorial Hospital and Health Care Center","state":"IN"},"type":"Feature","geometry":{"type":"Point","coordinates":[-86.929481,38.360357]}},{"properties":{"city":"Gary","hospid":38.0,"county":"45","hospital_number":38.0,"geo_score":0.857,"hospname":"The Methodist Hospitals, Inc., Northlake Campus","id":"a665eb00bmxv","geo_precision":"city","hospital_name":"The Methodist Hospitals, Inc., Northlake Campus","state":"IN"},"type":"Feature","geometry":{"type":"Point","coordinates":[-87.319937,41.590686]}},{"properties":{"city":"Angola","hospid":4.0,"county":"76","hospital_number":4.0,"geo_score":0.857,"hospname":"Cameron Memorial Community Hospital, Inc.","id":"a665eaz3v9k1","geo_precision":"city","hospital_name":"Cameron Memorial Community Hospital, Inc.","state":"IN"},"type":"Feature","geometry":{"type":"Point","coordinates":[-85.000474,41.672567]}},{"properties":{"city":"Greencastle","hospid":41.0,"county":"67","hospital_number":41.0,"geo_score":0.857,"hospname":"Putnam County Hospital","id":"a665eb823krb","geo_precision":"city","hospital_name":"Putnam County Hospital","state":"IN"},"type":"Feature","geometry":{"type":"Point","coordinates":[-86.857172,39.699485]}},{"properties":{"city":"Greensburg","hospid":42.0,"county":"16","hospital_number":42.0,"geo_score":0.857,"hospname":"Decatur County Memorial Hospital","id":"a665eauh9ta8","geo_precision":"city","hospital_name":"Decatur County Memorial Hospital","state":"IN"},"type":"Feature","geometry":{"type":"Point","coordinates":[-85.491781,39.299802]}},{"properties":{"city":"Kokomo","hospid":43.0,"county":"34","hospital_number":43.0,"geo_score":0.857,"hospname":"Howard Regional Health System","id":"a665eav0su32","geo_precision":"city","hospital_name":"Howard Regional Health System","state":"IN"},"type":"Feature","geometry":{"type":"Point","coordinates":[-86.171054,40.506851]}},{"properties":{"city":"Hammond","hospid":44.0,"county":"45","hospital_number":44.0,"geo_score":0.857,"hospname":"Saint Margaret Mercy Healthcare Centers, North Campus","id":"a665eb11r238","geo_precision":"city","hospital_name":"Saint Margaret Mercy Healthcare Centers, North Campus","state":"IN"},"type":"Feature","geometry":{"type":"Point","coordinates":[-87.487242,41.444246]}},{"properties":{"city":"Hobart","hospid":45.0,"county":"45","hospital_number":45.0,"geo_score":0.857,"hospname":"St. Mary Medical Center (Hobart)","id":"a665eb5zzkg8","geo_precision":"city","hospital_name":"St. Mary Medical Center (Hobart)","state":"IN"},"type":"Feature","geometry":{"type":"Point","coordinates":[-87.347486,41.520515]}},{"properties":{"city":"Madison","hospid":452.0,"county":"39","hospital_number":452.0,"geo_score":0.857,"hospname":"Madison State Hospital","id":"a665eb4nudr3","geo_precision":"city","hospital_name":"Madison State Hospital","state":"IN"},"type":"Feature","geometry":{"type":"Point","coordinates":[-85.420605,38.804552]}},{"properties":{"city":"New Albany","hospid":453.0,"county":"22","hospital_number":453.0,"geo_score":0.857,"hospname":"Southern Indiana Rehabilitation Hospital","id":"a665eb02nek7","geo_precision":"city","hospital_name":"Southern Indiana Rehabilitation Hospital","state":"IN"},"type":"Feature","geometry":{"type":"Point","coordinates":[-85.837911,38.293355]}},{"properties":{"city":"Plymouth","hospid":456.0,"county":"50","hospital_number":456.0,"geo_score":0.857,"hospname":"Michiana Behavioral Health Center","id":"a665eb5pcu8r","geo_precision":"city","hospital_name":"Michiana Behavioral Health Center","state":"IN"},"type":"Feature","geometry":{"type":"Point","coordinates":[-86.301486,41.352997]}},{"properties":{"city":"Warsaw","hospid":457.0,"county":"43","hospital_number":457.0,"geo_score":0.857,"hospname":"The Otis R. Bowen Center for Human Services, Inc.","id":"a665eb4w8zno","geo_precision":"city","hospital_name":"The Otis R. Bowen Center for Human Services, Inc.","state":"IN"},"type":"Feature","geometry":{"type":"Point","coordinates":[-85.860179,41.2228]}},{"properties":{"city":"Bloomington","hospid":458.0,"county":"53","hospital_number":458.0,"geo_score":0.857,"hospname":"BHC Meadows Hospital","id":"a665eb8vxhed","geo_precision":"city","hospital_name":"BHC Meadows Hospital","state":"IN"},"type":"Feature","geometry":{"type":"Point","coordinates":[-86.435094,39.07881]}},{"properties":{"city":"Indianapolis","hospid":459.0,"county":"49","hospital_number":459.0,"geo_score":0.857,"hospname":"Rehabilitation Hospital of Indiana","id":"a665eb9phh30","geo_precision":"city","hospital_name":"Rehabilitation Hospital of Indiana","state":"IN"},"type":"Feature","geometry":{"type":"Point","coordinates":[-86.13216,39.775092]}},{"properties":{"city":"Hartford City","hospid":46.0,"county":"05","hospital_number":46.0,"geo_score":0.857,"hospname":"Blackford Community Hospital","id":"a665eb4mketu","geo_precision":"city","hospital_name":"Blackford Community Hospital","state":"IN"},"type":"Feature","geometry":{"type":"Point","coordinates":[-85.326447,40.472672]}},{"properties":{"city":"Greenwood","hospid":460.0,"county":"41","hospital_number":460.0,"geo_score":0.857,"hospname":"Kindred Hospital - Indianapolis South","id":"a665eb10551c","geo_precision":"city","hospital_name":"Kindred Hospital - Indianapolis South","state":"IN"},"type":"Feature","geometry":{"type":"Point","coordinates":[-86.100454,39.491246]}},{"properties":{"city":"Greenwood","hospid":461.0,"county":"49","hospital_number":461.0,"geo_score":0.857,"hospname":"Select Specialty Hospital - Indianapolis","id":"a665eav8bjag","geo_precision":"city","hospital_name":"Select Specialty Hospital - Indianapolis","state":"IN"},"type":"Feature","geometry":{"type":"Point","coordinates":[-86.100454,39.491246]}},{"properties":{"city":"Richmond","hospid":462.0,"county":"89","hospital_number":462.0,"geo_score":0.857,"hospname":"Richmond State Hospital","id":"a665eaz0h1yv","geo_precision":"city","hospital_name":"Richmond State Hospital","state":"IN"},"type":"Feature","geometry":{"type":"Point","coordinates":[-85.010442,39.84081]}},{"properties":{"city":"Beech Grove","hospid":463.0,"county":"49","hospital_number":463.0,"geo_score":0.857,"hospname":"Select Specialty Hospital - Beech Grove","id":"a665eb1yzmi9","geo_precision":"city","hospital_name":"Select Specialty Hospital - Beech Grove","state":"IN"},"type":"Feature","geometry":{"type":"Point","coordinates":[-86.093293,39.713893]}},{"properties":{"city":"Evansville","hospid":464.0,"county":"82","hospital_number":464.0,"geo_score":0.857,"hospname":"Select Specialty Hospital - Evansville","id":"a665eazw7ml4","geo_precision":"city","hospital_name":"Select Specialty Hospital - Evansville","state":"IN"},"type":"Feature","geometry":{"type":"Point","coordinates":[-87.574963,37.997128]}},{"properties":{"city":"Fort Wayne","hospid":465.0,"county":"02","hospital_number":465.0,"geo_score":0.857,"hospname":"VA Northern Indiana Health Care System, Fort Wayne Campus","id":"a665eb1jl11v","geo_precision":"city","hospital_name":"VA Northern Indiana Health Care System, Fort Wayne Campus","state":"IN"},"type":"Feature","geometry":{"type":"Point","coordinates":[-85.12886,41.130604]}},{"properties":{"city":"Indianapolis","hospid":466.0,"county":"49","hospital_number":466.0,"geo_score":0.857,"hospname":"Richard L. Roudebush VA Medical Center","id":"a665eb0i5yas","geo_precision":"city","hospital_name":"Richard L. Roudebush VA Medical Center","state":"IN"},"type":"Feature","geometry":{"type":"Point","coordinates":[-86.13216,39.775092]}},{"properties":{"city":"Fort Wayne","hospid":467.0,"county":"02","hospital_number":467.0,"geo_score":0.857,"hospname":"Select Specialty Hospital - Fort Wayne","id":"a665eb0sij2m","geo_precision":"city","hospital_name":"Select Specialty Hospital - Fort Wayne","state":"IN"},"type":"Feature","geometry":{"type":"Point","coordinates":[-85.12886,41.130604]}},{"properties":{"city":"Richmond","hospid":468.0,"county":"89","hospital_number":468.0,"geo_score":0.857,"hospname":"Dunn Mental Health Center, Inc.","id":"a665eb7meprh","geo_precision":"city","hospital_name":"Dunn Mental Health Center, Inc.","state":"IN"},"type":"Feature","geometry":{"type":"Point","coordinates":[-85.010442,39.84081]}},{"properties":{"city":"Hammond","hospid":470.0,"county":"45","hospital_number":470.0,"geo_score":0.857,"hospname":"Select Specialty Hospital - Northwest Indiana","id":"a665eb11gc1y","geo_precision":"city","hospital_name":"Select Specialty Hospital - Northwest Indiana","state":"IN"},"type":"Feature","geometry":{"type":"Point","coordinates":[-87.487242,41.444246]}},{"properties":{"city":"Terre Haute","hospid":473.0,"county":"84","hospital_number":473.0,"geo_score":0.857,"hospname":"Hamilton Center, Inc.","id":"a665eaykmkit","geo_precision":"city","hospital_name":"Hamilton Center, Inc.","state":"IN"},"type":"Feature","geometry":{"type":"Point","coordinates":[-87.410094,39.433602]}},{"properties":{"city":"Jasper","hospid":474.0,"county":"19","hospital_number":474.0,"geo_score":0.857,"hospname":"Southern Hills Counseling Center, Inc.","id":"a665eazis8rd","geo_precision":"city","hospital_name":"Southern Hills Counseling Center, Inc.","state":"IN"},"type":"Feature","geometry":{"type":"Point","coordinates":[-86.929481,38.360357]}},{"properties":{"city":"South Bend","hospid":475.0,"county":"71","hospital_number":475.0,"geo_score":0.735,"hospname":"Riverside Hospital","id":"a665eb8p95wk","geo_precision":"street","hospital_name":"Riverside Hospital","state":"IN"},"type":"Feature","geometry":{"type":"Point","coordinates":[-86.372149,41.714963]}},{"properties":{"city":"Fort Wayne","hospid":476.0,"county":"02","hospital_number":476.0,"geo_score":0.857,"hospname":"Parkview Behavioral Health","id":"a665eb3fegsn","geo_precision":"city","hospital_name":"Parkview Behavioral Health","state":"IN"},"type":"Feature","geometry":{"type":"Point","coordinates":[-85.12886,41.130604]}},{"properties":{"city":"East Chicago","hospid":477.0,"county":"45","hospital_number":477.0,"geo_score":0.74,"hospname":"Regency Hospital of Northwest Indiana","id":"a665eb94z8jb","geo_precision":"street","hospital_name":"Regency Hospital of Northwest Indiana","state":"IN"},"type":"Feature","geometry":{"type":"Point","coordinates":[-87.470013,41.629324]}},{"properties":{"city":"Muncie","hospid":478.0,"county":"18","hospital_number":478.0,"geo_score":0.857,"hospname":"Meridian Services Corp.","id":"a665eb46lc7z","geo_precision":"city","hospital_name":"Meridian Services Corp","state":"IN"},"type":"Feature","geometry":{"type":"Point","coordinates":[-85.389874,40.142124]}},{"properties":{"city":"Portage","hospid":479.0,"county":"64","hospital_number":479.0,"geo_score":0.857,"hospname":"Regency Hospital of Porter County","id":"a665eaw0knr6","geo_precision":"city","hospital_name":"Regency Hospital of Porter County","state":"IN"},"type":"Feature","geometry":{"type":"Point","coordinates":[-87.12927,41.473367]}},{"properties":{"city":"Huntington","hospid":48.0,"county":"35","hospital_number":48.0,"geo_score":0.857,"hospname":"Parkview Huntington Hospital","id":"a665eb70u0h5","geo_precision":"city","hospital_name":"Parkview Huntington Hospital","state":"IN"},"type":"Feature","geometry":{"type":"Point","coordinates":[-85.489225,40.842697]}},{"properties":{"city":"Merrillville","hospid":49.0,"county":"45","hospital_number":49.0,"geo_score":0.857,"hospname":"The Methodist Hospitals, Inc., Southlake Campus","id":"a665eb709w4d","geo_precision":"city","hospital_name":"The Methodist Hospitals, Inc., Southlake Campus","state":"IN"},"type":"Feature","geometry":{"type":"Point","coordinates":[-87.338656,41.497212]}},{"properties":{"city":"Boonville","hospid":5.0,"county":"87","hospital_number":5.0,"geo_score":0.857,"hospname":"St. Mary's Warrick Hospital","id":"a665eawm8wyf","geo_precision":"city","hospital_name":"St. Mary's Warrick Hospital","state":"IN"},"type":"Feature","geometry":{"type":"Point","coordinates":[-87.287145,38.04247]}},{"properties":{"city":"Columbia City","hospid":50.0,"county":"92","hospital_number":50.0,"geo_score":0.857,"hospname":"Parkview Whitley Hospital","id":"a665eayfo76h","geo_precision":"city","hospital_name":"Parkview Whitley Hospital","state":"IN"},"type":"Feature","geometry":{"type":"Point","coordinates":[-85.50042,41.14956]}},{"properties":{"city":"Indianapolis","hospid":51.0,"county":"49","hospital_number":51.0,"geo_score":0.857,"hospname":"Wishard Health Services","id":"a665eatuixc3","geo_precision":"city","hospital_name":"Wishard Health Services","state":"IN"},"type":"Feature","geometry":{"type":"Point","coordinates":[-86.13216,39.775092]}},{"properties":{"city":"Indianapolis","hospid":52.0,"county":"49","hospital_number":52.0,"geo_score":0.857,"hospname":"Westview Hospital","id":"a665eb6scu3m","geo_precision":"city","hospital_name":"Westview Hospital","state":"IN"},"type":"Feature","geometry":{"type":"Point","coordinates":[-86.13216,39.775092]}},{"properties":{"city":"Indianapolis","hospid":53.0,"county":"49","hospital_number":53.0,"geo_score":0.857,"hospname":"Clarian Health (Methodist)","id":"a665eayedjje","geo_precision":"city","hospital_name":"Clarian Health (Methodist)","state":"IN"},"type":"Feature","geometry":{"type":"Point","coordinates":[-86.13216,39.775092]}},{"properties":{"city":"Scottsburg","hospid":54.0,"county":"72","hospital_number":54.0,"geo_score":0.857,"hospname":"Scott Memorial Hospital","id":"a665eb15agw9","geo_precision":"city","hospital_name":"Scott Memorial Hospital","state":"IN"},"type":"Feature","geometry":{"type":"Point","coordinates":[-87.219174,38.288661]}},{"properties":{"city":"Indianapolis","hospid":55.0,"county":"49","hospital_number":55.0,"geo_score":0.857,"hospname":"St. Vincent Indianapolis Hospital","id":"a665eb4wm02k","geo_precision":"city","hospital_name":"St. Vincent Indianapolis Hospital","state":"IN"},"type":"Feature","geometry":{"type":"Point","coordinates":[-86.13216,39.775092]}},{"properties":{"city":"Jeffersonville","hospid":57.0,"county":"10","hospital_number":57.0,"geo_score":0.857,"hospname":"Clark Memorial Hospital","id":"a665eb965ra2","geo_precision":"city","hospital_name":"Clark Memorial Hospital","state":"IN"},"type":"Feature","geometry":{"type":"Point","coordinates":[-85.716548,38.404909]}},{"properties":{"city":"Kendallville","hospid":58.0,"county":"57","hospital_number":58.0,"geo_score":0.857,"hospname":"Parkview Noble Hospital","id":"a665eaxuu5gg","geo_precision":"city","hospital_name":"Parkview Noble Hospital","state":"IN"},"type":"Feature","geometry":{"type":"Point","coordinates":[-85.389073,41.431488]}},{"properties":{"city":"Kokomo","hospid":59.0,"county":"34","hospital_number":59.0,"geo_score":0.857,"hospname":"St. Joseph Hospital (Kokomo)","id":"a665eb6zrx7a","geo_precision":"city","hospital_name":"St. Joseph Hospital (Kokomo)","state":"IN"},"type":"Feature","geometry":{"type":"Point","coordinates":[-86.171054,40.506851]}},{"properties":{"city":"Charlestown","hospid":6.0,"county":"10","hospital_number":6.0,"geo_score":0.857,"hospname":"Saint Catherine Regional Hospital","id":"a665eb6y488y","geo_precision":"city","hospital_name":"Saint Catherine Regional Hospital","state":"IN"},"type":"Feature","geometry":{"type":"Point","coordinates":[-85.615235,38.459992]}},{"properties":{"city":"Lafayette","hospid":60.0,"county":"79","hospital_number":60.0,"geo_score":0.857,"hospname":"Lafayette Home Hospital, Inc.","id":"a665eb3eecfn","geo_precision":"city","hospital_name":"Lafayette Home Hospital, Inc.","state":"IN"},"type":"Feature","geometry":{"type":"Point","coordinates":[-86.830286,40.39905]}},{"properties":{"city":"Lafayette","hospid":61.0,"county":"79","hospital_number":61.0,"geo_score":0.857,"hospname":"St. Elizabeth Medical Center","id":"a665eb6zpf2q","geo_precision":"city","hospital_name":"St. Elizabeth Medical Center","state":"IN"},"type":"Feature","geometry":{"type":"Point","coordinates":[-86.830286,40.39905]}},{"properties":{"city":"Indianapolis","hospid":62.0,"county":"49","hospital_number":62.0,"geo_score":0.857,"hospname":"Clarian Health (Riley)","id":"a665eausffex","geo_precision":"city","hospital_name":"Clarian Health (Riley)","state":"IN"},"type":"Feature","geometry":{"type":"Point","coordinates":[-86.13216,39.775092]}},{"properties":{"city":"Indianapolis","hospid":63.0,"county":"49","hospital_number":63.0,"geo_score":0.857,"hospname":"St. Francis Hospital &amp; Health Centers - Indianapolis Campus","id":"a665eb7o2oq6","geo_precision":"city","hospital_name":"St. Francis Hospital &amp; Health Centers - Indianapolis Campus","state":"IN"},"type":"Feature","geometry":{"type":"Point","coordinates":[-86.13216,39.775092]}},{"properties":{"city":"La Porte","hospid":64.0,"county":"46","hospital_number":64.0,"geo_score":0.408,"hospname":"La Porte Regional Health System, Inc.","id":"a665eb0o3j6k","geo_precision":"street","hospital_name":"La Porte Regional Health System, Inc.","state":"IN"},"type":"Feature","geometry":{"type":"Point","coordinates":[-87.248595,41.521777]}},{"properties":{"city":"Lebanon","hospid":65.0,"county":"06","hospital_number":65.0,"geo_score":0.857,"hospname":"Witham Health Services","id":"a665eatos434","geo_precision":"city","hospital_name":"Witham Health Services","state":"IN"},"type":"Feature","geometry":{"type":"Point","coordinates":[-86.490381,40.050302]}},{"properties":{"city":"Linton","hospid":66.0,"county":"28","hospital_number":66.0,"geo_score":0.857,"hospname":"Greene County General Hospital","id":"a665eb2djp8d","geo_precision":"city","hospital_name":"Greene County General Hospital","state":"IN"},"type":"Feature","geometry":{"type":"Point","coordinates":[-87.126965,39.04963]}},{"properties":{"city":"Logansport","hospid":67.0,"county":"09","hospital_number":67.0,"geo_score":0.857,"hospname":"Memorial Hospital (Logansport)","id":"a665eb04ij8d","geo_precision":"city","hospital_name":"Memorial Hospital (Logansport)","state":"IN"},"type":"Feature","geometry":{"type":"Point","coordinates":[-86.375168,40.77927]}},{"properties":{"city":"Fort Wayne","hospid":68.0,"county":"02","hospital_number":68.0,"geo_score":0.857,"hospname":"Dupont Hospital","id":"a665eb9tv4v9","geo_precision":"city","hospital_name":"Dupont Hospital","state":"IN"},"type":"Feature","geometry":{"type":"Point","coordinates":[-85.12886,41.130604]}},{"properties":{"city":"LaGrange","hospid":69.0,"county":"44","hospital_number":69.0,"geo_score":0.857,"hospname":"Parkview LaGrange Hospital","id":"a665eb952doj","geo_precision":"city","hospital_name":"Parkview LaGrange Hospital","state":"IN"},"type":"Feature","geometry":{"type":"Point","coordinates":[-85.387208,41.655135]}},{"properties":{"city":"Bedford","hospid":7.0,"county":"47","hospital_number":7.0,"geo_score":0.857,"hospname":"Bedford Regional Medical Center","id":"a665eb0h526a","geo_precision":"city","hospital_name":"Bedford Regional Medical Center","state":"IN"},"type":"Feature","geometry":{"type":"Point","coordinates":[-86.525843,38.890524]}},{"properties":{"city":"Madison","hospid":70.0,"county":"39","hospital_number":70.0,"geo_score":0.857,"hospname":"The King's Daughters' Hospital and Health Services","id":"a665eawej5ra","geo_precision":"city","hospital_name":"The King's Daughters' Hospital and Health Services","state":"IN"},"type":"Feature","geometry":{"type":"Point","coordinates":[-85.420605,38.804552]}},{"properties":{"city":"Marion","hospid":71.0,"county":"27","hospital_number":71.0,"geo_score":0.857,"hospname":"Marion General Hospital","id":"a665eb17rbma","geo_precision":"city","hospital_name":"Marion General Hospital","state":"IN"},"type":"Feature","geometry":{"type":"Point","coordinates":[-85.636731,40.519756]}},{"properties":{"city":"Martinsville","hospid":72.0,"county":"55","hospital_number":72.0,"geo_score":0.857,"hospname":"Morgan Hospital &amp; Medical Center","id":"a665eax4vyi9","geo_precision":"city","hospital_name":"Morgan Hospital &amp; Medical Center","state":"IN"},"type":"Feature","geometry":{"type":"Point","coordinates":[-86.466792,39.477625]}},{"properties":{"city":"West Lafayette","hospid":74.0,"county":"79","hospital_number":74.0,"geo_score":0.333,"hospname":"Wabash Valley Hospital, Inc.","id":"a665eb5c7uci","geo_precision":"street","hospital_name":"Wabash Valley Hospital, Inc.","state":"IN"},"type":"Feature","geometry":{"type":"Point","coordinates":[-86.899699,41.080642]}},{"properties":{"city":"Bremen","hospid":75.0,"county":"50","hospital_number":75.0,"geo_score":0.857,"hospname":"Community Hospital of Bremen, Inc.","id":"a665eb07o456","geo_precision":"city","hospital_name":"Community Hospital of Bremen, Inc.","state":"IN"},"type":"Feature","geometry":{"type":"Point","coordinates":[-86.242235,41.40577]}},{"properties":{"city":"Michigan City","hospid":77.0,"county":"46","hospital_number":77.0,"geo_score":0.857,"hospname":"Saint Anthony Memorial","id":"a665eav0uzav","geo_precision":"city","hospital_name":"Saint Anthony Memorial","state":"IN"},"type":"Feature","geometry":{"type":"Point","coordinates":[-86.756985,41.594185]}},{"properties":{"city":"Mooresville","hospid":79.0,"county":"55","hospital_number":79.0,"geo_score":0.857,"hospname":"St. Francis Hospital &amp; Health Centers - Mooresville Campus","id":"a665eb3mc0yj","geo_precision":"city","hospital_name":"St. Francis Hospital &amp; Health Centers - Mooresville Campus","state":"IN"},"type":"Feature","geometry":{"type":"Point","coordinates":[-86.437089,39.50942]}},{"properties":{"city":"Batesville","hospid":8.0,"county":"69","hospital_number":8.0,"geo_score":0.857,"hospname":"Margaret Mary Community Hospital","id":"a665eav18nv2","geo_precision":"city","hospital_name":"Margaret Mary Community Hospital","state":"IN"},"type":"Feature","geometry":{"type":"Point","coordinates":[-85.229151,39.19017]}},{"properties":{"city":"Marion","hospid":80.0,"county":"27","hospital_number":80.0,"geo_score":0.857,"hospname":"VA Northern Indiana Health Care System, Marion Campus","id":"a665eb9guged","geo_precision":"city","hospital_name":"VA Northern Indiana Health Care System, Marion Campus","state":"IN"},"type":"Feature","geometry":{"type":"Point","coordinates":[-85.636731,40.519756]}},{"properties":{"city":"Muncie","hospid":81.0,"county":"18","hospital_number":81.0,"geo_score":0.857,"hospname":"Ball Memorial Hospital, Inc.","id":"a665eb2oh160","geo_precision":"city","hospital_name":"Ball Memorial Hospital, Inc.","state":"IN"},"type":"Feature","geometry":{"type":"Point","coordinates":[-85.389874,40.142124]}},{"properties":{"city":"Munster","hospid":82.0,"county":"45","hospital_number":82.0,"geo_score":0.857,"hospname":"Community Hospital (Munster)","id":"a665eb9db2mx","geo_precision":"city","hospital_name":"Community Hospital (Munster)","state":"IN"},"type":"Feature","geometry":{"type":"Point","coordinates":[-87.502585,41.550535]}},{"properties":{"city":"Auburn","hospid":83.0,"county":"17","hospital_number":83.0,"geo_score":0.857,"hospname":"DeKalb Memorial Hospital, Inc.","id":"a665eay1jpz6","geo_precision":"city","hospital_name":"DeKalb Memorial Hospital, Inc.","state":"IN"},"type":"Feature","geometry":{"type":"Point","coordinates":[-85.027689,41.377758]}},{"properties":{"city":"North Vernon","hospid":84.0,"county":"40","hospital_number":84.0,"geo_score":0.514,"hospname":"St. Vincent Jennings Hospital","id":"a665eb9xg38y","geo_precision":"street","hospital_name":"St. Vincent Jennings Hospital","state":"IN"},"type":"Feature","geometry":{"type":"Point","coordinates":[-85.633692,39.005319]}},{"properties":{"city":"New Castle","hospid":85.0,"county":"33","hospital_number":85.0,"geo_score":0.857,"hospname":"Henry County Hospital","id":"a665eatubfjk","geo_precision":"city","hospital_name":"Henry County Hospital","state":"IN"},"type":"Feature","geometry":{"type":"Point","coordinates":[-85.366926,39.92487]}},{"properties":{"city":"Anderson","hospid":87.0,"county":"48","hospital_number":87.0,"geo_score":0.857,"hospname":"Community Hospital of Anderson and Madison County, Inc.","id":"a665eazm3kic","geo_precision":"city","hospital_name":"Community Hospital of Anderson and Madison County, Inc.","state":"IN"},"type":"Feature","geometry":{"type":"Point","coordinates":[-85.766164,40.141033]}},{"properties":{"city":"Peru","hospid":88.0,"county":"52","hospital_number":88.0,"geo_score":0.857,"hospname":"Dukes Memorial Hospital","id":"a665eay3mw3w","geo_precision":"city","hospital_name":"Dukes Memorial Hospital","state":"IN"},"type":"Feature","geometry":{"type":"Point","coordinates":[-86.07581,40.73991]}},{"properties":{"city":"Newburgh","hospid":89.0,"county":"87","hospital_number":89.0,"geo_score":0.857,"hospname":"The Women's Hospital","id":"a665eays1gt0","geo_precision":"city","hospital_name":"The Women's Hospital","state":"IN"},"type":"Feature","geometry":{"type":"Point","coordinates":[-87.245214,38.06242]}},{"properties":{"city":"Bedford","hospid":9.0,"county":"47","hospital_number":9.0,"geo_score":0.857,"hospname":"Dunn Memorial Hospital","id":"a665eb6lp802","geo_precision":"city","hospital_name":"Dunn Memorial Hospital","state":"IN"},"type":"Feature","geometry":{"type":"Point","coordinates":[-86.525843,38.890524]}},{"properties":{"city":"Plymouth","hospid":90.0,"county":"50","hospital_number":90.0,"geo_score":0.857,"hospname":"Saint Joseph Regional Medical Center - Plymouth Campus","id":"a665eb4an3lb","geo_precision":"city","hospital_name":"Saint Joseph Regional Medical Center - Plymouth Campus","state":"IN"},"type":"Feature","geometry":{"type":"Point","coordinates":[-86.301486,41.352997]}},{"properties":{"city":"Portland","hospid":91.0,"county":"38","hospital_number":91.0,"geo_score":0.857,"hospname":"Jay County Hospital","id":"a665eaxpfi34","geo_precision":"city","hospital_name":"Jay County Hospital","state":"IN"},"type":"Feature","geometry":{"type":"Point","coordinates":[-84.983015,40.431634]}},{"properties":{"city":"Princeton","hospid":92.0,"county":"26","hospital_number":92.0,"geo_score":0.857,"hospname":"Gibson General Hospital, Inc.","id":"a665eawqia69","geo_precision":"city","hospital_name":"Gibson General Hospital, Inc.","state":"IN"},"type":"Feature","geometry":{"type":"Point","coordinates":[-87.534003,38.303369]}},{"properties":{"city":"Rensselaer","hospid":93.0,"county":"37","hospital_number":93.0,"geo_score":0.857,"hospname":"Jasper County Hospital","id":"a665eb9p35mg","geo_precision":"city","hospital_name":"Jasper County Hospital","state":"IN"},"type":"Feature","geometry":{"type":"Point","coordinates":[-87.10368,40.994793]}},{"properties":{"city":"Richmond","hospid":94.0,"county":"89","hospital_number":94.0,"geo_score":0.857,"hospname":"Reid Hospital &amp; Health Care Services, Inc.","id":"a665eb2f5gq8","geo_precision":"city","hospital_name":"Reid Hospital &amp; Health Care Services, Inc.","state":"IN"},"type":"Feature","geometry":{"type":"Point","coordinates":[-85.010442,39.84081]}},{"properties":{"city":"Salem","hospid":95.0,"county":"88","hospital_number":95.0,"geo_score":0.857,"hospname":"Washington County Memorial Hospital","id":"a665eay9av72","geo_precision":"city","hospital_name":"Washington County Memorial Hospital","state":"IN"},"type":"Feature","geometry":{"type":"Point","coordinates":[-86.079404,38.608621]}},{"properties":{"city":"Rochester","hospid":97.0,"county":"25","hospital_number":97.0,"geo_score":0.857,"hospname":"Woodlawn Hospital","id":"a665eatugrkl","geo_precision":"city","hospital_name":"Woodlawn Hospital","state":"IN"},"type":"Feature","geometry":{"type":"Point","coordinates":[-86.254272,41.040988]}},{"properties":{"city":"Indianapolis","hospid":98.0,"county":"49","hospital_number":98.0,"geo_score":0.857,"hospname":"St. Vincent Seton Specialty Hospital","id":"a665eb7ai1s7","geo_precision":"city","hospital_name":"St. Vincent Seton Specialty Hospital","state":"IN"},"type":"Feature","geometry":{"type":"Point","coordinates":[-86.13216,39.775092]}},{"properties":{"city":"Franklin","hospid":99.0,"county":"41","hospital_number":99.0,"geo_score":0.857,"hospname":"Johnson Memorial Hospital","id":"a665eb1ud99x","geo_precision":"city","hospital_name":"Johnson Memorial Hospital","state":"IN"},"type":"Feature","geometry":{"type":"Point","coordinates":[-86.068718,39.469172]}},{"properties":{"city":null,"hospid":null,"county":null,"hospital_number":999.0,"hospname":null,"id":"a665eb9tepiq","hospital_name":"999","state":null},"type":"Feature","geometry":null}],"is_temporal":false,"author":{"url":"http://www.in.gov/isdh/reports/hosp_disch_data/2007/hospital_id_2007.xls","metadata":"","contact_name":"","contact_address":"","source":"Indiana State Dept. of Health","contact_phone":""},"source":"http://www.in.gov/isdh/reports/hosp_disch_data/2007/hospital_id_2007.xls","pagination":{"sort":null,"start":0,"total":188,"limit":1000000},"state":"complete","tags":"","published":"2009-10-18T21:50:12Z","id":17134}