{"type":"FeatureCollection","data_type":"Dataset","url_type":null,"permissions":[{"permissions":{"download":true,"view":true},"group_id":"everyone"}],"classification":null,"title":"Indiana Hospitals","count":188,"stream_id":17133,"contributor":{"url":"http://geocommons.com/users/9169","name":"cdoehrin"},"data_attributes":null,"calculation_params":null,"icon_link":null,"link":"http://geocommons.com/overlays/17133.json","extent":[-123.419,27.9092,-69.4402,47.6527],"geometry_types":["point"],"unique_name":null,"name":"Indiana Hospitals","feature_count":188,"description":"All Hospitals in Indiana","next_feature":null,"is_raster":false,"short_classification":"Y","stats":{"hospid":{"max":479.0,"mean":137.72192513369,"variance":20832.3846242309,"stdev":144.334280835257,"min":1.0,"median":94.0},"hospital_number":{"max":999.0,"mean":138.664596273292,"variance":25019.4993012422,"stdev":158.175533194114,"min":1.0,"median":91.0}},"features":[{"properties":{"city":null,"hospid":40.0,"county":"45","hospital_number":null,"hospname":"Northwest Family Hospital","id":"a6m2ykj00gq4","hospital_name":null},"type":"Feature","geometry":null},{"properties":{"city":null,"hospid":132.0,"county":"49","hospital_number":null,"hospname":"Winona Memorial Hospital","id":"a6m2yki4m5vo","hospital_name":null},"type":"Feature","geometry":null},{"properties":{"city":null,"hospid":131.0,"county":null,"hospital_number":null,"hospname":"St. Elizabeth Ann Seton Specialty Care Hospital","id":"a6m2ykenhhtb","hospital_name":null},"type":"Feature","geometry":null},{"properties":{"city":null,"hospid":122.0,"county":"53","hospital_number":null,"hospname":"Select Specialty Hospital - Bloomington","id":"a6m2ykfxxcdb","hospital_name":null},"type":"Feature","geometry":null},{"properties":{"city":null,"hospid":112.0,"county":"68","hospital_number":null,"hospname":"Union City Memorial Hospital","id":"a6m2ykr4knmh","hospital_name":null},"type":"Feature","geometry":null},{"properties":{"city":null,"hospid":104.0,"county":"71","hospital_number":null,"hospname":"Healthwin Hospital","id":"a6m2yklws8it","hospital_name":null},"type":"Feature","geometry":null},{"properties":{"city":null,"hospid":39.0,"county":"45","hospital_number":null,"hospname":"Illiana Surgery and Medical Center","id":"a6m2ykqohlw7","hospital_name":null},"type":"Feature","geometry":null},{"properties":{"city":null,"hospid":47.0,"county":"19","hospital_number":null,"hospname":"St. Joseph's Hospital (Huntingburg)","id":"a6m2ykcwezmg","hospital_name":null},"type":"Feature","geometry":null},{"properties":{"city":null,"hospid":472.0,"county":"02","hospital_number":null,"hospname":"Park Center, Inc.","id":"a6m2ykh0wna0","hospital_name":null},"type":"Feature","geometry":null},{"properties":{"city":null,"hospid":29.0,"county":"82","hospital_number":null,"hospname":"St. Mary's Health Care Services (Riverside)","id":"a6m2yklroyrl","hospital_name":null},"type":"Feature","geometry":null},{"properties":{"city":null,"hospid":471.0,"county":"34","hospital_number":null,"hospname":"SCCI Hospital - Kokomo","id":"a6m2ykm1trea","hospital_name":null},"type":"Feature","geometry":null},{"properties":{"city":null,"hospid":140.0,"county":null,"hospital_number":null,"hospname":"Fairbanks","id":"a6m2ykni8k3y","hospital_name":null},"type":"Feature","geometry":null},{"properties":{"city":null,"hospid":13.0,"county":"90","hospital_number":null,"hospname":"Wells Community Hospital","id":"a6m2ykfaiy8a","hospital_name":null},"type":"Feature","geometry":null},{"properties":{"city":null,"hospid":96.0,"county":"71","hospital_number":null,"hospname":"St. Mary Community Hospital","id":"a6m2ykse288i","hospital_name":null},"type":"Feature","geometry":null},{"properties":{"city":null,"hospid":144.0,"county":"02","hospital_number":null,"hospname":"Charter Beacon Behavioral Health System, II, LLC","id":"a6m2ykg9qyo3","hospital_name":null},"type":"Feature","geometry":null},{"properties":{"city":null,"hospid":145.0,"county":"49","hospital_number":null,"hospname":"Rehabilitation Hospital of Indiana at St. Vincent","id":"a6m2ykclf27i","hospital_name":null},"type":"Feature","geometry":null},{"properties":{"city":null,"hospid":469.0,"county":"84","hospital_number":null,"hospname":"HealthSouth Hospital of Terre Haute","id":"a6m2ykirjs1z","hospital_name":null},"type":"Feature","geometry":null},{"properties":{"city":null,"hospid":148.0,"county":"49","hospital_number":null,"hospname":"Charter Hospital of Greater Indianapolis","id":"a6m2ykprrja7","hospital_name":null},"type":"Feature","geometry":null},{"properties":{"city":null,"hospid":149.0,"county":"49","hospital_number":null,"hospname":"St. Vincent Pediatric Rehabilitation Center","id":"a6m2yksb9fw4","hospital_name":null},"type":"Feature","geometry":null},{"properties":{"city":null,"hospid":86.0,"county":"26","hospital_number":null,"hospname":"Wirth Regional Hospital","id":"a6m2yki30a2q","hospital_name":null},"type":"Feature","geometry":null},{"properties":{"city":null,"hospid":78.0,"county":"71","hospital_number":null,"hospname":"Saint Joseph Regional Medical Center - Mishawaka Campus","id":"a6m2ykf0z0yu","hospital_name":null},"type":"Feature","geometry":null},{"properties":{"city":null,"hospid":76.0,"county":"46","hospital_number":null,"hospname":"Charter Behavioral Health System of Michigan City","id":"a6m2ykf77mye","hospital_name":null},"type":"Feature","geometry":null},{"properties":{"city":null,"hospid":73.0,"county":"46","hospital_number":null,"hospname":"St. Anthony Memorial Health Centers, North Campus","id":"a6m2ykkpbt8t","hospital_name":null},"type":"Feature","geometry":null},{"properties":{"city":null,"hospid":454.0,"county":"06","hospital_number":null,"hospname":"Behavioral Healthcare of Lebanon","id":"a6m2ykeec21r","hospital_name":null},"type":"Feature","geometry":null},{"properties":{"city":null,"hospid":455.0,"county":"03","hospital_number":null,"hospname":"Columbus Behavioral Center for Children and Adolescents","id":"a6m2ykoa8611","hospital_name":null},"type":"Feature","geometry":null},{"properties":{"city":null,"hospid":56.0,"county":null,"hospital_number":null,"hospname":"Seton Specialty Hospital","id":"a6m2yki1gpmf","hospital_name":null},"type":"Feature","geometry":null},{"properties":{"city":null,"hospid":147.0,"county":"10","hospital_number":null,"hospname":"Charter Behavioral Health System of Indiana at Jefferson, LLC","id":"a6m2ykeqypgg","hospital_name":null},"type":"Feature","geometry":null},{"properties":{"city":"Indianapolis","hospid":1.0,"county":"49","hospital_number":1.0,"geo_score":0.714,"hospname":"Clarian Health (IU)","id":"a6m2ykjacc1n","geo_precision":"city","hospital_name":"Clarian Health (IU)"},"type":"Feature","geometry":{"type":"Point","coordinates":[-92.43352,41.396952]}},{"properties":{"city":"Beech Grove","hospid":10.0,"county":"49","hospital_number":10.0,"geo_score":0.714,"hospname":"St. Francis Hospital &amp; Health Centers - Beech Grove","id":"a6m2ykm0qbm6","geo_precision":"city","hospital_name":"St. Francis Hospital &amp; Health Centers - Beech Grove"},"type":"Feature","geometry":{"type":"Point","coordinates":[-90.691421,36.128069]}},{"properties":{"city":"Rushville","hospid":100.0,"county":"70","hospital_number":100.0,"geo_score":0.714,"hospname":"Rush Memorial Hospital","id":"a6m2ykrlnv0j","geo_precision":"city","hospital_name":"Rush Memorial Hospital"},"type":"Feature","geometry":{"type":"Point","coordinates":[-75.80463,41.820346]}},{"properties":{"city":"Seymour","hospid":101.0,"county":"36","hospital_number":101.0,"geo_score":0.714,"hospname":"Schneck Medical Center","id":"a6m2ykstqi60","geo_precision":"city","hospital_name":"Schneck Medical Center"},"type":"Feature","geometry":{"type":"Point","coordinates":[-92.820353,37.17598]}},{"properties":{"city":"Shelbyville","hospid":102.0,"county":"73","hospital_number":102.0,"geo_score":0.714,"hospname":"Major Hospital","id":"a6m2ykjl48sv","geo_precision":"city","hospital_name":"Major Hospital"},"type":"Feature","geometry":{"type":"Point","coordinates":[-94.152946,31.774637]}},{"properties":{"city":"South Bend","hospid":103.0,"county":"71","hospital_number":103.0,"geo_score":0.298,"hospname":"Memorial Hospital of South Bend","id":"a6m2ykn38jvb","geo_precision":"street","hospital_name":"Memorial Hospital of South Bend"},"type":"Feature","geometry":{"type":"Point","coordinates":[-92.660575,30.835984]}},{"properties":{"city":"South Bend","hospid":105.0,"county":"71","hospital_number":105.0,"geo_score":0.298,"hospname":"Saint Joseph Regional Medical Center - South Bend Campus","id":"a6m2ykd7clay","geo_precision":"street","hospital_name":"Saint Joseph Regional Medical Center - South Bend Campus"},"type":"Feature","geometry":{"type":"Point","coordinates":[-92.660575,30.835984]}},{"properties":{"city":"Sullivan","hospid":106.0,"county":"77","hospital_number":106.0,"geo_score":0.714,"hospname":"Sullivan County Community Hospital","id":"a6m2ykffu6qd","geo_precision":"city","hospital_name":"Sullivan County Community Hospital"},"type":"Feature","geometry":{"type":"Point","coordinates":[-88.633539,39.588093]}},{"properties":{"city":"Tell City","hospid":107.0,"county":"62","hospital_number":107.0,"geo_score":0.714,"hospname":"Perry County Memorial Hospital","id":"a6m2ykcn706i","geo_precision":"city","hospital_name":"Perry County Memorial Hospital"},"type":"Feature","geometry":{"type":"Point","coordinates":[-86.731971,37.999711]}},{"properties":{"city":"Terre Haute","hospid":108.0,"county":"84","hospital_number":108.0,"geo_score":0.714,"hospname":"Terre Haute Regional Hospital","id":"a6m2ykrjht44","geo_precision":"city","hospital_name":"Terre Haute Regional Hospital"},"type":"Feature","geometry":{"type":"Point","coordinates":[-87.410094,39.433602]}},{"properties":{"city":"Terre Haute","hospid":109.0,"county":"84","hospital_number":109.0,"geo_score":0.714,"hospname":"Union Hospital, Inc.","id":"a6m2ykpnhjcr","geo_precision":"city","hospital_name":"Union Hospital, Inc."},"type":"Feature","geometry":{"type":"Point","coordinates":[-87.410094,39.433602]}},{"properties":{"city":"Bloomington","hospid":11.0,"county":"53","hospital_number":11.0,"geo_score":0.714,"hospname":"Bloomington Hospital","id":"a6m2ykiaarc5","geo_precision":"city","hospital_name":"Bloomington Hospital"},"type":"Feature","geometry":{"type":"Point","coordinates":[-78.517246,40.938948]}},{"properties":{"city":"Danville","hospid":110.0,"county":"32","hospital_number":110.0,"geo_score":0.714,"hospname":"Hendricks Regional Health","id":"a6m2yko5gjus","geo_precision":"city","hospital_name":"Hendricks Regional Health"},"type":"Feature","geometry":{"type":"Point","coordinates":[-94.826881,32.400984]}},{"properties":{"city":"Indianapolis","hospid":111.0,"county":"49","hospital_number":111.0,"geo_score":0.714,"hospname":"St. Vincent Heart Center of Indiana, LLC","id":"a6m2ykp9p4ws","geo_precision":"city","hospital_name":"St. Vincent Heart Center of Indiana, LLC"},"type":"Feature","geometry":{"type":"Point","coordinates":[-92.43352,41.396952]}},{"properties":{"city":"Valparaiso","hospid":113.0,"county":"64","hospital_number":113.0,"geo_score":0.714,"hospname":"Porter - Valparaiso Hospital Campus","id":"a6m2ykhiqtjw","geo_precision":"city","hospital_name":"Porter - Valparaiso Hospital Campus"},"type":"Feature","geometry":{"type":"Point","coordinates":[-86.49706,30.50821]}},{"properties":{"city":"Vincennes","hospid":114.0,"county":"42","hospital_number":114.0,"geo_score":0.714,"hospname":"Good Samaritan Hospital","id":"a6m2yklfwkos","geo_precision":"city","hospital_name":"Good Samaritan Hospital"},"type":"Feature","geometry":{"type":"Point","coordinates":[-87.417306,38.707231]}},{"properties":{"city":"Tipton","hospid":115.0,"county":"80","hospital_number":115.0,"geo_score":0.714,"hospname":"Tipton Hospital","id":"a6m2ykfgnwl4","geo_precision":"city","hospital_name":"Tipton Hospital"},"type":"Feature","geometry":{"type":"Point","coordinates":[-84.669679,41.019216]}},{"properties":{"city":"Wabash","hospid":116.0,"county":"85","hospital_number":116.0,"geo_score":0.714,"hospname":"Wabash County Hospital","id":"a6m2yklyu2dx","geo_precision":"city","hospital_name":"Wabash County Hospital"},"type":"Feature","geometry":{"type":"Point","coordinates":[-96.254456,40.886389]}},{"properties":{"city":"Warsaw","hospid":117.0,"county":"43","hospital_number":117.0,"geo_score":0.714,"hospname":"Kosciusko Community Hospital","id":"a6m2ykkbwl3t","geo_precision":"city","hospital_name":"Kosciusko Community Hospital"},"type":"Feature","geometry":{"type":"Point","coordinates":[-96.420263,32.550136]}},{"properties":{"city":"Indianapolis","hospid":118.0,"county":"49","hospital_number":118.0,"geo_score":0.714,"hospname":"Peyton Manning Children's Hospital at St. Vincent","id":"a6m2ykpo7m4r","geo_precision":"city","hospital_name":"Peyton Manning Children's Hospital at St. Vincent"},"type":"Feature","geometry":{"type":"Point","coordinates":[-92.43352,41.396952]}},{"properties":{"city":"Washington","hospid":119.0,"county":"14","hospital_number":119.0,"geo_score":0.0,"hospname":"Daviess Community Hospital","id":"a6m2ykmrtfn8","geo_precision":"unmatched","hospital_name":"Daviess Community Hospital"},"type":"Feature","geometry":null},{"properties":{"city":"Bluffton","hospid":12.0,"county":"90","hospital_number":12.0,"geo_score":0.714,"hospname":"Bluffton Regional Medical Center","id":"a6m2ykmwnodn","geo_precision":"city","hospital_name":"Bluffton Regional Medical Center"},"type":"Feature","geometry":{"type":"Point","coordinates":[-83.928268,40.78635]}},{"properties":{"city":"Williamsport","hospid":120.0,"county":"86","hospital_number":120.0,"geo_score":0.714,"hospname":"St. Vincent Williamsport Hospital","id":"a6m2ykjhbjzf","geo_precision":"city","hospital_name":"St. Vincent Williamsport Hospital"},"type":"Feature","geometry":{"type":"Point","coordinates":[-87.403882,40.314172]}},{"properties":{"city":"Winchester","hospid":121.0,"county":"68","hospital_number":121.0,"geo_score":0.714,"hospname":"St. Vincent Randolph Hospital","id":"a6m2yksafrvv","geo_precision":"city","hospital_name":"St. Vincent Randolph Hospital"},"type":"Feature","geometry":{"type":"Point","coordinates":[-97.013873,30.009388]}},{"properties":{"city":"South Bend","hospid":123.0,"county":"71","hospital_number":123.0,"geo_score":0.298,"hospname":"Our Lady of Peace Hospital","id":"a6m2ykptgh84","geo_precision":"street","hospital_name":"Our Lady of Peace Hospital"},"type":"Feature","geometry":{"type":"Point","coordinates":[-92.660575,30.835984]}},{"properties":{"city":"Noblesville","hospid":124.0,"county":"29","hospital_number":124.0,"geo_score":0.714,"hospname":"Riverview Hospital","id":"a6m2ykq97fgf","geo_precision":"city","hospital_name":"Riverview Hospital"},"type":"Feature","geometry":{"type":"Point","coordinates":[-85.999521,40.073328]}},{"properties":{"city":"Fort Wayne","hospid":125.0,"county":"02","hospital_number":125.0,"geo_score":0.714,"hospname":"Parkview North Hospital","id":"a6m2ykoqkbc3","geo_precision":"city","hospital_name":"Parkview North Hospital"},"type":"Feature","geometry":{"type":"Point","coordinates":[-85.12886,41.130604]}},{"properties":{"city":"Fort Wayne","hospid":126.0,"county":"02","hospital_number":126.0,"geo_score":0.714,"hospname":"Orthopaedic Hospital at Parkview North","id":"a6m2ykk7l8l4","geo_precision":"city","hospital_name":"Orthopaedic Hospital at Parkview North"},"type":"Feature","geometry":{"type":"Point","coordinates":[-85.12886,41.130604]}},{"properties":{"city":"Lafayette","hospid":127.0,"county":"79","hospital_number":127.0,"geo_score":0.714,"hospname":"St. Vincent Seton Specialty Hospital of Lafayette","id":"a6m2ykhale24","geo_precision":"city","hospital_name":"St. Vincent Seton Specialty Hospital of Lafayette"},"type":"Feature","geometry":{"type":"Point","coordinates":[-83.949934,40.758211]}},{"properties":{"city":"Winamac","hospid":128.0,"county":"66","hospital_number":128.0,"geo_score":0.714,"hospname":"Pulaski Memorial Hospital","id":"a6m2ykfjgv6v","geo_precision":"city","hospital_name":"Pulaski Memorial Hospital"},"type":"Feature","geometry":{"type":"Point","coordinates":[-86.622156,41.035862]}},{"properties":{"city":"Knox","hospid":129.0,"county":"75","hospital_number":129.0,"geo_score":0.714,"hospname":"Starke Memorial Hospital","id":"a6m2ykeboslj","geo_precision":"city","hospital_name":"Starke Memorial Hospital"},"type":"Feature","geometry":{"type":"Point","coordinates":[-79.592521,41.190299]}},{"properties":{"city":"Indianapolis","hospid":130.0,"county":"49","hospital_number":130.0,"geo_score":0.714,"hospname":"St. Vincent Women's Hospital","id":"a6m2yklhdzbq","geo_precision":"city","hospital_name":"St. Vincent Women's Hospital"},"type":"Feature","geometry":{"type":"Point","coordinates":[-92.43352,41.396952]}},{"properties":{"city":"Goshen","hospid":133.0,"county":"20","hospital_number":133.0,"geo_score":0.714,"hospname":"Goshen General Hospital","id":"a6m2ykfd8bos","geo_precision":"city","hospital_name":"Goshen General Hospital"},"type":"Feature","geometry":{"type":"Point","coordinates":[-77.187482,39.20344]}},{"properties":{"city":"New Albany","hospid":134.0,"county":"22","hospital_number":134.0,"geo_score":0.714,"hospname":"Floyd Memorial Hospital &amp; Health Services","id":"a6m2ykgs0cvr","geo_precision":"city","hospital_name":"Floyd Memorial Hospital &amp; Health Services"},"type":"Feature","geometry":{"type":"Point","coordinates":[-76.442518,41.599586]}},{"properties":{"city":"Portage","hospid":135.0,"county":"64","hospital_number":135.0,"geo_score":0.714,"hospname":"Porter - Portage Hospital Campus","id":"a6m2ykskx3tz","geo_precision":"city","hospital_name":"Porter - Portage Hospital Campus"},"type":"Feature","geometry":{"type":"Point","coordinates":[-111.124685,47.652742]}},{"properties":{"city":"Monticello","hospid":136.0,"county":"91","hospital_number":136.0,"geo_score":0.714,"hospname":"White County Memorial Hospital","id":"a6m2ykj6fr4x","geo_precision":"city","hospital_name":"White County Memorial Hospital"},"type":"Feature","geometry":{"type":"Point","coordinates":[-90.161012,31.540111]}},{"properties":{"city":"Indianapolis","hospid":137.0,"county":"49","hospital_number":137.0,"geo_score":0.714,"hospname":"Community Hospital South","id":"a6m2yks3z3hi","geo_precision":"city","hospital_name":"Community Hospital South"},"type":"Feature","geometry":{"type":"Point","coordinates":[-92.43352,41.396952]}},{"properties":{"city":"Indianapolis","hospid":138.0,"county":"49","hospital_number":138.0,"geo_score":0.714,"hospname":"Community Hospital East","id":"a6m2ykjrfkak","geo_precision":"city","hospital_name":"Community Hospital East"},"type":"Feature","geometry":{"type":"Point","coordinates":[-92.43352,41.396952]}},{"properties":{"city":"Indianapolis","hospid":139.0,"county":"49","hospital_number":139.0,"geo_score":0.714,"hospname":"Community Hospital North","id":"a6m2ykf9u2qp","geo_precision":"city","hospital_name":"Community Hospital North"},"type":"Feature","geometry":{"type":"Point","coordinates":[-92.43352,41.396952]}},{"properties":{"city":"Brazil","hospid":14.0,"county":"11","hospital_number":14.0,"geo_score":0.714,"hospname":"St. Vincent Clay Hospital","id":"a6m2ykcyzhbb","geo_precision":"city","hospital_name":"St. Vincent Clay Hospital"},"type":"Feature","geometry":{"type":"Point","coordinates":[-89.062566,35.91757]}},{"properties":{"city":"Greenwood","hospid":141.0,"county":"41","hospital_number":141.0,"geo_score":0.714,"hospname":"Valle Vista Health System","id":"a6m2ykiwtp9y","geo_precision":"city","hospital_name":"Valle Vista Health System"},"type":"Feature","geometry":{"type":"Point","coordinates":[-86.100454,39.491246]}},{"properties":{"city":"Indianapolis","hospid":142.0,"county":"49","hospital_number":142.0,"geo_score":0.714,"hospname":"Kindred Hospital - Indianapolis","id":"a6m2ykdpwq1o","geo_precision":"city","hospital_name":"Kindred Hospital - Indianapolis"},"type":"Feature","geometry":{"type":"Point","coordinates":[-92.43352,41.396952]}},{"properties":{"city":"Carmel","hospid":143.0,"county":"29","hospital_number":143.0,"geo_score":0.714,"hospname":"St. Vincent Carmel Hospital","id":"a6m2ykp5hjzv","geo_precision":"city","hospital_name":"St. Vincent Carmel Hospital"},"type":"Feature","geometry":{"type":"Point","coordinates":[-84.537426,33.172345]}},{"properties":{"city":"Indianapolis","hospid":146.0,"county":"49","hospital_number":146.0,"geo_score":0.714,"hospname":"St. Vincent Stress Center","id":"a6m2yksb1zki","geo_precision":"city","hospital_name":"St. Vincent Stress Center"},"type":"Feature","geometry":{"type":"Point","coordinates":[-92.43352,41.396952]}},{"properties":{"city":"Clinton","hospid":15.0,"county":"83","hospital_number":15.0,"geo_score":0.714,"hospname":"West Central Community Hospital","id":"a6m2ykloq123","geo_precision":"city","hospital_name":"West Central Community Hospital"},"type":"Feature","geometry":{"type":"Point","coordinates":[-84.17446,36.105314]}},{"properties":{"city":"Kokomo","hospid":150.0,"county":"34","hospital_number":150.0,"geo_score":0.714,"hospname":"Howard Regional Health System West Campus Specialty Hospital","id":"a6m2ykebewo3","geo_precision":"city","hospital_name":"Howard Regional Health System West Campus Specialty Hospital"},"type":"Feature","geometry":{"type":"Point","coordinates":[-98.705057,32.282913]}},{"properties":{"city":"Indianapolis","hospid":151.0,"county":"49","hospital_number":151.0,"geo_score":0.714,"hospname":"The Indiana Heart Hospital","id":"a6m2ykqs9kbi","geo_precision":"city","hospital_name":"The Indiana Heart Hospital"},"type":"Feature","geometry":{"type":"Point","coordinates":[-92.43352,41.396952]}},{"properties":{"city":"Avon","hospid":152.0,"county":"32","hospital_number":152.0,"geo_score":0.714,"hospname":"Clarian West Medical Center","id":"a6m2ykeg9njc","geo_precision":"city","hospital_name":"Clarian West Medical Center"},"type":"Feature","geometry":{"type":"Point","coordinates":[-89.331504,42.543344]}},{"properties":{"city":"Jeffersonville","hospid":153.0,"county":"10","hospital_number":153.0,"geo_score":0.714,"hospname":"Wellstone Regional Hospital","id":"a6m2ykiv16lq","geo_precision":"city","hospital_name":"Wellstone Regional Hospital"},"type":"Feature","geometry":{"type":"Point","coordinates":[-74.905417,41.782874]}},{"properties":{"city":"Indianapolis","hospid":154.0,"county":"49","hospital_number":154.0,"geo_score":0.714,"hospname":"Indiana Orthopaedic Hospital","id":"a6m2ykph1edu","geo_precision":"city","hospital_name":"Indiana Orthopaedic Hospital"},"type":"Feature","geometry":{"type":"Point","coordinates":[-92.43352,41.396952]}},{"properties":{"city":"Carmel","hospid":155.0,"county":"29","hospital_number":155.0,"geo_score":0.714,"hospname":"Clarian North Medical Center","id":"a6m2ykkpo8wn","geo_precision":"city","hospital_name":"Clarian North Medical Center"},"type":"Feature","geometry":{"type":"Point","coordinates":[-84.537426,33.172345]}},{"properties":{"city":"Newburgh","hospid":156.0,"county":"87","hospital_number":156.0,"geo_score":0.714,"hospname":"Deaconess Gateway Hospital","id":"a6m2ykru87ps","geo_precision":"city","hospital_name":"Deaconess Gateway Hospital"},"type":"Feature","geometry":{"type":"Point","coordinates":[-74.185363,41.38537]}},{"properties":{"city":"Bremen","hospid":157.0,"county":"50","hospital_number":157.0,"geo_score":0.714,"hospname":"Doctor's Hospital","id":"a6m2ykj9jftv","geo_precision":"city","hospital_name":"Doctor's Hospital"},"type":"Feature","geometry":{"type":"Point","coordinates":[-69.440192,44.010411]}},{"properties":{"city":"Bloomington","hospid":158.0,"county":"53","hospital_number":158.0,"geo_score":0.714,"hospname":"Monroe Hospital","id":"a6m2ykojtyz0","geo_precision":"city","hospital_name":"Monroe Hospital"},"type":"Feature","geometry":{"type":"Point","coordinates":[-78.517246,40.938948]}},{"properties":{"city":"Hobart","hospid":159.0,"county":"45","hospital_number":159.0,"geo_score":0.714,"hospname":"Hind General Hospital, LLC","id":"a6m2ykdqca8s","geo_precision":"city","hospital_name":"Hind General Hospital, LLC"},"type":"Feature","geometry":{"type":"Point","coordinates":[-100.523484,37.290578]}},{"properties":{"city":"Columbus","hospid":16.0,"county":"03","hospital_number":16.0,"geo_score":0.714,"hospname":"Columbus Regional Hospital","id":"a6m2yksbfna1","geo_precision":"city","hospital_name":"Columbus Regional Hospital"},"type":"Feature","geometry":{"type":"Point","coordinates":[-82.123534,35.261201]}},{"properties":{"city":"Connersville","hospid":17.0,"county":"21","hospital_number":17.0,"geo_score":0.714,"hospname":"Fayette Regional Health System","id":"a6m2ykrtljyt","geo_precision":"city","hospital_name":"Fayette Regional Health System"},"type":"Feature","geometry":{"type":"Point","coordinates":[-81.786192,27.909192]}},{"properties":{"city":"Crawfordsville","hospid":18.0,"county":"54","hospital_number":18.0,"geo_score":0.714,"hospname":"St. Clare Medical Center","id":"a6m2ykp1yln7","geo_precision":"city","hospital_name":"St. Clare Medical Center"},"type":"Feature","geometry":{"type":"Point","coordinates":[-91.551283,41.20951]}},{"properties":{"city":"Corydon","hospid":19.0,"county":"31","hospital_number":19.0,"geo_score":0.714,"hospname":"Harrison County Hospital","id":"a6m2ykmvunc3","geo_precision":"city","hospital_name":"Harrison County Hospital"},"type":"Feature","geometry":{"type":"Point","coordinates":[-93.327355,40.777093]}},{"properties":{"city":"Greenfield","hospid":2.0,"county":"30","hospital_number":2.0,"geo_score":0.714,"hospname":"Hancock Regional Hospital","id":"a6m2ykqf5se6","geo_precision":"city","hospital_name":"Hancock Regional Hospital"},"type":"Feature","geometry":{"type":"Point","coordinates":[-88.012587,42.961404]}},{"properties":{"city":"Decatur","hospid":20.0,"county":"01","hospital_number":20.0,"geo_score":0.714,"hospname":"Adams Memorial Hospital","id":"a6m2yknwszua","geo_precision":"city","hospital_name":"Adams Memorial Hospital"},"type":"Feature","geometry":{"type":"Point","coordinates":[-89.092952,32.427135]}},{"properties":{"city":"Dyer","hospid":21.0,"county":"45","hospital_number":21.0,"geo_score":0.714,"hospname":"Saint Margaret Mercy Healthcare Centers, South Campus","id":"a6m2ykmob5jm","geo_precision":"city","hospital_name":"Saint Margaret Mercy Healthcare Centers, South Campus"},"type":"Feature","geometry":{"type":"Point","coordinates":[-87.499489,41.451993]}},{"properties":{"city":"East Chicago","hospid":22.0,"county":"45","hospital_number":22.0,"geo_score":0.571,"hospname":"St. Catherine Hospital, Inc.","id":"a6m2ykmllxjc","geo_precision":"street","hospital_name":"St. Catherine Hospital, Inc."},"type":"Feature","geometry":{"type":"Point","coordinates":[-86.724136,41.603834]}},{"properties":{"city":"Elkhart","hospid":23.0,"county":"20","hospital_number":23.0,"geo_score":0.714,"hospname":"Elkhart General Healthcare System","id":"a6m2ykh0cvxi","geo_precision":"city","hospital_name":"Elkhart General Healthcare System"},"type":"Feature","geometry":{"type":"Point","coordinates":[-101.896973,37.00405]}},{"properties":{"city":"Elwood","hospid":24.0,"county":"48","hospital_number":24.0,"geo_score":0.714,"hospname":"St. Vincent Mercy Hospital","id":"a6m2yksxs85h","geo_precision":"city","hospital_name":"St. Vincent Mercy Hospital"},"type":"Feature","geometry":{"type":"Point","coordinates":[-94.882439,39.757262]}},{"properties":{"city":"Crown Point","hospid":25.0,"county":"45","hospital_number":25.0,"geo_score":0.653,"hospname":"Saint Anthony Medical Center of Crown Point","id":"a6m2ykp10rzx","geo_precision":"street","hospital_name":"Saint Anthony Medical Center of Crown Point"},"type":"Feature","geometry":{"type":"Point","coordinates":[-87.354779,41.431205]}},{"properties":{"city":"Evansville","hospid":26.0,"county":"82","hospital_number":26.0,"geo_score":0.714,"hospname":"HealthSouth Deaconess Rehabilitation Hospital","id":"a6m2ykoeb5f2","geo_precision":"city","hospital_name":"HealthSouth Deaconess Rehabilitation Hospital"},"type":"Feature","geometry":{"type":"Point","coordinates":[-89.42174,36.034238]}},{"properties":{"city":"Evansville","hospid":27.0,"county":"82","hospital_number":27.0,"geo_score":0.714,"hospname":"Deaconess Hospital, Inc.","id":"a6m2ykdjxqfa","geo_precision":"city","hospital_name":"Deaconess Hospital, Inc."},"type":"Feature","geometry":{"type":"Point","coordinates":[-89.42174,36.034238]}},{"properties":{"city":"Evansville","hospid":28.0,"county":"82","hospital_number":28.0,"geo_score":0.714,"hospname":"St. Mary's Medical Center","id":"a6m2yki9r4o3","geo_precision":"city","hospital_name":"St. Mary's Medical Center"},"type":"Feature","geometry":{"type":"Point","coordinates":[-89.42174,36.034238]}},{"properties":{"city":"Anderson","hospid":3.0,"county":"48","hospital_number":3.0,"geo_score":0.714,"hospname":"Saint John's Health System","id":"a6m2ykiy7nzu","geo_precision":"city","hospital_name":"Saint John's Health System"},"type":"Feature","geometry":{"type":"Point","coordinates":[-74.919058,40.770655]}},{"properties":{"city":"Fort Wayne","hospid":30.0,"county":"02","hospital_number":30.0,"geo_score":0.714,"hospname":"Rehabilitation Hospital of Fort Wayne","id":"a6m2ykd4s16y","geo_precision":"city","hospital_name":"Rehabilitation Hospital of Fort Wayne"},"type":"Feature","geometry":{"type":"Point","coordinates":[-85.12886,41.130604]}},{"properties":{"city":"Fort Wayne","hospid":31.0,"county":"02","hospital_number":31.0,"geo_score":0.714,"hospname":"Lutheran Hospital of Indiana","id":"a6m2ykddc3l5","geo_precision":"city","hospital_name":"Lutheran Hospital of Indiana"},"type":"Feature","geometry":{"type":"Point","coordinates":[-85.12886,41.130604]}},{"properties":{"city":"Fort Wayne","hospid":32.0,"county":"02","hospital_number":32.0,"geo_score":0.714,"hospname":"Parkview Hospital","id":"a6m2yko0zeyo","geo_precision":"city","hospital_name":"Parkview Hospital"},"type":"Feature","geometry":{"type":"Point","coordinates":[-85.12886,41.130604]}},{"properties":{"city":"Fort Wayne","hospid":33.0,"county":"02","hospital_number":33.0,"geo_score":0.714,"hospname":"St. Joseph Hospital (Fort Wayne)","id":"a6m2ykrv8f9n","geo_precision":"city","hospital_name":"St. Joseph Hospital (Fort Wayne)"},"type":"Feature","geometry":{"type":"Point","coordinates":[-85.12886,41.130604]}},{"properties":{"city":"Lawrenceburg","hospid":34.0,"county":"15","hospital_number":34.0,"geo_score":0.714,"hospname":"Dearborn County Hospital","id":"a6m2ykhadnb0","geo_precision":"city","hospital_name":"Dearborn County Hospital"},"type":"Feature","geometry":{"type":"Point","coordinates":[-93.660203,37.244495]}},{"properties":{"city":"Frankfort","hospid":35.0,"county":"12","hospital_number":35.0,"geo_score":0.714,"hospname":"St. Vincent Frankfort Hospital","id":"a6m2yke9wtlb","geo_precision":"city","hospital_name":"St. Vincent Frankfort Hospital"},"type":"Feature","geometry":{"type":"Point","coordinates":[-75.118168,43.039203]}},{"properties":{"city":"Paoli","hospid":36.0,"county":"59","hospital_number":36.0,"geo_score":0.714,"hospname":"Bloomington Hospital of Orange County, Inc.","id":"a6m2yknzbpy3","geo_precision":"city","hospital_name":"Bloomington Hospital of Orange County, Inc."},"type":"Feature","geometry":{"type":"Point","coordinates":[-83.091536,34.092333]}},{"properties":{"city":"Jasper","hospid":37.0,"county":"19","hospital_number":37.0,"geo_score":0.714,"hospname":"Memorial Hospital and Health Care Center","id":"a6m2ykjxyew3","geo_precision":"city","hospital_name":"Memorial Hospital and Health Care Center"},"type":"Feature","geometry":{"type":"Point","coordinates":[-93.187651,36.005808]}},{"properties":{"city":"Gary","hospid":38.0,"county":"45","hospital_number":38.0,"geo_score":0.714,"hospname":"The Methodist Hospitals, Inc., Northlake Campus","id":"a6m2ykeunbim","geo_precision":"city","hospital_name":"The Methodist Hospitals, Inc., Northlake Campus"},"type":"Feature","geometry":{"type":"Point","coordinates":[-81.554444,37.36584]}},{"properties":{"city":"Angola","hospid":4.0,"county":"76","hospital_number":4.0,"geo_score":0.714,"hospname":"Cameron Memorial Community Hospital, Inc.","id":"a6m2ykgf1xdi","geo_precision":"city","hospital_name":"Cameron Memorial Community Hospital, Inc."},"type":"Feature","geometry":{"type":"Point","coordinates":[-85.000474,41.672567]}},{"properties":{"city":"Greencastle","hospid":41.0,"county":"67","hospital_number":41.0,"geo_score":0.714,"hospname":"Putnam County Hospital","id":"a6m2ykieqnmt","geo_precision":"city","hospital_name":"Putnam County Hospital"},"type":"Feature","geometry":{"type":"Point","coordinates":[-92.872023,40.245907]}},{"properties":{"city":"Greensburg","hospid":42.0,"county":"16","hospital_number":42.0,"geo_score":0.714,"hospname":"Decatur County Memorial Hospital","id":"a6m2yknhb0zu","geo_precision":"city","hospital_name":"Decatur County Memorial Hospital"},"type":"Feature","geometry":{"type":"Point","coordinates":[-90.651536,30.657123]}},{"properties":{"city":"Kokomo","hospid":43.0,"county":"34","hospital_number":43.0,"geo_score":0.714,"hospname":"Howard Regional Health System","id":"a6m2ykjb6csw","geo_precision":"city","hospital_name":"Howard Regional Health System"},"type":"Feature","geometry":{"type":"Point","coordinates":[-98.705057,32.282913]}},{"properties":{"city":"Hammond","hospid":44.0,"county":"45","hospital_number":44.0,"geo_score":0.714,"hospname":"Saint Margaret Mercy Healthcare Centers, North Campus","id":"a6m2yklp46gv","geo_precision":"city","hospital_name":"Saint Margaret Mercy Healthcare Centers, North Campus"},"type":"Feature","geometry":{"type":"Point","coordinates":[-94.695238,37.935593]}},{"properties":{"city":"Hobart","hospid":45.0,"county":"45","hospital_number":45.0,"geo_score":0.714,"hospname":"St. Mary Medical Center (Hobart)","id":"a6m2ykhfftso","geo_precision":"city","hospital_name":"St. Mary Medical Center (Hobart)"},"type":"Feature","geometry":{"type":"Point","coordinates":[-100.523484,37.290578]}},{"properties":{"city":"Madison","hospid":452.0,"county":"39","hospital_number":452.0,"geo_score":0.714,"hospname":"Madison State Hospital","id":"a6m2ykf7rstp","geo_precision":"city","hospital_name":"Madison State Hospital"},"type":"Feature","geometry":{"type":"Point","coordinates":[-86.754233,34.651409]}},{"properties":{"city":"New Albany","hospid":453.0,"county":"22","hospital_number":453.0,"geo_score":0.714,"hospname":"Southern Indiana Rehabilitation Hospital","id":"a6m2yki2krs0","geo_precision":"city","hospital_name":"Southern Indiana Rehabilitation Hospital"},"type":"Feature","geometry":{"type":"Point","coordinates":[-76.442518,41.599586]}},{"properties":{"city":"Plymouth","hospid":456.0,"county":"50","hospital_number":456.0,"geo_score":0.714,"hospname":"Michiana Behavioral Health Center","id":"a6m2ykq70ypb","geo_precision":"city","hospital_name":"Michiana Behavioral Health Center"},"type":"Feature","geometry":{"type":"Point","coordinates":[-72.724848,43.526289]}},{"properties":{"city":"Warsaw","hospid":457.0,"county":"43","hospital_number":457.0,"geo_score":0.714,"hospname":"The Otis R. Bowen Center for Human Services, Inc.","id":"a6m2ykm2lpe4","geo_precision":"city","hospital_name":"The Otis R. Bowen Center for Human Services, Inc."},"type":"Feature","geometry":{"type":"Point","coordinates":[-96.420263,32.550136]}},{"properties":{"city":"Bloomington","hospid":458.0,"county":"53","hospital_number":458.0,"geo_score":0.714,"hospname":"BHC Meadows Hospital","id":"a6m2yks92lex","geo_precision":"city","hospital_name":"BHC Meadows Hospital"},"type":"Feature","geometry":{"type":"Point","coordinates":[-78.517246,40.938948]}},{"properties":{"city":"Indianapolis","hospid":459.0,"county":"49","hospital_number":459.0,"geo_score":0.714,"hospname":"Rehabilitation Hospital of Indiana","id":"a6m2ykde918h","geo_precision":"city","hospital_name":"Rehabilitation Hospital of Indiana"},"type":"Feature","geometry":{"type":"Point","coordinates":[-92.43352,41.396952]}},{"properties":{"city":"Hartford City","hospid":46.0,"county":"05","hospital_number":46.0,"geo_score":0.714,"hospname":"Blackford Community Hospital","id":"a6m2ykh3qf3k","geo_precision":"city","hospital_name":"Blackford Community Hospital"},"type":"Feature","geometry":{"type":"Point","coordinates":[-81.989028,39.003968]}},{"properties":{"city":"Greenwood","hospid":460.0,"county":"41","hospital_number":460.0,"geo_score":0.714,"hospname":"Kindred Hospital - Indianapolis South","id":"a6m2ykrzn0dt","geo_precision":"city","hospital_name":"Kindred Hospital - Indianapolis South"},"type":"Feature","geometry":{"type":"Point","coordinates":[-86.100454,39.491246]}},{"properties":{"city":"Greenwood","hospid":461.0,"county":"49","hospital_number":461.0,"geo_score":0.714,"hospname":"Select Specialty Hospital - Indianapolis","id":"a6m2ykq5lv9a","geo_precision":"city","hospital_name":"Select Specialty Hospital - Indianapolis"},"type":"Feature","geometry":{"type":"Point","coordinates":[-86.100454,39.491246]}},{"properties":{"city":"Richmond","hospid":462.0,"county":"89","hospital_number":462.0,"geo_score":0.714,"hospname":"Richmond State Hospital","id":"a6m2ykpm8hb4","geo_precision":"city","hospital_name":"Richmond State Hospital"},"type":"Feature","geometry":{"type":"Point","coordinates":[-111.798034,41.883064]}},{"properties":{"city":"Beech Grove","hospid":463.0,"county":"49","hospital_number":463.0,"geo_score":0.714,"hospname":"Select Specialty Hospital - Beech Grove","id":"a6m2ykfk7li1","geo_precision":"city","hospital_name":"Select Specialty Hospital - Beech Grove"},"type":"Feature","geometry":{"type":"Point","coordinates":[-90.691421,36.128069]}},{"properties":{"city":"Evansville","hospid":464.0,"county":"82","hospital_number":464.0,"geo_score":0.714,"hospname":"Select Specialty Hospital - Evansville","id":"a6m2yknp4oa8","geo_precision":"city","hospital_name":"Select Specialty Hospital - Evansville"},"type":"Feature","geometry":{"type":"Point","coordinates":[-89.42174,36.034238]}},{"properties":{"city":"Fort Wayne","hospid":465.0,"county":"02","hospital_number":465.0,"geo_score":0.714,"hospname":"VA Northern Indiana Health Care System, Fort Wayne Campus","id":"a6m2ykpb8k6r","geo_precision":"city","hospital_name":"VA Northern Indiana Health Care System, Fort Wayne Campus"},"type":"Feature","geometry":{"type":"Point","coordinates":[-85.12886,41.130604]}},{"properties":{"city":"Indianapolis","hospid":466.0,"county":"49","hospital_number":466.0,"geo_score":0.714,"hospname":"Richard L. Roudebush VA Medical Center","id":"a6m2ykrywtkd","geo_precision":"city","hospital_name":"Richard L. Roudebush VA Medical Center"},"type":"Feature","geometry":{"type":"Point","coordinates":[-92.43352,41.396952]}},{"properties":{"city":"Fort Wayne","hospid":467.0,"county":"02","hospital_number":467.0,"geo_score":0.714,"hospname":"Select Specialty Hospital - Fort Wayne","id":"a6m2yksi69mf","geo_precision":"city","hospital_name":"Select Specialty Hospital - Fort Wayne"},"type":"Feature","geometry":{"type":"Point","coordinates":[-85.12886,41.130604]}},{"properties":{"city":"Richmond","hospid":468.0,"county":"89","hospital_number":468.0,"geo_score":0.714,"hospname":"Dunn Mental Health Center, Inc.","id":"a6m2ykjymen2","geo_precision":"city","hospital_name":"Dunn Mental Health Center, Inc."},"type":"Feature","geometry":{"type":"Point","coordinates":[-111.798034,41.883064]}},{"properties":{"city":"Hammond","hospid":470.0,"county":"45","hospital_number":470.0,"geo_score":0.714,"hospname":"Select Specialty Hospital - Northwest Indiana","id":"a6m2ykncphge","geo_precision":"city","hospital_name":"Select Specialty Hospital - Northwest Indiana"},"type":"Feature","geometry":{"type":"Point","coordinates":[-94.695238,37.935593]}},{"properties":{"city":"Terre Haute","hospid":473.0,"county":"84","hospital_number":473.0,"geo_score":0.714,"hospname":"Hamilton Center, Inc.","id":"a6m2ykgc78fl","geo_precision":"city","hospital_name":"Hamilton Center, Inc."},"type":"Feature","geometry":{"type":"Point","coordinates":[-87.410094,39.433602]}},{"properties":{"city":"Jasper","hospid":474.0,"county":"19","hospital_number":474.0,"geo_score":0.714,"hospname":"Southern Hills Counseling Center, Inc.","id":"a6m2ykmqayub","geo_precision":"city","hospital_name":"Southern Hills Counseling Center, Inc."},"type":"Feature","geometry":{"type":"Point","coordinates":[-93.187651,36.005808]}},{"properties":{"city":"South Bend","hospid":475.0,"county":"71","hospital_number":475.0,"geo_score":0.298,"hospname":"Riverside Hospital","id":"a6m2ykqb1wwc","geo_precision":"street","hospital_name":"Riverside Hospital"},"type":"Feature","geometry":{"type":"Point","coordinates":[-92.660575,30.835984]}},{"properties":{"city":"Fort Wayne","hospid":476.0,"county":"02","hospital_number":476.0,"geo_score":0.714,"hospname":"Parkview Behavioral Health","id":"a6m2yknuy4vb","geo_precision":"city","hospital_name":"Parkview Behavioral Health"},"type":"Feature","geometry":{"type":"Point","coordinates":[-85.12886,41.130604]}},{"properties":{"city":"East Chicago","hospid":477.0,"county":"45","hospital_number":477.0,"geo_score":0.571,"hospname":"Regency Hospital of Northwest Indiana","id":"a6m2yko2ox8q","geo_precision":"street","hospital_name":"Regency Hospital of Northwest Indiana"},"type":"Feature","geometry":{"type":"Point","coordinates":[-86.724136,41.603834]}},{"properties":{"city":"Muncie","hospid":478.0,"county":"18","hospital_number":478.0,"geo_score":0.714,"hospname":"Meridian Services Corp.","id":"a6m2ykot641u","geo_precision":"city","hospital_name":"Meridian Services Corp"},"type":"Feature","geometry":{"type":"Point","coordinates":[-85.389874,40.142124]}},{"properties":{"city":"Portage","hospid":479.0,"county":"64","hospital_number":479.0,"geo_score":0.714,"hospname":"Regency Hospital of Porter County","id":"a6m2ykr9ghau","geo_precision":"city","hospital_name":"Regency Hospital of Porter County"},"type":"Feature","geometry":{"type":"Point","coordinates":[-111.124685,47.652742]}},{"properties":{"city":"Huntington","hospid":48.0,"county":"35","hospital_number":48.0,"geo_score":0.714,"hospname":"Parkview Huntington Hospital","id":"a6m2ykg4f7hh","geo_precision":"city","hospital_name":"Parkview Huntington Hospital"},"type":"Feature","geometry":{"type":"Point","coordinates":[-73.006184,44.318091]}},{"properties":{"city":"Merrillville","hospid":49.0,"county":"45","hospital_number":49.0,"geo_score":0.714,"hospname":"The Methodist Hospitals, Inc., Southlake Campus","id":"a6m2ykn3nf91","geo_precision":"city","hospital_name":"The Methodist Hospitals, Inc., Southlake Campus"},"type":"Feature","geometry":{"type":"Point","coordinates":[-83.879892,30.949079]}},{"properties":{"city":"Boonville","hospid":5.0,"county":"87","hospital_number":5.0,"geo_score":0.714,"hospname":"St. Mary's Warrick Hospital","id":"a6m2ykq4hyfo","geo_precision":"city","hospital_name":"St. Mary's Warrick Hospital"},"type":"Feature","geometry":{"type":"Point","coordinates":[-123.418728,39.046943]}},{"properties":{"city":"Columbia City","hospid":50.0,"county":"92","hospital_number":50.0,"geo_score":0.714,"hospname":"Parkview Whitley Hospital","id":"a6m2ykdimtb5","geo_precision":"city","hospital_name":"Parkview Whitley Hospital"},"type":"Feature","geometry":{"type":"Point","coordinates":[-85.50042,41.14956]}},{"properties":{"city":"Indianapolis","hospid":51.0,"county":"49","hospital_number":51.0,"geo_score":0.714,"hospname":"Wishard Health Services","id":"a6m2ykoj7z7t","geo_precision":"city","hospital_name":"Wishard Health Services"},"type":"Feature","geometry":{"type":"Point","coordinates":[-92.43352,41.396952]}},{"properties":{"city":"Indianapolis","hospid":52.0,"county":"49","hospital_number":52.0,"geo_score":0.714,"hospname":"Westview Hospital","id":"a6m2ykrekn72","geo_precision":"city","hospital_name":"Westview Hospital"},"type":"Feature","geometry":{"type":"Point","coordinates":[-92.43352,41.396952]}},{"properties":{"city":"Indianapolis","hospid":53.0,"county":"49","hospital_number":53.0,"geo_score":0.714,"hospname":"Clarian Health (Methodist)","id":"a6m2ykqcyj6g","geo_precision":"city","hospital_name":"Clarian Health (Methodist)"},"type":"Feature","geometry":{"type":"Point","coordinates":[-92.43352,41.396952]}},{"properties":{"city":"Scottsburg","hospid":54.0,"county":"72","hospital_number":54.0,"geo_score":0.714,"hospname":"Scott Memorial Hospital","id":"a6m2ykpo0ryl","geo_precision":"city","hospital_name":"Scott Memorial Hospital"},"type":"Feature","geometry":{"type":"Point","coordinates":[-77.710539,42.652111]}},{"properties":{"city":"Indianapolis","hospid":55.0,"county":"49","hospital_number":55.0,"geo_score":0.714,"hospname":"St. Vincent Indianapolis Hospital","id":"a6m2ykdwu6u9","geo_precision":"city","hospital_name":"St. Vincent Indianapolis Hospital"},"type":"Feature","geometry":{"type":"Point","coordinates":[-92.43352,41.396952]}},{"properties":{"city":"Jeffersonville","hospid":57.0,"county":"10","hospital_number":57.0,"geo_score":0.714,"hospname":"Clark Memorial Hospital","id":"a6m2ykqphc15","geo_precision":"city","hospital_name":"Clark Memorial Hospital"},"type":"Feature","geometry":{"type":"Point","coordinates":[-74.905417,41.782874]}},{"properties":{"city":"Kendallville","hospid":58.0,"county":"57","hospital_number":58.0,"geo_score":0.714,"hospname":"Parkview Noble Hospital","id":"a6m2ykp8dc5q","geo_precision":"city","hospital_name":"Parkview Noble Hospital"},"type":"Feature","geometry":{"type":"Point","coordinates":[-85.389073,41.431488]}},{"properties":{"city":"Kokomo","hospid":59.0,"county":"34","hospital_number":59.0,"geo_score":0.714,"hospname":"St. Joseph Hospital (Kokomo)","id":"a6m2ykpxgqyh","geo_precision":"city","hospital_name":"St. Joseph Hospital (Kokomo)"},"type":"Feature","geometry":{"type":"Point","coordinates":[-98.705057,32.282913]}},{"properties":{"city":"Charlestown","hospid":6.0,"county":"10","hospital_number":6.0,"geo_score":0.714,"hospname":"Saint Catherine Regional Hospital","id":"a6m2ykcvyhsz","geo_precision":"city","hospital_name":"Saint Catherine Regional Hospital"},"type":"Feature","geometry":{"type":"Point","coordinates":[-77.860278,39.313538]}},{"properties":{"city":"Lafayette","hospid":60.0,"county":"79","hospital_number":60.0,"geo_score":0.714,"hospname":"Lafayette Home Hospital, Inc.","id":"a6m2ykf0wj5n","geo_precision":"city","hospital_name":"Lafayette Home Hospital, Inc."},"type":"Feature","geometry":{"type":"Point","coordinates":[-83.949934,40.758211]}},{"properties":{"city":"Lafayette","hospid":61.0,"county":"79","hospital_number":61.0,"geo_score":0.714,"hospname":"St. Elizabeth Medical Center","id":"a6m2ykki630z","geo_precision":"city","hospital_name":"St. Elizabeth Medical Center"},"type":"Feature","geometry":{"type":"Point","coordinates":[-83.949934,40.758211]}},{"properties":{"city":"Indianapolis","hospid":62.0,"county":"49","hospital_number":62.0,"geo_score":0.714,"hospname":"Clarian Health (Riley)","id":"a6m2ykjlrwde","geo_precision":"city","hospital_name":"Clarian Health (Riley)"},"type":"Feature","geometry":{"type":"Point","coordinates":[-92.43352,41.396952]}},{"properties":{"city":"Indianapolis","hospid":63.0,"county":"49","hospital_number":63.0,"geo_score":0.714,"hospname":"St. Francis Hospital &amp; Health Centers - Indianapolis Campus","id":"a6m2ykp0hss6","geo_precision":"city","hospital_name":"St. Francis Hospital &amp; Health Centers - Indianapolis Campus"},"type":"Feature","geometry":{"type":"Point","coordinates":[-92.43352,41.396952]}},{"properties":{"city":"La Porte","hospid":64.0,"county":"46","hospital_number":64.0,"geo_score":0.367,"hospname":"La Porte Regional Health System, Inc.","id":"a6m2ykmz6kxm","geo_precision":"street","hospital_name":"La Porte Regional Health System, Inc."},"type":"Feature","geometry":{"type":"Point","coordinates":[-122.58375,47.32066]}},{"properties":{"city":"Lebanon","hospid":65.0,"county":"06","hospital_number":65.0,"geo_score":0.714,"hospname":"Witham Health Services","id":"a6m2yke2rs02","geo_precision":"city","hospital_name":"Witham Health Services"},"type":"Feature","geometry":{"type":"Point","coordinates":[-74.829976,40.635369]}},{"properties":{"city":"Linton","hospid":66.0,"county":"28","hospital_number":66.0,"geo_score":0.714,"hospname":"Greene County General Hospital","id":"a6m2ykhz0c54","geo_precision":"city","hospital_name":"Greene County General Hospital"},"type":"Feature","geometry":{"type":"Point","coordinates":[-100.233084,46.185512]}},{"properties":{"city":"Logansport","hospid":67.0,"county":"09","hospital_number":67.0,"geo_score":0.714,"hospname":"Memorial Hospital (Logansport)","id":"a6m2yknrx8sf","geo_precision":"city","hospital_name":"Memorial Hospital (Logansport)"},"type":"Feature","geometry":{"type":"Point","coordinates":[-93.946896,42.067481]}},{"properties":{"city":"Fort Wayne","hospid":68.0,"county":"02","hospital_number":68.0,"geo_score":0.714,"hospname":"Dupont Hospital","id":"a6m2ykinn09z","geo_precision":"city","hospital_name":"Dupont Hospital"},"type":"Feature","geometry":{"type":"Point","coordinates":[-85.12886,41.130604]}},{"properties":{"city":"LaGrange","hospid":69.0,"county":"44","hospital_number":69.0,"geo_score":0.714,"hospname":"Parkview LaGrange Hospital","id":"a6m2ykn2gnkf","geo_precision":"city","hospital_name":"Parkview LaGrange Hospital"},"type":"Feature","geometry":{"type":"Point","coordinates":[-82.119671,41.258201]}},{"properties":{"city":"Bedford","hospid":7.0,"county":"47","hospital_number":7.0,"geo_score":0.714,"hospname":"Bedford Regional Medical Center","id":"a6m2ykfjx5bz","geo_precision":"city","hospital_name":"Bedford Regional Medical Center"},"type":"Feature","geometry":{"type":"Point","coordinates":[-73.718481,41.123741]}},{"properties":{"city":"Madison","hospid":70.0,"county":"39","hospital_number":70.0,"geo_score":0.714,"hospname":"The King's Daughters' Hospital and Health Services","id":"a6m2ykna1k3q","geo_precision":"city","hospital_name":"The King's Daughters' Hospital and Health Services"},"type":"Feature","geometry":{"type":"Point","coordinates":[-86.754233,34.651409]}},{"properties":{"city":"Marion","hospid":71.0,"county":"27","hospital_number":71.0,"geo_score":0.714,"hospname":"Marion General Hospital","id":"a6m2ykph9h3d","geo_precision":"city","hospital_name":"Marion General Hospital"},"type":"Feature","geometry":{"type":"Point","coordinates":[-82.034672,35.684187]}},{"properties":{"city":"Martinsville","hospid":72.0,"county":"55","hospital_number":72.0,"geo_score":0.714,"hospname":"Morgan Hospital &amp; Medical Center","id":"a6m2ykqlu3rf","geo_precision":"city","hospital_name":"Morgan Hospital &amp; Medical Center"},"type":"Feature","geometry":{"type":"Point","coordinates":[-87.850086,39.325782]}},{"properties":{"city":"West Lafayette","hospid":74.0,"county":"79","hospital_number":74.0,"geo_score":0.295,"hospname":"Wabash Valley Hospital, Inc.","id":"a6m2ykhgknts","geo_precision":"street","hospital_name":"Wabash Valley Hospital, Inc."},"type":"Feature","geometry":{"type":"Point","coordinates":[-91.618533,42.149456]}},{"properties":{"city":"Bremen","hospid":75.0,"county":"50","hospital_number":75.0,"geo_score":0.714,"hospname":"Community Hospital of Bremen, Inc.","id":"a6m2ykfestbt","geo_precision":"city","hospital_name":"Community Hospital of Bremen, Inc."},"type":"Feature","geometry":{"type":"Point","coordinates":[-69.440192,44.010411]}},{"properties":{"city":"Michigan City","hospid":77.0,"county":"46","hospital_number":77.0,"geo_score":0.714,"hospname":"Saint Anthony Memorial","id":"a6m2ykdi22z2","geo_precision":"city","hospital_name":"Saint Anthony Memorial"},"type":"Feature","geometry":{"type":"Point","coordinates":[-86.756985,41.594185]}},{"properties":{"city":"Mooresville","hospid":79.0,"county":"55","hospital_number":79.0,"geo_score":0.714,"hospname":"St. Francis Hospital &amp; Health Centers - Mooresville Campus","id":"a6m2ykrln23u","geo_precision":"city","hospital_name":"St. Francis Hospital &amp; Health Centers - Mooresville Campus"},"type":"Feature","geometry":{"type":"Point","coordinates":[-85.265236,37.798951]}},{"properties":{"city":"Batesville","hospid":8.0,"county":"69","hospital_number":8.0,"geo_score":0.714,"hospname":"Margaret Mary Community Hospital","id":"a6m2ykj3bpsr","geo_precision":"city","hospital_name":"Margaret Mary Community Hospital"},"type":"Feature","geometry":{"type":"Point","coordinates":[-81.281224,39.914238]}},{"properties":{"city":"Marion","hospid":80.0,"county":"27","hospital_number":80.0,"geo_score":0.714,"hospname":"VA Northern Indiana Health Care System, Marion Campus","id":"a6m2ykcob2im","geo_precision":"city","hospital_name":"VA Northern Indiana Health Care System, Marion Campus"},"type":"Feature","geometry":{"type":"Point","coordinates":[-82.034672,35.684187]}},{"properties":{"city":"Muncie","hospid":81.0,"county":"18","hospital_number":81.0,"geo_score":0.714,"hospname":"Ball Memorial Hospital, Inc.","id":"a6m2ykd65k7o","geo_precision":"city","hospital_name":"Ball Memorial Hospital, Inc."},"type":"Feature","geometry":{"type":"Point","coordinates":[-85.389874,40.142124]}},{"properties":{"city":"Munster","hospid":82.0,"county":"45","hospital_number":82.0,"geo_score":0.714,"hospname":"Community Hospital (Munster)","id":"a6m2yke2fuir","geo_precision":"city","hospital_name":"Community Hospital (Munster)"},"type":"Feature","geometry":{"type":"Point","coordinates":[-87.502585,41.550535]}},{"properties":{"city":"Auburn","hospid":83.0,"county":"17","hospital_number":83.0,"geo_score":0.714,"hospname":"DeKalb Memorial Hospital, Inc.","id":"a6m2ykgohu55","geo_precision":"city","hospital_name":"DeKalb Memorial Hospital, Inc."},"type":"Feature","geometry":{"type":"Point","coordinates":[-77.700825,38.702896]}},{"properties":{"city":"North Vernon","hospid":84.0,"county":"40","hospital_number":84.0,"geo_score":0.371,"hospname":"St. Vincent Jennings Hospital","id":"a6m2ykp5esxf","geo_precision":"street","hospital_name":"St. Vincent Jennings Hospital"},"type":"Feature","geometry":{"type":"Point","coordinates":[-85.633692,39.005319]}},{"properties":{"city":"New Castle","hospid":85.0,"county":"33","hospital_number":85.0,"geo_score":0.714,"hospname":"Henry County Hospital","id":"a6m2ykp203un","geo_precision":"city","hospital_name":"Henry County Hospital"},"type":"Feature","geometry":{"type":"Point","coordinates":[-80.138591,37.498957]}},{"properties":{"city":"Anderson","hospid":87.0,"county":"48","hospital_number":87.0,"geo_score":0.714,"hospname":"Community Hospital of Anderson and Madison County, Inc.","id":"a6m2yki1vk7y","geo_precision":"city","hospital_name":"Community Hospital of Anderson and Madison County, Inc."},"type":"Feature","geometry":{"type":"Point","coordinates":[-74.919058,40.770655]}},{"properties":{"city":"Peru","hospid":88.0,"county":"52","hospital_number":88.0,"geo_score":0.714,"hospname":"Dukes Memorial Hospital","id":"a6m2ykpnz42p","geo_precision":"city","hospital_name":"Dukes Memorial Hospital"},"type":"Feature","geometry":{"type":"Point","coordinates":[-86.07581,40.73991]}},{"properties":{"city":"Newburgh","hospid":89.0,"county":"87","hospital_number":89.0,"geo_score":0.714,"hospname":"The Women's Hospital","id":"a6m2ykp5znw5","geo_precision":"city","hospital_name":"The Women's Hospital"},"type":"Feature","geometry":{"type":"Point","coordinates":[-74.185363,41.38537]}},{"properties":{"city":"Bedford","hospid":9.0,"county":"47","hospital_number":9.0,"geo_score":0.714,"hospname":"Dunn Memorial Hospital","id":"a6m2ykk6jed4","geo_precision":"city","hospital_name":"Dunn Memorial Hospital"},"type":"Feature","geometry":{"type":"Point","coordinates":[-73.718481,41.123741]}},{"properties":{"city":"Plymouth","hospid":90.0,"county":"50","hospital_number":90.0,"geo_score":0.714,"hospname":"Saint Joseph Regional Medical Center - Plymouth Campus","id":"a6m2ykr0x76s","geo_precision":"city","hospital_name":"Saint Joseph Regional Medical Center - Plymouth Campus"},"type":"Feature","geometry":{"type":"Point","coordinates":[-72.724848,43.526289]}},{"properties":{"city":"Portland","hospid":91.0,"county":"38","hospital_number":91.0,"geo_score":0.714,"hospname":"Jay County Hospital","id":"a6m2ykj8m819","geo_precision":"city","hospital_name":"Jay County Hospital"},"type":"Feature","geometry":{"type":"Point","coordinates":[-85.036335,34.057321]}},{"properties":{"city":"Princeton","hospid":92.0,"county":"26","hospital_number":92.0,"geo_score":0.714,"hospname":"Gibson General Hospital, Inc.","id":"a6m2ykpckzof","geo_precision":"city","hospital_name":"Gibson General Hospital, Inc."},"type":"Feature","geometry":{"type":"Point","coordinates":[-96.704743,40.573613]}},{"properties":{"city":"Rensselaer","hospid":93.0,"county":"37","hospital_number":93.0,"geo_score":0.714,"hospname":"Jasper County Hospital","id":"a6m2ykevmdl5","geo_precision":"city","hospital_name":"Jasper County Hospital"},"type":"Feature","geometry":{"type":"Point","coordinates":[-73.596089,42.621627]}},{"properties":{"city":"Richmond","hospid":94.0,"county":"89","hospital_number":94.0,"geo_score":0.714,"hospname":"Reid Hospital &amp; Health Care Services, Inc.","id":"a6m2yko3hd08","geo_precision":"city","hospital_name":"Reid Hospital &amp; Health Care Services, Inc."},"type":"Feature","geometry":{"type":"Point","coordinates":[-111.798034,41.883064]}},{"properties":{"city":"Salem","hospid":95.0,"county":"88","hospital_number":95.0,"geo_score":0.714,"hospname":"Washington County Memorial Hospital","id":"a6m2ykp7h467","geo_precision":"city","hospital_name":"Washington County Memorial Hospital"},"type":"Feature","geometry":{"type":"Point","coordinates":[-70.278122,44.900612]}},{"properties":{"city":"Rochester","hospid":97.0,"county":"25","hospital_number":97.0,"geo_score":0.714,"hospname":"Woodlawn Hospital","id":"a6m2ykrxubbf","geo_precision":"city","hospital_name":"Woodlawn Hospital"},"type":"Feature","geometry":{"type":"Point","coordinates":[-77.684264,43.286024]}},{"properties":{"city":"Indianapolis","hospid":98.0,"county":"49","hospital_number":98.0,"geo_score":0.714,"hospname":"St. Vincent Seton Specialty Hospital","id":"a6m2ykcgy7bh","geo_precision":"city","hospital_name":"St. Vincent Seton Specialty Hospital"},"type":"Feature","geometry":{"type":"Point","coordinates":[-92.43352,41.396952]}},{"properties":{"city":"Franklin","hospid":99.0,"county":"41","hospital_number":99.0,"geo_score":0.714,"hospname":"Johnson Memorial Hospital","id":"a6m2ykosakjh","geo_precision":"city","hospital_name":"Johnson Memorial Hospital"},"type":"Feature","geometry":{"type":"Point","coordinates":[-71.680021,43.374297]}},{"properties":{"city":null,"hospid":null,"county":null,"hospital_number":999.0,"hospname":null,"id":"a6m2yksmydet","hospital_name":"999"},"type":"Feature","geometry":null}],"is_temporal":false,"author":{"url":"http://www.in.gov/isdh/reports/hosp_disch_data/2007/hospital_id_2007.xls","metadata":"","contact_name":"","contact_address":"","source":"ISDH","contact_phone":""},"source":"http://www.in.gov/isdh/reports/hosp_disch_data/2007/hospital_id_2007.xls","pagination":{"sort":null,"start":0,"total":188,"limit":1000000},"state":"complete","tags":"","published":"2014-08-10T22:22:32-04:00","id":17133}