{"type":"FeatureCollection","data_type":"Dataset","url_type":null,"permissions":[{"permissions":{"download":true,"view":true},"group_id":"everyone"}],"classification":null,"title":"apple-stores","count":359,"stream_id":172798,"contributor":{"url":"http://geocommons.com/users/23101","name":"livejake"},"data_attributes":null,"calculation_params":null,"icon_link":null,"link":"http://geocommons.com/overlays/172798.json","extent":[-157.854,-37.9644,153.378,61.2181],"geometry_types":["point"],"unique_name":null,"name":"apple-stores","feature_count":359,"description":"","next_feature":null,"is_raster":false,"short_classification":"Y","stats":{"latlong 1":{"max":61.2180556,"mean":37.4213102951977,"variance":244.397615261321,"stdev":15.6332215253709,"min":-37.964428,"median":40.017604},"id":{"max":492,"mean":208.881019830028,"variance":17667.2130762297,"stdev":132.91806903589,"min":1,"median":202},"latlong 2":{"max":153.3779288,"mean":-60.1049958912429,"variance":4807.28139136412,"stdev":69.3345613050528,"min":-157.8539978,"median":-80.1433786},"s.f.":{"max":24000,"mean":6898.89215686274,"variance":20533113.1466706,"stdev":4531.34782892139,"min":750,"median":6000},"date opened":{"max":"2011/09/24 00:00:00 -0400","mean":"2007/02/10 15:31:11 -0500","variance":9.26591073056875e+15,"stdev":96259600.7189348,"min":"2001/05/19 00:00:00 -0400","median":"2007/05/12 00:00:00 -0400"}},"features":[{"properties":{"city":"McLean","store_name":"Tysons Corner","leasor":"Wilmorite","type":"indoor","latlong 1":38.9191042,"id":"a64uza97q3lu","latlong 2":-77.2198037,"s.f.":8000,"other":"floor to stone, column removed in Oct, 2003, remodeled Nov. 2-20, 2009","date opened":{"end_time":"2001/05/20 00:00:00 -0400","original":"May 19, 2001","granularity":"day","time":"2001/05/19 00:00:00 -0400"},"state":"VA"},"type":"Feature","geometry":{"type":"Point","coordinates":[-77.2198037,38.9191042]}},{"properties":{"city":"Glendale","store_name":"Glendale Galleria","leasor":"General Growth","type":"indoor","latlong 1":34.1425078,"id":"a64uzag6ot6t","latlong 2":-118.255075,"s.f.":7100,"other":null,"date opened":{"end_time":"2001/05/20 00:00:00 -0400","original":"May 19, 2001","granularity":"day","time":"2001/05/19 00:00:00 -0400"},"state":"CA"},"type":"Feature","geometry":{"type":"Point","coordinates":[-118.255075,34.1425078]}},{"properties":{"city":"Plano","store_name":"Willow Bend","leasor":"Taubman","type":"indoor","latlong 1":33.0321372,"id":"a64uza6o03dz","latlong 2":-96.8150037,"s.f.":6500,"other":"remodeled March 2009","date opened":{"end_time":"2001/08/04 00:00:00 -0400","original":"August 3, 2001","granularity":"day","time":"2001/08/03 00:00:00 -0400"},"state":"TX"},"type":"Feature","geometry":{"type":"Point","coordinates":[-96.8150037,33.0321372]}},{"properties":{"city":"Bloomington","store_name":"Mall of America","leasor":"Simon Property Group","type":"indoor","latlong 1":44.8512,"id":"a64uzaefe2g0","latlong 2":-93.245831,"s.f.":6200,"other":"floor to stone, theater remodel in Oct, 2003, remodeled June 24-July 9, 2009","date opened":{"end_time":"2001/08/12 00:00:00 -0400","original":"August 11, 2001","granularity":"day","time":"2001/08/11 00:00:00 -0400"},"state":"MN"},"type":"Feature","geometry":{"type":"Point","coordinates":[-93.245831,44.8512]}},{"properties":{"city":"Schaumburg","store_name":"Woodfield","leasor":"Taubman","type":"indoor","latlong 1":42.0505434,"id":"a64uzacoyxe4","latlong 2":-88.0705905,"s.f.":7000,"other":"remodeled May 4-15, 2009","date opened":{"end_time":"2001/08/24 00:00:00 -0400","original":"August 23, 2001","granularity":"day","time":"2001/08/23 00:00:00 -0400"},"state":"IL"},"type":"Feature","geometry":{"type":"Point","coordinates":[-88.0705905,42.0505434]}},{"properties":{"city":"Peabody","store_name":"Northshore Mall","leasor":"Simon Property Group","type":"indoor","latlong 1":42.54179,"id":"a64uzab9qbae","latlong 2":-70.940796,"s.f.":null,"other":null,"date opened":{"end_time":"2001/09/02 00:00:00 -0400","original":"September 1, 2001","granularity":"day","time":"2001/09/01 00:00:00 -0400"},"state":"MA"},"type":"Feature","geometry":{"type":"Point","coordinates":[-70.940796,42.54179]}},{"properties":{"city":"Columbus","store_name":"Easton Town Center","leasor":"Easton TC","type":"indoor/outdoor","latlong 1":40.0462925,"id":"a64uzaeybmuo","latlong 2":-82.9125036,"s.f.":null,"other":"remodeled Sept. 2-17, 2009","date opened":{"end_time":"2001/09/08 00:00:00 -0400","original":"September 7, 2001","granularity":"day","time":"2001/09/07 00:00:00 -0400"},"state":"OH"},"type":"Feature","geometry":{"type":"Point","coordinates":[-82.9125036,40.0462925]}},{"properties":{"city":"Tampa","store_name":"International Plaza","leasor":"Taubman","type":"indoor","latlong 1":27.962767,"id":"a64uzaap20t4","latlong 2":-82.517985,"s.f.":8300,"other":"remodeled Aug. 24-Sept. 17, 2009","date opened":{"end_time":"2001/09/19 00:00:00 -0400","original":"September 18, 2001","granularity":"day","time":"2001/09/18 00:00:00 -0400"},"state":"FL"},"type":"Feature","geometry":{"type":"Point","coordinates":[-82.517985,27.962767]}},{"properties":{"city":"Palo Alto","store_name":"Palo Alto","leasor":null,"type":"outdoor street","latlong 1":37.4583088,"id":"a64uzai3sl0n","latlong 2":-122.1156865,"s.f.":6500,"other":"heritage building, wood floor, back-lit logo storefront","date opened":{"end_time":"2001/10/11 00:00:00 -0400","original":"October 10, 2001","granularity":"day","time":"2001/10/10 00:00:00 -0400"},"state":"CA"},"type":"Feature","geometry":{"type":"Point","coordinates":[-122.1156865,37.4583088]}},{"properties":{"city":"Albany","store_name":"Crossgates","leasor":"Pyramid Mgmt Group","type":"indoor","latlong 1":42.6917123,"id":"a64uza81ekb7","latlong 2":-73.8519645,"s.f.":6500,"other":"remodeled Aug. 31-Sept. 17, 2009","date opened":{"end_time":"2001/10/14 00:00:00 -0400","original":"October 13, 2001","granularity":"day","time":"2001/10/13 00:00:00 -0400"},"state":"NY"},"type":"Feature","geometry":{"type":"Point","coordinates":[-73.8519645,42.6917123]}},{"properties":{"city":"Germantown","store_name":"Saddle Creek","leasor":"Saddle Creek","type":"outdoor street","latlong 1":35.1169324,"id":"a64uzagtl0d9","latlong 2":-89.8323065,"s.f.":6500,"other":"remodeled Aug. 17-Sept. 3, 2009","date opened":{"end_time":"2001/10/14 00:00:00 -0400","original":"October 13, 2001","granularity":"day","time":"2001/10/13 00:00:00 -0400"},"state":"TN"},"type":"Feature","geometry":{"type":"Point","coordinates":[-89.8323065,35.1169324]}},{"properties":{"city":"Northridge","store_name":"Northridge","leasor":"Macerich","type":"indoor","latlong 1":34.2429475,"id":"a64uzait0uds","latlong 2":-118.5274931,"s.f.":null,"other":"remodeled May 18-29, 2009","date opened":{"end_time":"2001/10/14 00:00:00 -0400","original":"October 13, 2001","granularity":"day","time":"2001/10/13 00:00:00 -0400"},"state":"CA"},"type":"Feature","geometry":{"type":"Point","coordinates":[-118.5274931,34.2429475]}},{"properties":{"city":"Farmington","store_name":"Westfarms","leasor":"Taubman","type":"indoor","latlong 1":41.722523,"id":"a64uzaiayhut","latlong 2":-72.7620098,"s.f.":6800,"other":"remodeled May 18-June 4, 2009","date opened":{"end_time":"2001/10/14 00:00:00 -0400","original":"October 13, 2001","granularity":"day","time":"2001/10/13 00:00:00 -0400"},"state":"CT"},"type":"Feature","geometry":{"type":"Point","coordinates":[-72.7620098,41.722523]}},{"properties":{"city":"Chandler","store_name":"Chandler Fashion Center","leasor":"Westcor","type":"indoor","latlong 1":33.2997943,"id":"a64uzagdqaq8","latlong 2":-111.902178,"s.f.":null,"other":"remodeled March 2009","date opened":{"end_time":"2001/10/28 00:00:00 -0400","original":"October 27, 2001","granularity":"day","time":"2001/10/27 00:00:00 -0400"},"state":"AZ"},"type":"Feature","geometry":{"type":"Point","coordinates":[-111.902178,33.2997943]}},{"properties":{"city":"Cincinnati","store_name":"Kenwood Towne Centre","leasor":"General Growth","type":"indoor","latlong 1":39.199916,"id":"a64uza615d9i","latlong 2":-84.378027,"s.f.":6500,"other":"remodeled June 1-11, 2009","date opened":{"end_time":"2001/11/04 00:00:00 -0500","original":"November 3, 2001","granularity":"day","time":"2001/11/03 00:00:00 -0500"},"state":"OH"},"type":"Feature","geometry":{"type":"Point","coordinates":[-84.378027,39.199916]}},{"properties":{"city":"Littleton","store_name":"Aspen Grove","leasor":"Developers Div.","type":"outdoor","latlong 1":39.585667,"id":"a64uzal1hyu8","latlong 2":-105.0250103,"s.f.":6300,"other":"remodeled April 6-23, 2009","date opened":{"end_time":"2001/11/11 00:00:00 -0500","original":"November 10, 2001","granularity":"day","time":"2001/11/10 00:00:00 -0500"},"state":"CO"},"type":"Feature","geometry":{"type":"Point","coordinates":[-105.0250103,39.585667]}},{"properties":{"city":"Newport Beach","store_name":"Fashion Island","leasor":"Irvine Co.","type":"outdoor","latlong 1":33.616431,"id":"a64uzab93wl9","latlong 2":-117.878535,"s.f.":null,"other":"remodeled Oct. 4, 2009-Oct. 9, 2009. Moved to larger space Aug. 20, Briefing Room","date opened":{"end_time":"2001/11/11 00:00:00 -0500","original":"November 10, 2001","granularity":"day","time":"2001/11/10 00:00:00 -0500"},"state":"CA"},"type":"Feature","geometry":{"type":"Point","coordinates":[-117.878535,33.616431]}},{"properties":{"city":"Buffalo","store_name":"Walden Galleria","leasor":"Pyramid Mgmt Group","type":"indoor","latlong 1":42.9097951,"id":"a64uzahk8wp4","latlong 2":-78.7622785,"s.f.":7300,"other":"remodeled Aug. 17-27, 2009","date opened":{"end_time":"2001/11/24 00:00:00 -0500","original":"November 23, 2001","granularity":"day","time":"2001/11/23 00:00:00 -0500"},"state":"NY"},"type":"Feature","geometry":{"type":"Point","coordinates":[-78.7622785,42.9097951]}},{"properties":{"city":"Miami","store_name":"The Falls","leasor":"Taubman","type":"outdoor","latlong 1":26.6648161,"id":"a64uzae2ierg","latlong 2":-80.2175612,"s.f.":7000,"other":null,"date opened":{"end_time":"2001/11/24 00:00:00 -0500","original":"November 23, 2001","granularity":"day","time":"2001/11/23 00:00:00 -0500"},"state":"FL"},"type":"Feature","geometry":{"type":"Point","coordinates":[-80.2175612,26.6648161]}},{"properties":{"city":"San Diego","store_name":"Fashion Valley","leasor":"Simon Property Group","type":"indoor","latlong 1":32.7685686,"id":"a64uza6e266k","latlong 2":-117.1670753,"s.f.":null,"other":"remodeled March-June 2007","date opened":{"end_time":"2001/11/24 00:00:00 -0500","original":"November 23, 2001","granularity":"day","time":"2001/11/23 00:00:00 -0500"},"state":"CA"},"type":"Feature","geometry":{"type":"Point","coordinates":[-117.1670753,32.7685686]}},{"properties":{"city":"Santa Clara","store_name":"Valley Fair","leasor":"Westfield Group","type":"indoor","latlong 1":37.3938828,"id":"a64uza54uy3g","latlong 2":-121.9725483,"s.f.":null,"other":null,"date opened":{"end_time":"2001/11/24 00:00:00 -0500","original":"November 23, 2001","granularity":"day","time":"2001/11/23 00:00:00 -0500"},"state":"CA"},"type":"Feature","geometry":{"type":"Point","coordinates":[-121.9725483,37.3938828]}},{"properties":{"city":"Woodcliff Lake","store_name":"Tice's Corner","leasor":null,"type":"outdoor","latlong 1":41.0234304,"id":"a64uzafn49cw","latlong 2":-74.0665297,"s.f.":null,"other":"remodeled March 2009","date opened":{"end_time":"2001/11/28 00:00:00 -0500","original":"November 27, 2001","granularity":"day","time":"2001/11/27 00:00:00 -0500"},"state":"NJ"},"type":"Feature","geometry":{"type":"Point","coordinates":[-74.0665297,41.0234304]}},{"properties":{"city":"Arlington","store_name":"Clarendon","leasor":null,"type":"outdoor","latlong 1":38.8878832,"id":"a64uza81xcv2","latlong 2":-77.0895421,"s.f.":null,"other":"remodeled March 2009","date opened":{"end_time":"2001/12/02 00:00:00 -0500","original":"December 1, 2001","granularity":"day","time":"2001/12/01 00:00:00 -0500"},"state":"VA"},"type":"Feature","geometry":{"type":"Point","coordinates":[-77.0895421,38.8878832]}},{"properties":{"city":"Costa Mesa","store_name":"South Coast Plaza","leasor":null,"type":"indoor","latlong 1":33.690194,"id":"a64uzagrx8l3","latlong 2":-117.9054792,"s.f.":6100,"other":null,"date opened":{"end_time":"2001/12/02 00:00:00 -0500","original":"December 1, 2001","granularity":"day","time":"2001/12/01 00:00:00 -0500"},"state":"CA"},"type":"Feature","geometry":{"type":"Point","coordinates":[-117.9054792,33.690194]}},{"properties":{"city":"Salem","store_name":"Rockingham Park","leasor":"Simon Property Group","type":"indoor","latlong 1":42.7715317,"id":"a64uzafsgz20","latlong 2":-71.2261792,"s.f.":null,"other":"remodeled early April 2009","date opened":{"end_time":"2001/12/09 00:00:00 -0500","original":"December 8, 2001","granularity":"day","time":"2001/12/08 00:00:00 -0500"},"state":"NH"},"type":"Feature","geometry":{"type":"Point","coordinates":[-71.2261792,42.7715317]}},{"properties":{"city":"West Nyack","store_name":"Palisades","leasor":null,"type":"indoor","latlong 1":41.0995827,"id":"a64uza690zyb","latlong 2":-73.9620477,"s.f.":6700,"other":"remodeled June 15 - July 2, 2009","date opened":{"end_time":"2001/12/09 00:00:00 -0500","original":"December 8, 2001","granularity":"day","time":"2001/12/08 00:00:00 -0500"},"state":"NY"},"type":"Feature","geometry":{"type":"Point","coordinates":[-73.9620477,41.0995827]}},{"properties":{"city":"Cambridge","store_name":"Cambridgeside","leasor":"Cambridgeside","type":"indoor","latlong 1":42.3670192,"id":"a64uza8ejgfu","latlong 2":-71.0760128,"s.f.":null,"other":"remodeled May 10-21, 2009","date opened":{"end_time":"2001/12/16 00:00:00 -0500","original":"December 15, 2001","granularity":"day","time":"2001/12/15 00:00:00 -0500"},"state":"MA"},"type":"Feature","geometry":{"type":"Point","coordinates":[-71.0760128,42.3670192]}},{"properties":{"city":"Durham","store_name":"Southpoint","leasor":"General Growth","type":"outdoor street","latlong 1":35.905841,"id":"a64uza5d40z3","latlong 2":-78.937798,"s.f.":null,"other":"remodeled April 12-24, 2009","date opened":{"end_time":"2002/03/10 00:00:00 -0500","original":"March 9, 2002","granularity":"day","time":"2002/03/09 00:00:00 -0500"},"state":"NC"},"type":"Feature","geometry":{"type":"Point","coordinates":[-78.937798,35.905841]}},{"properties":{"city":"Phoenix","store_name":"Biltmore","leasor":"Macerich","type":"outdoor","latlong 1":33.417094,"id":"a64uza7oeoqa","latlong 2":-112.014169,"s.f.":7400,"other":"expanded in August, 2008","date opened":{"end_time":"2002/03/31 00:00:00 -0500","original":"March 30, 2002","granularity":"day","time":"2002/03/30 00:00:00 -0500"},"state":"AZ"},"type":"Feature","geometry":{"type":"Point","coordinates":[-112.014169,33.417094]}},{"properties":{"city":"Atlanta","store_name":"Lenox Square","leasor":"Simon Property Group","type":"indoor","latlong 1":33.8396376,"id":"a64uzajzf3ct","latlong 2":-84.3580969,"s.f.":null,"other":"remodeled March-June, 2007","date opened":{"end_time":"2002/05/12 00:00:00 -0400","original":"May 11, 2002","granularity":"day","time":"2002/05/11 00:00:00 -0400"},"state":"GA"},"type":"Feature","geometry":{"type":"Point","coordinates":[-84.3580969,33.8396376]}},{"properties":{"city":"Short Hills","store_name":"Short Hills","leasor":"Taubman","type":"indoor","latlong 1":40.725249,"id":"a64uzai1mynu","latlong 2":-74.323754,"s.f.":null,"other":null,"date opened":{"end_time":"2002/06/23 00:00:00 -0400","original":"June 22, 2002","granularity":"day","time":"2002/06/22 00:00:00 -0400"},"state":"NJ"},"type":"Feature","geometry":{"type":"Point","coordinates":[-74.323754,40.725249]}},{"properties":{"city":"New York City","store_name":"SoHo","leasor":null,"type":"outdoor street","latlong 1":40.7248688,"id":"a64uzala32e0","latlong 2":-74.00504,"s.f.":21000,"other":"heritage bldg, glass staircase, theater renov Feb 2006","date opened":{"end_time":"2002/07/19 00:00:00 -0400","original":"July 18, 2002","granularity":"day","time":"2002/07/18 00:00:00 -0400"},"state":"NY"},"type":"Feature","geometry":{"type":"Point","coordinates":[-74.00504,40.7248688]}},{"properties":{"city":"Garden City","store_name":"Roosevelt Field","leasor":"Simon Property Group","type":"indoor","latlong 1":40.737526,"id":"a64uza8puxnc","latlong 2":-73.612089,"s.f.":null,"other":"moved to ground-floor Restoration Hardware space &amp; reopened Dec. 10, 2009","date opened":{"end_time":"2002/07/21 00:00:00 -0400","original":"July 20, 2002","granularity":"day","time":"2002/07/20 00:00:00 -0400"},"state":"NY"},"type":"Feature","geometry":{"type":"Point","coordinates":[-73.612089,40.737526]}},{"properties":{"city":"Los Angeles","store_name":"The Grove","leasor":"Caruso","type":"outdoor street","latlong 1":34.2705879,"id":"a64uzaeg8i4o","latlong 2":-118.308363,"s.f.":null,"other":"glass staircase, CA/OP/LP","date opened":{"end_time":"2002/07/27 00:00:00 -0400","original":"July 26, 2002","granularity":"day","time":"2002/07/26 00:00:00 -0400"},"state":"CA"},"type":"Feature","geometry":{"type":"Point","coordinates":[-118.308363,34.2705879]}},{"properties":{"city":"Wellington","store_name":"Wellington Green","leasor":"Taubman","type":"indoor","latlong 1":26.6468613,"id":"a64uza5kezh0","latlong 2":-80.2164939,"s.f.":null,"other":"remodeled June 1-25, 2009","date opened":{"end_time":"2002/08/18 00:00:00 -0400","original":"August 17, 2002","granularity":"day","time":"2002/08/17 00:00:00 -0400"},"state":"FL"},"type":"Feature","geometry":{"type":"Point","coordinates":[-80.2164939,26.6468613]}},{"properties":{"city":"Novi","store_name":"Twelve Oaks","leasor":"Taubman","type":"indoor","latlong 1":42.4927091,"id":"a64uzah416t1","latlong 2":-83.4739827,"s.f.":6500,"other":"remodeled Aug. 17 - Sept. 4, 2009","date opened":{"end_time":"2002/09/01 00:00:00 -0400","original":"August 31, 2002","granularity":"day","time":"2002/08/31 00:00:00 -0400"},"state":"MI"},"type":"Feature","geometry":{"type":"Point","coordinates":[-83.4739827,42.4927091]}},{"properties":{"city":"Wauwatosa","store_name":"Mayfair","leasor":"General Growth","type":"indoor","latlong 1":43.0674048,"id":"a64uzad1n3gs","latlong 2":-88.0478796,"s.f.":null,"other":"remodeled Aug. 10-28, 2009, renovation Feb. 21-28, 2011","date opened":{"end_time":"2002/09/01 00:00:00 -0400","original":"August 31, 2002","granularity":"day","time":"2002/08/31 00:00:00 -0400"},"state":"WI"},"type":"Feature","geometry":{"type":"Point","coordinates":[-88.0478796,43.0674048]}},{"properties":{"city":"White Plains","store_name":"The Westchester","leasor":"Simon Property Group","type":"indoor","latlong 1":41.0339862,"id":"a64uza8if32g","latlong 2":-73.7629097,"s.f.":null,"other":"remodeled April 27-May 9, 2009","date opened":{"end_time":"2002/09/08 00:00:00 -0400","original":"September 7, 2002","granularity":"day","time":"2002/09/07 00:00:00 -0400"},"state":"NY"},"type":"Feature","geometry":{"type":"Point","coordinates":[-73.7629097,41.0339862]}},{"properties":{"city":"Des Peres","store_name":"West County","leasor":"Westfield Group","type":"indoor","latlong 1":38.601358,"id":"a64uza7q102v","latlong 2":-90.446492,"s.f.":null,"other":"remodeled August 31-Sept. 18, 2009","date opened":{"end_time":"2002/09/22 00:00:00 -0400","original":"September 21, 2002","granularity":"day","time":"2002/09/21 00:00:00 -0400"},"state":"MO"},"type":"Feature","geometry":{"type":"Point","coordinates":[-90.446492,38.601358]}},{"properties":{"city":"Houston","store_name":"Houston Galleria","leasor":"Simon Property Group","type":"indoor","latlong 1":29.740085,"id":"a64uzabqjmmg","latlong 2":-95.4613209,"s.f.":null,"other":"remodeled March-June, 2007, remodeled Oct. 12, 2009 - Oct. 16, 2009","date opened":{"end_time":"2002/09/22 00:00:00 -0400","original":"September 21, 2002","granularity":"day","time":"2002/09/21 00:00:00 -0400"},"state":"TX"},"type":"Feature","geometry":{"type":"Point","coordinates":[-95.4613209,29.740085]}},{"properties":{"city":"Towson","store_name":"Towson Town Center","leasor":"General Growth","type":"indoor","latlong 1":39.3929109,"id":"a64uzafffmbv","latlong 2":-76.6080554,"s.f.":null,"other":"remodeled July 20-August 7, 2009","date opened":{"end_time":"2002/10/06 00:00:00 -0400","original":"October 5, 2002","granularity":"day","time":"2002/10/05 00:00:00 -0400"},"state":"MD"},"type":"Feature","geometry":{"type":"Point","coordinates":[-76.6080554,39.3929109]}},{"properties":{"city":"Troy","store_name":"Somerset Collection","leasor":"Forbes Co.-Frankel","type":"indoor","latlong 1":42.559359,"id":"a64uzajoqynu","latlong 2":-83.182649,"s.f.":4843,"other":"expanded from 3,290 s.f. in June 2006; closed August 8, 2011 for remodel","date opened":{"end_time":"2002/10/13 00:00:00 -0400","original":"October 12, 2002","granularity":"day","time":"2002/10/12 00:00:00 -0400"},"state":"MI"},"type":"Feature","geometry":{"type":"Point","coordinates":[-83.182649,42.559359]}},{"properties":{"city":"Orlando","store_name":"Millenia","leasor":"Forbes-Taubman","type":"indoor","latlong 1":28.4872213,"id":"a64uza7qfuhk","latlong 2":-81.4306454,"s.f.":null,"other":"remodeled Jan.-April 2007. Moving to #206 during expansion into Kenneth Cole","date opened":{"end_time":"2002/10/20 00:00:00 -0400","original":"October 19, 2002","granularity":"day","time":"2002/10/19 00:00:00 -0400"},"state":"FL"},"type":"Feature","geometry":{"type":"Point","coordinates":[-81.4306454,28.4872213]}},{"properties":{"city":"Indianapolis","store_name":"Keystone","leasor":"Simon Property Group","type":"indoor","latlong 1":39.8605712,"id":"a64uza7uvhrj","latlong 2":-86.1220847,"s.f.":null,"other":"remodeled Sept. 7-25, 2009","date opened":{"end_time":"2002/11/03 00:00:00 -0500","original":"November 2, 2002","granularity":"day","time":"2002/11/02 00:00:00 -0500"},"state":"IN"},"type":"Feature","geometry":{"type":"Point","coordinates":[-86.1220847,39.8605712]}},{"properties":{"city":"Edina","store_name":"Southdale","leasor":"Dayton Co.","type":"indoor","latlong 1":44.8697376,"id":"a64uzahs88lm","latlong 2":-93.3198893,"s.f.":null,"other":"remodeled Aug. 10-28, 2009","date opened":{"end_time":"2002/11/03 00:00:00 -0500","original":"November 2, 2002","granularity":"day","time":"2002/11/02 00:00:00 -0500"},"state":"MN"},"type":"Feature","geometry":{"type":"Point","coordinates":[-93.3198893,44.8697376]}},{"properties":{"city":"Las Vegas","store_name":"Fashion Show","leasor":"General Growth","type":"indoor","latlong 1":36.1283279,"id":"a64uza9erudz","latlong 2":-115.1736301,"s.f.":null,"other":"remodeled June 15 - July 9, 2009","date opened":{"end_time":"2002/11/03 00:00:00 -0500","original":"November 2, 2002","granularity":"day","time":"2002/11/02 00:00:00 -0500"},"state":"NV"},"type":"Feature","geometry":{"type":"Point","coordinates":[-115.1736301,36.1283279]}},{"properties":{"city":"Edison","store_name":"Menlo Park","leasor":"Simon Property Group","type":"indoor","latlong 1":40.5172222,"id":"a64uza87f19c","latlong 2":-74.3455555,"s.f.":null,"other":"remodeled June 1-25, 2009","date opened":{"end_time":"2002/11/10 00:00:00 -0500","original":"November 9, 2002","granularity":"day","time":"2002/11/09 00:00:00 -0500"},"state":"NJ"},"type":"Feature","geometry":{"type":"Point","coordinates":[-74.3455555,40.5172222]}},{"properties":{"city":"King of Prussia","store_name":"King of Prussia","leasor":"Kravco Co.","type":"indoor","latlong 1":40.0866017,"id":"a64uzaj6rjmu","latlong 2":-75.3943682,"s.f.":null,"other":"moving &amp; expanding to former Wanamakers 2-level space by 2012","date opened":{"end_time":"2002/11/10 00:00:00 -0500","original":"November 9, 2002","granularity":"day","time":"2002/11/09 00:00:00 -0500"},"state":"PA"},"type":"Feature","geometry":{"type":"Point","coordinates":[-75.3943682,40.0866017]}},{"properties":{"city":"Emeryville","store_name":"Bay Street","leasor":"Madison-Marquette","type":"outdoor street","latlong 1":37.8370601,"id":"a64uzakhkwms","latlong 2":-122.2924303,"s.f.":null,"other":"moved to large adjacent space August 2007","date opened":{"end_time":"2002/11/24 00:00:00 -0500","original":"November 23, 2002","granularity":"day","time":"2002/11/23 00:00:00 -0500"},"state":"CA"},"type":"Feature","geometry":{"type":"Point","coordinates":[-122.2924303,37.8370601]}},{"properties":{"city":"Denver","store_name":"Cherry Creek","leasor":"Taubman","type":"indoor","latlong 1":39.7206887,"id":"a64uzai6x64y","latlong 2":-104.9476466,"s.f.":null,"other":"remodeled March 2009","date opened":{"end_time":"2002/11/24 00:00:00 -0500","original":"November 23, 2002","granularity":"day","time":"2002/11/23 00:00:00 -0500"},"state":"CO"},"type":"Feature","geometry":{"type":"Point","coordinates":[-104.9476466,39.7206887]}},{"properties":{"city":"Oak Brook","store_name":"Oakbrook","leasor":"General Growth","type":"outdoor","latlong 1":41.8459359,"id":"a64uza6hno8u","latlong 2":-87.9808986,"s.f.":null,"other":null,"date opened":{"end_time":"2002/11/30 00:00:00 -0500","original":"November 29, 2002","granularity":"day","time":"2002/11/29 00:00:00 -0500"},"state":"IL"},"type":"Feature","geometry":{"type":"Point","coordinates":[-87.9808986,41.8459359]}},{"properties":{"city":"Pasadena","store_name":"Colorado Blvd.","leasor":null,"type":"outdoor street","latlong 1":34.1394706,"id":"a64uzac8e52p","latlong 2":-118.2036866,"s.f.":11800,"other":"entrance remodeled 2006;now moved during remodel/expansion construction","date opened":{"end_time":"2003/01/08 00:00:00 -0500","original":"January 7, 2003","granularity":"day","time":"2003/01/07 00:00:00 -0500"},"state":"CA"},"type":"Feature","geometry":{"type":"Point","coordinates":[-118.2036866,34.1394706]}},{"properties":{"city":"Highland Park","store_name":"Knox Street","leasor":null,"type":"outdoor street","latlong 1":32.8240586,"id":"a64uzahukpbd","latlong 2":-96.7911921,"s.f.":null,"other":"red brick fa�ade;moved Jan. 30, 2011 during store remodel/expansion","date opened":{"end_time":"2003/01/26 00:00:00 -0500","original":"January 25, 2003","granularity":"day","time":"2003/01/25 00:00:00 -0500"},"state":"TX"},"type":"Feature","geometry":{"type":"Point","coordinates":[-96.7911921,32.8240586]}},{"properties":{"city":"Bellevue","store_name":"Bellevue Square","leasor":"Bellevue Square","type":"indoor","latlong 1":47.6151264,"id":"a64uza9rbux2","latlong 2":-122.2030111,"s.f.":4600,"other":"moving to larger space upstairs in late 2011","date opened":{"end_time":"2003/05/11 00:00:00 -0400","original":"May 10, 2003","granularity":"day","time":"2003/05/10 00:00:00 -0400"},"state":"WA"},"type":"Feature","geometry":{"type":"Point","coordinates":[-122.2030111,47.6151264]}},{"properties":{"city":"Huntington Station","store_name":"Walt Whitman","leasor":"Simon Property Group","type":"indoor","latlong 1":40.8184285,"id":"a64uzaaoxmjg","latlong 2":-73.4113534,"s.f.":null,"other":"remodeled June 29 - July 7, 2009","date opened":{"end_time":"2003/05/11 00:00:00 -0400","original":"May 10, 2003","granularity":"day","time":"2003/05/10 00:00:00 -0400"},"state":"NY"},"type":"Feature","geometry":{"type":"Point","coordinates":[-73.4113534,40.8184285]}},{"properties":{"city":"Sacramento","store_name":"Arden Fair","leasor":"Macerich","type":"indoor","latlong 1":38.6009526,"id":"a64uzaanwdmm","latlong 2":-121.4263327,"s.f.":3600,"other":"remodeled July 13-August 6, 2009","date opened":{"end_time":"2003/05/18 00:00:00 -0400","original":"May 17, 2003","granularity":"day","time":"2003/05/17 00:00:00 -0400"},"state":"CA"},"type":"Feature","geometry":{"type":"Point","coordinates":[-121.4263327,38.6009526]}},{"properties":{"city":"Honolulu","store_name":"Ala Moana","leasor":"General Growth","type":"outdoor","latlong 1":21.2975187,"id":"a64uzaebz2xo","latlong 2":-157.8539978,"s.f.":4600,"other":null,"date opened":{"end_time":"2003/05/18 00:00:00 -0400","original":"May 17, 2003","granularity":"day","time":"2003/05/17 00:00:00 -0400"},"state":"HI"},"type":"Feature","geometry":{"type":"Point","coordinates":[-157.8539978,21.2975187]}},{"properties":{"city":"Chestnut Hill","store_name":"Chestnut Hill","leasor":"Simon Property Group","type":"indoor","latlong 1":42.330653,"id":"a64uzagz6vr6","latlong 2":-71.1622757,"s.f.":null,"other":null,"date opened":{"end_time":"2003/06/15 00:00:00 -0400","original":"June 14, 2003","granularity":"day","time":"2003/06/14 00:00:00 -0400"},"state":"MA"},"type":"Feature","geometry":{"type":"Point","coordinates":[-71.1622757,42.330653]}},{"properties":{"city":"Chicago","store_name":"North Michigan Avenue","leasor":"Apple","type":"outdoor street","latlong 1":41.8941427,"id":"a64uza5x93mk","latlong 2":-87.6241383,"s.f.":24000,"other":"glass staircase, stone siding, green roof garden","date opened":{"end_time":"2003/06/28 00:00:00 -0400","original":"June 27, 2003","granularity":"day","time":"2003/06/27 00:00:00 -0400"},"state":"IL"},"type":"Feature","geometry":{"type":"Point","coordinates":[-87.6241383,41.8941427]}},{"properties":{"city":"Boca Raton","store_name":"Boca Raton","leasor":"Simon Property Group","type":"indoor","latlong 1":26.3786909,"id":"a64uzaexuh0o","latlong 2":-80.107705,"s.f.":null,"other":"moving to 45' space mid-2007","date opened":{"end_time":"2003/07/05 00:00:00 -0400","original":"July 4, 2003","granularity":"day","time":"2003/07/04 00:00:00 -0400"},"state":"FL"},"type":"Feature","geometry":{"type":"Point","coordinates":[-80.107705,26.3786909]}},{"properties":{"city":"Santa Monica","store_name":"Third Street Promenade","leasor":null,"type":"outdoor street","latlong 1":34.01562,"id":"a64uzahjdwxi","latlong 2":-118.4961448,"s.f.":7500,"other":"plans submitted to city: move to 1415 Third in 12,464 s.f. new building","date opened":{"end_time":"2003/07/12 00:00:00 -0400","original":"July 11, 2003","granularity":"day","time":"2003/07/11 00:00:00 -0400"},"state":"CA"},"type":"Feature","geometry":{"type":"Point","coordinates":[-118.4961448,34.01562]}},{"properties":{"city":"Walnut Creek","store_name":"Walnut Creek","leasor":"Apple","type":"outdoor street","latlong 1":37.895145,"id":"a64uzaabtaf8","latlong 2":-122.061186,"s.f.":null,"other":"remodeled Aug. 6-21, 2009","date opened":{"end_time":"2003/07/13 00:00:00 -0400","original":"July 12, 2003","granularity":"day","time":"2003/07/12 00:00:00 -0400"},"state":"CA"},"type":"Feature","geometry":{"type":"Point","coordinates":[-122.061186,37.895145]}},{"properties":{"city":"Burlingame","store_name":"Burlingame Avenue","leasor":"Apple","type":"outdoor street","latlong 1":37.5809857,"id":"a64uza6trwfi","latlong 2":-122.3435951,"s.f.":8100,"other":"stone siding","date opened":{"end_time":"2003/07/27 00:00:00 -0400","original":"July 26, 2003","granularity":"day","time":"2003/07/26 00:00:00 -0400"},"state":"CA"},"type":"Feature","geometry":{"type":"Point","coordinates":[-122.3435951,37.5809857]}},{"properties":{"city":"Richmond","store_name":"Short Pump Town Center","leasor":"Forest City Ent.","type":"outdoor","latlong 1":37.6619444,"id":"a64uzabdd6kg","latlong 2":-77.6266667,"s.f.":null,"other":"remodeled June 1-11, 2009","date opened":{"end_time":"2003/09/05 00:00:00 -0400","original":"September 4, 2003","granularity":"day","time":"2003/09/04 00:00:00 -0400"},"state":"VA"},"type":"Feature","geometry":{"type":"Point","coordinates":[-77.6266667,37.6619444]}},{"properties":{"city":"Seattle","store_name":"University Village","leasor":"University Village","type":"outdoor","latlong 1":47.6633355,"id":"a64uzafddn3s","latlong 2":-122.2986764,"s.f.":6677,"other":"add mezzanine Sept. 2008","date opened":{"end_time":"2003/09/27 00:00:00 -0400","original":"September 26, 2003","granularity":"day","time":"2003/09/26 00:00:00 -0400"},"state":"WA"},"type":"Feature","geometry":{"type":"Point","coordinates":[-122.2986764,47.6633355]}},{"properties":{"city":"Lyndhurst","store_name":"Legacy Village","leasor":"First Interstate","type":"indoor","latlong 1":41.5200523,"id":"a64uzacvli3s","latlong 2":-81.4887315,"s.f.":null,"other":null,"date opened":{"end_time":"2003/10/25 00:00:00 -0400","original":"October 24, 2003","granularity":"day","time":"2003/10/24 00:00:00 -0400"},"state":"OH"},"type":"Feature","geometry":{"type":"Point","coordinates":[-81.4887315,41.5200523]}},{"properties":{"city":"San Diego","store_name":"University Town Center","leasor":"Westfield Group","type":"outdoor","latlong 1":33.0665774,"id":"a64uzaf6y4tv","latlong 2":-117.2648823,"s.f.":null,"other":null,"date opened":{"end_time":"2003/10/25 00:00:00 -0400","original":"October 24, 2003","granularity":"day","time":"2003/10/24 00:00:00 -0400"},"state":"CA"},"type":"Feature","geometry":{"type":"Point","coordinates":[-117.2648823,33.0665774]}},{"properties":{"city":"Marlton","store_name":"Sagemore","leasor":"The Promenade","type":"outdoor","latlong 1":39.877963,"id":"a64uzai5xclf","latlong 2":-74.921501,"s.f.":null,"other":null,"date opened":{"end_time":"2003/11/02 00:00:00 -0500","original":"November 1, 2003","granularity":"day","time":"2003/11/01 00:00:00 -0500"},"state":"NJ"},"type":"Feature","geometry":{"type":"Point","coordinates":[-74.921501,39.877963]}},{"properties":{"city":"Corte Madera","store_name":"Corte Madera","leasor":"Macerich","type":"outdoor","latlong 1":37.9286764,"id":"a64uza8bsm95","latlong 2":-122.5145317,"s.f.":null,"other":null,"date opened":{"end_time":"2003/11/02 00:00:00 -0500","original":"November 1, 2003","granularity":"day","time":"2003/11/01 00:00:00 -0500"},"state":"CA"},"type":"Feature","geometry":{"type":"Point","coordinates":[-122.5145317,37.9286764]}},{"properties":{"city":"Skokie","store_name":"Old Orchard","leasor":"Westfield Group","type":"outdoor","latlong 1":42.0607619,"id":"a64uzabgvxtt","latlong 2":-87.7490607,"s.f.":null,"other":null,"date opened":{"end_time":"2003/11/08 00:00:00 -0500","original":"November 7, 2003","granularity":"day","time":"2003/11/07 00:00:00 -0500"},"state":"IL"},"type":"Feature","geometry":{"type":"Point","coordinates":[-87.7490607,42.0607619]}},{"properties":{"city":"Tigard","store_name":"Washington Square","leasor":"Macerich","type":"indoor","latlong 1":45.4501049,"id":"a64uzajsqjs0","latlong 2":-122.7788383,"s.f.":null,"other":"remodeled unk time to move Genius Bar; remodeled April 27-May 9, 2009","date opened":{"end_time":"2003/11/16 00:00:00 -0500","original":"November 15, 2003","granularity":"day","time":"2003/11/15 00:00:00 -0500"},"state":"OR"},"type":"Feature","geometry":{"type":"Point","coordinates":[-122.7788383,45.4501049]}},{"properties":{"city":"Tokyo","store_name":"Ginza","leasor":"Apple","type":"outdoor street","latlong 1":35.668256,"id":"a64uzagr37zh","latlong 2":139.764523,"s.f.":20000,"other":"4-story, elevator shuttles","date opened":{"end_time":"2003/12/01 00:00:00 -0500","original":"November 30, 2003","granularity":"day","time":"2003/11/30 00:00:00 -0500"},"state":"Japan"},"type":"Feature","geometry":{"type":"Point","coordinates":[139.764523,35.668256]}},{"properties":{"city":"Alpharetta","store_name":"North Point","leasor":"General Growth","type":"indoor","latlong 1":34.0546482,"id":"a64uzafxnyet","latlong 2":-84.2770581,"s.f.":null,"other":"Business Consultant, Creative","date opened":{"end_time":"2003/12/07 00:00:00 -0500","original":"December 6, 2003","granularity":"day","time":"2003/12/06 00:00:00 -0500"},"state":"GA"},"type":"Feature","geometry":{"type":"Point","coordinates":[-84.2770581,34.0546482]}},{"properties":{"city":"Tucson","store_name":"LaEncantada","leasor":"Macerich","type":"outdoor","latlong 1":32.3336758,"id":"a64uza8alu0r","latlong 2":-110.9297659,"s.f.":null,"other":null,"date opened":{"end_time":"2004/01/25 00:00:00 -0500","original":"January 24, 2004","granularity":"day","time":"2004/01/24 00:00:00 -0500"},"state":"AZ"},"type":"Feature","geometry":{"type":"Point","coordinates":[-110.9297659,32.3336758]}},{"properties":{"city":"Aventura","store_name":"Aventura","leasor":"Turnberry","type":"indoor","latlong 1":25.960926,"id":"a64uza7wa8zv","latlong 2":-80.139214,"s.f.":null,"other":"remodeled Sept. 2008","date opened":{"end_time":"2004/02/01 00:00:00 -0500","original":"January 31, 2004","granularity":"day","time":"2004/01/31 00:00:00 -0500"},"state":"FL"},"type":"Feature","geometry":{"type":"Point","coordinates":[-80.139214,25.960926]}},{"properties":{"city":"Mission Viejo","store_name":"Mission Viejo","leasor":"Simon Property Group","type":"indoor","latlong 1":33.5962921,"id":"a64uzab6wpr5","latlong 2":-117.6590144,"s.f.":null,"other":"closed Sept. 14, 2009 - Nov. 27, 2009 for major remodel","date opened":{"end_time":"2004/02/14 00:00:00 -0500","original":"February 13, 2004","granularity":"day","time":"2004/02/13 00:00:00 -0500"},"state":"CA"},"type":"Feature","geometry":{"type":"Point","coordinates":[-117.6590144,33.5962921]}},{"properties":{"city":"San Francisco","store_name":"San Francisco","leasor":"Apple","type":"outdoor street","latlong 1":37.7749295,"id":"a64uzafd0rhh","latlong 2":-122.4194155,"s.f.":10800,"other":"glass staircase, stone siding, transit entrance","date opened":{"end_time":"2004/02/29 00:00:00 -0500","original":"February 28, 2004","granularity":"day","time":"2004/02/28 00:00:00 -0500"},"state":"CA"},"type":"Feature","geometry":{"type":"Point","coordinates":[-122.4194155,37.7749295]}},{"properties":{"city":"Charlotte","store_name":"SouthPark","leasor":"Simon Property Group","type":"outdoor","latlong 1":35.1490336,"id":"a64uzae87xfm","latlong 2":-80.8309048,"s.f.":4200,"other":"in mid-July 2011 source says will expand into Sur La Table space","date opened":{"end_time":"2004/03/13 00:00:00 -0500","original":"March 12, 2004","granularity":"day","time":"2004/03/12 00:00:00 -0500"},"state":"NC"},"type":"Feature","geometry":{"type":"Point","coordinates":[-80.8309048,35.1490336]}},{"properties":{"city":"Bethesda","store_name":"Montgomery Mall","leasor":"Westfield Group","type":"indoor","latlong 1":39.026162,"id":"a64uzahfax2b","latlong 2":-77.145984,"s.f.":null,"other":"remodeled April 27-May 9, 2009","date opened":{"end_time":"2004/05/09 00:00:00 -0400","original":"May 8, 2004","granularity":"day","time":"2004/05/08 00:00:00 -0400"},"state":"MD"},"type":"Feature","geometry":{"type":"Point","coordinates":[-77.145984,39.026162]}},{"properties":{"city":"Austin","store_name":"Barton Creek","leasor":"Simon Property Group","type":"indoor","latlong 1":30.2658933,"id":"a64uzacnvun5","latlong 2":-97.9811259,"s.f.":null,"other":"remodeled Aug 6-20, 2009","date opened":{"end_time":"2004/06/13 00:00:00 -0400","original":"June 12, 2004","granularity":"day","time":"2004/06/12 00:00:00 -0400"},"state":"TX"},"type":"Feature","geometry":{"type":"Point","coordinates":[-97.9811259,30.2658933]}},{"properties":{"city":"Roseville","store_name":"Rosedale Center","leasor":"Rosedale Center","type":"indoor","latlong 1":45.0145979,"id":"a64uzab10x3m","latlong 2":-93.1711268,"s.f.":null,"other":null,"date opened":{"end_time":"2004/07/25 00:00:00 -0400","original":"July 24, 2004","granularity":"day","time":"2004/07/24 00:00:00 -0400"},"state":"MN"},"type":"Feature","geometry":{"type":"Point","coordinates":[-93.1711268,45.0145979]}},{"properties":{"city":"Osaka","store_name":"Shinsaibashi","leasor":"Apple","type":"outdoor street","latlong 1":34.6937378,"id":"a64uzac12mde","latlong 2":135.5021651,"s.f.":7000,"other":"2-story w/corner entrance, first-ever spiral glass staircase","date opened":{"end_time":"2004/08/29 00:00:00 -0400","original":"August 28, 2004","granularity":"day","time":"2004/08/28 00:00:00 -0400"},"state":"Japan"},"type":"Feature","geometry":{"type":"Point","coordinates":[135.5021651,34.6937378]}},{"properties":{"city":"Pittsburgh","store_name":"Shadyside","leasor":"Kossman Dev.","type":"shopping district","latlong 1":40.4556477,"id":"a64uza7eqn12","latlong 2":-79.9276651,"s.f.":null,"other":"remodeled July 13-23, 2009","date opened":{"end_time":"2004/09/05 00:00:00 -0400","original":"September 4, 2004","granularity":"day","time":"2004/09/04 00:00:00 -0400"},"state":"PA"},"type":"Feature","geometry":{"type":"Point","coordinates":[-79.9276651,40.4556477]}},{"properties":{"city":"Pleasanton","store_name":"Stoneridge Mall","leasor":"Taubman","type":"indoor","latlong 1":"37.69583430000001","id":"83","latlong 2":"-121.9254539","s.f.":"~1,320","other":"remodeled Aug. 31-Sept. 18, 2009","date opened":"September 18, 2004","state":"CA"},"type":"Feature","geometry":{"type":"Point","coordinates":[-121.9254539,37.6958343]}},{"properties":{"city":"San Francisco","store_name":"Stonestown Galleria","leasor":"Macerich","type":"indoor","latlong 1":37.7749295,"id":"a64uzabln1z8","latlong 2":-122.4194155,"s.f.":null,"other":null,"date opened":{"end_time":"2004/09/26 00:00:00 -0400","original":"September 25, 2004","granularity":"day","time":"2004/09/25 00:00:00 -0400"},"state":"CA"},"type":"Feature","geometry":{"type":"Point","coordinates":[-122.4194155,37.7749295]}},{"properties":{"city":"Kansas City","store_name":"Country Club Plaza","leasor":"","type":"outdoor street","latlong 1":"39.041474","id":"85","latlong 2":"-94.59146469999999","s.f.":"~2,700","other":"brick fa�ade","date opened":"September 25, 2004","state":"MO"},"type":"Feature","geometry":{"type":"Point","coordinates":[-94.5914647,39.041474]}},{"properties":{"city":"Wilmington","store_name":"Christiana","leasor":"General Growth","type":"indoor","latlong 1":39.7239144,"id":"a64uza93ecv7","latlong 2":-75.5358303,"s.f.":3410,"other":"moved to larger space in expansion area on June 12, 2010","date opened":{"end_time":"2004/10/17 00:00:00 -0400","original":"October 16, 2004","granularity":"day","time":"2004/10/16 00:00:00 -0400"},"state":"DE"},"type":"Feature","geometry":{"type":"Point","coordinates":[-75.5358303,39.7239144]}},{"properties":{"city":"Stanford","store_name":"Stanford Shopping Center","leasor":"Simon Property Group","type":"outdoor","latlong 1":37.4416555,"id":"a64uzalfkjcp","latlong 2":-122.1713954,"s.f.":1680,"other":"mini-store","date opened":{"end_time":"2004/10/17 00:00:00 -0400","original":"October 16, 2004","granularity":"day","time":"2004/10/16 00:00:00 -0400"},"state":"CA"},"type":"Feature","geometry":{"type":"Point","coordinates":[-122.1713954,37.4416555]}},{"properties":{"city":"Santa Rosa","store_name":"Santa Rosa Plaza","leasor":"Simon Property Group","type":"indoor","latlong 1":"38.4407282","id":"88","latlong 2":"-122.7178633","s.f.":"~300","other":"mini-store, smallest store","date opened":"October 16, 2004","state":"CA"},"type":"Feature","geometry":{"type":"Point","coordinates":[-122.7178633,38.4407282]}},{"properties":{"city":"Rockaway","store_name":"Rockaway Townsquare","leasor":"Simon Property Group","type":"indoor","latlong 1":40.9014752,"id":"a64uzaemtn1o","latlong 2":-74.5522755,"s.f.":null,"other":"mini-store","date opened":{"end_time":"2004/10/17 00:00:00 -0400","original":"October 16, 2004","granularity":"day","time":"2004/10/16 00:00:00 -0400"},"state":"NJ"},"type":"Feature","geometry":{"type":"Point","coordinates":[-74.5522755,40.9014752]}},{"properties":{"city":"Bridgewater","store_name":"Bridgewater Commons","leasor":"General Growth","type":"indoor","latlong 1":40.590585,"id":"a64uza9lwutv","latlong 2":-74.625705,"s.f.":1771,"other":"mini-store; upgraded to full-size store on Nov. 8, 2008","date opened":{"end_time":"2004/10/17 00:00:00 -0400","original":"October 16, 2004","granularity":"day","time":"2004/10/16 00:00:00 -0400"},"state":"NJ"},"type":"Feature","geometry":{"type":"Point","coordinates":[-74.625705,40.590585]}},{"properties":{"city":"San Jose","store_name":"Oakridge","leasor":"Westfield Group","type":"indoor","latlong 1":37.2409885,"id":"a64uzakr1npr","latlong 2":-121.8203973,"s.f.":1200,"other":"mini-store","date opened":{"end_time":"2004/10/17 00:00:00 -0400","original":"October 16, 2004","granularity":"day","time":"2004/10/16 00:00:00 -0400"},"state":"CA"},"type":"Feature","geometry":{"type":"Point","coordinates":[-121.8203973,37.2409885]}},{"properties":{"city":"Tukwila","store_name":"Southcenter","leasor":"Westfield Group","type":"indoor","latlong 1":47.4649208,"id":"a64uzaie59nx","latlong 2":-122.2642067,"s.f.":null,"other":"mini-store; upgraded to full-size store on Nov. 15, 2008","date opened":{"end_time":"2004/10/17 00:00:00 -0400","original":"October 16, 2004","granularity":"day","time":"2004/10/16 00:00:00 -0400"},"state":"WA"},"type":"Feature","geometry":{"type":"Point","coordinates":[-122.2642067,47.4649208]}},{"properties":{"city":"Rancho Cucamonga","store_name":"Victoria Gardens","leasor":"Forest City Ent.","type":"shopping district","latlong 1":34.1111738,"id":"a64uzakxoanz","latlong 2":-117.5327468,"s.f.":null,"other":"moved across street Oct. 22, 2011 to expanded new building","date opened":{"end_time":"2004/10/29 00:00:00 -0400","original":"October 28, 2004","granularity":"day","time":"2004/10/28 00:00:00 -0400"},"state":"CA"},"type":"Feature","geometry":{"type":"Point","coordinates":[-117.5327468,34.1111738]}},{"properties":{"city":"Danbury","store_name":"Danbury Fair","leasor":"Wilmorite","type":"indoor","latlong 1":41.3846507,"id":"a64uza9a9ikw","latlong 2":-73.4607986,"s.f.":null,"other":null,"date opened":{"end_time":"2004/10/31 00:00:00 -0400","original":"October 30, 2004","granularity":"day","time":"2004/10/30 00:00:00 -0400"},"state":"CT"},"type":"Feature","geometry":{"type":"Point","coordinates":[-73.4607986,41.3846507]}},{"properties":{"city":"Lynnwood","store_name":"Alderwood","leasor":"General Growth","type":"indoor","latlong 1":47.827153,"id":"a64uza5p1zh6","latlong 2":-122.277122,"s.f.":3898,"other":null,"date opened":{"end_time":"2004/11/05 00:00:00 -0500","original":"November 4, 2004","granularity":"day","time":"2004/11/04 00:00:00 -0500"},"state":"WA"},"type":"Feature","geometry":{"type":"Point","coordinates":[-122.277122,47.827153]}},{"properties":{"city":"West Des Moines","store_name":"Jordan Creek Town Center","leasor":"General Growth","type":"indoor/outdoor","latlong 1":41.5717327,"id":"a64uzai19vm7","latlong 2":-93.7817616,"s.f.":3040,"other":null,"date opened":{"end_time":"2004/11/07 00:00:00 -0500","original":"November 6, 2004","granularity":"day","time":"2004/11/06 00:00:00 -0500"},"state":"IA"},"type":"Feature","geometry":{"type":"Point","coordinates":[-93.7817616,41.5717327]}},{"properties":{"city":"Syracuse","store_name":"Carousel Center","leasor":"Pyramid Mgmt Group","type":"indoor","latlong 1":43.0709738,"id":"a64uzadmdg8a","latlong 2":-76.1703243,"s.f.":7400,"other":"mini-store, floor change Nov, 2005","date opened":{"end_time":"2004/11/07 00:00:00 -0500","original":"November 6, 2004","granularity":"day","time":"2004/11/06 00:00:00 -0500"},"state":"NY"},"type":"Feature","geometry":{"type":"Point","coordinates":[-76.1703243,43.0709738]}},{"properties":{"city":"London","store_name":"Regent Street","leasor":"Queen's Estate","type":"outdoor street","latlong 1":51.5110482,"id":"a64uzaezga08","latlong 2":-0.1388193,"s.f.":23000,"other":"2-story, glass staircase &amp; lift; remodeled 11/2006","date opened":{"end_time":"2004/11/21 00:00:00 -0500","original":"November 20, 2004","granularity":"day","time":"2004/11/20 00:00:00 -0500"},"state":"UK"},"type":"Feature","geometry":{"type":"Point","coordinates":[-0.1388193,51.5110482]}},{"properties":{"city":"Bethesda","store_name":"Bethesda Row","leasor":null,"type":"outdoor street","latlong 1":38.980927,"id":"a64uza688biz","latlong 2":-77.0964317,"s.f.":null,"other":"mini-store; upgraded full-size store across the street on April 4, 2009","date opened":{"end_time":"2004/12/12 00:00:00 -0500","original":"December 11, 2004","granularity":"day","time":"2004/12/11 00:00:00 -0500"},"state":"MD"},"type":"Feature","geometry":{"type":"Point","coordinates":[-77.0964317,38.980927]}},{"properties":{"city":"Richmond Heights","store_name":"Saint Louis Galleria","leasor":"General Growth","type":"indoor","latlong 1":38.6354171,"id":"a64uzag5jn35","latlong 2":-90.3475488,"s.f.":null,"other":"mini-store; moved to full-size store Oct. 15, 2011, spaces 2432 &amp; 2440","date opened":{"end_time":"2004/12/19 00:00:00 -0500","original":"December 18, 2004","granularity":"day","time":"2004/12/18 00:00:00 -0500"},"state":"MO"},"type":"Feature","geometry":{"type":"Point","coordinates":[-90.3475488,38.6354171]}},{"properties":{"city":"Nagoya","store_name":"Nagoya","leasor":null,"type":"outdoor street","latlong 1":35.18559,"id":"a64uzaf9d2c2","latlong 2":136.89906,"s.f.":null,"other":"2-story, glass staircase, lighted faux skylight","date opened":{"end_time":"2005/01/23 00:00:00 -0500","original":"January 22, 2005","granularity":"day","time":"2005/01/22 00:00:00 -0500"},"state":"Japan"},"type":"Feature","geometry":{"type":"Point","coordinates":[136.89906,35.18559]}},{"properties":{"city":"Jacksonville","store_name":"St. John's Town Center","leasor":"Simon Property Group","type":"outdoor","latlong 1":30.3321838,"id":"a64uzagxb77h","latlong 2":-81.655651,"s.f.":null,"other":"remodeled Sept. 29 - Oct. 3, 2009","date opened":{"end_time":"2005/03/19 00:00:00 -0500","original":"March 18, 2005","granularity":"day","time":"2005/03/18 00:00:00 -0500"},"state":"FL"},"type":"Feature","geometry":{"type":"Point","coordinates":[-81.655651,30.3321838]}},{"properties":{"city":"Palm Beach Gardens","store_name":"Gardens of the Palm Beaches","leasor":null,"type":"outdoor","latlong 1":26.848806,"id":"a64uzaavg10m","latlong 2":-80.086026,"s.f.":null,"other":null,"date opened":{"end_time":"2005/04/24 00:00:00 -0400","original":"April 23, 2005","granularity":"day","time":"2005/04/23 00:00:00 -0400"},"state":"FL"},"type":"Feature","geometry":{"type":"Point","coordinates":[-80.086026,26.848806]}},{"properties":{"city":"Birmingham","store_name":"Bullring","leasor":null,"type":"indoor","latlong 1":52.44839,"id":"a64uzakydmq7","latlong 2":-2.049808,"s.f.":null,"other":null,"date opened":{"end_time":"2005/04/30 00:00:00 -0400","original":"April 29, 2005","granularity":"day","time":"2005/04/29 00:00:00 -0400"},"state":"UK"},"type":"Feature","geometry":{"type":"Point","coordinates":[-2.049808,52.44839]}},{"properties":{"city":"Toronto","store_name":"Yorkdale Shopping Centre","leasor":"Vic20 Mgmt","type":"indoor","latlong 1":43.7279544,"id":"a64uzaduygbz","latlong 2":-79.4554103,"s.f.":3500,"other":"remodeled August 3-13, 2009. Mall expansion by 2012, Apple moving?","date opened":{"end_time":"2005/05/22 00:00:00 -0400","original":"May 21, 2005","granularity":"day","time":"2005/05/21 00:00:00 -0400"},"state":"Canada"},"type":"Feature","geometry":{"type":"Point","coordinates":[-79.4554103,43.7279544]}},{"properties":{"city":"Century City","store_name":"Century City","leasor":"Westfield Group","type":"indoor","latlong 1":34.0608427,"id":"a64uzakjct5p","latlong 2":-118.4175791,"s.f.":null,"other":null,"date opened":{"end_time":"2005/06/05 00:00:00 -0400","original":"June 4, 2005","granularity":"day","time":"2005/06/04 00:00:00 -0400"},"state":"CA"},"type":"Feature","geometry":{"type":"Point","coordinates":[-118.4175791,34.0608427]}},{"properties":{"city":"Nashville","store_name":"Green Hills","leasor":"Davis St. Land Co.","type":"indoor","latlong 1":36.10361,"id":"a64uza5enz7m","latlong 2":-86.81667,"s.f.":null,"other":null,"date opened":{"end_time":"2005/06/05 00:00:00 -0400","original":"June 4, 2005","granularity":"day","time":"2005/06/04 00:00:00 -0400"},"state":"TN"},"type":"Feature","geometry":{"type":"Point","coordinates":[-86.81667,36.10361]}},{"properties":{"city":"Tualatin","store_name":"Bridgeport Village","leasor":"Gray &amp; Assoc.","type":"outdoor","latlong 1":45.396875,"id":"a64uza7h4jjz","latlong 2":-122.751145,"s.f.":null,"other":null,"date opened":{"end_time":"2005/06/05 00:00:00 -0400","original":"June 4, 2005","granularity":"day","time":"2005/06/04 00:00:00 -0400"},"state":"OR"},"type":"Feature","geometry":{"type":"Point","coordinates":[-122.751145,45.396875]}},{"properties":{"city":"Grand Rapids","store_name":"Woodland","leasor":"Taubman","type":"indoor","latlong 1":42.9187566,"id":"a64uzal1ds3v","latlong 2":-85.5875802,"s.f.":4000,"other":"remodeled April 27-May 9, 2009","date opened":{"end_time":"2005/06/26 00:00:00 -0400","original":"June 25, 2005","granularity":"day","time":"2005/06/25 00:00:00 -0400"},"state":"MI"},"type":"Feature","geometry":{"type":"Point","coordinates":[-85.5875802,42.9187566]}},{"properties":{"city":"Kent","store_name":"Bluewater Shopping Centre","leasor":null,"type":"indoor","latlong 1":51.260145,"id":"a64uzahwl6j3","latlong 2":0.8442802,"s.f.":null,"other":"closed July 20-31, 2009 for remodel","date opened":{"end_time":"2005/07/10 00:00:00 -0400","original":"July 9, 2005","granularity":"day","time":"2005/07/09 00:00:00 -0400"},"state":"UK"},"type":"Feature","geometry":{"type":"Point","coordinates":[0.8442802,51.260145]}},{"properties":{"city":"Northbrook","store_name":"Northbrook Court","leasor":"General Growth","type":"indoor","latlong 1":42.1511554,"id":"a64uza6b6y6x","latlong 2":-87.8186307,"s.f.":null,"other":"remodeled May 25 - June 6, 2009","date opened":{"end_time":"2005/07/17 00:00:00 -0400","original":"July 16, 2005","granularity":"day","time":"2005/07/16 00:00:00 -0400"},"state":"IL"},"type":"Feature","geometry":{"type":"Point","coordinates":[-87.8186307,42.1511554]}},{"properties":{"city":"Portland","store_name":"Pioneer Place","leasor":"General Growth","type":"indoor","latlong 1":45.518255,"id":"a64uza6ldg2j","latlong 2":-122.677934,"s.f.":null,"other":"floor plan change May, 2007","date opened":{"end_time":"2005/07/17 00:00:00 -0400","original":"July 16, 2005","granularity":"day","time":"2005/07/16 00:00:00 -0400"},"state":"OR"},"type":"Feature","geometry":{"type":"Point","coordinates":[-122.677934,45.518255]}},{"properties":{"city":"Victor","store_name":"Eastview Mall","leasor":"Macerich","type":"indoor","latlong 1":43.0275025,"id":"a64uzackz2pn","latlong 2":-77.4456865,"s.f.":3600,"other":null,"date opened":{"end_time":"2005/07/24 00:00:00 -0400","original":"July 23, 2005","granularity":"day","time":"2005/07/23 00:00:00 -0400"},"state":"NY"},"type":"Feature","geometry":{"type":"Point","coordinates":[-77.4456865,43.0275025]}},{"properties":{"city":"Manhattan Beach","store_name":"Manhattan Village","leasor":"Madison Marquette","type":"outdoor","latlong 1":33.8874389,"id":"a64uzajp44to","latlong 2":-118.3850193,"s.f.":null,"other":"floor plan change May, 2007","date opened":{"end_time":"2005/07/31 00:00:00 -0400","original":"July 30, 2005","granularity":"day","time":"2005/07/30 00:00:00 -0400"},"state":"CA"},"type":"Feature","geometry":{"type":"Point","coordinates":[-118.3850193,33.8874389]}},{"properties":{"city":"Houston","store_name":"The Woodlands","leasor":"General Growth","type":"indoor/outdoor","latlong 1":30.1658207,"id":"a64uzalgu4mr","latlong 2":-95.4612625,"s.f.":null,"other":"remodeled May 11-22, 2009","date opened":{"end_time":"2005/07/31 00:00:00 -0400","original":"July 30, 2005","granularity":"day","time":"2005/07/30 00:00:00 -0400"},"state":"TX"},"type":"Feature","geometry":{"type":"Point","coordinates":[-95.4612625,30.1658207]}},{"properties":{"city":"Braintree","store_name":"South Shore Plaza","leasor":"Simon Property Group","type":"indoor","latlong 1":42.2203456,"id":"a64uzaksmv80","latlong 2":-71.0220237,"s.f.":null,"other":"remodeled July 13-23, 2009","date opened":{"end_time":"2005/08/07 00:00:00 -0400","original":"August 6, 2005","granularity":"day","time":"2005/08/06 00:00:00 -0400"},"state":"MA"},"type":"Feature","geometry":{"type":"Point","coordinates":[-71.0220237,42.2203456]}},{"properties":{"city":"Arlington","store_name":"Pentagon City","leasor":"Simon Property Group","type":"indoor","latlong 1":38.862646,"id":"a64uza8tzcjp","latlong 2":-77.0589074,"s.f.":null,"other":null,"date opened":{"end_time":"2005/08/07 00:00:00 -0400","original":"August 6, 2005","granularity":"day","time":"2005/08/06 00:00:00 -0400"},"state":"VA"},"type":"Feature","geometry":{"type":"Point","coordinates":[-77.0589074,38.862646]}},{"properties":{"city":"Tokyo","store_name":"Shibuya Ichibancho","leasor":null,"type":"outdoor street","latlong 1":35.6894875,"id":"a64uza7n4vst","latlong 2":139.6917064,"s.f.":null,"other":"2-story, spiral glass staircase","date opened":{"end_time":"2005/08/07 00:00:00 -0400","original":"August 6, 2005","granularity":"day","time":"2005/08/06 00:00:00 -0400"},"state":"Japan"},"type":"Feature","geometry":{"type":"Point","coordinates":[139.6917064,35.6894875]}},{"properties":{"city":"Annapolis","store_name":"Annapolis","leasor":"Westfield Group","type":"indoor","latlong 1":38.9784453,"id":"a64uza5we1tt","latlong 2":-76.4921829,"s.f.":null,"other":"remodeled Aug. 17-27, 2009","date opened":{"end_time":"2005/08/28 00:00:00 -0400","original":"August 27, 2005","granularity":"day","time":"2005/08/27 00:00:00 -0400"},"state":"MD"},"type":"Feature","geometry":{"type":"Point","coordinates":[-76.4921829,38.9784453]}},{"properties":{"city":"San Antonio","store_name":"La Cantera","leasor":"General Growth","type":"outdoor","latlong 1":29.6019412,"id":"a64uzagl9q3k","latlong 2":-98.6073527,"s.f.":3351,"other":null,"date opened":{"end_time":"2005/09/17 00:00:00 -0400","original":"September 16, 2005","granularity":"day","time":"2005/09/16 00:00:00 -0400"},"state":"TX"},"type":"Feature","geometry":{"type":"Point","coordinates":[-98.6073527,29.6019412]}},{"properties":{"city":"Oklahoma City","store_name":"Penn Square","leasor":"Simon Property Group","type":"indoor","latlong 1":35.3275579,"id":"a64uzalchy2t","latlong 2":-97.5081036,"s.f.":null,"other":null,"date opened":{"end_time":"2005/09/25 00:00:00 -0400","original":"September 24, 2005","granularity":"day","time":"2005/09/24 00:00:00 -0400"},"state":"OK"},"type":"Feature","geometry":{"type":"Point","coordinates":[-97.5081036,35.3275579]}},{"properties":{"city":"Orlando","store_name":"The Florida Mall","leasor":"Simon Property Group","type":"indoor","latlong 1":28.4485948,"id":"a64uzak7my0a","latlong 2":-81.3947987,"s.f.":null,"other":"remodeled July 20-30, 2009","date opened":{"end_time":"2005/09/25 00:00:00 -0400","original":"September 24, 2005","granularity":"day","time":"2005/09/24 00:00:00 -0400"},"state":"FL"},"type":"Feature","geometry":{"type":"Point","coordinates":[-81.3947987,28.4485948]}},{"properties":{"city":"Pittsburgh","store_name":"South Hills Village","leasor":"Simon Property Group","type":"indoor","latlong 1":40.3425963,"id":"a64uzaj3xcw8","latlong 2":-80.0537072,"s.f.":null,"other":null,"date opened":{"end_time":"2005/09/25 00:00:00 -0400","original":"September 24, 2005","granularity":"day","time":"2005/09/24 00:00:00 -0400"},"state":"PA"},"type":"Feature","geometry":{"type":"Point","coordinates":[-80.0537072,40.3425963]}},{"properties":{"city":"Staten Island","store_name":"Staten Island Mall","leasor":"General Growth","type":"indoor","latlong 1":40.5787923,"id":"a64uzaadcmq5","latlong 2":-74.165107,"s.f.":null,"other":null,"date opened":{"end_time":"2005/10/16 00:00:00 -0400","original":"October 15, 2005","granularity":"day","time":"2005/10/15 00:00:00 -0400"},"state":"NY"},"type":"Feature","geometry":{"type":"Point","coordinates":[-74.165107,40.5787923]}},{"properties":{"city":"Thousand Oaks","store_name":"The Oaks","leasor":"Macerich","type":"indoor","latlong 1":34.2113177,"id":"a64uza8yzwsl","latlong 2":-118.846048,"s.f.":null,"other":null,"date opened":{"end_time":"2005/10/30 00:00:00 -0400","original":"October 29, 2005","granularity":"day","time":"2005/10/29 00:00:00 -0400"},"state":"CA"},"type":"Feature","geometry":{"type":"Point","coordinates":[-118.846048,34.2113177]}},{"properties":{"city":"Burlington","store_name":"Burlington Mall","leasor":"Simon Property Group","type":"indoor","latlong 1":42.484074,"id":"a64uza5h3xxq","latlong 2":-71.21544,"s.f.":null,"other":"remodeled Aug. 31-Sept. 11, 2009","date opened":{"end_time":"2005/11/06 00:00:00 -0500","original":"November 5, 2005","granularity":"day","time":"2005/11/05 00:00:00 -0500"},"state":"MA"},"type":"Feature","geometry":{"type":"Point","coordinates":[-71.21544,42.484074]}},{"properties":{"city":"Brea","store_name":"Brea Mall","leasor":"Simon Property Group","type":"indoor","latlong 1":33.9171483,"id":"a64uza569jys","latlong 2":-117.8862539,"s.f.":null,"other":null,"date opened":{"end_time":"2005/11/13 00:00:00 -0500","original":"November 12, 2005","granularity":"day","time":"2005/11/12 00:00:00 -0500"},"state":"CA"},"type":"Feature","geometry":{"type":"Point","coordinates":[-117.8862539,33.9171483]}},{"properties":{"city":"Manchester","store_name":"Trafford Centre","leasor":"Peel Holdings","type":"indoor","latlong 1":53.4660993,"id":"a64uza81q1i6","latlong 2":-2.3524256,"s.f.":null,"other":"Aug. 2011?moved to temp space to double original store width","date opened":{"end_time":"2005/11/20 00:00:00 -0500","original":"November 19, 2005","granularity":"day","time":"2005/11/19 00:00:00 -0500"},"state":"UK"},"type":"Feature","geometry":{"type":"Point","coordinates":[-2.3524256,53.4660993]}},{"properties":{"city":"Salt Lake City","store_name":"The Gateway","leasor":"The Boyer Company","type":"outdoor","latlong 1":40.7053557,"id":"a64uza6mldia","latlong 2":-111.7952311,"s.f.":null,"other":"remodeled May 11-28, 2009","date opened":{"end_time":"2005/11/20 00:00:00 -0500","original":"November 19, 2005","granularity":"day","time":"2005/11/19 00:00:00 -0500"},"state":"UT"},"type":"Feature","geometry":{"type":"Point","coordinates":[-111.7952311,40.7053557]}},{"properties":{"city":"Sherman Oaks","store_name":"Sherman Oaks","leasor":"Westfield Group","type":"indoor","latlong 1":34.1601036,"id":"a64uzaewovxk","latlong 2":-118.4486746,"s.f.":null,"other":"Fashion Square Mall","date opened":{"end_time":"2005/11/20 00:00:00 -0500","original":"November 19, 2005","granularity":"day","time":"2005/11/19 00:00:00 -0500"},"state":"CA"},"type":"Feature","geometry":{"type":"Point","coordinates":[-118.4486746,34.1601036]}},{"properties":{"city":"Los Angeles","store_name":"Beverly Center","leasor":"Taubman","type":"indoor","latlong 1":34.0741548,"id":"a64uza830r4x","latlong 2":-118.3724915,"s.f.":null,"other":"remodeled June 29-July 9, 2009","date opened":{"end_time":"2005/11/20 00:00:00 -0500","original":"November 19, 2005","granularity":"day","time":"2005/11/19 00:00:00 -0500"},"state":"CA"},"type":"Feature","geometry":{"type":"Point","coordinates":[-118.3724915,34.0741548]}},{"properties":{"city":"Fukuoka","store_name":"Fukuoka","leasor":null,"type":"outdoor street","latlong 1":33.5903547,"id":"a64uzaif9un8","latlong 2":130.4017155,"s.f.":null,"other":null,"date opened":{"end_time":"2005/12/04 00:00:00 -0500","original":"December 3, 2005","granularity":"day","time":"2005/12/03 00:00:00 -0500"},"state":"Japan"},"type":"Feature","geometry":{"type":"Point","coordinates":[130.4017155,33.5903547]}},{"properties":{"city":"Sendai","store_name":"Sendai","leasor":null,"type":"outdoor street","latlong 1":38.268215,"id":"a64uza5y11v1","latlong 2":140.8693558,"s.f.":null,"other":"2-story; closed after earthquake March 11, 2011","date opened":{"end_time":"2005/12/11 00:00:00 -0500","original":"December 10, 2005","granularity":"day","time":"2005/12/10 00:00:00 -0500"},"state":"Japan"},"type":"Feature","geometry":{"type":"Point","coordinates":[140.8693558,38.268215]}},{"properties":{"city":"Sheffield","store_name":"Meadowhall Centre","leasor":null,"type":"indoor","latlong 1":53.3830548,"id":"a64uzakh9wml","latlong 2":-1.4647953,"s.f.":null,"other":"remodeled Oct. 12, 2009 - Oct. 30, 2009","date opened":{"end_time":"2005/12/11 00:00:00 -0500","original":"December 10, 2005","granularity":"day","time":"2005/12/10 00:00:00 -0500"},"state":"UK"},"type":"Feature","geometry":{"type":"Point","coordinates":[-1.4647953,53.3830548]}},{"properties":{"city":"London","store_name":"Brent Cross","leasor":null,"type":"indoor","latlong 1":51.575157,"id":"a64uza6jfhb1","latlong 2":-0.2347077,"s.f.":2475,"other":"22.5' x 110' deep","date opened":{"end_time":"2006/01/29 00:00:00 -0500","original":"January 28, 2006","granularity":"day","time":"2006/01/28 00:00:00 -0500"},"state":"UK"},"type":"Feature","geometry":{"type":"Point","coordinates":[-0.2347077,51.575157]}},{"properties":{"city":"Paramus","store_name":"Garden State Plaza","leasor":"Westfield Group","type":"indoor","latlong 1":40.9181161,"id":"a64uzakaa2y1","latlong 2":-74.0763632,"s.f.":null,"other":"Creative bar, remodeled May 12-24, 2009","date opened":{"end_time":"2006/02/05 00:00:00 -0500","original":"February 4, 2006","granularity":"day","time":"2006/02/04 00:00:00 -0500"},"state":"NJ"},"type":"Feature","geometry":{"type":"Point","coordinates":[-74.0763632,40.9181161]}},{"properties":{"city":"Los Angeles","store_name":"Irvine Spectrum Center","leasor":"Irvine Co.","type":"indoor","latlong 1":33.6508815,"id":"a64uzaaxmp1i","latlong 2":-117.7441118,"s.f.":null,"other":null,"date opened":{"end_time":"2006/02/12 00:00:00 -0500","original":"February 11, 2006","granularity":"day","time":"2006/02/11 00:00:00 -0500"},"state":"CA"},"type":"Feature","geometry":{"type":"Point","coordinates":[-117.7441118,33.6508815]}},{"properties":{"city":"Hingham","store_name":"Derby Street Shoppes","leasor":"W/S Dev. Assoc.","type":"outdoor","latlong 1":42.180046,"id":"a64uzaiiwxig","latlong 2":-70.908994,"s.f.":null,"other":"stone siding","date opened":{"end_time":"2006/02/19 00:00:00 -0500","original":"February 18, 2006","granularity":"day","time":"2006/02/18 00:00:00 -0500"},"state":"MA"},"type":"Feature","geometry":{"type":"Point","coordinates":[-70.908994,42.180046]}},{"properties":{"city":"Dallas","store_name":"NorthPark Center","leasor":"Macerich","type":"indoor","latlong 1":32.8682424,"id":"a64uzajsdbzi","latlong 2":-96.7711101,"s.f.":null,"other":null,"date opened":{"end_time":"2006/03/05 00:00:00 -0500","original":"March 4, 2006","granularity":"day","time":"2006/03/04 00:00:00 -0500"},"state":"TX"},"type":"Feature","geometry":{"type":"Point","coordinates":[-96.7711101,32.8682424]}},{"properties":{"city":"Reno","store_name":"Summit Sierra","leasor":"Bayer Properties","type":"outdoor","latlong 1":39.4047065,"id":"a64uzaerw8pq","latlong 2":-119.7505045,"s.f.":null,"other":null,"date opened":{"end_time":"2006/03/12 00:00:00 -0500","original":"March 11, 2006","granularity":"day","time":"2006/03/11 00:00:00 -0500"},"state":"NV"},"type":"Feature","geometry":{"type":"Point","coordinates":[-119.7505045,39.4047065]}},{"properties":{"city":"Southlake","store_name":"Southlake Town Square","leasor":"UCR","type":"outdoor","latlong 1":32.9413713,"id":"a64uza7du74l","latlong 2":-97.1772244,"s.f.":3500,"other":"new mall, remodeled June 15-25, 2009","date opened":{"end_time":"2006/04/09 00:00:00 -0400","original":"April 8, 2006","granularity":"day","time":"2006/04/08 00:00:00 -0400"},"state":"TX"},"type":"Feature","geometry":{"type":"Point","coordinates":[-97.1772244,32.9413713]}},{"properties":{"city":"Broomfield","store_name":"Flatiron Crossing","leasor":"Macerich","type":"indoor/outdoor","latlong 1":39.9304306,"id":"a64uzadamlbe","latlong 2":-105.1303041,"s.f.":3231,"other":null,"date opened":{"end_time":"2006/05/07 00:00:00 -0400","original":"May 6, 2006","granularity":"day","time":"2006/05/06 00:00:00 -0400"},"state":"CO"},"type":"Feature","geometry":{"type":"Point","coordinates":[-105.1303041,39.9304306]}},{"properties":{"city":"Toronto","store_name":"Eaton Centre","leasor":"Cadillac-Fairview","type":"indoor","latlong 1":43.653236,"id":"a64uzagnz0st","latlong 2":-79.3796448,"s.f.":4977,"other":"closed Aug 11-15, 2008 for redesign. Re-opened Nov. 22, 2008","date opened":{"end_time":"2006/05/07 00:00:00 -0400","original":"May 6, 2006","granularity":"day","time":"2006/05/06 00:00:00 -0400"},"state":"Canada"},"type":"Feature","geometry":{"type":"Point","coordinates":[-79.3796448,43.653236]}},{"properties":{"city":"Ardmore","store_name":"Suburban Square","leasor":"Madison Marquette","type":"indoor","latlong 1":39.9662777,"id":"a64uzajyymoj","latlong 2":-75.2874428,"s.f.":null,"other":null,"date opened":{"end_time":"2006/05/14 00:00:00 -0400","original":"May 13, 2006","granularity":"day","time":"2006/05/13 00:00:00 -0400"},"state":"PA"},"type":"Feature","geometry":{"type":"Point","coordinates":[-75.2874428,39.9662777]}},{"properties":{"city":"Simi Valley","store_name":"Simi Valley Town Center","leasor":"Forest City Ent.","type":"outdoor","latlong 1":34.2741694,"id":"a64uzahee4j0","latlong 2":-118.7342581,"s.f.":null,"other":null,"date opened":{"end_time":"2006/05/14 00:00:00 -0400","original":"May 13, 2006","granularity":"day","time":"2006/05/13 00:00:00 -0400"},"state":"CA"},"type":"Feature","geometry":{"type":"Point","coordinates":[-118.7342581,34.2741694]}},{"properties":{"city":"New York City","store_name":"Fifth Avenue","leasor":"Maklow","type":"outdoor","latlong 1":40.7484326,"id":"a64uza7sh25h","latlong 2":-73.9845368,"s.f.":21000,"other":"glass cube &amp; staircase, open 24/7x365, cube removed-replaced Jun-Nov 2011","date opened":{"end_time":"2006/05/20 00:00:00 -0400","original":"May 19, 2006","granularity":"day","time":"2006/05/19 00:00:00 -0400"},"state":"NY"},"type":"Feature","geometry":{"type":"Point","coordinates":[-73.9845368,40.7484326]}},{"properties":{"city":"Freehold","store_name":"Freehold Raceway Mall","leasor":"Macerich","type":"indoor","latlong 1":40.253267,"id":"a64uza8uf0si","latlong 2":-74.301313,"s.f.":null,"other":null,"date opened":{"end_time":"2006/05/28 00:00:00 -0400","original":"May 27, 2006","granularity":"day","time":"2006/05/27 00:00:00 -0400"},"state":"NJ"},"type":"Feature","geometry":{"type":"Point","coordinates":[-74.301313,40.253267]}},{"properties":{"city":"Atlanta","store_name":"Perimeter Mall","leasor":"General Growth","type":"indoor","latlong 1":33.639975,"id":"a64uzabvbruz","latlong 2":-84.444032,"s.f.":null,"other":"remodeled Aug. 10-20, 2009","date opened":{"end_time":"2006/06/04 00:00:00 -0400","original":"June 3, 2006","granularity":"day","time":"2006/06/03 00:00:00 -0400"},"state":"GA"},"type":"Feature","geometry":{"type":"Point","coordinates":[-84.444032,33.639975]}},{"properties":{"city":"Minnetonka","store_name":"Ridgedale Center","leasor":"General Growth","type":"indoor","latlong 1":44.965599,"id":"a64uzag1aiar","latlong 2":-93.440002,"s.f.":null,"other":null,"date opened":{"end_time":"2006/06/07 00:00:00 -0400","original":"June 6, 2006","granularity":"day","time":"2006/06/06 00:00:00 -0400"},"state":"MN"},"type":"Feature","geometry":{"type":"Point","coordinates":[-93.440002,44.965599]}},{"properties":{"city":"Houston","store_name":"Memorial City Mall","leasor":"CB Richard Ellis","type":"outdoor","latlong 1":29.7817774,"id":"a64uzahb834q","latlong 2":-95.5388163,"s.f.":5000,"other":null,"date opened":{"end_time":"2006/06/18 00:00:00 -0400","original":"June 17, 2006","granularity":"day","time":"2006/06/17 00:00:00 -0400"},"state":"TX"},"type":"Feature","geometry":{"type":"Point","coordinates":[-95.5388163,29.7817774]}},{"properties":{"city":"Raleigh","store_name":"Crabtree Valley","leasor":"Plaza Associates","type":"indoor","latlong 1":35.8384469,"id":"a64uzagst4zv","latlong 2":-78.6805692,"s.f.":null,"other":"remodeled March 2009","date opened":{"end_time":"2006/06/25 00:00:00 -0400","original":"June 24, 2006","granularity":"day","time":"2006/06/24 00:00:00 -0400"},"state":"NC"},"type":"Feature","geometry":{"type":"Point","coordinates":[-78.6805692,35.8384469]}},{"properties":{"city":"Sapporo","store_name":"Sapporo","leasor":null,"type":"outdoor street","latlong 1":43.0620958,"id":"a64uzah1vvxz","latlong 2":141.3543763,"s.f.":null,"other":null,"date opened":{"end_time":"2006/06/25 00:00:00 -0400","original":"June 24, 2006","granularity":"day","time":"2006/06/24 00:00:00 -0400"},"state":"Japan"},"type":"Feature","geometry":{"type":"Point","coordinates":[141.3543763,43.0620958]}},{"properties":{"city":"Stamford","store_name":"Stamford Town Center","leasor":"Taubman Centers","type":"indoor","latlong 1":41.0466538,"id":"a64uzaghqee0","latlong 2":-73.5428452,"s.f.":4100,"other":null,"date opened":{"end_time":"2006/07/02 00:00:00 -0400","original":"July 1, 2006","granularity":"day","time":"2006/07/01 00:00:00 -0400"},"state":"CT"},"type":"Feature","geometry":{"type":"Point","coordinates":[-73.5428452,41.0466538]}},{"properties":{"city":"Knoxville","store_name":"West Town Mall","leasor":"Simon Property Group","type":"indoor","latlong 1":35.9606384,"id":"a64uzakrwnbf","latlong 2":-83.9207392,"s.f.":null,"other":null,"date opened":{"end_time":"2006/07/02 00:00:00 -0400","original":"July 1, 2006","granularity":"day","time":"2006/07/01 00:00:00 -0400"},"state":"TN"},"type":"Feature","geometry":{"type":"Point","coordinates":[-83.9207392,35.9606384]}},{"properties":{"city":"Miami","store_name":"Lincoln Road","leasor":null,"type":"outdoor street","latlong 1":25.7908839,"id":"a64uzadphba1","latlong 2":-80.1343266,"s.f.":null,"other":"unusual white-painted fa�ade","date opened":{"end_time":"2006/07/22 00:00:00 -0400","original":"July 21, 2006","granularity":"day","time":"2006/07/21 00:00:00 -0400"},"state":"FL"},"type":"Feature","geometry":{"type":"Point","coordinates":[-80.1343266,25.7908839]}},{"properties":{"city":"Atlantic City","store_name":"The Pier at Ceasars","leasor":"Atlantic Pier Assoc.","type":"indoor/outdoor","latlong 1":39.3642834,"id":"a64uza7hp1kl","latlong 2":-74.4229266,"s.f.":null,"other":"remodeled Aug. 10-20, 2009","date opened":{"end_time":"2006/08/20 00:00:00 -0400","original":"August 19, 2006","granularity":"day","time":"2006/08/19 00:00:00 -0400"},"state":"NJ"},"type":"Feature","geometry":{"type":"Point","coordinates":[-74.4229266,39.3642834]}},{"properties":{"city":"Ontario","store_name":"Sherway Gardens","leasor":"Cadillac-Fairview","type":"indoor","latlong 1":43.609813,"id":"a64uzafc3zhm","latlong 2":-79.558011,"s.f.":5400,"other":null,"date opened":{"end_time":"2006/09/03 00:00:00 -0400","original":"September 2, 2006","granularity":"day","time":"2006/09/02 00:00:00 -0400"},"state":"Canada"},"type":"Feature","geometry":{"type":"Point","coordinates":[-79.558011,43.609813]}},{"properties":{"city":"Laval","store_name":"Le Carrefour Laval","leasor":"Cadillac-Fairview","type":"indoor","latlong 1":45.5652068,"id":"a64uzac0xu6m","latlong 2":-73.7541697,"s.f.":null,"other":"French-speaking store","date opened":{"end_time":"2006/09/10 00:00:00 -0400","original":"September 9, 2006","granularity":"day","time":"2006/09/09 00:00:00 -0400"},"state":"Canada"},"type":"Feature","geometry":{"type":"Point","coordinates":[-73.7541697,45.5652068]}},{"properties":{"city":"Norfolk","store_name":"MacArthur Center","leasor":"Taubman Centers","type":"indoor","latlong 1":36.8503312,"id":"a64uzaerajpm","latlong 2":-76.2886186,"s.f.":null,"other":null,"date opened":{"end_time":"2006/09/10 00:00:00 -0400","original":"September 9, 2006","granularity":"day","time":"2006/09/09 00:00:00 -0400"},"state":"VA"},"type":"Feature","geometry":{"type":"Point","coordinates":[-76.2886186,36.8503312]}},{"properties":{"city":"Lake Grove","store_name":"Smith Haven Mall","leasor":"Simon Property Group","type":"indoor","latlong 1":40.863221,"id":"a64uza6u3umn","latlong 2":-73.1277912,"s.f.":null,"other":null,"date opened":{"end_time":"2006/09/10 00:00:00 -0400","original":"September 9, 2006","granularity":"day","time":"2006/09/09 00:00:00 -0400"},"state":"NY"},"type":"Feature","geometry":{"type":"Point","coordinates":[-73.1277912,40.863221]}},{"properties":{"city":"Columbia","store_name":"The Mall in Columbia","leasor":"General Growth","type":"indoor","latlong 1":39.216485,"id":"a64uzad0ns9m","latlong 2":-76.863389,"s.f.":5020,"other":"first with V2.0 design, narrow (1 table), remodeled Oct. 28 - Nov. 5, 2009","date opened":{"end_time":"2006/09/24 00:00:00 -0400","original":"September 23, 2006","granularity":"day","time":"2006/09/23 00:00:00 -0400"},"state":"MD"},"type":"Feature","geometry":{"type":"Point","coordinates":[-76.863389,39.216485]}},{"properties":{"city":"Providence","store_name":"Providence Place","leasor":"General Growth","type":"indoor","latlong 1":41.8282556,"id":"a64uzaaedis7","latlong 2":-71.4206683,"s.f.":null,"other":"first with V2.0 design, narrow (1 table), remodeled Oct. 28 - Nov. 5, 2009","date opened":{"end_time":"2006/09/24 00:00:00 -0400","original":"September 23, 2006","granularity":"day","time":"2006/09/23 00:00:00 -0400"},"state":"RI"},"type":"Feature","geometry":{"type":"Point","coordinates":[-71.4206683,41.8282556]}},{"properties":{"city":"Omaha","store_name":"Village Pointe","leasor":"Red Development","type":"outdoor","latlong 1":41.276355,"id":"a64uzajocy7f","latlong 2":-96.1006154,"s.f.":null,"other":"\"prairie\" style lifestyle center, V2.0 design","date opened":{"end_time":"2006/09/24 00:00:00 -0400","original":"September 23, 2006","granularity":"day","time":"2006/09/23 00:00:00 -0400"},"state":"NE"},"type":"Feature","geometry":{"type":"Point","coordinates":[-96.1006154,41.276355]}},{"properties":{"city":"Manchester","store_name":"Arndale Centre","leasor":"Prudential","type":"indoor","latlong 1":53.4807125,"id":"a64uza5d3tnv","latlong 2":-2.2343765,"s.f.":null,"other":"V2.0 design, 1 table row, Studio/Genius Bars","date opened":{"end_time":"2006/10/01 00:00:00 -0400","original":"September 30, 2006","granularity":"day","time":"2006/09/30 00:00:00 -0400"},"state":"UK"},"type":"Feature","geometry":{"type":"Point","coordinates":[-2.2343765,53.4807125]}},{"properties":{"city":"Canoga Park","store_name":"Topanga Mall","leasor":"Westfield Group","type":"indoor","latlong 1":34.188599,"id":"a64uza8gajcj","latlong 2":-118.605759,"s.f.":null,"other":"V2.0 design, 2 table rows, 3 bars, remodeled early Oct. 2011","date opened":{"end_time":"2006/10/07 00:00:00 -0400","original":"October 6, 2006","granularity":"day","time":"2006/10/06 00:00:00 -0400"},"state":"CA"},"type":"Feature","geometry":{"type":"Point","coordinates":[-118.605759,34.188599]}},{"properties":{"city":"Boulder","store_name":"Twenty Ninth Street","leasor":"Macerich","type":"shopping district","latlong 1":40.017604,"id":"a64uzal5eky4","latlong 2":-105.25826,"s.f.":4900,"other":"V2.0 design, single table row, 3 bars, remodeled Oct. 28 - Nov. 5, 2009","date opened":{"end_time":"2006/10/14 00:00:00 -0400","original":"October 13, 2006","granularity":"day","time":"2006/10/13 00:00:00 -0400"},"state":"CO"},"type":"Feature","geometry":{"type":"Point","coordinates":[-105.25826,40.017604]}},{"properties":{"city":"San Diego","store_name":"Otay Ranch Town Center","leasor":"General Growth","type":"outdoor","latlong 1":32.6595704,"id":"a64uzacpeg9c","latlong 2":-116.9028125,"s.f.":null,"other":"new mall, remodeled Oct. 28 - Nov. 5, 2009","date opened":{"end_time":"2006/10/28 00:00:00 -0400","original":"October 27, 2006","granularity":"day","time":"2006/10/27 00:00:00 -0400"},"state":"CA"},"type":"Feature","geometry":{"type":"Point","coordinates":[-116.9028125,32.6595704]}},{"properties":{"city":"Albuquerque","store_name":"ABQ Uptown","leasor":"HBC Land LP","type":"outdoor","latlong 1":35.079987,"id":"a64uza6z3qv8","latlong 2":-106.587617,"s.f.":null,"other":"new mall, V2.0 design, wide (2 tables), 3 bars","date opened":{"end_time":"2006/11/02 00:00:00 -0500","original":"November 1, 2006","granularity":"day","time":"2006/11/01 00:00:00 -0500"},"state":"NM"},"type":"Feature","geometry":{"type":"Point","coordinates":[-106.587617,35.079987]}},{"properties":{"city":"Sugar Land","store_name":"First Colony Mall","leasor":"General Growth","type":"indoor","latlong 1":29.5926054,"id":"a64uza8o4hx5","latlong 2":-95.62411,"s.f.":null,"other":"V2.0 design, remodeled Oct. 28 - Nov. 5, 2009","date opened":{"end_time":"2006/11/12 00:00:00 -0500","original":"November 11, 2006","granularity":"day","time":"2006/11/11 00:00:00 -0500"},"state":"TX"},"type":"Feature","geometry":{"type":"Point","coordinates":[-95.62411,29.5926054]}},{"properties":{"city":"Honolulu","store_name":"Kahala Mall","leasor":"Kahala Center Co.","type":"indoor","latlong 1":21.3000943,"id":"a64uzahiwfxn","latlong 2":-157.8156635,"s.f.":5000,"other":"V2.0 design, single table row, GB only, no POS, remodeled Sept. 28 - Oct. 1, 2009","date opened":{"end_time":"2007/02/11 00:00:00 -0500","original":"February 10, 2007","granularity":"day","time":"2007/02/10 00:00:00 -0500"},"state":"HI"},"type":"Feature","geometry":{"type":"Point","coordinates":[-157.8156635,21.3000943]}},{"properties":{"city":"Southampton","store_name":"West Quay","leasor":null,"type":"indoor","latlong 1":50.9036575,"id":"a64uza8ehnnt","latlong 2":-1.4128588,"s.f.":null,"other":"V2.0 design, single table row, GB only, no POS","date opened":{"end_time":"2007/02/11 00:00:00 -0500","original":"February 10, 2007","granularity":"day","time":"2007/02/10 00:00:00 -0500"},"state":"UK"},"type":"Feature","geometry":{"type":"Point","coordinates":[-1.4128588,50.9036575]}},{"properties":{"city":"London","store_name":"Bentall Centre","leasor":null,"type":"indoor","latlong 1":51.5001524,"id":"a64uzainhu0q","latlong 2":-0.1262362,"s.f.":null,"other":null,"date opened":{"end_time":"2007/02/18 00:00:00 -0500","original":"February 17, 2007","granularity":"day","time":"2007/02/17 00:00:00 -0500"},"state":"UK"},"type":"Feature","geometry":{"type":"Point","coordinates":[-0.1262362,51.5001524]}},{"properties":{"city":"Bonita Springs","store_name":"Coconut Point Mall","leasor":"Simon Property Group","type":"outdoor","latlong 1":26.4039887,"id":"a64uza59hh0r","latlong 2":-81.8051848,"s.f.":null,"other":"V2.0 design, single table row, GB only, no POS","date opened":{"end_time":"2007/03/25 00:00:00 -0400","original":"March 24, 2007","granularity":"day","time":"2007/03/24 00:00:00 -0400"},"state":"FL"},"type":"Feature","geometry":{"type":"Point","coordinates":[-81.8051848,26.4039887]}},{"properties":{"city":"Austin","store_name":"The Domain","leasor":"Simon Property Group","type":"outdoor","latlong 1":30.40179,"id":"a64uza6qc6ds","latlong 2":-97.726302,"s.f.":null,"other":"V2.0 design, new mall","date opened":{"end_time":"2007/03/10 00:00:00 -0500","original":"March 9, 2007","granularity":"day","time":"2007/03/09 00:00:00 -0500"},"state":"TX"},"type":"Feature","geometry":{"type":"Point","coordinates":[-97.726302,30.40179]}},{"properties":{"city":"Naples","store_name":"Waterside Shops","leasor":"Forbers Co.","type":"outdoor","latlong 1":26.1420358,"id":"a64uzah4489r","latlong 2":-81.7948103,"s.f.":3200,"other":null,"date opened":{"end_time":"2007/03/11 00:00:00 -0500","original":"March 10, 2007","granularity":"day","time":"2007/03/10 00:00:00 -0500"},"state":"FL"},"type":"Feature","geometry":{"type":"Point","coordinates":[-81.7948103,26.1420358]}},{"properties":{"city":"Rome","store_name":"Roma Est","leasor":null,"type":"indoor","latlong 1":42.0127007,"id":"a64uza505efj","latlong 2":12.4955443,"s.f.":null,"other":"new mall, V2.0","date opened":{"end_time":"2007/04/01 00:00:00 -0400","original":"March 31, 2007","granularity":"day","time":"2007/03/31 00:00:00 -0400"},"state":"Italy"},"type":"Feature","geometry":{"type":"Point","coordinates":[12.4955443,42.0127007]}},{"properties":{"city":"Birmingham","store_name":"The Summit","leasor":"Bayer Properties","type":"outdoor","latlong 1":33.5185077,"id":"a64uzabddbjk","latlong 2":-86.810251,"s.f.":6500,"other":"former Eddie Bauer space","date opened":{"end_time":"2007/04/15 00:00:00 -0400","original":"April 14, 2007","granularity":"day","time":"2007/04/14 00:00:00 -0400"},"state":"AL"},"type":"Feature","geometry":{"type":"Point","coordinates":[-86.810251,33.5185077]}},{"properties":{"city":"Lone Tree","store_name":"Park Meadows Mall","leasor":"General Growth","type":"indoor","latlong 1":39.564328,"id":"a64uzafg4eow","latlong 2":-104.874702,"s.f.":null,"other":"mall expansion. MidAugust 2011 tips say store will move to larger space","date opened":{"end_time":"2007/04/22 00:00:00 -0400","original":"April 21, 2007","granularity":"day","time":"2007/04/21 00:00:00 -0400"},"state":"CO"},"type":"Feature","geometry":{"type":"Point","coordinates":[-104.874702,39.564328]}},{"properties":{"city":"Fort Lauderdale","store_name":"The Galleria","leasor":"Simon Property Group","type":"indoor","latlong 1":26.1223084,"id":"a64uza50rr2q","latlong 2":-80.1433786,"s.f.":null,"other":"remodeled Oct. 19, 2009 - Oct. 25, 2009","date opened":{"end_time":"2007/04/22 00:00:00 -0400","original":"April 21, 2007","granularity":"day","time":"2007/04/21 00:00:00 -0400"},"state":"FL"},"type":"Feature","geometry":{"type":"Point","coordinates":[-80.1433786,26.1223084]}},{"properties":{"city":"Friendswood","store_name":"Baybrook Mall","leasor":"General Growth","type":"indoor","latlong 1":29.544216,"id":"a64uzaewrq8s","latlong 2":-95.1481359,"s.f.":null,"other":"remodeled Oct. 5, 2009 to Oct. 9, 2009","date opened":{"end_time":"2007/05/13 00:00:00 -0400","original":"May 12, 2007","granularity":"day","time":"2007/05/12 00:00:00 -0400"},"state":"TX"},"type":"Feature","geometry":{"type":"Point","coordinates":[-95.1481359,29.544216]}},{"properties":{"city":"Fresno","store_name":"Fashion Fair","leasor":"Macerich","type":"indoor","latlong 1":36.8084447,"id":"a64uzaiwlwu5","latlong 2":-119.7782117,"s.f.":4600,"other":"mall expanded, remodeled Oct. 5, 2009 - Oct. 9, 2009","date opened":{"end_time":"2007/06/10 00:00:00 -0400","original":"June 9, 2007","granularity":"day","time":"2007/06/09 00:00:00 -0400"},"state":"CA"},"type":"Feature","geometry":{"type":"Point","coordinates":[-119.7782117,36.8084447]}},{"properties":{"city":"San Luis Obispo","store_name":"Higuera Street","leasor":"Downtown Center","type":"outdoor street","latlong 1":35.2788983,"id":"a64uzafloysu","latlong 2":-120.6645247,"s.f.":null,"other":"entrances on two sides","date opened":{"end_time":"2007/06/10 00:00:00 -0400","original":"June 9, 2007","granularity":"day","time":"2007/06/09 00:00:00 -0400"},"state":"CA"},"type":"Feature","geometry":{"type":"Point","coordinates":[-120.6645247,35.2788983]}},{"properties":{"city":"Tulsa","store_name":"Woodland Hills","leasor":"Simon Property Group","type":"indoor","latlong 1":36.0616201,"id":"a64uza6xqwsc","latlong 2":-95.8803136,"s.f.":null,"other":"$430 per s.f.","date opened":{"end_time":"2007/06/30 00:00:00 -0400","original":"June 29, 2007","granularity":"day","time":"2007/06/29 00:00:00 -0400"},"state":"OK"},"type":"Feature","geometry":{"type":"Point","coordinates":[-95.8803136,36.0616201]}},{"properties":{"city":"Glendale","store_name":"Bayshore Town Center","leasor":"Corrigan Properties","type":"outdoor","latlong 1":43.115564,"id":"a64uzagfwha5","latlong 2":-87.9169025,"s.f.":null,"other":"remodeled mall re-opened Nov. 6, 2006","date opened":{"end_time":"2007/06/30 00:00:00 -0400","original":"June 29, 2007","granularity":"day","time":"2007/06/29 00:00:00 -0400"},"state":"WI"},"type":"Feature","geometry":{"type":"Point","coordinates":[-87.9169025,43.115564]}},{"properties":{"city":"Madison","store_name":"West Towne Mall","leasor":"GBL","type":"indoor","latlong 1":43.0570899,"id":"a64uzajrl1b3","latlong 2":-89.5093181,"s.f.":null,"other":"remodeled Oct. 5, 2009 - Oct. 9, 2009","date opened":{"end_time":"2007/07/08 00:00:00 -0400","original":"July 7, 2007","granularity":"day","time":"2007/07/07 00:00:00 -0400"},"state":"WI"},"type":"Feature","geometry":{"type":"Point","coordinates":[-89.5093181,43.0570899]}},{"properties":{"city":"Holyoke","store_name":"Holyoke Mall","leasor":"Pyramid Mgmt Group","type":"indoor","latlong 1":42.167141,"id":"a64uzadg3wur","latlong 2":-72.640587,"s.f.":null,"other":"remodeled Oct. 5, 2009 - Oct. 9, 2009","date opened":{"end_time":"2007/07/22 00:00:00 -0400","original":"July 21, 2007","granularity":"day","time":"2007/07/21 00:00:00 -0400"},"state":"MA"},"type":"Feature","geometry":{"type":"Point","coordinates":[-72.640587,42.167141]}},{"properties":{"city":"Ann Arbor","store_name":"Briarwood Mall","leasor":"Mills Corp.","type":"indoor","latlong 1":42.240678,"id":"a64uzadfw9re","latlong 2":-83.744648,"s.f.":4497,"other":null,"date opened":{"end_time":"2007/07/22 00:00:00 -0400","original":"July 21, 2007","granularity":"day","time":"2007/07/21 00:00:00 -0400"},"state":"MI"},"type":"Feature","geometry":{"type":"Point","coordinates":[-83.744648,42.240678]}},{"properties":{"city":"Orland Park","store_name":"Orland Square Mall","leasor":"Simon Property Group","type":"indoor","latlong 1":41.6056997,"id":"a64uzaakeitf","latlong 2":-87.7941419,"s.f.":null,"other":null,"date opened":{"end_time":"2007/07/22 00:00:00 -0400","original":"July 21, 2007","granularity":"day","time":"2007/07/21 00:00:00 -0400"},"state":"IL"},"type":"Feature","geometry":{"type":"Point","coordinates":[-87.7941419,41.6056997]}},{"properties":{"city":"Glasgow","store_name":"Buchanan Street","leasor":null,"type":"outdoor street","latlong 1":55.8609462,"id":"a64uzaf4zhtx","latlong 2":-4.2539471,"s.f.":null,"other":"spiral glass staircase","date opened":{"end_time":"2007/08/26 00:00:00 -0400","original":"August 25, 2007","granularity":"day","time":"2007/08/25 00:00:00 -0400"},"state":"UK"},"type":"Feature","geometry":{"type":"Point","coordinates":[-4.2539471,55.8609462]}},{"properties":{"city":"Louisville","store_name":"Oxmoore Center","leasor":"General Growth","type":"indoor","latlong 1":38.2526647,"id":"a64uzagi4n76","latlong 2":-85.7584557,"s.f.":5000,"other":"first store in state","date opened":{"end_time":"2007/09/07 00:00:00 -0400","original":"September 6, 2007","granularity":"day","time":"2007/09/06 00:00:00 -0400"},"state":"KY"},"type":"Feature","geometry":{"type":"Point","coordinates":[-85.7584557,38.2526647]}},{"properties":{"city":"Los Gatos","store_name":"Los Gatos","leasor":null,"type":"outdoor street","latlong 1":37.227568,"id":"a64uzaknl2je","latlong 2":-121.977898,"s.f.":5300,"other":"plans filed, withdrawn 11-2006, later approved","date opened":{"end_time":"2007/09/07 00:00:00 -0400","original":"September 6, 2007","granularity":"day","time":"2007/09/06 00:00:00 -0400"},"state":"CA"},"type":"Feature","geometry":{"type":"Point","coordinates":[-121.977898,37.227568]}},{"properties":{"city":"Natick","store_name":"Natick Collection Mall","leasor":"General Growth","type":"indoor","latlong 1":42.2834298,"id":"a64uza6rjzw3","latlong 2":-71.3495032,"s.f.":5072,"other":"remodeled Oct. 12, 2009 - Oct. 16, 2009","date opened":{"end_time":"2007/09/09 00:00:00 -0400","original":"September 8, 2007","granularity":"day","time":"2007/09/08 00:00:00 -0400"},"state":"MA"},"type":"Feature","geometry":{"type":"Point","coordinates":[-71.3495032,42.2834298]}},{"properties":{"city":"Deer Park","store_name":"Deer Park","leasor":"Deer Park Inc.","type":"outdoor","latlong 1":42.1602365,"id":"a64uzaev01ai","latlong 2":-88.0537986,"s.f.":null,"other":"remodeled Oct. 5, 2009 - Oct. 9, 2009","date opened":{"end_time":"2007/09/16 00:00:00 -0400","original":"September 15, 2007","granularity":"day","time":"2007/09/15 00:00:00 -0400"},"state":"IL"},"type":"Feature","geometry":{"type":"Point","coordinates":[-88.0537986,42.1602365]}},{"properties":{"city":"Solihull","store_name":"Touchwood Mall","leasor":null,"type":"indoor","latlong 1":52.4147109,"id":"a64uzabd4osx","latlong 2":-1.7742959,"s.f.":null,"other":"very narrow store","date opened":{"end_time":"2007/09/23 00:00:00 -0400","original":"September 22, 2007","granularity":"day","time":"2007/09/22 00:00:00 -0400"},"state":"UK"},"type":"Feature","geometry":{"type":"Point","coordinates":[-1.7742959,52.4147109]}},{"properties":{"city":"Buford","store_name":"Mall of Georgia","leasor":"Simon Property Group","type":"indoor/outdoor","latlong 1":34.074141,"id":"a64uzaazt4lq","latlong 2":-83.989976,"s.f.":4594,"other":"former Sam Goody space","date opened":{"end_time":"2007/09/23 00:00:00 -0400","original":"September 22, 2007","granularity":"day","time":"2007/09/22 00:00:00 -0400"},"state":"GA"},"type":"Feature","geometry":{"type":"Point","coordinates":[-83.989976,34.074141]}},{"properties":{"city":"Whitehall","store_name":"Lehigh Valley Mall","leasor":"Simon Property Group","type":"indoor","latlong 1":40.6300603,"id":"a64uzabwu4md","latlong 2":-75.4830017,"s.f.":null,"other":"in new outdoor lifestyle center expansion","date opened":{"end_time":"2007/09/30 00:00:00 -0400","original":"September 29, 2007","granularity":"day","time":"2007/09/29 00:00:00 -0400"},"state":"PA"},"type":"Feature","geometry":{"type":"Point","coordinates":[-75.4830017,40.6300603]}},{"properties":{"city":"Detroit","store_name":"Mall at Partridge Creek","leasor":"Taubman","type":"indoor","latlong 1":42.331427,"id":"a64uza9az1xz","latlong 2":-83.0457538,"s.f.":5000,"other":"new mall; remodeled Oct. 19 - Oct. 24, 2009","date opened":{"end_time":"2007/10/19 00:00:00 -0400","original":"October 18, 2007","granularity":"day","time":"2007/10/18 00:00:00 -0400"},"state":"MI"},"type":"Feature","geometry":{"type":"Point","coordinates":[-83.0457538,42.331427]}},{"properties":{"city":"West Thurrock","store_name":"Lakeside","leasor":null,"type":"indoor","latlong 1":51.525967,"id":"a64uza608hxy","latlong 2":0.219024,"s.f.":null,"other":null,"date opened":{"end_time":"2007/10/21 00:00:00 -0400","original":"October 20, 2007","granularity":"day","time":"2007/10/20 00:00:00 -0400"},"state":"UK"},"type":"Feature","geometry":{"type":"Point","coordinates":[0.219024,51.525967]}},{"properties":{"city":"Gilbert","store_name":"SanTan Village","leasor":"Macerich","type":"indoor","latlong 1":33.3001634,"id":"a64uza57260p","latlong 2":-111.7428346,"s.f.":null,"other":"new mall","date opened":{"end_time":"2007/10/27 00:00:00 -0400","original":"October 26, 2007","granularity":"day","time":"2007/10/26 00:00:00 -0400"},"state":"AZ"},"type":"Feature","geometry":{"type":"Point","coordinates":[-111.7428346,33.3001634]}},{"properties":{"city":"Las Vegas","store_name":"Town Square","leasor":"Turnberry Assoc.","type":"outdoor","latlong 1":36.0680069,"id":"a64uzahoa7g5","latlong 2":-115.1763618,"s.f.":null,"other":"lifestyle center south of The Strip","date opened":{"end_time":"2007/11/15 00:00:00 -0500","original":"November 14, 2007","granularity":"day","time":"2007/11/14 00:00:00 -0500"},"state":"NV"},"type":"Feature","geometry":{"type":"Point","coordinates":[-115.1763618,36.0680069]}},{"properties":{"city":"San Francisco","store_name":"Chestnut Street","leasor":null,"type":"outdoor street","latlong 1":37.8022803,"id":"a64uzabgtwea","latlong 2":-122.4248095,"s.f.":8500,"other":null,"date opened":{"end_time":"2007/11/24 00:00:00 -0500","original":"November 23, 2007","granularity":"day","time":"2007/11/23 00:00:00 -0500"},"state":"CA"},"type":"Feature","geometry":{"type":"Point","coordinates":[-122.4248095,37.8022803]}},{"properties":{"city":"Exeter","store_name":"Princesshay","leasor":null,"type":"outdoor street","latlong 1":50.7243708,"id":"a64uzaf3c034","latlong 2":-3.5279915,"s.f.":null,"other":"new city-center urban district","date opened":{"end_time":"2007/11/25 00:00:00 -0500","original":"November 24, 2007","granularity":"day","time":"2007/11/24 00:00:00 -0500"},"state":"UK"},"type":"Feature","geometry":{"type":"Point","coordinates":[-3.5279915,50.7243708]}},{"properties":{"city":"New York City","store_name":"West 14th Street","leasor":"Futterman","type":"outdoor street","latlong 1":"40.7413292","id":"203","latlong 2":"-74.00687099999999","s.f.":"~30,258","other":"at 9th Ave., 3-level, spiral glass staircase","date opened":"December 7, 2007","state":"NY"},"type":"Feature","geometry":{"type":"Point","coordinates":[-74.006871,40.7413292]}},{"properties":{"city":"Milton Keynes","store_name":"Milton Keynes","leasor":null,"type":"indoor","latlong 1":52.0414376,"id":"a64uzagz6zck","latlong 2":-0.7605567,"s.f.":null,"other":"rear glass staircase, in Midsummer Place mall","date opened":{"end_time":"2008/03/02 00:00:00 -0500","original":"March 1, 2008","granularity":"day","time":"2008/03/01 00:00:00 -0500"},"state":"UK"},"type":"Feature","geometry":{"type":"Point","coordinates":[-0.7605567,52.0414376]}},{"properties":{"city":"Baton Rouge","store_name":"Mall of Louisiana","leasor":"General Growth","type":"indoor","latlong 1":30.3901873,"id":"a64uzab2491f","latlong 2":-91.0908388,"s.f.":null,"other":"new mall, first store in state","date opened":{"end_time":"2008/03/07 00:00:00 -0500","original":"March 6, 2008","granularity":"day","time":"2008/03/06 00:00:00 -0500"},"state":"LA"},"type":"Feature","geometry":{"type":"Point","coordinates":[-91.0908388,30.3901873]}},{"properties":{"city":"Cambridgeshire","store_name":"Grand Arcade","leasor":null,"type":"indoor","latlong 1":52.2761928,"id":"a64uza9ozjm0","latlong 2":0.0965375,"s.f.":null,"other":null,"date opened":{"end_time":"2008/03/28 00:00:00 -0400","original":"March 27, 2008","granularity":"day","time":"2008/03/27 00:00:00 -0400"},"state":"UK"},"type":"Feature","geometry":{"type":"Point","coordinates":[0.0965375,52.2761928]}},{"properties":{"city":"Cherry Hill","store_name":"Cherry Hill Mall","leasor":"Pennsylvania REIT","type":"indoor","latlong 1":39.9401324,"id":"a64uzajvjkdd","latlong 2":-75.0131179,"s.f.":null,"other":null,"date opened":{"end_time":"2008/03/30 00:00:00 -0400","original":"March 29, 2008","granularity":"day","time":"2008/03/29 00:00:00 -0400"},"state":"NJ"},"type":"Feature","geometry":{"type":"Point","coordinates":[-75.0131179,39.9401324]}},{"properties":{"city":"Fairfax","store_name":"Fair Oaks Mall","leasor":"Taubman Centers","type":"indoor","latlong 1":38.8631529,"id":"a64uza6sgq4g","latlong 2":-77.354196,"s.f.":null,"other":null,"date opened":{"end_time":"2008/04/27 00:00:00 -0400","original":"April 26, 2008","granularity":"day","time":"2008/04/26 00:00:00 -0400"},"state":"VA"},"type":"Feature","geometry":{"type":"Point","coordinates":[-77.354196,38.8631529]}},{"properties":{"city":"Boston","store_name":"Boylston Street","leasor":null,"type":"outdoor street","latlong 1":42.3509998,"id":"a64uzadqs6nd","latlong 2":-71.0740219,"s.f.":21350,"other":"3-story flagship, glass staircase, 60', green roof garden","date opened":{"end_time":"2008/05/16 00:00:00 -0400","original":"May 15, 2008","granularity":"day","time":"2008/05/15 00:00:00 -0400"},"state":"MA"},"type":"Feature","geometry":{"type":"Point","coordinates":[-71.0740219,42.3509998]}},{"properties":{"city":"Vancouver","store_name":"Pacific Centre Mall","leasor":null,"type":"indoor","latlong 1":49.261226,"id":"a64uzai6dk5n","latlong 2":-123.1139268,"s.f.":750,"other":"remodeled Sept. 28, 2009 - Oct. 1, 2009","date opened":{"end_time":"2008/05/25 00:00:00 -0400","original":"May 24, 2008","granularity":"day","time":"2008/05/24 00:00:00 -0400"},"state":"Canada"},"type":"Feature","geometry":{"type":"Point","coordinates":[-123.1139268,49.261226]}},{"properties":{"city":"Brandon","store_name":"Brandon","leasor":"Westfield Group","type":"indoor","latlong 1":27.9441896,"id":"a64uzacvjoex","latlong 2":-82.2998139,"s.f.":800,"other":"remodeled Sept. 28, 2009 - Oct. 1, 2009","date opened":{"end_time":"2008/05/25 00:00:00 -0400","original":"May 24, 2008","granularity":"day","time":"2008/05/24 00:00:00 -0400"},"state":"FL"},"type":"Feature","geometry":{"type":"Point","coordinates":[-82.2998139,27.9441896]}},{"properties":{"city":"Huntsville","store_name":"Bridge Street Town Center","leasor":"Huntsville Shores","type":"outdoor","latlong 1":34.7147776,"id":"a64uza5qj30m","latlong 2":-86.6752962,"s.f.":null,"other":"new mail","date opened":{"end_time":"2008/06/01 00:00:00 -0400","original":"May 31, 2008","granularity":"day","time":"2008/05/31 00:00:00 -0400"},"state":"AL"},"type":"Feature","geometry":{"type":"Point","coordinates":[-86.6752962,34.7147776]}},{"properties":{"city":"Houston","store_name":"Willowbrook","leasor":"General Growth","type":"indoor","latlong 1":29.9558598,"id":"a64uzaemybgl","latlong 2":-95.5459787,"s.f.":null,"other":null,"date opened":{"end_time":"2008/06/08 00:00:00 -0400","original":"June 7, 2008","granularity":"day","time":"2008/06/07 00:00:00 -0400"},"state":"TX"},"type":"Feature","geometry":{"type":"Point","coordinates":[-95.5459787,29.9558598]}},{"properties":{"city":"Sydney","store_name":"George Street","leasor":null,"type":"outdoor street","latlong 1":-33.8708891,"id":"a64uza6s3o8i","latlong 2":151.2069409,"s.f.":null,"other":"glass staircase, 112-foot storefront","date opened":{"end_time":"2008/06/20 00:00:00 -0400","original":"June 19, 2008","granularity":"day","time":"2008/06/19 00:00:00 -0400"},"state":"Australia"},"type":"Feature","geometry":{"type":"Point","coordinates":[151.2069409,-33.8708891]}},{"properties":{"city":"San Antonio","store_name":"North Star Mall","leasor":"General Growth","type":"indoor","latlong 1":29.519556,"id":"a64uzac8w2ru","latlong 2":-98.494109,"s.f.":3445,"other":null,"date opened":{"end_time":"2008/06/29 00:00:00 -0400","original":"June 28, 2008","granularity":"day","time":"2008/06/28 00:00:00 -0400"},"state":"TX"},"type":"Feature","geometry":{"type":"Point","coordinates":[-98.494109,29.519556]}},{"properties":{"city":"Edmonton","store_name":"West Edmonton Mall","leasor":null,"type":"indoor","latlong 1":53.522622,"id":"a64uza8m5q15","latlong 2":-113.622367,"s.f.":null,"other":"June 2011 rumors of move to former Disney store space","date opened":{"end_time":"2008/07/06 00:00:00 -0400","original":"July 5, 2008","granularity":"day","time":"2008/07/05 00:00:00 -0400"},"state":"Canada"},"type":"Feature","geometry":{"type":"Point","coordinates":[-113.622367,53.522622]}},{"properties":{"city":"Leawood","store_name":"Leawood","leasor":"Developers Div.","type":"outdoor","latlong 1":38.9317736,"id":"a64uza7f3fvd","latlong 2":-94.6179205,"s.f.":null,"other":"One Nineteen mall","date opened":{"end_time":"2008/07/12 00:00:00 -0400","original":"July 11, 2008","granularity":"day","time":"2008/07/11 00:00:00 -0400"},"state":"KS"},"type":"Feature","geometry":{"type":"Point","coordinates":[-94.6179205,38.9317736]}},{"properties":{"city":"Beijing","store_name":"Village at SanLiTun","leasor":"Swire Properties","type":"outdoor","latlong 1":39.904214,"id":"a64uzab17g3j","latlong 2":116.407413,"s.f.":null,"other":"glass staircase","date opened":{"end_time":"2008/07/20 00:00:00 -0400","original":"July 19, 2008","granularity":"day","time":"2008/07/19 00:00:00 -0400"},"state":"China"},"type":"Feature","geometry":{"type":"Point","coordinates":[116.407413,39.904214]}},{"properties":{"city":"Montreal","store_name":"Sainte Catherine","leasor":null,"type":"outdoor street","latlong 1":45.5126399,"id":"a64uzalgaxdt","latlong 2":-73.6802448,"s.f.":null,"other":"C$1.2 million yearly lease","date opened":{"end_time":"2008/07/26 00:00:00 -0400","original":"July 25, 2008","granularity":"day","time":"2008/07/25 00:00:00 -0400"},"state":"Canada"},"type":"Feature","geometry":{"type":"Point","coordinates":[-73.6802448,45.5126399]}},{"properties":{"city":"Liverpool","store_name":"Liverpool One","leasor":null,"type":"outdoor street","latlong 1":53.3998821,"id":"a64uzaby1iol","latlong 2":-2.99067,"s.f.":null,"other":"new city-center urban district","date opened":{"end_time":"2008/07/27 00:00:00 -0400","original":"July 26, 2008","granularity":"day","time":"2008/07/26 00:00:00 -0400"},"state":"UK"},"type":"Feature","geometry":{"type":"Point","coordinates":[-2.99067,53.3998821]}},{"properties":{"city":"Charleston","store_name":"King Street","leasor":null,"type":"outdoor street","latlong 1":32.793313,"id":"a64uza87bnvg","latlong 2":-79.941474,"s.f.":null,"other":"remodeled Sept. 28, 2009 - Oct. 1, 2009","date opened":{"end_time":"2008/07/27 00:00:00 -0400","original":"July 26, 2008","granularity":"day","time":"2008/07/26 00:00:00 -0400"},"state":"SC"},"type":"Feature","geometry":{"type":"Point","coordinates":[-79.941474,32.793313]}},{"properties":{"city":"Glendale","store_name":"Arrowhead Towne Center","leasor":"Macerich","type":"indoor","latlong 1":33.6396372,"id":"a64uza8pr9uq","latlong 2":-112.2257386,"s.f.":null,"other":"remodeled Sept. 28, 2009 - Oct. 1, 2009","date opened":{"end_time":"2008/07/27 00:00:00 -0400","original":"July 26, 2008","granularity":"day","time":"2008/07/26 00:00:00 -0400"},"state":"AZ"},"type":"Feature","geometry":{"type":"Point","coordinates":[-112.2257386,33.6396372]}},{"properties":{"city":"Monterey","store_name":"Del Monte Center","leasor":"American Assets","type":"outdoor","latlong 1":36.5852046,"id":"a64uzag2sp8x","latlong 2":-121.8966992,"s.f.":null,"other":"in former Limited Express space","date opened":{"end_time":"2008/08/10 00:00:00 -0400","original":"August 9, 2008","granularity":"day","time":"2008/08/09 00:00:00 -0400"},"state":"CA"},"type":"Feature","geometry":{"type":"Point","coordinates":[-121.8966992,36.5852046]}},{"properties":{"city":"Chatswood","store_name":"Chatswood Chase","leasor":"Colonial First State","type":"indoor","latlong 1":-33.7924462,"id":"a64uzakkz4os","latlong 2":151.190131,"s.f.":null,"other":null,"date opened":{"end_time":"2008/08/10 00:00:00 -0400","original":"August 9, 2008","granularity":"day","time":"2008/08/09 00:00:00 -0400"},"state":"Australia"},"type":"Feature","geometry":{"type":"Point","coordinates":[151.190131,-33.7924462]}},{"properties":{"city":"Altamonte Springs","store_name":"Altamonte Mall","leasor":"General Growth","type":"indoor","latlong 1":28.6663406,"id":"a64uzab3q9h6","latlong 2":-81.380893,"s.f.":5500,"other":null,"date opened":{"end_time":"2008/08/17 00:00:00 -0400","original":"August 16, 2008","granularity":"day","time":"2008/08/16 00:00:00 -0400"},"state":"FL"},"type":"Feature","geometry":{"type":"Point","coordinates":[-81.380893,28.6663406]}},{"properties":{"city":"Carlsbad","store_name":"Carlsbad","leasor":"CB Richard Ellis","type":"outdoor","latlong 1":33.1260688,"id":"a64uzaja5usy","latlong 2":-117.2760055,"s.f.":null,"other":"The Forum","date opened":{"end_time":"2008/08/17 00:00:00 -0400","original":"August 16, 2008","granularity":"day","time":"2008/08/16 00:00:00 -0400"},"state":"CA"},"type":"Feature","geometry":{"type":"Point","coordinates":[-117.2760055,33.1260688]}},{"properties":{"city":"Fort Worth","store_name":"University Park Village","leasor":"Madison Marquette","type":"indoor","latlong 1":32.7566698,"id":"a64uzajcir4f","latlong 2":-97.3628818,"s.f.":null,"other":null,"date opened":{"end_time":"2008/08/24 00:00:00 -0400","original":"August 23, 2008","granularity":"day","time":"2008/08/23 00:00:00 -0400"},"state":"TX"},"type":"Feature","geometry":{"type":"Point","coordinates":[-97.3628818,32.7566698]}},{"properties":{"city":"Jackson","store_name":"Renaissance at Colony Park","leasor":"Mattice Properties","type":"outdoor","latlong 1":32.2987573,"id":"a64uza5biuwu","latlong 2":-90.1848103,"s.f.":null,"other":"space 4010, remodeled Sept. 28 - Oct. 1, 2009","date opened":{"end_time":"2008/08/31 00:00:00 -0400","original":"August 30, 2008","granularity":"day","time":"2008/08/30 00:00:00 -0400"},"state":"MS"},"type":"Feature","geometry":{"type":"Point","coordinates":[-90.1848103,32.2987573]}},{"properties":{"city":"Las Vegas","store_name":"The Forum Shops at Caesar's","leasor":null,"type":"indoor","latlong 1":36.119059,"id":"a64uzairmsse","latlong 2":-115.176234,"s.f.":null,"other":null,"date opened":{"end_time":"2008/08/31 00:00:00 -0400","original":"August 30, 2008","granularity":"day","time":"2008/08/30 00:00:00 -0400"},"state":"NV"},"type":"Feature","geometry":{"type":"Point","coordinates":[-115.176234,36.119059]}},{"properties":{"city":"Leicester","store_name":"Highcross Leicester","leasor":null,"type":"indoor","latlong 1":52.6372745,"id":"a64uzak1vjjx","latlong 2":-1.1399247,"s.f.":null,"other":"new city-center urban district","date opened":{"end_time":"2008/09/05 00:00:00 -0400","original":"September 4, 2008","granularity":"day","time":"2008/09/04 00:00:00 -0400"},"state":"UK"},"type":"Feature","geometry":{"type":"Point","coordinates":[-1.1399247,52.6372745]}},{"properties":{"city":"Westlake","store_name":"Crocker Park","leasor":"Stark Enterprises","type":"outdoor","latlong 1":41.4594759,"id":"a64uza9xa8lb","latlong 2":-81.9539035,"s.f.":5100,"other":"Main Street retail + residential","date opened":{"end_time":"2008/09/07 00:00:00 -0400","original":"September 6, 2008","granularity":"day","time":"2008/09/06 00:00:00 -0400"},"state":"OH"},"type":"Feature","geometry":{"type":"Point","coordinates":[-81.9539035,41.4594759]}},{"properties":{"city":"S. Portland","store_name":"Maine Mall","leasor":"General Growth","type":"indoor","latlong 1":43.634073,"id":"a64uzaeyzd5l","latlong 2":-70.334381,"s.f.":5300,"other":"former VogelÕs Hallmark store in the MacyÕs wing","date opened":{"end_time":"2008/09/07 00:00:00 -0400","original":"September 6, 2008","granularity":"day","time":"2008/09/06 00:00:00 -0400"},"state":"ME"},"type":"Feature","geometry":{"type":"Point","coordinates":[-70.334381,43.634073]}},{"properties":{"city":"Melbourne","store_name":"Chadstone Shopping Centre","leasor":null,"type":"indoor","latlong 1":-37.8131869,"id":"a64uza9q7ain","latlong 2":144.9629796,"s.f.":null,"other":null,"date opened":{"end_time":"2008/09/14 00:00:00 -0400","original":"September 13, 2008","granularity":"day","time":"2008/09/13 00:00:00 -0400"},"state":"Australia"},"type":"Feature","geometry":{"type":"Point","coordinates":[144.9629796,-37.8131869]}},{"properties":{"city":"Wayne","store_name":"Willowbrook","leasor":"General Growth","type":"indoor","latlong 1":40.8889332,"id":"a64uza9bv49m","latlong 2":-74.2562057,"s.f.":6000,"other":"glass staircase","date opened":{"end_time":"2008/09/14 00:00:00 -0400","original":"September 13, 2008","granularity":"day","time":"2008/09/13 00:00:00 -0400"},"state":"NJ"},"type":"Feature","geometry":{"type":"Point","coordinates":[-74.2562057,40.8889332]}},{"properties":{"city":"Belfast","store_name":"Victoria Square","leasor":null,"type":"outdoor","latlong 1":54.5982706,"id":"a64uza6jsfo8","latlong 2":-5.9253231,"s.f.":null,"other":"new mall opened March 2008, 2-story, glass staircase","date opened":{"end_time":"2008/09/21 00:00:00 -0400","original":"September 20, 2008","granularity":"day","time":"2008/09/20 00:00:00 -0400"},"state":"UK"},"type":"Feature","geometry":{"type":"Point","coordinates":[-5.9253231,54.5982706]}},{"properties":{"city":"Lancaster","store_name":"Park City Mall","leasor":"General Growth","type":"indoor","latlong 1":40.0378755,"id":"a64uzaddimnp","latlong 2":-76.3055144,"s.f.":null,"other":null,"date opened":{"end_time":"2008/09/21 00:00:00 -0400","original":"September 20, 2008","granularity":"day","time":"2008/09/20 00:00:00 -0400"},"state":"PA"},"type":"Feature","geometry":{"type":"Point","coordinates":[-76.3055144,40.0378755]}},{"properties":{"city":"Colorado Springs","store_name":"Shops at Briargate","leasor":"Poag &amp; McEwen","type":"outdoor","latlong 1":38.9626538,"id":"a64uza8qog23","latlong 2":-104.7871004,"s.f.":null,"other":null,"date opened":{"end_time":"2008/09/21 00:00:00 -0400","original":"September 20, 2008","granularity":"day","time":"2008/09/20 00:00:00 -0400"},"state":"CO"},"type":"Feature","geometry":{"type":"Point","coordinates":[-104.7871004,38.9626538]}},{"properties":{"city":"Escondido","store_name":"North County Fair","leasor":"Westfield Group","type":"indoor","latlong 1":33.0709781,"id":"a64uza848tsm","latlong 2":-117.0628968,"s.f.":null,"other":null,"date opened":{"end_time":"2008/09/21 00:00:00 -0400","original":"September 20, 2008","granularity":"day","time":"2008/09/20 00:00:00 -0400"},"state":"CA"},"type":"Feature","geometry":{"type":"Point","coordinates":[-117.0628968,33.0709781]}},{"properties":{"city":"San Mateo","store_name":"Hillsdale Shopping Center","leasor":"Bohannon","type":"indoor","latlong 1":37.5569452,"id":"a64uza8i67wv","latlong 2":-122.2751306,"s.f.":null,"other":null,"date opened":{"end_time":"2008/09/21 00:00:00 -0400","original":"September 20, 2008","granularity":"day","time":"2008/09/20 00:00:00 -0400"},"state":"CA"},"type":"Feature","geometry":{"type":"Point","coordinates":[-122.2751306,37.5569452]}},{"properties":{"city":"Geneva","store_name":"Rue de Rive","leasor":null,"type":"outdoor street","latlong 1":46.2023018,"id":"a64uzai3f7ql","latlong 2":6.15071,"s.f.":null,"other":"former theater","date opened":{"end_time":"2008/09/26 00:00:00 -0400","original":"September 25, 2008","granularity":"day","time":"2008/09/25 00:00:00 -0400"},"state":"Switzerland"},"type":"Feature","geometry":{"type":"Point","coordinates":[6.15071,46.2023018]}},{"properties":{"city":"Bristol","store_name":"Cabot Circus","leasor":null,"type":"outdoor street","latlong 1":51.449785,"id":"a64uzajg8fla","latlong 2":-2.6228032,"s.f.":null,"other":"Quakers Friars section of new street mall, 2-levels, glass stairway","date opened":{"end_time":"2008/09/26 00:00:00 -0400","original":"September 25, 2008","granularity":"day","time":"2008/09/25 00:00:00 -0400"},"state":"UK"},"type":"Feature","geometry":{"type":"Point","coordinates":[-2.6228032,51.449785]}},{"properties":{"city":"Zurich","store_name":"Glattzentrum","leasor":null,"type":"indoor","latlong 1":47.367347,"id":"a64uzagfq7oj","latlong 2":8.5500025,"s.f.":null,"other":null,"date opened":{"end_time":"2008/09/27 00:00:00 -0400","original":"September 26, 2008","granularity":"day","time":"2008/09/26 00:00:00 -0400"},"state":"Switzerland"},"type":"Feature","geometry":{"type":"Point","coordinates":[8.5500025,47.367347]}},{"properties":{"city":"Toronto","store_name":"Fairview Mall","leasor":"Cadillac-Fairview","type":"indoor","latlong 1":43.7761364,"id":"a64uzajgqf9m","latlong 2":-79.3412003,"s.f.":null,"other":null,"date opened":{"end_time":"2008/09/28 00:00:00 -0400","original":"September 27, 2008","granularity":"day","time":"2008/09/27 00:00:00 -0400"},"state":"Canada"},"type":"Feature","geometry":{"type":"Point","coordinates":[-79.3412003,43.7761364]}},{"properties":{"city":"Calgary","store_name":"Market Mall","leasor":"Cadillac-Fairview","type":"indoor","latlong 1":51.0865038,"id":"a64uzac7rn7n","latlong 2":-114.15358,"s.f.":null,"other":"took the place of Chinook Centre store","date opened":{"end_time":"2008/09/28 00:00:00 -0400","original":"September 27, 2008","granularity":"day","time":"2008/09/27 00:00:00 -0400"},"state":"Canada"},"type":"Feature","geometry":{"type":"Point","coordinates":[-114.15358,51.0865038]}},{"properties":{"city":"Honolulu","store_name":"Royal Hawaiian Center","leasor":"The Festival Co.'s","type":"outdoor","latlong 1":21.279037,"id":"a64uzadgdvwy","latlong 2":-157.829032,"s.f.":7323,"other":"2-level store, mall expansion area","date opened":{"end_time":"2008/09/28 00:00:00 -0400","original":"September 27, 2008","granularity":"day","time":"2008/09/27 00:00:00 -0400"},"state":"HI"},"type":"Feature","geometry":{"type":"Point","coordinates":[-157.829032,21.279037]}},{"properties":{"city":"Metairie","store_name":"Lakeside Shopping Center","leasor":"Feil Organization","type":"indoor","latlong 1":29.9840922,"id":"a64uzaa8chfz","latlong 2":-90.1528519,"s.f.":null,"other":"former Discovery Store, $1.9 million bldg permit","date opened":{"end_time":"2008/09/28 00:00:00 -0400","original":"September 27, 2008","granularity":"day","time":"2008/09/27 00:00:00 -0400"},"state":"LA"},"type":"Feature","geometry":{"type":"Point","coordinates":[-90.1528519,29.9840922]}},{"properties":{"city":"London","store_name":"White City","leasor":"Westfield Group","type":"indoor","latlong 1":51.512601,"id":"a64uzagoowxw","latlong 2":-0.223925,"s.f.":null,"other":"new development","date opened":{"end_time":"2008/10/31 00:00:00 -0400","original":"October 30, 2008","granularity":"day","time":"2008/10/30 00:00:00 -0400"},"state":"UK"},"type":"Feature","geometry":{"type":"Point","coordinates":[-0.223925,51.512601]}},{"properties":{"city":"Miami","store_name":"Dadeland Mall","leasor":"Simon Property Group","type":"indoor","latlong 1":25.6893028,"id":"a64uzal2ok6p","latlong 2":-80.3136061,"s.f.":null,"other":null,"date opened":{"end_time":"2008/11/09 00:00:00 -0500","original":"November 8, 2008","granularity":"day","time":"2008/11/08 00:00:00 -0500"},"state":"FL"},"type":"Feature","geometry":{"type":"Point","coordinates":[-80.3136061,25.6893028]}},{"properties":{"city":"Modesto","store_name":"Vintage Faire Mall","leasor":"Macerich","type":"indoor","latlong 1":37.689381,"id":"a64uzajjqs9y","latlong 2":-121.054143,"s.f.":null,"other":"6 p.m. opening","date opened":{"end_time":"2008/11/15 00:00:00 -0500","original":"November 14, 2008","granularity":"day","time":"2008/11/14 00:00:00 -0500"},"state":"CA"},"type":"Feature","geometry":{"type":"Point","coordinates":[-121.054143,37.689381]}},{"properties":{"city":"Munich","store_name":"Rosenstrasse","leasor":null,"type":"outdoor street","latlong 1":48.1368473,"id":"a64uza6662x2","latlong 2":11.5741357,"s.f.":null,"other":"old buiilding demolished, new building with offices, spiral glass staircase","date opened":{"end_time":"2008/12/07 00:00:00 -0500","original":"December 6, 2008","granularity":"day","time":"2008/12/06 00:00:00 -0500"},"state":"Germany"},"type":"Feature","geometry":{"type":"Point","coordinates":[11.5741357,48.1368473]}},{"properties":{"city":"Greensboro","store_name":"Friendly Center","leasor":"TRS","type":"outdoor","latlong 1":36.0850307,"id":"a64uza54ayjq","latlong 2":-79.8306398,"s.f.":null,"other":"opening delayed to move to bigger space in new expansion area","date opened":{"end_time":"2009/02/22 00:00:00 -0500","original":"February 21, 2009","granularity":"day","time":"2009/02/21 00:00:00 -0500"},"state":"NC"},"type":"Feature","geometry":{"type":"Point","coordinates":[-79.8306398,36.0850307]}},{"properties":{"city":"Robina","store_name":"Robina Town Centre","leasor":"QIC","type":"indoor","latlong 1":-28.0712658,"id":"a64uza6vhf0v","latlong 2":153.3779288,"s.f.":null,"other":"in expansion area of mall, suburb of Brisbane","date opened":{"end_time":"2009/05/10 00:00:00 -0400","original":"May 9, 2009","granularity":"day","time":"2009/05/09 00:00:00 -0400"},"state":"Australia"},"type":"Feature","geometry":{"type":"Point","coordinates":[153.3779288,-28.0712658]}},{"properties":{"city":"Santa Barbara","store_name":"State Street","leasor":null,"type":"outdoor street","latlong 1":34.433588,"id":"a64uzajr82kf","latlong 2":-119.7185316,"s.f.":7274,"other":null,"date opened":{"end_time":"2009/05/17 00:00:00 -0400","original":"May 16, 2009","granularity":"day","time":"2009/05/16 00:00:00 -0400"},"state":"CA"},"type":"Feature","geometry":{"type":"Point","coordinates":[-119.7185316,34.433588]}},{"properties":{"city":"Zurich","store_name":"Bahnhofstrasse 77","leasor":null,"type":"outdoor street","latlong 1":47.3750621,"id":"a64uzakh8331","latlong 2":8.538578,"s.f.":8400,"other":null,"date opened":{"end_time":"2009/05/23 00:00:00 -0400","original":"May 22, 2009","granularity":"day","time":"2009/05/22 00:00:00 -0400"},"state":"Switzerland"},"type":"Feature","geometry":{"type":"Point","coordinates":[8.538578,47.3750621]}},{"properties":{"city":"Doncaster","store_name":"Westfield Group Doncaster","leasor":"Westfield Group","type":"indoor","latlong 1":-37.7887285,"id":"a64uzafjl0xn","latlong 2":145.123583,"s.f.":null,"other":"suburb east of Melbourne","date opened":{"end_time":"2009/05/24 00:00:00 -0400","original":"May 23, 2009","granularity":"day","time":"2009/05/23 00:00:00 -0400"},"state":"Australia"},"type":"Feature","geometry":{"type":"Point","coordinates":[145.123583,-37.7887285]}},{"properties":{"city":"Roseville","store_name":"Galleria at Roseville","leasor":"Westfield Group","type":"indoor","latlong 1":38.7791924,"id":"a64uzahn9h1v","latlong 2":-121.2658681,"s.f.":null,"other":"will occupy space in expansion","date opened":{"end_time":"2009/06/07 00:00:00 -0400","original":"June 6, 2009","granularity":"day","time":"2009/06/06 00:00:00 -0400"},"state":"CA"},"type":"Feature","geometry":{"type":"Point","coordinates":[-121.2658681,38.7791924]}},{"properties":{"city":"Scottsdale","store_name":"Scottsdale Quarter","leasor":"Glimcher","type":"outdoor","latlong 1":33.4941704,"id":"a64uza7rfr1n","latlong 2":-111.9260519,"s.f.":7857,"other":"new mall under construction","date opened":{"end_time":"2009/06/13 00:00:00 -0400","original":"June 12, 2009","granularity":"day","time":"2009/06/12 00:00:00 -0400"},"state":"AZ"},"type":"Feature","geometry":{"type":"Point","coordinates":[-111.9260519,33.4941704]}},{"properties":{"city":"Ottawa","store_name":"Rideau Center","leasor":"Viking Rideau Corp.","type":"indoor","latlong 1":45.425889,"id":"a64uzae8guzg","latlong 2":-75.6921349,"s.f.":4516,"other":"space J2, Jacob store moving to another location?","date opened":{"end_time":"2009/07/19 00:00:00 -0400","original":"July 18, 2009","granularity":"day","time":"2009/07/18 00:00:00 -0400"},"state":"Canada"},"type":"Feature","geometry":{"type":"Point","coordinates":[-75.6921349,45.425889]}},{"properties":{"city":"Brighton","store_name":"Churchill Square","leasor":"Standard Life Inv.","type":"indoor","latlong 1":50.8237,"id":"a64uza7wrgpj","latlong 2":-0.14609,"s.f.":null,"other":"rebuilt development, originally 2007 opening, delayed","date opened":{"end_time":"2009/07/26 00:00:00 -0400","original":"July 25, 2009","granularity":"day","time":"2009/07/25 00:00:00 -0400"},"state":"UK"},"type":"Feature","geometry":{"type":"Point","coordinates":[-0.14609,50.8237]}},{"properties":{"city":"Mississauga","store_name":"Square One","leasor":"Oxford Prop. Group","type":"indoor","latlong 1":43.591682,"id":"a64uzaiqw9xi","latlong 2":-79.639909,"s.f.":3081,"other":"in CitySide section, left of Tommy Hilfiger store","date opened":{"end_time":"2009/08/16 00:00:00 -0400","original":"August 15, 2009","granularity":"day","time":"2009/08/15 00:00:00 -0400"},"state":"Canada"},"type":"Feature","geometry":{"type":"Point","coordinates":[-79.639909,43.591682]}},{"properties":{"city":"Naperville","store_name":"Main Place","leasor":null,"type":"outdoor street","latlong 1":41.7839984,"id":"a64uzafr8xq3","latlong 2":-88.148673,"s.f.":null,"other":"120 W. Jefferson Street","date opened":{"end_time":"2009/08/16 00:00:00 -0400","original":"August 15, 2009","granularity":"day","time":"2009/08/15 00:00:00 -0400"},"state":"IL"},"type":"Feature","geometry":{"type":"Point","coordinates":[-88.148673,41.7839984]}},{"properties":{"city":"Reston","store_name":"Reston Town Center","leasor":null,"type":"outdoor","latlong 1":38.9620784,"id":"a64uzah0kl2o","latlong 2":-77.3641777,"s.f.":null,"other":"building permit issued Feb. 3, 2009","date opened":{"end_time":"2009/08/16 00:00:00 -0400","original":"August 15, 2009","granularity":"day","time":"2009/08/15 00:00:00 -0400"},"state":"VA"},"type":"Feature","geometry":{"type":"Point","coordinates":[-77.3641777,38.9620784]}},{"properties":{"city":"Frisco","store_name":"Stonebriar Shopping Centre","leasor":"General Growth","type":"indoor","latlong 1":33.118961,"id":"a64uzajksllo","latlong 2":-96.81266,"s.f.":null,"other":null,"date opened":{"end_time":"2009/08/29 00:00:00 -0400","original":"August 28, 2009","granularity":"day","time":"2009/08/28 00:00:00 -0400"},"state":"TX"},"type":"Feature","geometry":{"type":"Point","coordinates":[-96.81266,33.118961]}},{"properties":{"city":"Dedham","store_name":"Legacy Place","leasor":"WS Development","type":"outdoor","latlong 1":42.2307775,"id":"a64uzabw5rv3","latlong 2":-71.1779406,"s.f.":null,"other":"new mall","date opened":{"end_time":"2009/08/29 00:00:00 -0400","original":"August 28, 2009","granularity":"day","time":"2009/08/28 00:00:00 -0400"},"state":"MA"},"type":"Feature","geometry":{"type":"Point","coordinates":[-71.1779406,42.2307775]}},{"properties":{"city":"Hamburg","store_name":"Alstertal","leasor":null,"type":"indoor","latlong 1":53.553813,"id":"a64uza96v6xh","latlong 2":9.991586,"s.f.":null,"other":null,"date opened":{"end_time":"2009/08/29 00:00:00 -0400","original":"August 28, 2009","granularity":"day","time":"2009/08/28 00:00:00 -0400"},"state":"Germany"},"type":"Feature","geometry":{"type":"Point","coordinates":[9.991586,53.553813]}},{"properties":{"city":"Milano","store_name":"Carugate Carosello","leasor":null,"type":"indoor","latlong 1":45.463681,"id":"a64uzadqtw84","latlong 2":9.1881714,"s.f.":null,"other":"inside shopping mall","date opened":{"end_time":"2009/09/06 00:00:00 -0400","original":"September 5, 2009","granularity":"day","time":"2009/09/05 00:00:00 -0400"},"state":"Italy"},"type":"Feature","geometry":{"type":"Point","coordinates":[9.1881714,45.463681]}},{"properties":{"city":"Augusta","store_name":"Augusta Mall","leasor":"General Growth","type":"indoor","latlong 1":33.474246,"id":"a64uza9rxhkn","latlong 2":-82.00967,"s.f.":null,"other":"in expansion area","date opened":{"end_time":"2009/09/20 00:00:00 -0400","original":"September 19, 2009","granularity":"day","time":"2009/09/19 00:00:00 -0400"},"state":"GA"},"type":"Feature","geometry":{"type":"Point","coordinates":[-82.00967,33.474246]}},{"properties":{"city":"Winnipeg","store_name":"Polo Park","leasor":"Cadillac-Fairview","type":"indoor","latlong 1":49.8866486,"id":"a64uza9qs39w","latlong 2":-97.1992166,"s.f.":4063,"other":null,"date opened":{"end_time":"2009/09/20 00:00:00 -0400","original":"September 19, 2009","granularity":"day","time":"2009/09/19 00:00:00 -0400"},"state":"Canada"},"type":"Feature","geometry":{"type":"Point","coordinates":[-97.1992166,49.8866486]}},{"properties":{"city":"Vancouver","store_name":"Oakridge Mall","leasor":"Ivanhoe Cambridge","type":"indoor","latlong 1":49.233485,"id":"a64uzab4isa9","latlong 2":-123.11879,"s.f.":4020,"other":null,"date opened":{"end_time":"2009/09/27 00:00:00 -0400","original":"September 26, 2009","granularity":"day","time":"2009/09/26 00:00:00 -0400"},"state":"Canada"},"type":"Feature","geometry":{"type":"Point","coordinates":[-123.11879,49.233485]}},{"properties":{"city":"Temecula","store_name":"The Promenade","leasor":"Forest City Ent.","type":"outdoor","latlong 1":33.52308,"id":"a64uzaisd5fw","latlong 2":-117.15261,"s.f.":null,"other":"Phase 2 expansion area","date opened":{"end_time":"2009/09/27 00:00:00 -0400","original":"September 26, 2009","granularity":"day","time":"2009/09/26 00:00:00 -0400"},"state":"CA"},"type":"Feature","geometry":{"type":"Point","coordinates":[-117.15261,33.52308]}},{"properties":{"city":"Montreal","store_name":"Pointe Claire","leasor":"Cadillac-Fairview","type":"indoor","latlong 1":45.4346056,"id":"a64uzadnvj1k","latlong 2":-73.8084583,"s.f.":null,"other":null,"date opened":{"end_time":"2009/09/27 00:00:00 -0400","original":"September 26, 2009","granularity":"day","time":"2009/09/26 00:00:00 -0400"},"state":"Canada"},"type":"Feature","geometry":{"type":"Point","coordinates":[-73.8084583,45.4346056]}},{"properties":{"city":"Norwich","store_name":"Chapelfield Shopping Centre","leasor":"Capital Shopping Cntrs","type":"indoor","latlong 1":52.6281014,"id":"a64uzagppbti","latlong 2":1.2993494,"s.f.":8000,"other":"space 141","date opened":{"end_time":"2009/09/27 00:00:00 -0400","original":"September 26, 2009","granularity":"day","time":"2009/09/26 00:00:00 -0400"},"state":"UK"},"type":"Feature","geometry":{"type":"Point","coordinates":[1.2993494,52.6281014]}},{"properties":{"city":"Manhasset","store_name":"Manhasset","leasor":"Castagna Realty Co.","type":"outdoor","latlong 1":40.79672,"id":"a64uzak6z8ww","latlong 2":-73.6999,"s.f.":null,"other":"new building, under construction","date opened":{"end_time":"2009/10/18 00:00:00 -0400","original":"October 17, 2009","granularity":"day","time":"2009/10/17 00:00:00 -0400"},"state":"NY"},"type":"Feature","geometry":{"type":"Point","coordinates":[-73.6999,40.79672]}},{"properties":{"city":"Cardiff","store_name":"St. David's Centre 2","leasor":"Capital Shopping Cntrs","type":"indoor","latlong 1":51.4813069,"id":"a64uza5rdfrh","latlong 2":-3.1804979,"s.f.":null,"other":"remodeled and expanded mall","date opened":{"end_time":"2009/10/23 00:00:00 -0400","original":"October 22, 2009","granularity":"day","time":"2009/10/22 00:00:00 -0400"},"state":"UK"},"type":"Feature","geometry":{"type":"Point","coordinates":[-3.1804979,51.4813069]}},{"properties":{"city":"Aberdeen","store_name":"Union Square","leasor":null,"type":"indoor","latlong 1":57.1454378,"id":"a64uzafpz7k8","latlong 2":-2.1027575,"s.f.":null,"other":"new mall","date opened":{"end_time":"2009/10/30 00:00:00 -0400","original":"October 29, 2009","granularity":"day","time":"2009/10/29 00:00:00 -0400"},"state":"UK"},"type":"Feature","geometry":{"type":"Point","coordinates":[-2.1027575,57.1454378]}},{"properties":{"city":"Paris","store_name":"Carrousel de Louvre","leasor":null,"type":"indoor","latlong 1":48.8615212,"id":"a64uzaknj9f4","latlong 2":2.3345087,"s.f.":7200,"other":"beneath the glass pyramid, existing tenant moved out Dec. 13, 2008","date opened":{"end_time":"2009/11/08 00:00:00 -0500","original":"November 7, 2009","granularity":"day","time":"2009/11/07 00:00:00 -0500"},"state":"France"},"type":"Feature","geometry":{"type":"Point","coordinates":[2.3345087,48.8615212]}},{"properties":{"city":"Chermside","store_name":"Westfield Group Chermside","leasor":"Westfield Group","type":"indoor","latlong 1":-27.3854227,"id":"a64uza5zcx0n","latlong 2":153.0301776,"s.f.":null,"other":"under construction","date opened":{"end_time":"2009/11/15 00:00:00 -0500","original":"November 14, 2009","granularity":"day","time":"2009/11/14 00:00:00 -0500"},"state":"Australia"},"type":"Feature","geometry":{"type":"Point","coordinates":[153.0301776,-27.3854227]}},{"properties":{"city":"Montpellier","store_name":"Odysseum","leasor":null,"type":"indoor","latlong 1":43.603545,"id":"a64uzaezjw2d","latlong 2":3.9205546,"s.f.":null,"other":null,"date opened":{"end_time":"2009/11/15 00:00:00 -0500","original":"November 14, 2009","granularity":"day","time":"2009/11/14 00:00:00 -0500"},"state":"France"},"type":"Feature","geometry":{"type":"Point","coordinates":[3.9205546,43.603545]}},{"properties":{"city":"New York City","store_name":"Upper West Side","leasor":null,"type":"outdoor street","latlong 1":40.7859464,"id":"a64uzae28h1y","latlong 2":-73.9741874,"s.f.":13460,"other":"demolition of Victoria's Secret building and construction of new bldg.","date opened":{"end_time":"2009/11/15 00:00:00 -0500","original":"November 14, 2009","granularity":"day","time":"2009/11/14 00:00:00 -0500"},"state":"NY"},"type":"Feature","geometry":{"type":"Point","coordinates":[-73.9741874,40.7859464]}},{"properties":{"city":"Nashua","store_name":"Pheasant Lane","leasor":"Simon Property Group","type":"indoor","latlong 1":42.7007961,"id":"a64uza5ij0bq","latlong 2":-71.4440273,"s.f.":null,"other":null,"date opened":{"end_time":"2009/11/22 00:00:00 -0500","original":"November 21, 2009","granularity":"day","time":"2009/11/21 00:00:00 -0500"},"state":"NH"},"type":"Feature","geometry":{"type":"Point","coordinates":[-71.4440273,42.7007961]}},{"properties":{"city":"Greenwich","store_name":"Greenwich Avenue","leasor":null,"type":"outdoor street","latlong 1":41.026051,"id":"a64uza7web3q","latlong 2":-73.6258332,"s.f.":null,"other":"former movie theater, now white brick fa�ade","date opened":{"end_time":"2009/11/22 00:00:00 -0500","original":"November 21, 2009","granularity":"day","time":"2009/11/21 00:00:00 -0500"},"state":"CT"},"type":"Feature","geometry":{"type":"Point","coordinates":[-73.6258332,41.026051]}},{"properties":{"city":"Bristol","store_name":"Cribbs Causeway","leasor":null,"type":"indoor","latlong 1":51.5262308,"id":"a64uzajitqmw","latlong 2":-2.6016067,"s.f.":null,"other":"space #114 on upper level","date opened":{"end_time":"2009/12/13 00:00:00 -0500","original":"December 12, 2009","granularity":"day","time":"2009/12/12 00:00:00 -0500"},"state":"UK"},"type":"Feature","geometry":{"type":"Point","coordinates":[-2.6016067,51.5262308]}},{"properties":{"city":"Frankfurt","store_name":"Bockenheimer Strasse","leasor":null,"type":"outdoor street","latlong 1":50.149579,"id":"a64uza6xweer","latlong 2":8.543285,"s.f.":null,"other":"Dec. 5, 2009 opening postponed","date opened":{"end_time":"2010/01/24 00:00:00 -0500","original":"January 23, 2010","granularity":"day","time":"2010/01/23 00:00:00 -0500"},"state":"Germany"},"type":"Feature","geometry":{"type":"Point","coordinates":[8.543285,50.149579]}},{"properties":{"city":"Newcastle on Tyne","store_name":"Eldon Square South","leasor":null,"type":"indoor","latlong 1":54.9741132,"id":"a64uzag8wiv2","latlong 2":-1.6147177,"s.f.":5782,"other":"city centre mall under construction","date opened":{"end_time":"2010/02/17 00:00:00 -0500","original":"February 16, 2010","granularity":"day","time":"2010/02/16 00:00:00 -0500"},"state":"UK"},"type":"Feature","geometry":{"type":"Point","coordinates":[-1.6147177,54.9741132]}},{"properties":{"city":"Bath","store_name":"SouthGate|Bath","leasor":null,"type":"outdoor","latlong 1":51.379659,"id":"a64uzaf4busd","latlong 2":-2.359729,"s.f.":null,"other":null,"date opened":{"end_time":"2010/03/28 00:00:00 -0400","original":"March 27, 2010","granularity":"day","time":"2010/03/27 00:00:00 -0400"},"state":"UK"},"type":"Feature","geometry":{"type":"Point","coordinates":[-2.359729,51.379659]}},{"properties":{"city":"Bondi Junction","store_name":"Bondi Junction","leasor":"Westfield Group","type":"outdoor","latlong 1":-33.8911245,"id":"a64uza8lwmuv","latlong 2":151.2472236,"s.f.":null,"other":"516 Oxford St., 1st store w/interior trees, interior skylight","date opened":{"end_time":"2010/05/29 00:00:00 -0400","original":"May 28, 2010","granularity":"day","time":"2010/05/28 00:00:00 -0400"},"state":"Australia"},"type":"Feature","geometry":{"type":"Point","coordinates":[151.2472236,-33.8911245]}},{"properties":{"city":"Edmonton","store_name":"Southgate Centre","leasor":"Ivanhoe Cambridge","type":"indoor","latlong 1":53.4844932,"id":"a64uzad2fcbb","latlong 2":-113.5165963,"s.f.":null,"other":null,"date opened":{"end_time":"2010/05/29 00:00:00 -0400","original":"May 28, 2010","granularity":"day","time":"2010/05/28 00:00:00 -0400"},"state":"Canada"},"type":"Feature","geometry":{"type":"Point","coordinates":[-113.5165963,53.4844932]}},{"properties":{"city":"Tacoma","store_name":"Tacoma Mall","leasor":"Simon Property Group","type":"indoor","latlong 1":47.2017496,"id":"a64uzacomwzb","latlong 2":-122.4629702,"s.f.":null,"other":"in one of three spaces created from vacant Nordstrom store","date opened":{"end_time":"2010/05/30 00:00:00 -0400","original":"May 29, 2010","granularity":"day","time":"2010/05/29 00:00:00 -0400"},"state":"WA"},"type":"Feature","geometry":{"type":"Point","coordinates":[-122.4629702,47.2017496]}},{"properties":{"city":"Washington","store_name":"Georgetown","leasor":null,"type":"outdoor street","latlong 1":38.9069752,"id":"a64uza7rkvyp","latlong 2":-77.0650809,"s.f.":null,"other":null,"date opened":{"end_time":"2010/06/19 00:00:00 -0400","original":"June 18, 2010","granularity":"day","time":"2010/06/18 00:00:00 -0400"},"state":"DC"},"type":"Feature","geometry":{"type":"Point","coordinates":[-77.0650809,38.9069752]}},{"properties":{"city":"Minneapolis","store_name":"Uptown","leasor":null,"type":"outdoor street","latlong 1":44.9489637,"id":"a64uza8voyad","latlong 2":-93.2998689,"s.f.":9600,"other":"Business Briefing Center overlooks green roof garden","date opened":{"end_time":"2010/06/20 00:00:00 -0400","original":"June 19, 2010","granularity":"day","time":"2010/06/19 00:00:00 -0400"},"state":"MN"},"type":"Feature","geometry":{"type":"Point","coordinates":[-93.2998689,44.9489637]}},{"properties":{"city":"Cerritos","store_name":"Los Cerritos Center","leasor":"Macerich","type":"indoor","latlong 1":33.8639477,"id":"a64uzai50qfz","latlong 2":-118.0945494,"s.f.":7942,"other":null,"date opened":{"end_time":"2010/06/25 00:00:00 -0400","original":"June 24, 2010","granularity":"day","time":"2010/06/24 00:00:00 -0400"},"state":"CA"},"type":"Feature","geometry":{"type":"Point","coordinates":[-118.0945494,33.8639477]}},{"properties":{"city":"Perth","store_name":"Perth City","leasor":null,"type":"outdoor street","latlong 1":-31.9528536,"id":"a64uzaboqxjm","latlong 2":115.8573389,"s.f.":8700,"other":"790-794 Hay Street, construction applications filed Dec. 1, 2009","date opened":{"end_time":"2010/06/27 00:00:00 -0400","original":"June 26, 2010","granularity":"day","time":"2010/06/26 00:00:00 -0400"},"state":"Australia"},"type":"Feature","geometry":{"type":"Point","coordinates":[115.8573389,-31.9528536]}},{"properties":{"city":"Paris","store_name":"OpŽra","leasor":null,"type":"outdoor street","latlong 1":48.856614,"id":"a64uzab5wiyz","latlong 2":2.3522219,"s.f.":null,"other":"#12 rue HelŽvy in Opera District","date opened":{"end_time":"2010/07/04 00:00:00 -0400","original":"July 3, 2010","granularity":"day","time":"2010/07/03 00:00:00 -0400"},"state":"France"},"type":"Feature","geometry":{"type":"Point","coordinates":[2.3522219,48.856614]}},{"properties":{"city":"Shanghai","store_name":"Pudong","leasor":null,"type":"outdoor","latlong 1":31.208375,"id":"a64uzachzn2j","latlong 2":121.5155011,"s.f.":null,"other":"in plaza of Inter. Finance Center, glass cylinder &amp; underground store","date opened":{"end_time":"2010/07/11 00:00:00 -0400","original":"July 10, 2010","granularity":"day","time":"2010/07/10 00:00:00 -0400"},"state":"China"},"type":"Feature","geometry":{"type":"Point","coordinates":[121.5155011,31.208375]}},{"properties":{"city":"Greenville","store_name":"Haywood Mall","leasor":"Simon Property Group","type":"indoor","latlong 1":34.850641,"id":"a64uzalh45qc","latlong 2":-82.334697,"s.f.":5000,"other":"switched to Magnolia Park TC, then back to Haywood","date opened":{"end_time":"2010/07/11 00:00:00 -0400","original":"July 10, 2010","granularity":"day","time":"2010/07/10 00:00:00 -0400"},"state":"SC"},"type":"Feature","geometry":{"type":"Point","coordinates":[-82.334697,34.850641]}},{"properties":{"city":"Columbus","store_name":"Polaris Fashion Place","leasor":"Glimcher","type":"indoor","latlong 1":40.144682,"id":"a64uza9yo2dt","latlong 2":-82.981678,"s.f.":null,"other":null,"date opened":{"end_time":"2010/07/25 00:00:00 -0400","original":"July 24, 2010","granularity":"day","time":"2010/07/24 00:00:00 -0400"},"state":"OH"},"type":"Feature","geometry":{"type":"Point","coordinates":[-82.981678,40.144682]}},{"properties":{"city":"Lexington","store_name":"Fayette Mall","leasor":"CBL &amp; Associates","type":"indoor","latlong 1":37.989276,"id":"a64uzaisadb6","latlong 2":-84.52677,"s.f.":null,"other":null,"date opened":{"end_time":"2010/07/25 00:00:00 -0400","original":"July 24, 2010","granularity":"day","time":"2010/07/24 00:00:00 -0400"},"state":"KY"},"type":"Feature","geometry":{"type":"Point","coordinates":[-84.52677,37.989276]}},{"properties":{"city":"Philadelphia","store_name":"Walnut Street","leasor":null,"type":"outdoor street","latlong 1":39.9531474,"id":"a64uzaaohzcb","latlong 2":-75.1947825,"s.f.":14139,"other":"1607-09 Walnut street, former bank","date opened":{"end_time":"2010/07/31 00:00:00 -0400","original":"July 30, 2010","granularity":"day","time":"2010/07/30 00:00:00 -0400"},"state":"PA"},"type":"Feature","geometry":{"type":"Point","coordinates":[-75.1947825,39.9531474]}},{"properties":{"city":"London","store_name":"Covent Garden","leasor":"CapCo","type":"outdoor street","latlong 1":51.5116097,"id":"a64uza98mt9d","latlong 2":-0.1225153,"s.f.":14886,"other":null,"date opened":{"end_time":"2010/08/01 00:00:00 -0400","original":"July 31, 2010","granularity":"day","time":"2010/07/31 00:00:00 -0400"},"state":"UK"},"type":"Feature","geometry":{"type":"Point","coordinates":[-0.1225153,51.5116097]}},{"properties":{"city":"Castle Hill","store_name":"Castle Towers","leasor":"QIC","type":"indoor","latlong 1":-33.7328193,"id":"a64uzagp8me4","latlong 2":151.0049599,"s.f.":null,"other":"Sydney suburb, 5 p.m. opening","date opened":{"end_time":"2010/08/20 00:00:00 -0400","original":"August 19, 2010","granularity":"day","time":"2010/08/19 00:00:00 -0400"},"state":"Australia"},"type":"Feature","geometry":{"type":"Point","coordinates":[151.0049599,-33.7328193]}},{"properties":{"city":"Nice","store_name":"CAP 3000","leasor":null,"type":"indoor","latlong 1":43.7319832,"id":"a64uza8eygjo","latlong 2":7.2752429,"s.f.":null,"other":"on the waterfront","date opened":{"end_time":"2010/08/29 00:00:00 -0400","original":"August 28, 2010","granularity":"day","time":"2010/08/28 00:00:00 -0400"},"state":"France"},"type":"Feature","geometry":{"type":"Point","coordinates":[7.2752429,43.7319832]}},{"properties":{"city":"Pittsburgh","store_name":"Ross Park","leasor":"Simon Property Group","type":"indoor","latlong 1":40.5392027,"id":"a64uzagtu9w2","latlong 2":-80.0073857,"s.f.":null,"other":null,"date opened":{"end_time":"2010/08/29 00:00:00 -0400","original":"August 28, 2010","granularity":"day","time":"2010/08/28 00:00:00 -0400"},"state":"PA"},"type":"Feature","geometry":{"type":"Point","coordinates":[-80.0073857,40.5392027]}},{"properties":{"city":"Barcelona","store_name":"La Maquinista","leasor":null,"type":"outdoor","latlong 1":41.3808966,"id":"a64uzakbcem2","latlong 2":2.1893817,"s.f.":null,"other":null,"date opened":{"end_time":"2010/09/05 00:00:00 -0400","original":"September 4, 2010","granularity":"day","time":"2010/09/04 00:00:00 -0400"},"state":"Spain"},"type":"Feature","geometry":{"type":"Point","coordinates":[2.1893817,41.3808966]}},{"properties":{"city":"Palm Desert","store_name":"El Paseo Village","leasor":"David Street Dev.","type":"outdoor street","latlong 1":33.7198221,"id":"a64uza4zlwhd","latlong 2":-116.3868575,"s.f.":4780,"other":null,"date opened":{"end_time":"2010/09/05 00:00:00 -0400","original":"September 4, 2010","granularity":"day","time":"2010/09/04 00:00:00 -0400"},"state":"CA"},"type":"Feature","geometry":{"type":"Point","coordinates":[-116.3868575,33.7198221]}},{"properties":{"city":"Madrid","store_name":"Xanadœ","leasor":"Ivanhoe Cambridge","type":"indoor","latlong 1":40.4166909,"id":"a64uza8fc0xj","latlong 2":-3.7003454,"s.f.":null,"other":null,"date opened":{"end_time":"2010/09/12 00:00:00 -0400","original":"September 11, 2010","granularity":"day","time":"2010/09/11 00:00:00 -0400"},"state":"Spain"},"type":"Feature","geometry":{"type":"Point","coordinates":[-3.7003454,40.4166909]}},{"properties":{"city":"Newmarket","store_name":"Upper Canada Mall","leasor":"Ivanhoe Cambridge","type":"indoor","latlong 1":44.054512,"id":"a64uzak63uac","latlong 2":-79.48617,"s.f.":null,"other":"unknown location within the mall","date opened":{"end_time":"2010/09/12 00:00:00 -0400","original":"September 11, 2010","granularity":"day","time":"2010/09/11 00:00:00 -0400"},"state":"Canada"},"type":"Feature","geometry":{"type":"Point","coordinates":[-79.48617,44.054512]}},{"properties":{"city":"Boise","store_name":"Boise Town Square","leasor":"General Growth","type":"indoor","latlong 1":43.5740564,"id":"a64uzabgteme","latlong 2":-116.1613545,"s.f.":null,"other":null,"date opened":{"end_time":"2010/09/12 00:00:00 -0400","original":"September 11, 2010","granularity":"day","time":"2010/09/11 00:00:00 -0400"},"state":"ID"},"type":"Feature","geometry":{"type":"Point","coordinates":[-116.1613545,43.5740564]}},{"properties":{"city":"Vancouver","store_name":"Richmond Centre","leasor":"CF &amp; IC","type":"indoor","latlong 1":49.2607645,"id":"a64uzaasdayq","latlong 2":-123.2421803,"s.f.":5993,"other":null,"date opened":{"end_time":"2010/09/12 00:00:00 -0400","original":"September 11, 2010","granularity":"day","time":"2010/09/11 00:00:00 -0400"},"state":"Canada"},"type":"Feature","geometry":{"type":"Point","coordinates":[-123.2421803,49.2607645]}},{"properties":{"city":"Torino","store_name":"Le Gru","leasor":null,"type":"indoor","latlong 1":45.0705621,"id":"a64uzadwdmup","latlong 2":7.6866186,"s.f.":null,"other":null,"date opened":{"end_time":"2010/09/19 00:00:00 -0400","original":"September 18, 2010","granularity":"day","time":"2010/09/18 00:00:00 -0400"},"state":"Italy"},"type":"Feature","geometry":{"type":"Point","coordinates":[7.6866186,45.0705621]}},{"properties":{"city":"Shanghai","store_name":"Hong Kong Plaza","leasor":null,"type":"indoor","latlong 1":22.310537,"id":"a64uzac6s53g","latlong 2":114.169732,"s.f.":null,"other":null,"date opened":{"end_time":"2010/09/26 00:00:00 -0400","original":"September 25, 2010","granularity":"day","time":"2010/09/25 00:00:00 -0400"},"state":"China"},"type":"Feature","geometry":{"type":"Point","coordinates":[114.169732,22.310537]}},{"properties":{"city":"Beijing","store_name":"Xidan Joy Life","leasor":null,"type":"indoor","latlong 1":39.904214,"id":"a64uzacxeatw","latlong 2":116.407413,"s.f.":null,"other":"street-facing space","date opened":{"end_time":"2010/09/26 00:00:00 -0400","original":"September 25, 2010","granularity":"day","time":"2010/09/25 00:00:00 -0400"},"state":"China"},"type":"Feature","geometry":{"type":"Point","coordinates":[116.407413,39.904214]}},{"properties":{"city":"Bergamo","store_name":"Oriocenter","leasor":null,"type":"indoor","latlong 1":45.6949028,"id":"a64uzagy3hq0","latlong 2":9.6699528,"s.f.":null,"other":null,"date opened":{"end_time":"2010/09/26 00:00:00 -0400","original":"September 25, 2010","granularity":"day","time":"2010/09/25 00:00:00 -0400"},"state":"Italy"},"type":"Feature","geometry":{"type":"Point","coordinates":[9.6699528,45.6949028]}},{"properties":{"city":"Vélizy-Villacoublay","store_name":"Vélizy 2","leasor":null,"type":"indoor","latlong 1":48.78503,"id":"a64uzakpbud6","latlong 2":2.18246,"s.f.":null,"other":"Paris suburb","date opened":{"end_time":"2010/09/26 00:00:00 -0400","original":"September 25, 2010","granularity":"day","time":"2010/09/25 00:00:00 -0400"},"state":"France"},"type":"Feature","geometry":{"type":"Point","coordinates":[2.18246,48.78503]}},{"properties":{"city":"Gateshead","store_name":"MetroCentre","leasor":"CSC","type":"indoor","latlong 1":54.95764,"id":"a64uzad43umt","latlong 2":-1.66855,"s.f.":null,"other":"lower level, space #252 former FCUK store","date opened":{"end_time":"2010/09/26 00:00:00 -0400","original":"September 25, 2010","granularity":"day","time":"2010/09/25 00:00:00 -0400"},"state":"UK"},"type":"Feature","geometry":{"type":"Point","coordinates":[-1.66855,54.95764]}},{"properties":{"city":"Oberhausen","store_name":"CentrO","leasor":"Centro Mgmt GmbH","type":"indoor","latlong 1":51.4917163,"id":"a64uzai04jlm","latlong 2":6.8767016,"s.f.":null,"other":null,"date opened":{"end_time":"2010/09/26 00:00:00 -0400","original":"September 25, 2010","granularity":"day","time":"2010/09/25 00:00:00 -0400"},"state":"Germany"},"type":"Feature","geometry":{"type":"Point","coordinates":[6.8767016,51.4917163]}},{"properties":{"city":"Spokane","store_name":"River Park Square","leasor":"Riverpark Square","type":"indoor","latlong 1":47.792677,"id":"a64uzags31zh","latlong 2":-117.527237,"s.f.":null,"other":null,"date opened":{"end_time":"2010/09/26 00:00:00 -0400","original":"September 25, 2010","granularity":"day","time":"2010/09/25 00:00:00 -0400"},"state":"WA"},"type":"Feature","geometry":{"type":"Point","coordinates":[-117.527237,47.792677]}},{"properties":{"city":"Calgary","store_name":"Chinook Centre","leasor":"Cadillac-Fairview","type":"indoor","latlong 1":50.9983308,"id":"a64uzal8t9lr","latlong 2":-114.0718443,"s.f.":5000,"other":"2006 project cancelled early 2008, and then renewed","date opened":{"end_time":"2010/09/30 00:00:00 -0400","original":"September 29, 2010","granularity":"day","time":"2010/09/29 00:00:00 -0400"},"state":"Canada"},"type":"Feature","geometry":{"type":"Point","coordinates":[-114.0718443,50.9983308]}},{"properties":{"city":"Newcastle","store_name":"Charlestown Square","leasor":"GPT","type":"indoor","latlong 1":-32.9483063,"id":"a64uza84a5vf","latlong 2":151.6860507,"s.f.":null,"other":"space 215 on the upper level, former EB Games store","date opened":{"end_time":"2010/10/22 00:00:00 -0400","original":"October 21, 2010","granularity":"day","time":"2010/10/21 00:00:00 -0400"},"state":"Australia"},"type":"Feature","geometry":{"type":"Point","coordinates":[151.6860507,-32.9483063]}},{"properties":{"city":"Chicago","store_name":"Lincoln Park","leasor":"M Development LLC","type":"outdoor street","latlong 1":41.9203468,"id":"a64uzagldn57","latlong 2":-87.6433139,"s.f.":null,"other":"green roof garden","date opened":{"end_time":"2010/10/24 00:00:00 -0400","original":"October 23, 2010","granularity":"day","time":"2010/10/23 00:00:00 -0400"},"state":"IL"},"type":"Feature","geometry":{"type":"Point","coordinates":[-87.6433139,41.9203468]}},{"properties":{"city":"Quebec","store_name":"Place Ste-Foy","leasor":"Ivanhoe Cambridge","type":"indoor","latlong 1":46.7914148,"id":"a64uzad4vzeg","latlong 2":-71.3840527,"s.f.":7662,"other":"ground level, space E50","date opened":{"end_time":"2010/11/14 00:00:00 -0500","original":"November 13, 2010","granularity":"day","time":"2010/11/13 00:00:00 -0500"},"state":"Canada"},"type":"Feature","geometry":{"type":"Point","coordinates":[-71.3840527,46.7914148]}},{"properties":{"city":"Akron","store_name":"Summit Mall","leasor":"Simon Property Group","type":"indoor","latlong 1":41.0814447,"id":"a64uzabmvfbn","latlong 2":-81.5190053,"s.f.":6211,"other":"construction permit value $1.3 million","date opened":{"end_time":"2010/11/14 00:00:00 -0500","original":"November 13, 2010","granularity":"day","time":"2010/11/13 00:00:00 -0500"},"state":"OH"},"type":"Feature","geometry":{"type":"Point","coordinates":[-81.5190053,41.0814447]}},{"properties":{"city":"Mishawaka","store_name":"University Park Mall","leasor":"Simon Property Group","type":"indoor","latlong 1":41.719961,"id":"a64uza8xbmam","latlong 2":-86.188127,"s.f.":5800,"other":"space 446, to right of Abercrombie","date opened":{"end_time":"2010/11/14 00:00:00 -0500","original":"November 13, 2010","granularity":"day","time":"2010/11/13 00:00:00 -0500"},"state":"IN"},"type":"Feature","geometry":{"type":"Point","coordinates":[-86.188127,41.719961]}},{"properties":{"city":"Austin","store_name":"6th Street","leasor":null,"type":"indoor","latlong 1":30.2728917,"id":"a64uzab97loa","latlong 2":-97.7575618,"s.f.":5000,"other":"101 W. 6th St., pop-up store during SXSW Festival 2011","date opened":{"end_time":"2011/03/12 00:00:00 -0500","original":"March 11, 2011","granularity":"day","time":"2011/03/11 00:00:00 -0500"},"state":"TX"},"type":"Feature","geometry":{"type":"Point","coordinates":[-97.7575618,30.2728917]}},{"properties":{"city":"Dresden","store_name":"Altmarkt-Galerie","leasor":null,"type":"indoor","latlong 1":51.0509912,"id":"a64uza81hgmd","latlong 2":13.7336335,"s.f.":null,"other":"unknown location in the mall","date opened":{"end_time":"2011/04/01 00:00:00 -0400","original":"March 31, 2011","granularity":"day","time":"2011/03/31 00:00:00 -0400"},"state":"Germany"},"type":"Feature","geometry":{"type":"Point","coordinates":[13.7336335,51.0509912]}},{"properties":{"city":"Bordeaux","store_name":"Sainte-Catherine","leasor":null,"type":"outdoor street","latlong 1":44.8376,"id":"a64uzakl37uh","latlong 2":-0.573295,"s.f.":7534,"other":"2-4 Rue Sainte-Catherine","date opened":{"end_time":"2011/05/15 00:00:00 -0400","original":"May 14, 2011","granularity":"day","time":"2011/05/14 00:00:00 -0400"},"state":"France"},"type":"Feature","geometry":{"type":"Point","coordinates":[-0.573295,44.8376]}},{"properties":{"city":"Lyon","store_name":"Part-Dieu","leasor":null,"type":"outdoor","latlong 1":45.759581,"id":"a64uzad4rynz","latlong 2":4.8467577,"s.f.":null,"other":"new port-side development","date opened":{"end_time":"2011/06/05 00:00:00 -0400","original":"June 4, 2011","granularity":"day","time":"2011/06/04 00:00:00 -0400"},"state":"France"},"type":"Feature","geometry":{"type":"Point","coordinates":[4.8467577,45.759581]}},{"properties":{"city":"Reading","store_name":"The Oracle","leasor":"Hammerson","type":"outdoor","latlong 1":51.45375,"id":"a64uzacpgswd","latlong 2":-0.96785,"s.f.":null,"other":"city-center mall, jobs first posted May 2007, then disappeared","date opened":{"end_time":"2011/06/26 00:00:00 -0400","original":"June 25, 2011","granularity":"day","time":"2011/06/25 00:00:00 -0400"},"state":"UK"},"type":"Feature","geometry":{"type":"Point","coordinates":[-0.96785,51.45375]}},{"properties":{"city":"Milan","store_name":"Fiordaliso Centro Commerciale","leasor":null,"type":"indoor","latlong 1":45.463681,"id":"a64uzaievrv9","latlong 2":9.1881714,"s.f.":null,"other":"unknown space","date opened":{"end_time":"2011/07/03 00:00:00 -0400","original":"July 2, 2011","granularity":"day","time":"2011/07/02 00:00:00 -0400"},"state":"Italy"},"type":"Feature","geometry":{"type":"Point","coordinates":[9.1881714,45.463681]}},{"properties":{"city":"Valencia","store_name":"Valencia Town Center","leasor":"Westfield Group","type":"indoor","latlong 1":34.418642,"id":"a64uzak7ivlz","latlong 2":-118.563925,"s.f.":null,"other":null,"date opened":{"end_time":"2011/07/17 00:00:00 -0400","original":"July 16, 2011","granularity":"day","time":"2011/07/16 00:00:00 -0400"},"state":"CA"},"type":"Feature","geometry":{"type":"Point","coordinates":[-118.563925,34.418642]}},{"properties":{"city":"Penrith","store_name":"Penrith","leasor":"Westfield Group","type":"indoor","latlong 1":-33.7519617,"id":"a64uza5xzagp","latlong 2":150.6972207,"s.f.":null,"other":null,"date opened":{"end_time":"2011/07/24 00:00:00 -0400","original":"July 23, 2011","granularity":"day","time":"2011/07/23 00:00:00 -0400"},"state":"Australia"},"type":"Feature","geometry":{"type":"Point","coordinates":[150.6972207,-33.7519617]}},{"properties":{"city":"Glendale","store_name":"The Americana at Brand","leasor":null,"type":"outdoor","latlong 1":34.1444178,"id":"a64uza5qvsv1","latlong 2":-118.2550794,"s.f.":13966,"other":"second store 600' from existing Glendale Galleria store","date opened":{"end_time":"2011/07/31 00:00:00 -0400","original":"July 30, 2011","granularity":"day","time":"2011/07/30 00:00:00 -0400"},"state":"CA"},"type":"Feature","geometry":{"type":"Point","coordinates":[-118.2550794,34.1444178]}},{"properties":{"city":"Cheltenham","store_name":"Southland","leasor":"Westfield Group","type":"indoor","latlong 1":-37.964428,"id":"a64uzaej6p4g","latlong 2":145.055984,"s.f.":null,"other":"most south in the chain, at 38¡S.","date opened":{"end_time":"2011/08/14 00:00:00 -0400","original":"August 13, 2011","granularity":"day","time":"2011/08/13 00:00:00 -0400"},"state":"Australia"},"type":"Feature","geometry":{"type":"Point","coordinates":[145.055984,-37.964428]}},{"properties":{"city":"Florence","store_name":"I Gigli","leasor":null,"type":"indoor","latlong 1":43.8447813,"id":"a64uzaj12mwt","latlong 2":11.1413929,"s.f.":null,"other":"former Mondadori space","date opened":{"end_time":"2011/08/14 00:00:00 -0400","original":"August 13, 2011","granularity":"day","time":"2011/08/13 00:00:00 -0400"},"state":"Italy"},"type":"Feature","geometry":{"type":"Point","coordinates":[11.1413929,43.8447813]}},{"properties":{"city":"Murray","store_name":"Fashion Place","leasor":"General Growth","type":"indoor/outdoor","latlong 1":40.6404886,"id":"a64uza6phcer","latlong 2":-111.882937,"s.f.":null,"other":"unknown space, Phase 3 expansion soon","date opened":{"end_time":"2011/08/14 00:00:00 -0400","original":"August 13, 2011","granularity":"day","time":"2011/08/13 00:00:00 -0400"},"state":"UT"},"type":"Feature","geometry":{"type":"Point","coordinates":[-111.882937,40.6404886]}},{"properties":{"city":"Anchorage","store_name":"Anchorage 5th Avenue Mall","leasor":"Simon Property Group","type":"indoor","latlong 1":61.2180556,"id":"a64uza6rvzt2","latlong 2":-149.9002778,"s.f.":null,"other":"former Eddie Bauer space on 2nd level, most north in chain, at 61¡N.","date opened":{"end_time":"2011/08/14 00:00:00 -0400","original":"August 13, 2011","granularity":"day","time":"2011/08/13 00:00:00 -0400"},"state":"Alaska"},"type":"Feature","geometry":{"type":"Point","coordinates":[-149.9002778,61.2180556]}},{"properties":{"city":"Waterloo","store_name":"Conestoga","leasor":"Ivanhoe Cambridge","type":"indoor","latlong 1":43.4920039,"id":"a64uzaeuq7da","latlong 2":-80.5188988,"s.f.":6000,"other":"former Fairweather store #138","date opened":{"end_time":"2011/08/14 00:00:00 -0400","original":"August 13, 2011","granularity":"day","time":"2011/08/13 00:00:00 -0400"},"state":"Canada"},"type":"Feature","geometry":{"type":"Point","coordinates":[-80.5188988,43.4920039]}},{"properties":{"city":"Basingstoke","store_name":"Festival Place","leasor":null,"type":"indoor","latlong 1":51.265804,"id":"a64uzaevh50p","latlong 2":-1.083348,"s.f.":null,"other":"second level, 65-66 or 48?","date opened":{"end_time":"2011/08/21 00:00:00 -0400","original":"August 20, 2011","granularity":"day","time":"2011/08/20 00:00:00 -0400"},"state":"UK"},"type":"Feature","geometry":{"type":"Point","coordinates":[-1.083348,51.265804]}},{"properties":{"city":"Leganes","store_name":"Parquesur","leasor":null,"type":"indoor","latlong 1":40.3798962,"id":"a64uza9dtr7z","latlong 2":-3.7230651,"s.f.":null,"other":null,"date opened":{"end_time":"2011/08/21 00:00:00 -0400","original":"August 20, 2011","granularity":"day","time":"2011/08/20 00:00:00 -0400"},"state":"Spain"},"type":"Feature","geometry":{"type":"Point","coordinates":[-3.7230651,40.3798962]}},{"properties":{"city":"Berkeley","store_name":"4th Street","leasor":null,"type":"outdoor street","latlong 1":37.8702162,"id":"a64uzajzr9o5","latlong 2":-122.3007111,"s.f.":7617,"other":null,"date opened":{"end_time":"2011/08/21 00:00:00 -0400","original":"August 20, 2011","granularity":"day","time":"2011/08/20 00:00:00 -0400"},"state":"CA"},"type":"Feature","geometry":{"type":"Point","coordinates":[-122.3007111,37.8702162]}},{"properties":{"city":"Lieusaint","store_name":"CarrŽ SŽnart","leasor":"Unibail-Rodamco","type":"indoor","latlong 1":48.631195,"id":"a64uzakfhzef","latlong 2":2.551107,"s.f.":null,"other":"unknown space","date opened":{"end_time":"2011/08/28 00:00:00 -0400","original":"August 27, 2011","granularity":"day","time":"2011/08/27 00:00:00 -0400"},"state":"France"},"type":"Feature","geometry":{"type":"Point","coordinates":[2.551107,48.631195]}},{"properties":{"city":"Little Rock","store_name":"Promenade at Chenal","leasor":"RED Development","type":"outdoor street","latlong 1":34.7464809,"id":"a64uza5hidgc","latlong 2":-92.2895948,"s.f.":null,"other":"originally tipped in May 2007, final stages of construction","date opened":{"end_time":"2011/08/28 00:00:00 -0400","original":"August 27, 2011","granularity":"day","time":"2011/08/27 00:00:00 -0400"},"state":"AR"},"type":"Feature","geometry":{"type":"Point","coordinates":[-92.2895948,34.7464809]}},{"properties":{"city":"Charlotte","store_name":"Northlake Mall","leasor":"Taubman Centers","type":"indoor","latlong 1":35.3500509,"id":"a64uzacap99j","latlong 2":-80.8524591,"s.f.":null,"other":"unknown location in the mall","date opened":{"end_time":"2011/08/28 00:00:00 -0400","original":"August 27, 2011","granularity":"day","time":"2011/08/27 00:00:00 -0400"},"state":"NC"},"type":"Feature","geometry":{"type":"Point","coordinates":[-80.8524591,35.3500509]}},{"properties":{"city":"Augsburg","store_name":"City-Galerie","leasor":null,"type":"indoor","latlong 1":48.3654574,"id":"a64uza71g6lo","latlong 2":10.8947684,"s.f.":null,"other":"opened at 9:30 a.m.","date opened":{"end_time":"2011/09/04 00:00:00 -0400","original":"September 3, 2011","granularity":"day","time":"2011/09/03 00:00:00 -0400"},"state":"Germany"},"type":"Feature","geometry":{"type":"Point","coordinates":[10.8947684,48.3654574]}},{"properties":{"city":"Marcianise","store_name":"Campania","leasor":"Corio Group","type":"indoor","latlong 1":41.0333036,"id":"a64uzad5aby1","latlong 2":14.3018945,"s.f.":null,"other":"new mall, opened at 10 a.m.","date opened":{"end_time":"2011/09/04 00:00:00 -0400","original":"September 3, 2011","granularity":"day","time":"2011/09/03 00:00:00 -0400"},"state":"Italy"},"type":"Feature","geometry":{"type":"Point","coordinates":[14.3018945,41.0333036]}},{"properties":{"city":"Burlington","store_name":"Mapleview Centre","leasor":"Ivanhoe Cambridge","type":"indoor","latlong 1":43.3255196,"id":"a64uza9i17ii","latlong 2":-79.7990319,"s.f.":null,"other":"former Dynamite space #216?","date opened":{"end_time":"2011/09/04 00:00:00 -0400","original":"September 3, 2011","granularity":"day","time":"2011/09/03 00:00:00 -0400"},"state":"Canada"},"type":"Feature","geometry":{"type":"Point","coordinates":[-79.7990319,43.3255196]}},{"properties":{"city":"London","store_name":"Stratford City","leasor":"Westfield Group","type":"indoor","latlong 1":51.5410095,"id":"a64uzake7olw","latlong 2":-0.0016755,"s.f.":null,"other":"adjacent to 2012 Olympic venues","date opened":{"end_time":"2011/09/14 00:00:00 -0400","original":"September 13, 2011","granularity":"day","time":"2011/09/13 00:00:00 -0400"},"state":"UK"},"type":"Feature","geometry":{"type":"Point","coordinates":[-0.0016755,51.5410095]}},{"properties":{"city":"Hamburg","store_name":"Jungfernstieg","leasor":null,"type":"outdoor street","latlong 1":53.5528494,"id":"a64uza591n5b","latlong 2":9.9933036,"s.f.":null,"other":"two-level store, straight-run glass staircase, Briefing Room","date opened":{"end_time":"2011/09/18 00:00:00 -0400","original":"September 17, 2011","granularity":"day","time":"2011/09/17 00:00:00 -0400"},"state":"Germany"},"type":"Feature","geometry":{"type":"Point","coordinates":[9.9933036,53.5528494]}},{"properties":{"city":"Bologna","store_name":"Via Rizzoli","leasor":null,"type":"outdoor street","latlong 1":44.5243302,"id":"a64uza72cekc","latlong 2":11.4975449,"s.f.":null,"other":"two-level store, straight-run glass staircase behind rear wall","date opened":{"end_time":"2011/09/18 00:00:00 -0400","original":"September 17, 2011","granularity":"day","time":"2011/09/17 00:00:00 -0400"},"state":"Italy"},"type":"Feature","geometry":{"type":"Point","coordinates":[11.4975449,44.5243302]}},{"properties":{"city":"Glasgow","store_name":"BraeHead Shopping Centre","leasor":null,"type":"indoor","latlong 1":55.87618,"id":"a64uzabkx2wy","latlong 2":-4.36211,"s.f.":null,"other":null,"date opened":{"end_time":"2011/09/18 00:00:00 -0400","original":"September 17, 2011","granularity":"day","time":"2011/09/17 00:00:00 -0400"},"state":"UK"},"type":"Feature","geometry":{"type":"Point","coordinates":[-4.36211,55.87618]}},{"properties":{"city":"El Paso","store_name":"Cielo Vista Mall","leasor":"Simon Property Group","type":"indoor","latlong 1":31.7784164,"id":"a64uza78i8r2","latlong 2":-106.3828039,"s.f.":null,"other":"Space E10 on the lower level, former Coldwater Creek?","date opened":{"end_time":"2011/09/18 00:00:00 -0400","original":"September 17, 2011","granularity":"day","time":"2011/09/17 00:00:00 -0400"},"state":"TX"},"type":"Feature","geometry":{"type":"Point","coordinates":[-106.3828039,31.7784164]}},{"properties":{"city":"Shanghai","store_name":"Nanjing East","leasor":null,"type":"outdoor street","latlong 1":31.2375642,"id":"a64uzaehrh7v","latlong 2":121.4848452,"s.f.":null,"other":"155 Nanjing East Road","date opened":{"end_time":"2011/09/24 00:00:00 -0400","original":"September 23, 2011","granularity":"day","time":"2011/09/23 00:00:00 -0400"},"state":"China"},"type":"Feature","geometry":{"type":"Point","coordinates":[121.4848452,31.2375642]}},{"properties":{"city":"Hong Kong","store_name":"IFC Mall","leasor":null,"type":"indoor","latlong 1":22.2849,"id":"a64uza636yk3","latlong 2":114.158917,"s.f.":null,"other":"spiral glass staircase, upper-level glass bridge","date opened":{"end_time":"2011/09/25 00:00:00 -0400","original":"September 24, 2011","granularity":"day","time":"2011/09/24 00:00:00 -0400"},"state":"China"},"type":"Feature","geometry":{"type":"Point","coordinates":[114.158917,22.2849]}},{"properties":{"city":"Hornsby","store_name":"Westfield Hornsby","leasor":"Westfield Group","type":"indoor","latlong 1":-33.703158,"id":"a64uza6z4lzz","latlong 2":151.1004806,"s.f.":null,"other":null,"date opened":{"end_time":"2011/09/25 00:00:00 -0400","original":"September 24, 2011","granularity":"day","time":"2011/09/24 00:00:00 -0400"},"state":"Australia"},"type":"Feature","geometry":{"type":"Point","coordinates":[151.1004806,-33.703158]}},{"properties":{"city":"Catania","store_name":"Centro Sicilia","leasor":null,"type":"indoor","latlong 1":37.5024825,"id":"a64uza60ak4v","latlong 2":15.0878345,"s.f.":null,"other":null,"date opened":{"end_time":"2011/09/25 00:00:00 -0400","original":"September 24, 2011","granularity":"day","time":"2011/09/24 00:00:00 -0400"},"state":"Italy"},"type":"Feature","geometry":{"type":"Point","coordinates":[15.0878345,37.5024825]}},{"properties":{"city":"Chesnay","store_name":"Parly 2","leasor":"Unibail-Rodamco","type":"indoor","latlong 1":48.825415,"id":"a64uzae9h6b8","latlong 2":2.130544,"s.f.":null,"other":null,"date opened":{"end_time":"2011/09/25 00:00:00 -0400","original":"September 24, 2011","granularity":"day","time":"2011/09/24 00:00:00 -0400"},"state":"France"},"type":"Feature","geometry":{"type":"Point","coordinates":[2.130544,48.825415]}},{"properties":{"city":"New Haven","store_name":"New Haven","leasor":null,"type":"unknown","latlong 1":41.3081527,"id":"a64uza5j9g90","latlong 2":-72.9281577,"s.f.":null,"other":"adjacent to Yale University bookstore","date opened":{"end_time":"2011/09/25 00:00:00 -0400","original":"September 24, 2011","granularity":"day","time":"2011/09/24 00:00:00 -0400"},"state":"CT"},"type":"Feature","geometry":{"type":"Point","coordinates":[-72.9281577,41.3081527]}},{"properties":{"city":"Burnby","store_name":"MetroTown","leasor":"Ivanhoe Cambridge","type":"indoor","latlong 1":49.227132,"id":"a64uza9v3vnl","latlong 2":-122.995789,"s.f.":null,"other":null,"date opened":{"end_time":"2011/09/25 00:00:00 -0400","original":"September 24, 2011","granularity":"day","time":"2011/09/24 00:00:00 -0400"},"state":"Canada"},"type":"Feature","geometry":{"type":"Point","coordinates":[-122.995789,49.227132]}},{"properties":{"city":"New York City","store_name":"Greene Street","leasor":"","type":"outdoor street","latlong 1":"40.7262298","id":"358","latlong 2":"-73.99829009999999","s.f.":"","other":"temporary store at #72 during SoHo expansion closure","date opened":"November 22, 2011","state":"NY"},"type":"Feature","geometry":{"type":"Point","coordinates":[-73.9982901,40.7262298]}}],"is_temporal":true,"author":{"url":"","metadata":"","contact_name":"","contact_address":"","source":"","contact_phone":""},"source":"","pagination":{"sort":null,"start":0,"total":359,"limit":1000000},"state":"complete","tags":"","published":"2014-08-13T01:41:59-04:00","id":172798}