{"type":"FeatureCollection","data_type":"Dataset Analysis","url_type":null,"permissions":[{"permissions":{"download":true,"view":true},"group_id":"everyone"}],"classification":null,"title":"Merge of 'Dufty' into 'DUFTYCLEAN'","count":26,"stream_id":173376,"contributor":{"url":"http://geocommons.com/users/27762","name":"Mission Local"},"data_attributes":null,"calculation_params":{"input":{"source2":162341,"merge":"none","source1":173375},"calculation":"union"},"icon_link":null,"link":"http://geocommons.com/overlays/173376.json","extent":[-122.497,37.7192,-122.388,37.8029],"geometry_types":["point"],"unique_name":null,"name":"Merge of 'Dufty' into 'DUFTYCLEAN'","feature_count":26,"description":"Dataset derived by merging the features of 'Dufty' into 'DUFTYCLEAN'","next_feature":null,"is_raster":false,"short_classification":"Y","stats":{"contributions_2":{"max":111677.0,"mean":15196.4,"variance":504491053.416666,"stdev":22460.8782868495,"min":1100.0,"median":8950.0},"latitude":{"max":37.802929,"mean":37.76697528,"variance":0.000761321489710062,"stdev":0.0275920548294262,"min":37.719196,"median":37.77355},"latitude_2":{"max":37.802929,"mean":37.76697528,"variance":0.000761321489710062,"stdev":0.0275920548294262,"min":37.719196,"median":37.77355},"zipcode":{"max":94134,"mean":94117.08,"variance":101.66,"stdev":10.082658379614,"min":94102,"median":94116},"contributions":{"max":30450,"mean":3474.30769230769,"variance":39570675.0215385,"stdev":6290.52263500724,"min":20,"median":1750},"longitude_2":{"max":-122.387822,"mean":-122.43382444,"variance":0.00103583305184005,"stdev":0.0321843603608966,"min":-122.496779,"median":-122.435729},"longitude":{"max":-122.387822,"mean":-122.43382444,"variance":0.00103583305184005,"stdev":0.0321843603608966,"min":-122.496779,"median":-122.435729}},"features":[{"properties":{"contributions_2":9731.0,"city":"San Francisco","latitude":37.777125,"latitude_2":37.777125,"contributions":1350,"zipcode":94102,"candidate":"Dufty","zip code":"94102","longitude_2":-122.419644,"longitude":-122.419644,"id":"a6i5zlox0as6","state":"CA"},"type":"Feature","geometry":{"type":"Point","coordinates":[-122.419644,37.777125]}},{"properties":{"contributions_2":15625.0,"city":"San Francisco","latitude":37.77355,"latitude_2":37.77355,"contributions":3205,"zipcode":94103,"candidate":"Dufty","zip code":"94103","longitude_2":-122.411329,"longitude":-122.411329,"id":"a6i5zli99ubs","state":"CA"},"type":"Feature","geometry":{"type":"Point","coordinates":[-122.411329,37.77355]}},{"properties":{"contributions_2":1650.0,"city":"San Francisco","latitude":37.791051,"latitude_2":37.791051,"contributions":250,"zipcode":94104,"candidate":"Dufty","zip code":"94104","longitude_2":-122.401709,"longitude":-122.401709,"id":"a6i5zlq3j854","state":"CA"},"type":"Feature","geometry":{"type":"Point","coordinates":[-122.401709,37.791051]}},{"properties":{"contributions_2":7460.0,"city":"San Francisco","latitude":37.789572,"latitude_2":37.789572,"contributions":20,"zipcode":94105,"candidate":"Dufty","zip code":"94105","longitude_2":-122.394712,"longitude":-122.394712,"id":"a6i5zlkrabb9","state":"CA"},"type":"Feature","geometry":{"type":"Point","coordinates":[-122.394712,37.789572]}},{"properties":{"contributions_2":16400.0,"city":"San Francisco","latitude":37.767022,"latitude_2":37.767022,"contributions":2926,"zipcode":94107,"candidate":"Dufty","zip code":"94107","longitude_2":-122.395687,"longitude":-122.395687,"id":"a6i5zlk44bzs","state":"CA"},"type":"Feature","geometry":{"type":"Point","coordinates":[-122.395687,37.767022]}},{"properties":{"contributions_2":3125.0,"city":"San Francisco","latitude":37.79179,"latitude_2":37.79179,"contributions":1201,"zipcode":94108,"candidate":"Dufty","zip code":"94108","longitude_2":-122.407419,"longitude":-122.407419,"id":"a6i5zlfykrtd","state":"CA"},"type":"Feature","geometry":{"type":"Point","coordinates":[-122.407419,37.79179]}},{"properties":{"contributions_2":14145.0,"city":"San Francisco","latitude":37.79514,"latitude_2":37.79514,"contributions":2820,"zipcode":94109,"candidate":"Dufty","zip code":"94109","longitude_2":-122.420749,"longitude":-122.420749,"id":"a6i5zloq7fdr","state":"CA"},"type":"Feature","geometry":{"type":"Point","coordinates":[-122.420749,37.79514]}},{"properties":{"contributions_2":34920.0,"city":"San Francisco","latitude":37.74779,"latitude_2":37.74779,"contributions":3775,"zipcode":94110,"candidate":"Dufty","zip code":"94110","longitude_2":-122.414864,"longitude":-122.414864,"id":"a6i5zlgp9gff","state":"CA"},"type":"Feature","geometry":{"type":"Point","coordinates":[-122.414864,37.74779]}},{"properties":{"contributions_2":2500.0,"city":"San Francisco","latitude":37.797876,"latitude_2":37.797876,"contributions":1000,"zipcode":94111,"candidate":"Dufty","zip code":"94111","longitude_2":-122.399278,"longitude":-122.399278,"id":"a6i5zle7cxai","state":"CA"},"type":"Feature","geometry":{"type":"Point","coordinates":[-122.399278,37.797876]}},{"properties":{"contributions_2":6521.0,"city":"San Francisco","latitude":37.719744,"latitude_2":37.719744,"contributions":1070,"zipcode":94112,"candidate":"Dufty","zip code":"94112","longitude_2":-122.441957,"longitude":-122.441957,"id":"a6i5zlihyt29","state":"CA"},"type":"Feature","geometry":{"type":"Point","coordinates":[-122.441957,37.719744]}},{"properties":{"contributions_2":111677.0,"city":"San Francisco","latitude":37.7592,"latitude_2":37.7592,"contributions":16159,"zipcode":94114,"candidate":"Dufty","zip code":"94114","longitude_2":-122.436489,"longitude":-122.436489,"id":"a6i5zlj8aqdt","state":"CA"},"type":"Feature","geometry":{"type":"Point","coordinates":[-122.436489,37.7592]}},{"properties":{"contributions_2":13375.0,"city":"San Francisco","latitude":37.78578,"latitude_2":37.78578,"contributions":3110,"zipcode":94115,"candidate":"Dufty","zip code":"94115","longitude_2":-122.435729,"longitude":-122.435729,"id":"a6i5zlrby9cm","state":"CA"},"type":"Feature","geometry":{"type":"Point","coordinates":[-122.435729,37.78578]}},{"properties":{"contributions_2":10876.0,"city":"San Francisco","latitude":37.74346,"latitude_2":37.74346,"contributions":2825,"zipcode":94116,"candidate":"Dufty","zip code":"94116","longitude_2":-122.487539,"longitude":-122.487539,"id":"a6i5zljc5bxs","state":"CA"},"type":"Feature","geometry":{"type":"Point","coordinates":[-122.487539,37.74346]}},{"properties":{"contributions_2":32275.0,"city":"San Francisco","latitude":37.769951,"latitude_2":37.769951,"contributions":4375,"zipcode":94117,"candidate":"Dufty","zip code":"94117","longitude_2":-122.443553,"longitude":-122.443553,"id":"a6i5zlqon8z4","state":"CA"},"type":"Feature","geometry":{"type":"Point","coordinates":[-122.443553,37.769951]}},{"properties":{"contributions_2":16552.0,"city":"San Francisco","latitude":37.77459,"latitude_2":37.77459,"contributions":2650,"zipcode":94118,"candidate":"Dufty","zip code":"94118","longitude_2":-122.462755,"longitude":-122.462755,"id":"a6i5zlfa2k8q","state":"CA"},"type":"Feature","geometry":{"type":"Point","coordinates":[-122.462755,37.77459]}},{"properties":{"contributions_2":3710.0,"city":"San Francisco","latitude":37.77574,"latitude_2":37.77574,"contributions":950,"zipcode":94121,"candidate":"Dufty","zip code":"94121","longitude_2":-122.496779,"longitude":-122.496779,"id":"a6i5zll6d7ov","state":"CA"},"type":"Feature","geometry":{"type":"Point","coordinates":[-122.496779,37.77574]}},{"properties":{"contributions_2":7200.0,"city":"San Francisco","latitude":37.759485,"latitude_2":37.759485,"contributions":1750,"zipcode":94122,"candidate":"Dufty","zip code":"94122","longitude_2":-122.484889,"longitude":-122.484889,"id":"a6i5zlpnnasr","state":"CA"},"type":"Feature","geometry":{"type":"Point","coordinates":[-122.484889,37.759485]}},{"properties":{"contributions_2":8950.0,"city":"San Francisco","latitude":37.802733,"latitude_2":37.802733,"contributions":650,"zipcode":94123,"candidate":"Dufty","zip code":"94123","longitude_2":-122.43582,"longitude":-122.43582,"id":"a6i5zlhl5o1v","state":"CA"},"type":"Feature","geometry":{"type":"Point","coordinates":[-122.43582,37.802733]}},{"properties":{"contributions_2":3925.0,"city":"San Francisco","latitude":37.727982,"latitude_2":37.727982,"contributions":1700,"zipcode":94124,"candidate":"Dufty","zip code":"94124","longitude_2":-122.387822,"longitude":-122.387822,"id":"a6i5zlo1rpmm","state":"CA"},"type":"Feature","geometry":{"type":"Point","coordinates":[-122.387822,37.727982]}},{"properties":{"contributions_2":12550.0,"city":"San Francisco","latitude":37.735258,"latitude_2":37.735258,"contributions":1770,"zipcode":94127,"candidate":"Dufty","zip code":"94127","longitude_2":-122.460592,"longitude":-122.460592,"id":"a6i5zlp84u1z","state":"CA"},"type":"Feature","geometry":{"type":"Point","coordinates":[-122.460592,37.735258]}},{"properties":{"contributions_2":1850.0,"city":"San Francisco","latitude":37.79989,"latitude_2":37.79989,"contributions":450,"zipcode":94129,"candidate":"Dufty","zip code":"94129","longitude_2":-122.462589,"longitude":-122.462589,"id":"a6i5zlcab27g","state":"CA"},"type":"Feature","geometry":{"type":"Point","coordinates":[-122.462589,37.79989]}},{"properties":{"contributions_2":36036.0,"city":"San Francisco","latitude":37.74462,"latitude_2":37.74462,"contributions":3402,"zipcode":94131,"candidate":"Dufty","zip code":"94131","longitude_2":-122.439565,"longitude":-122.439565,"id":"a6i5zlhhju9r","state":"CA"},"type":"Feature","geometry":{"type":"Point","coordinates":[-122.439565,37.74462]}},{"properties":{"contributions_2":3457.0,"city":"San Francisco","latitude":37.722908,"latitude_2":37.722908,"contributions":1224,"zipcode":94132,"candidate":"Dufty","zip code":"94132","longitude_2":-122.483376,"longitude":-122.483376,"id":"a6i5zlf5t199","state":"CA"},"type":"Feature","geometry":{"type":"Point","coordinates":[-122.483376,37.722908]}},{"properties":{"contributions_2":4300.0,"city":"San Francisco","latitude":37.802929,"latitude_2":37.802929,"contributions":650,"zipcode":94133,"candidate":"Dufty","zip code":"94133","longitude_2":-122.410295,"longitude":-122.410295,"id":"a6i5zlgx5rpw","state":"CA"},"type":"Feature","geometry":{"type":"Point","coordinates":[-122.410295,37.802929]}},{"properties":{"contributions_2":1100.0,"city":"San Francisco","latitude":37.719196,"latitude_2":37.719196,"contributions":600,"zipcode":94134,"candidate":"Dufty","zip code":"94134","longitude_2":-122.410471,"longitude":-122.410471,"id":"a6i5zlenxjjs","state":"CA"},"type":"Feature","geometry":{"type":"Point","coordinates":[-122.410471,37.719196]}},{"properties":{"city":null,"contributions_2":null,"latitude":null,"latitude_2":null,"candidate":null,"contributions":30450,"zipcode":null,"zip code":null,"longitude_2":null,"longitude":null,"id":"25","state":null},"type":"Feature","geometry":null}],"is_temporal":false,"author":{"url":null,"metadata":null,"contact_name":null,"contact_address":null,"source":null,"contact_phone":null},"source":null,"pagination":{"sort":null,"start":0,"total":26,"limit":1000000},"state":"complete","tags":"","published":"2014-08-13T02:32:20-04:00","id":173376}