{"type":"FeatureCollection","data_type":"Dataset","url_type":null,"permissions":[{"permissions":{"download":true,"view":true},"group_id":"everyone"}],"classification":null,"title":"STEPHEN BRG MAP","count":51,"stream_id":17344,"contributor":{"url":"http://geocommons.com/users/9278","name":"smoreno"},"data_attributes":null,"calculation_params":null,"icon_link":null,"link":"http://geocommons.com/overlays/17344.json","extent":[-16.15,28.06,2.49,43.28],"geometry_types":["point"],"unique_name":null,"name":"STEPHEN BRG MAP","feature_count":51,"description":"","next_feature":null,"is_raster":false,"short_classification":"Y","stats":{"T 1-9 2009":{"max":288704.94,"mean":20180.9350980392,"variance":2740551940.00983,"stdev":52350.2811836749,"min":0.0,"median":2817.06},"Longitude":{"max":2.49,"mean":-3.58764705882353,"variance":13.3627463529412,"stdev":3.65550904156195,"min":-16.15,"median":-3.42},"Latitude":{"max":43.28,"mean":40.0176470588235,"variance":10.2948423529412,"stdev":3.20855767486595,"min":28.06,"median":40.57},"C 1-9 2009":{"max":262.0,"mean":18.5490196078431,"variance":1510.25254901961,"stdev":38.8619678994722,"min":0.0,"median":6.0}},"features":[{"properties":{"T 1-9 2009":2885.43,"City":"Albacete","Longitude":-1.52,"Latitude":39.0,"C 1-9 2009":7.0,"id":"a6aulmxcjv1u"},"type":"Feature","geometry":{"type":"Point","coordinates":[-1.52,39.0]}},{"properties":{"T 1-9 2009":10183.5,"City":"Alicante","Longitude":-0.29,"Latitude":38.2,"C 1-9 2009":27.0,"id":"a6aulmwps5p0"},"type":"Feature","geometry":{"type":"Point","coordinates":[-0.29,38.2]}},{"properties":{"T 1-9 2009":2296.08,"City":"Almeria","Longitude":-2.28,"Latitude":36.5,"C 1-9 2009":6.0,"id":"a6auln4tke42"},"type":"Feature","geometry":{"type":"Point","coordinates":[-2.28,36.5]}},{"properties":{"T 1-9 2009":0.0,"City":"Avila","Longitude":-4.42,"Latitude":40.39,"C 1-9 2009":0.0,"id":"a6auln0qc5ll"},"type":"Feature","geometry":{"type":"Point","coordinates":[-4.42,40.39]}},{"properties":{"T 1-9 2009":834.96,"City":"Badajoz","Longitude":-6.58,"Latitude":38.53,"C 1-9 2009":3.0,"id":"a6auln2d1un7"},"type":"Feature","geometry":{"type":"Point","coordinates":[-6.58,38.53]}},{"properties":{"T 1-9 2009":288704.94,"City":"Barcelona","Longitude":2.11,"Latitude":41.23,"C 1-9 2009":262.0,"id":"a6auln4g2113"},"type":"Feature","geometry":{"type":"Point","coordinates":[2.11,41.23]}},{"properties":{"T 1-9 2009":41720.11,"City":"Bilbao","Longitude":-2.55,"Latitude":43.15,"C 1-9 2009":36.0,"id":"a6aulmvdeqsu"},"type":"Feature","geometry":{"type":"Point","coordinates":[-2.55,43.15]}},{"properties":{"T 1-9 2009":21761.95,"City":"Burgos","Longitude":-3.42,"Latitude":42.2,"C 1-9 2009":16.0,"id":"a6aulmt8rm1c"},"type":"Feature","geometry":{"type":"Point","coordinates":[-3.42,42.2]}},{"properties":{"T 1-9 2009":1880.14,"City":"Caceres","Longitude":-6.22,"Latitude":39.28,"C 1-9 2009":2.0,"id":"a6auln4p79df"},"type":"Feature","geometry":{"type":"Point","coordinates":[-6.22,39.28]}},{"properties":{"T 1-9 2009":3111.45,"City":"Cadiz","Longitude":-6.18,"Latitude":36.32,"C 1-9 2009":3.0,"id":"a6auln38eggy"},"type":"Feature","geometry":{"type":"Point","coordinates":[-6.18,36.32]}},{"properties":{"T 1-9 2009":5517.7,"City":"Castellon de la Plana","Longitude":-0.02,"Latitude":43.15,"C 1-9 2009":16.0,"id":"a6aulmzs4dw4"},"type":"Feature","geometry":{"type":"Point","coordinates":[-0.02,43.15]}},{"properties":{"T 1-9 2009":2070.1,"City":"Ciudad Real","Longitude":-3.55,"Latitude":38.59,"C 1-9 2009":6.0,"id":"a6aulmtgql40"},"type":"Feature","geometry":{"type":"Point","coordinates":[-3.55,38.59]}},{"properties":{"T 1-9 2009":1871.32,"City":"Cordoba","Longitude":-4.47,"Latitude":37.53,"C 1-9 2009":3.0,"id":"a6auln0kzbtb"},"type":"Feature","geometry":{"type":"Point","coordinates":[-4.47,37.53]}},{"properties":{"T 1-9 2009":2869.51,"City":"Coruña","Longitude":-8.23,"Latitude":43.22,"C 1-9 2009":12.0,"id":"a6aulmu2gvps"},"type":"Feature","geometry":{"type":"Point","coordinates":[-8.23,43.22]}},{"properties":{"T 1-9 2009":171.82,"City":"Cuenca","Longitude":-2.08,"Latitude":40.04,"C 1-9 2009":1.0,"id":"a6aulmydgkpk"},"type":"Feature","geometry":{"type":"Point","coordinates":[-2.08,40.04]}},{"properties":{"T 1-9 2009":38170.14,"City":"Girona","Longitude":2.49,"Latitude":42.09,"C 1-9 2009":47.0,"id":"a6aulmpw97oc"},"type":"Feature","geometry":{"type":"Point","coordinates":[2.49,42.09]}},{"properties":{"T 1-9 2009":1778.41,"City":"Granada","Longitude":-3.35,"Latitude":37.11,"C 1-9 2009":8.0,"id":"a6aulmwk7wtw"},"type":"Feature","geometry":{"type":"Point","coordinates":[-3.35,37.11]}},{"properties":{"T 1-9 2009":330.36,"City":"Guadalajara","Longitude":-3.1,"Latitude":40.38,"C 1-9 2009":2.0,"id":"a6aulmwuwgok"},"type":"Feature","geometry":{"type":"Point","coordinates":[-3.1,40.38]}},{"properties":{"T 1-9 2009":1040.88,"City":"Huelva","Longitude":-6.57,"Latitude":37.16,"C 1-9 2009":1.0,"id":"a6auln31i8lm"},"type":"Feature","geometry":{"type":"Point","coordinates":[-6.57,37.16]}},{"properties":{"T 1-9 2009":5566.63,"City":"Huesca","Longitude":0.38,"Latitude":42.49,"C 1-9 2009":3.0,"id":"a6aulmx6g027"},"type":"Feature","geometry":{"type":"Point","coordinates":[0.38,42.49]}},{"properties":{"T 1-9 2009":237381.0,"City":"JCI","Longitude":-1.12,"Latitude":41.77,"C 1-9 2009":3.0,"id":"a6aulmscrj1i"},"type":"Feature","geometry":{"type":"Point","coordinates":[-1.12,41.77]}},{"properties":{"T 1-9 2009":2466.45,"City":"Jaén","Longitude":-3.47,"Latitude":37.46,"C 1-9 2009":5.0,"id":"a6auln3ffm0n"},"type":"Feature","geometry":{"type":"Point","coordinates":[-3.47,37.46]}},{"properties":{"T 1-9 2009":161.48,"City":"Las Palmas de Gran Canaria","Longitude":-15.25,"Latitude":28.06,"C 1-9 2009":2.0,"id":"a6auln0rv3xb"},"type":"Feature","geometry":{"type":"Point","coordinates":[-15.25,28.06]}},{"properties":{"T 1-9 2009":432.96,"City":"León","Longitude":-5.34,"Latitude":42.36,"C 1-9 2009":3.0,"id":"a6aulmwduiia"},"type":"Feature","geometry":{"type":"Point","coordinates":[-5.34,42.36]}},{"properties":{"T 1-9 2009":13734.34,"City":"Lleida","Longitude":0.38,"Latitude":41.37,"C 1-9 2009":15.0,"id":"a6auln45ckya"},"type":"Feature","geometry":{"type":"Point","coordinates":[0.38,41.37]}},{"properties":{"T 1-9 2009":8561.96,"City":"Logroño","Longitude":-2.27,"Latitude":42.28,"C 1-9 2009":14.0,"id":"a6aulmwm8pj5"},"type":"Feature","geometry":{"type":"Point","coordinates":[-2.27,42.28]}},{"properties":{"T 1-9 2009":322.84,"City":"Lugo","Longitude":-7.33,"Latitude":43.01,"C 1-9 2009":1.0,"id":"a6aulmr8lxja"},"type":"Feature","geometry":{"type":"Point","coordinates":[-7.33,43.01]}},{"properties":{"T 1-9 2009":62738.35,"City":"Madrid","Longitude":-3.41,"Latitude":40.24,"C 1-9 2009":82.0,"id":"a6aulmr8knb2"},"type":"Feature","geometry":{"type":"Point","coordinates":[-3.41,40.24]}},{"properties":{"T 1-9 2009":22311.5,"City":"Murcia","Longitude":-1.07,"Latitude":37.59,"C 1-9 2009":26.0,"id":"a6auln580y3u"},"type":"Feature","geometry":{"type":"Point","coordinates":[-1.07,37.59]}},{"properties":{"T 1-9 2009":591.86,"City":"Málaga","Longitude":-4.25,"Latitude":36.43,"C 1-9 2009":6.0,"id":"a6auln12vxay"},"type":"Feature","geometry":{"type":"Point","coordinates":[-4.25,36.43]}},{"properties":{"T 1-9 2009":1409.02,"City":"Orense","Longitude":-7.52,"Latitude":42.2,"C 1-9 2009":2.0,"id":"a6aulmvnl5vd"},"type":"Feature","geometry":{"type":"Point","coordinates":[-7.52,42.2]}},{"properties":{"T 1-9 2009":15103.7,"City":"Oviedo","Longitude":-5.5,"Latitude":43.22,"C 1-9 2009":16.0,"id":"a6aulmt5d2vk"},"type":"Feature","geometry":{"type":"Point","coordinates":[-5.5,43.22]}},{"properties":{"T 1-9 2009":1568.07,"City":"Palencia","Longitude":-4.32,"Latitude":42.0,"C 1-9 2009":4.0,"id":"a6auln37a84t"},"type":"Feature","geometry":{"type":"Point","coordinates":[-4.32,42.0]}},{"properties":{"T 1-9 2009":365.48,"City":"Palma de Mallorca","Longitude":2.39,"Latitude":39.35,"C 1-9 2009":4.0,"id":"a6aulmrn7awc"},"type":"Feature","geometry":{"type":"Point","coordinates":[2.39,39.35]}},{"properties":{"T 1-9 2009":29907.86,"City":"Pamplona","Longitude":-1.38,"Latitude":42.49,"C 1-9 2009":39.0,"id":"a6aulmyn8u7p"},"type":"Feature","geometry":{"type":"Point","coordinates":[-1.38,42.49]}},{"properties":{"T 1-9 2009":10611.15,"City":"Pontevedra","Longitude":-8.39,"Latitude":42.26,"C 1-9 2009":16.0,"id":"a6aulmur3463"},"type":"Feature","geometry":{"type":"Point","coordinates":[-8.39,42.26]}},{"properties":{"T 1-9 2009":356.62,"City":"Salamanca","Longitude":-5.4,"Latitude":40.57,"C 1-9 2009":2.0,"id":"a6aulmziavg9"},"type":"Feature","geometry":{"type":"Point","coordinates":[-5.4,40.57]}},{"properties":{"T 1-9 2009":74540.84,"City":"San Sebastián","Longitude":-1.59,"Latitude":43.19,"C 1-9 2009":60.0,"id":"a6auln4g5lcm"},"type":"Feature","geometry":{"type":"Point","coordinates":[-1.59,43.19]}},{"properties":{"T 1-9 2009":2817.06,"City":"Santander","Longitude":-3.48,"Latitude":43.28,"C 1-9 2009":12.0,"id":"a6auln0x1fbt"},"type":"Feature","geometry":{"type":"Point","coordinates":[-3.48,43.28]}},{"properties":{"T 1-9 2009":247.24,"City":"Segovia","Longitude":-4.07,"Latitude":40.57,"C 1-9 2009":2.0,"id":"a6aulmpgpwdj"},"type":"Feature","geometry":{"type":"Point","coordinates":[-4.07,40.57]}},{"properties":{"T 1-9 2009":14461.7,"City":"Sevilla","Longitude":-5.59,"Latitude":37.23,"C 1-9 2009":31.0,"id":"a6aulmsxg49n"},"type":"Feature","geometry":{"type":"Point","coordinates":[-5.59,37.23]}},{"properties":{"T 1-9 2009":0.0,"City":"Soria","Longitude":-2.28,"Latitude":41.46,"C 1-9 2009":0.0,"id":"a6auln1onus8"},"type":"Feature","geometry":{"type":"Point","coordinates":[-2.28,41.46]}},{"properties":{"T 1-9 2009":7987.87,"City":"Tarragona","Longitude":1.16,"Latitude":41.07,"C 1-9 2009":21.0,"id":"a6auln31ptzy"},"type":"Feature","geometry":{"type":"Point","coordinates":[1.16,41.07]}},{"properties":{"T 1-9 2009":0.0,"City":"Tenerife","Longitude":-16.15,"Latitude":28.28,"C 1-9 2009":0.0,"id":"a6auln0ull75"},"type":"Feature","geometry":{"type":"Point","coordinates":[-16.15,28.28]}},{"properties":{"T 1-9 2009":0.0,"City":"Teruel","Longitude":-1.06,"Latitude":40.2,"C 1-9 2009":0.0,"id":"a6aulmvgyrol"},"type":"Feature","geometry":{"type":"Point","coordinates":[-1.06,40.2]}},{"properties":{"T 1-9 2009":1639.8,"City":"Toledo","Longitude":-4.02,"Latitude":39.51,"C 1-9 2009":8.0,"id":"a6aulmy7ij1q"},"type":"Feature","geometry":{"type":"Point","coordinates":[-4.02,39.51]}},{"properties":{"T 1-9 2009":35727.94,"City":"Valencia","Longitude":-0.22,"Latitude":39.28,"C 1-9 2009":54.0,"id":"a6aulmptsmtq"},"type":"Feature","geometry":{"type":"Point","coordinates":[-0.22,39.28]}},{"properties":{"T 1-9 2009":6972.14,"City":"Valladolid","Longitude":-4.44,"Latitude":41.39,"C 1-9 2009":11.0,"id":"a6aulms2pgvl"},"type":"Feature","geometry":{"type":"Point","coordinates":[-4.44,41.39]}},{"properties":{"T 1-9 2009":30282.03,"City":"Vitoria","Longitude":-2.41,"Latitude":42.84,"C 1-9 2009":25.0,"id":"a6aulmqu3ixg"},"type":"Feature","geometry":{"type":"Point","coordinates":[-2.41,42.84]}},{"properties":{"T 1-9 2009":0.0,"City":"Zamora","Longitude":-5.48,"Latitude":41.3,"C 1-9 2009":0.0,"id":"a6aulmrt5d01"},"type":"Feature","geometry":{"type":"Point","coordinates":[-5.48,41.3]}},{"properties":{"T 1-9 2009":13761.0,"City":"Zaragoza","Longitude":-0.24,"Latitude":42.08,"C 1-9 2009":21.0,"id":"a6aulmxran8k"},"type":"Feature","geometry":{"type":"Point","coordinates":[-0.24,42.08]}}],"is_temporal":false,"author":{"url":"","metadata":"","contact_name":"","contact_address":"","source":"","contact_phone":""},"source":"","pagination":{"sort":null,"start":0,"total":51,"limit":1000000},"state":"complete","tags":"","published":"2014-08-10T22:32:33-04:00","id":17344}