{"type":"FeatureCollection","data_type":"Dataset","url_type":null,"permissions":[{"permissions":{"download":true,"view":true},"group_id":"everyone"}],"classification":null,"title":"CNIDistances","count":222,"stream_id":173842,"contributor":{"url":"http://geocommons.com/users/12008","name":"pantheon"},"data_attributes":null,"calculation_params":null,"icon_link":null,"link":"http://geocommons.com/overlays/173842.json","extent":[-84.6461,38.5295,-80.6152,41.7383],"geometry_types":["point"],"unique_name":null,"name":"CNIDistances","feature_count":222,"description":"","next_feature":null,"is_raster":false,"short_classification":"Y","stats":{},"features":[{"properties":{"city":"ASHLAND","zip":"44805","ospf area":"112","carrier":"att","router":"3745","bandwidth (mbps)":"1.5","county number":"03","county":"ASHLAND","geo_score":0.805,"routerid":"ashla01a","id":"a6rr4a5egnyg","geo_precision":"range","address":"15 W 4TH ST","state":"Ohio"},"type":"Feature","geometry":{"type":"Point","coordinates":[-82.31569,40.871107]}},{"properties":{"city":"ATHENS","zip":"45701","ospf area":"64","carrier":"att","router":"3745","bandwidth (mbps)":"1.5","county number":"05","county":"ATHENS","geo_score":0.922,"routerid":"athen02a","id":"a6rr4a484tyy","geo_precision":"range","address":"184 N LANCASTER","state":"Ohio"},"type":"Feature","geometry":{"type":"Point","coordinates":[-82.104583,39.335998]}},{"properties":{"city":"ATHENS","zip":"45701","ospf area":"64","carrier":"att","router":"3745","bandwidth (mbps)":"1.5","county number":"05","county":"ATHENS","geo_score":0.922,"routerid":"athen03a","id":"a6rr4abkockw","geo_precision":"range","address":"18 STONYBROOK DR","state":"Ohio"},"type":"Feature","geometry":{"type":"Point","coordinates":[-82.079626,39.339674]}},{"properties":{"city":"BATAVIA","zip":"45103","ospf area":"76","carrier":"att","router":"3745","bandwidth (mbps)":"1.5","county number":"13","county":"CLERMONT","geo_score":0.92,"routerid":"(*a)clerm01a","id":"a6rr4addoaeu","geo_precision":"range","address":"2400 CLERMONT CENTER DR","state":"Ohio"},"type":"Feature","geometry":{"type":"Point","coordinates":[-84.144836,39.083448]}},{"properties":{"city":"BEAVERCREEK","zip":"45432","ospf area":"76","carrier":"att","router":"2610XM","bandwidth (mbps)":"1.5","county number":"29","county":"GREENE","geo_score":0.902,"routerid":"(*z)green02a","id":"a6rr49yuo071","geo_precision":"range","address":"1312 RESEARCH PARK DR","state":"Ohio"},"type":"Feature","geometry":{"type":"Point","coordinates":[-84.06715,39.728861]}},{"properties":{"city":"BEAVERCREEK","zip":"45434","ospf area":"76","carrier":"att","router":"2610XM","bandwidth (mbps)":"1.5","county number":"29","county":"GREENE","geo_score":0.875,"routerid":"(*z')green03a","id":"a6rr49z7v5hi","geo_precision":"range","address":"658 S ALPHA RD","state":"Ohio"},"type":"Feature","geometry":{"type":"Point","coordinates":[-84.026252,39.707784]}},{"properties":{"city":"BELLEFONTAINE","zip":"43311","ospf area":"88","carrier":"att","router":"3745","bandwidth (mbps)":"3","county number":"46","county":"LOGAN","geo_score":0.696,"routerid":"(*a)logan02a","id":"a6rr4a93bzm8","geo_precision":"street","address":"211 E COLUMBUS ST","state":"Ohio"},"type":"Feature","geometry":{"type":"Point","coordinates":[-83.67754,40.337215]}},{"properties":{"city":"BELLEFONTAINE","zip":"43311","ospf area":"88","carrier":"att","router":"3725","bandwidth (mbps)":"1.5","county number":"46","county":"LOGAN","geo_score":0.597,"routerid":"logan03a","id":"a6rr4a9tfg5n","geo_precision":"street","address":"1855 OHIO 47 W","state":"Ohio"},"type":"Feature","geometry":{"type":"Point","coordinates":[-83.769121,40.373979]}},{"properties":{"city":"BOWLING GREEN","zip":"43402","ospf area":"92","carrier":"att","router":"3745","bandwidth (mbps)":"1.5","county number":"87","county":"WOOD","geo_score":0.667,"routerid":"(*a)wood01a","id":"a6rr49zesjnf","geo_precision":"street","address":"1940 E GYPSY LANE RD","state":"Ohio"},"type":"Feature","geometry":{"type":"Point","coordinates":[-83.640119,41.356497]}},{"properties":{"city":"BOWLING GREEN","zip":"43402","ospf area":"92","carrier":"att/twc","router":"3745","bandwidth (mbps)":"1.5/100","county number":"87","county":"WOOD","geo_score":0.667,"routerid":"wood02a","id":"a6rr4ac8s5ik","geo_precision":"street","address":"1928 E GYPSY LANE RD","state":"Ohio"},"type":"Feature","geometry":{"type":"Point","coordinates":[-83.640119,41.356497]}},{"properties":{"city":"BOWLING GREEN","zip":"43402","ospf area":"92","carrier":"att","router":"2610XM","bandwidth (mbps)":"1.5","county number":"87","county":"WOOD","geo_score":0.415,"routerid":"(*z)wood03a","id":"a6rr4a16hwz3","geo_precision":"street","address":"1 COURT HOUSE SQUARE","state":"Ohio"},"type":"Feature","geometry":{"type":"Point","coordinates":[-83.050167,41.424085]}},{"properties":{"city":"BOWLING GREEN","zip":"43402","ospf area":"92","carrier":"att","router":"3745","bandwidth (mbps)":"1.5","county number":"87","county":"WOOD","geo_score":0.911,"routerid":"wood05a","id":"a6rr4a7r96ko","geo_precision":"range","address":"1234 N MAIN ST","state":"Ohio"},"type":"Feature","geometry":{"type":"Point","coordinates":[-83.65063,41.397879]}},{"properties":{"city":"BOWLING GREEN","zip":"43402","ospf area":"92","carrier":"att","router":"3845","bandwidth (mbps)":"1.5","county number":"87","county":"WOOD","geo_score":0.911,"routerid":"wood05b","id":"a6rr4add5imv","geo_precision":"range","address":"1234 N MAIN ST","state":"Ohio"},"type":"Feature","geometry":{"type":"Point","coordinates":[-83.65063,41.397879]}},{"properties":{"city":"BRIDGEPORT","zip":"43912","ospf area":"112","carrier":"att","router":"3745","bandwidth (mbps)":"1.5","county number":"07","county":"BELMONT","geo_score":0.912,"routerid":"belmo05a","id":"a6rr4a8azbpg","geo_precision":"range","address":"56104 NATIONAL RD","state":"Ohio"},"type":"Feature","geometry":{"type":"Point","coordinates":[-80.769252,40.068247]}},{"properties":{"city":"BRIDGEPORT","zip":"43912","ospf area":"112","carrier":"att","router":"3845","bandwidth (mbps)":"1.5","county number":"07","county":"BELMONT","geo_score":0.912,"routerid":"belmo05b","id":"a6rr4a16f2a5","geo_precision":"range","address":"56104 NATIONAL RD","state":"Ohio"},"type":"Feature","geometry":{"type":"Point","coordinates":[-80.769252,40.068247]}},{"properties":{"city":"BRYAN","zip":"43506","ospf area":"92","carrier":"att","router":"3745","bandwidth (mbps)":"1.5","county number":"86","county":"WILLIAMS","geo_score":0.916,"routerid":"willia01a","id":"a6rr4ad6vehi","geo_precision":"range","address":"117 W BUTLER ST","state":"Ohio"},"type":"Feature","geometry":{"type":"Point","coordinates":[-84.551213,41.473296]}},{"properties":{"city":"BRYAN","zip":"43506","ospf area":"92","carrier":"att","router":"2610XM","bandwidth (mbps)":"1.5","county number":"86","county":"WILLIAMS","geo_score":0.916,"routerid":"willia02a","id":"a6rr4a8oc3qh","geo_precision":"range","address":"228 S MAIN ST","state":"Ohio"},"type":"Feature","geometry":{"type":"Point","coordinates":[-84.551041,41.472932]}},{"properties":{"city":"BUCYRUS","zip":"44820","ospf area":"88","carrier":"att","router":"3745","bandwidth (mbps)":"3","county number":"17","county":"CRAWFORD","geo_score":0.902,"routerid":"crawf01a","id":"a6rr4a9xp168","geo_precision":"range","address":"224 NORTON WAY","state":"Ohio"},"type":"Feature","geometry":{"type":"Point","coordinates":[-82.973776,40.810039]}},{"properties":{"city":"CADIZ","zip":"43907","ospf area":"112","carrier":"att","router":"3745","bandwidth (mbps)":"1.5","county number":"34","county":"HARRISON","geo_score":0.902,"routerid":"harri01a","id":"a6rr4a1ut819","geo_precision":"range","address":"538 N MAIN ST","state":"Ohio"},"type":"Feature","geometry":{"type":"Point","coordinates":[-80.992218,40.276956]}},{"properties":{"city":"CADIZ","zip":"43907","ospf area":"112","carrier":"att","router":"3745","bandwidth (mbps)":"1.5","county number":"34","county":"HARRISON","geo_score":0.902,"routerid":"harri02a","id":"a6rr4a80zip5","geo_precision":"range","address":"520 N MAIN ST","state":"Ohio"},"type":"Feature","geometry":{"type":"Point","coordinates":[-80.992259,40.27691]}},{"properties":{"city":"CALDWELL","zip":"43724","ospf area":"116","carrier":"twc","router":"3750","bandwidth (mbps)":"10","county number":"61","county":"NOBLE","geo_score":0.678,"routerid":"noble01asw1","id":"a6rr4a296u4i","geo_precision":"range","address":"18065 OHIO 78","state":"Ohio"},"type":"Feature","geometry":{"type":"Point","coordinates":[-81.50713,39.741604]}},{"properties":{"city":"CAMBRIDGE","zip":"43725","ospf area":"112","carrier":"att","router":"3745","bandwidth (mbps)":"1.5","county number":"30","county":"GUERNSEY","geo_score":0.902,"routerid":"(*a)guern01a","id":"a6rr4abm0jov","geo_precision":"range","address":"324 HIGHLAND AVE","state":"Ohio"},"type":"Feature","geometry":{"type":"Point","coordinates":[-81.578129,40.027959]}},{"properties":{"city":"CAMBRIDGE","zip":"43725","ospf area":"112","carrier":"att","router":"3745","bandwidth (mbps)":"1.5","county number":"30","county":"GUERNSEY","geo_score":0.902,"routerid":"guern02a","id":"a6rr4a07so82","geo_precision":"range","address":"274 HIGHLAND AVE","state":"Ohio"},"type":"Feature","geometry":{"type":"Point","coordinates":[-81.580669,40.02638]}},{"properties":{"city":"CAMBRIDGE","zip":"43725","ospf area":"112","carrier":"att","router":"2610XM","bandwidth (mbps)":"1.5","county number":"30","county":"GUERNSEY","geo_score":0.708,"routerid":"(*z)guern03a","id":"a6rr4a36q2gq","geo_precision":"street","address":"801 E WHEELING AVE","state":"Ohio"},"type":"Feature","geometry":{"type":"Point","coordinates":[-81.58261,40.024609]}},{"properties":{"city":"CELINA","zip":"45822","ospf area":"92","carrier":"att","router":"3745","bandwidth (mbps)":"1.5","county number":"54","county":"MERCER","geo_score":0.902,"routerid":"merce01a","id":"a6rr4a9wdzvn","geo_precision":"range","address":"220 W LIVINGSTON ST","state":"Ohio"},"type":"Feature","geometry":{"type":"Point","coordinates":[-84.57259,40.550009]}},{"properties":{"city":"CHAUNCEY","zip":"45761","ospf area":"64","carrier":"att","router":"3745","bandwidth (mbps)":"1.5","county number":"05","county":"ATHENS","geo_score":0.668,"routerid":"athen01a","id":"a6rr4a5zele5","geo_precision":"range","address":"13183 OHIO 13","state":"Ohio"},"type":"Feature","geometry":{"type":"Point","coordinates":[-82.121228,39.394196]}},{"properties":{"city":"CHILLICOTHE","zip":"45601","ospf area":"68","carrier":"att/twc","router":"3725","bandwidth (mbps)":"3/10","county number":"71","county":"ROSS","geo_score":0.92,"routerid":"ross01a","id":"a6rr4a2au0qh","geo_precision":"range","address":"475 WESTERN AVE","state":"Ohio"},"type":"Feature","geometry":{"type":"Point","coordinates":[-83.001283,39.334766]}},{"properties":{"city":"CHILLICOTHE","zip":"45601","ospf area":"68","carrier":"att","router":"2610XM","bandwidth (mbps)":"1.5","county number":"71","county":"ROSS","geo_score":0.92,"routerid":"(*z)ross04a","id":"a6rr4a2gfv7b","geo_precision":"range","address":"102 CATTAIL RD","state":"Ohio"},"type":"Feature","geometry":{"type":"Point","coordinates":[-83.078186,39.386901]}},{"properties":{"city":"CHILLICOTHE","zip":"45601","ospf area":"68","carrier":"att","router":"3745","bandwidth (mbps)":"1.5","county number":"71","county":"ROSS","geo_score":0.823,"routerid":"(*a)ross05a","id":"a6rr4aax26rq","geo_precision":"range","address":"150 E 2ND ST","state":"Ohio"},"type":"Feature","geometry":{"type":"Point","coordinates":[-82.978029,39.335231]}},{"properties":{"city":"CHILLICOTHE","zip":"45601","ospf area":"68","carrier":"att","router":"3745","bandwidth (mbps)":"1.5","county number":"71","county":"ROSS","geo_score":0.603,"routerid":"ross06a","id":"a6rr4a938eyc","geo_precision":"zip","address":"120 STONERIDGE DR","state":"Ohio"},"type":"Feature","geometry":{"type":"Point","coordinates":[-83.009627,39.504228]}},{"properties":{"city":"CHILLICOTHE","zip":"45601","ospf area":"68","carrier":"att","router":"3845","bandwidth (mbps)":"1.5","county number":"71","county":"ROSS","geo_score":0.603,"routerid":"ross06b","id":"a6rr49ysado2","geo_precision":"zip","address":"120 STONERIDGE DR","state":"Ohio"},"type":"Feature","geometry":{"type":"Point","coordinates":[-83.009627,39.504228]}},{"properties":{"city":"CINCINNATI","zip":"45245","ospf area":"76","carrier":"att","router":"3745","bandwidth (mbps)":"1.5","county number":"13","county":"CLERMONT","geo_score":0.911,"routerid":"(*z)clerm04a","id":"a6rr49yqtl2c","geo_precision":"range","address":"756 OLD STATE ROUTE 74","state":"Ohio"},"type":"Feature","geometry":{"type":"Point","coordinates":[-84.280725,39.106058]}},{"properties":{"city":"CINCINNATI","zip":"45202","ospf area":"540","carrier":"att/twc","router":"3745","bandwidth (mbps)":"3/10","county number":"31","county":"HAMILTON","geo_score":1.0,"routerid":"hamil01a","id":"a6rr4a7bjn99","geo_precision":"range","address":"222 E CENTRAL PKWY","state":"Ohio"},"type":"Feature","geometry":{"type":"Point","coordinates":[-84.510995,39.107692]}},{"properties":{"city":"CINCINNATI","zip":"45202","ospf area":"560","carrier":"att","router":"3745","bandwidth (mbps)":"1.5","county number":"31","county":"HAMILTON","geo_score":1.0,"routerid":"hamil02a","id":"a6rr4ac2esqb","geo_precision":"range","address":"800 BROADWAY ST","state":"Ohio"},"type":"Feature","geometry":{"type":"Point","coordinates":[-84.507256,39.105435]}},{"properties":{"city":"CINCINNATI","zip":"45214","ospf area":"76","carrier":"att","router":"2610XM","bandwidth (mbps)":"1.5","county number":"31","county":"HAMILTON","geo_score":1.0,"routerid":"hamil10a","id":"a6rr4a3bh2q9","geo_precision":"range","address":"1916 CENTRAL PKWY","state":"Ohio"},"type":"Feature","geometry":{"type":"Point","coordinates":[-84.523091,39.117942]}},{"properties":{"city":"CINCINNATI","zip":"45202","ospf area":null,"carrier":null,"router":null,"bandwidth (mbps)":null,"county number":"31","county":"HAMILTON","geo_score":1.0,"routerid":"hamilton jfs-county net","id":"a6rr4a6ttny6","geo_precision":"range","address":"630 MAIN ST","state":"Ohio"},"type":"Feature","geometry":{"type":"Point","coordinates":[-84.510174,39.103328]}},{"properties":{"city":"CINCINNATI","zip":"45202","ospf area":null,"carrier":null,"router":null,"bandwidth (mbps)":null,"county number":"31","county":"HAMILTON","geo_score":0.902,"routerid":"hamilton jfs-county net","id":"a6rr4ab0f3dk","geo_precision":"range","address":"230 E 9TH ST","state":"Ohio"},"type":"Feature","geometry":{"type":"Point","coordinates":[-84.5102,39.105964]}},{"properties":{"city":"CINCINNATI","zip":"45202","ospf area":null,"carrier":null,"router":null,"bandwidth (mbps)":null,"county number":"31","county":"HAMILTON","geo_score":1.0,"routerid":"hamilton jfs-county net","id":"a6rr4aejwh4b","geo_precision":"range","address":"914 MAIN ST","state":"Ohio"},"type":"Feature","geometry":{"type":"Point","coordinates":[-84.510854,39.105994]}},{"properties":{"city":"CINCINNATI","zip":"45219","ospf area":null,"carrier":null,"router":null,"bandwidth (mbps)":null,"county number":"31","county":"HAMILTON","geo_score":0.857,"routerid":"hamilton jfs-county net","id":"a6rr4a8f0n5m","geo_precision":"range","address":"234 GOODMAN","state":"Ohio"},"type":"Feature","geometry":{"type":"Point","coordinates":[-84.502352,39.136713]}},{"properties":{"city":"CINCINNATI","zip":"45219","ospf area":null,"carrier":null,"router":null,"bandwidth (mbps)":null,"county number":"31","county":"HAMILTON","geo_score":0.728,"routerid":"hamilton jfs-county net","id":"a6rr4ad5eect","geo_precision":"street","address":"3333 BURNET AVE","state":"Ohio"},"type":"Feature","geometry":{"type":"Point","coordinates":[-84.50102,39.135173]}},{"properties":{"city":"CINCINNATI","zip":"45246","ospf area":null,"carrier":null,"router":null,"bandwidth (mbps)":null,"county number":"31","county":"HAMILTON","geo_score":0.922,"routerid":"hamilton jfs-county net","id":"a6rr4ab5fxxv","geo_precision":"range","address":"175 TRI COUNTY PKWY","state":"Ohio"},"type":"Feature","geometry":{"type":"Point","coordinates":[-84.475985,39.282701]}},{"properties":{"city":"CINCINNATI","zip":"45219","ospf area":null,"carrier":null,"router":null,"bandwidth (mbps)":null,"county number":"31","county":"HAMILTON","geo_score":0.922,"routerid":"hamilton jfs-county net","id":"a6rr4aenukbp","geo_precision":"range","address":"2139 AUBURN AVE","state":"Ohio"},"type":"Feature","geometry":{"type":"Point","coordinates":[-84.508591,39.120259]}},{"properties":{"city":"CINCINNATI","zip":"45238","ospf area":null,"carrier":null,"router":null,"bandwidth (mbps)":null,"county number":"31","county":"HAMILTON","geo_score":0.912,"routerid":"hamilton jfs-county net","id":"a6rr4a7f8r4u","geo_precision":"range","address":"3131 QUEEN CITY AVE","state":"Ohio"},"type":"Feature","geometry":{"type":"Point","coordinates":[-84.606142,39.136456]}},{"properties":{"city":"CINCINNATI","zip":"45239","ospf area":null,"carrier":null,"router":null,"bandwidth (mbps)":null,"county number":"31","county":"HAMILTON","geo_score":0.915,"routerid":"hamilton jfs-county net","id":"a6rr4aacfyts","geo_precision":"range","address":"2446 KIPLING AVE","state":"Ohio"},"type":"Feature","geometry":{"type":"Point","coordinates":[-84.572286,39.201647]}},{"properties":{"city":"CINCINNATI","zip":"45231","ospf area":null,"carrier":null,"router":null,"bandwidth (mbps)":null,"county number":"31","county":"HAMILTON","geo_score":0.923,"routerid":"hamilton jfs-county net","id":"a6rr4a82ibzk","geo_precision":"range","address":"2377 CIVIC CENTER DR","state":"Ohio"},"type":"Feature","geometry":{"type":"Point","coordinates":[-84.568068,39.280574]}},{"properties":{"city":"CIRCLEVILLE","zip":"43113","ospf area":"68","carrier":"att","router":"3745","bandwidth (mbps)":"1.5","county number":"65","county":"PICKAWAY","geo_score":0.911,"routerid":"picka02a","id":"a6rr4a8xowtj","geo_precision":"range","address":"110 ISLAND RD","state":"Ohio"},"type":"Feature","geometry":{"type":"Point","coordinates":[-82.949877,39.603657]}},{"properties":{"city":"CIRCLEVILLE","zip":"43113","ospf area":"68","carrier":"att","router":"3745","bandwidth (mbps)":"1.5","county number":"65","county":"PICKAWAY","geo_score":0.911,"routerid":"picka05a","id":"a6rr49yqxl9w","geo_precision":"range","address":"160 ISLAND RD","state":"Ohio"},"type":"Feature","geometry":{"type":"Point","coordinates":[-82.949286,39.605099]}},{"properties":{"city":"COLUMBUS","zip":"43219","ospf area":"0","carrier":"DF","router":"6509","bandwidth (mbps)":"1000","county number":"25","county":"FRANKLIN","geo_score":0.916,"routerid":"airc1","id":"a6rr4a8ndk1c","geo_precision":"range","address":"4200 E 5TH AVE","state":"Ohio"},"type":"Feature","geometry":{"type":"Point","coordinates":[-82.889612,39.987318]}},{"properties":{"city":"COLUMBUS","zip":"43219","ospf area":"0","carrier":"DF","router":"6509","bandwidth (mbps)":"1000","county number":"25","county":"FRANKLIN","geo_score":0.916,"routerid":"airc2","id":"a6rr4a7ik17f","geo_precision":"range","address":"4020 E 5TH AVE","state":"Ohio"},"type":"Feature","geometry":{"type":"Point","coordinates":[-82.895195,39.986272]}},{"properties":{"city":"COLUMBUS","zip":"43215","ospf area":null,"carrier":null,"router":"6509","bandwidth (mbps)":"1000","county number":"25","county":"FRANKLIN","geo_score":1.0,"routerid":"RHODES TOWER","id":"a6rr4aealq5k","geo_precision":"range","address":"30 E BROAD ST","state":"Ohio"},"type":"Feature","geometry":{"type":"Point","coordinates":[-82.999738,39.96232]}},{"properties":{"city":"COLUMBUS","zip":"43221","ospf area":"0","carrier":"DF","router":"6509","bandwidth (mbps)":"1000","county number":"25","county":"FRANKLIN","geo_score":0.836,"routerid":"soccc1","id":"a6rr4acn0diw","geo_precision":"range","address":"1320 ARTHUR E ADAMS BLVD","state":"Ohio"},"type":"Feature","geometry":{"type":"Point","coordinates":[-83.045178,40.006282]}},{"properties":{"city":"COLUMBUS","zip":"43221","ospf area":"0","carrier":"DF","router":"6509","bandwidth (mbps)":"1000","county number":"25","county":"FRANKLIN","geo_score":0.836,"routerid":"soccc2","id":"a6rr4a1fej58","geo_precision":"range","address":"1320 ARTHUR E ADAMS BLVD","state":"Ohio"},"type":"Feature","geometry":{"type":"Point","coordinates":[-83.045178,40.006282]}},{"properties":{"city":"COLUMBUS","zip":"43215","ospf area":null,"carrier":null,"router":"6509","bandwidth (mbps)":"1000","county number":"25","county":"FRANKLIN","geo_score":1.0,"routerid":"LAZARUS","id":"a6rr4acm3ppd","geo_precision":"range","address":"50 W TOWN ST","state":"Ohio"},"type":"Feature","geometry":{"type":"Point","coordinates":[-83.001366,39.958637]}},{"properties":{"city":"COLUMBUS","zip":"43209","ospf area":"68","carrier":"att/twt","router":"3745","bandwidth (mbps)":"3/10","county number":"25","county":"FRANKLIN","geo_score":0.585,"routerid":"integ01a","id":"a6rr4a6sjowd","geo_precision":"zip","address":"2098 INEGRITY DR N","state":"Ohio"},"type":"Feature","geometry":{"type":"Point","coordinates":[-82.93768,39.968953]}},{"properties":{"city":"COLUMBUS","zip":"43207","ospf area":"68","carrier":"att","router":"3845","bandwidth (mbps)":"44","county number":"25","county":"FRANKLIN","geo_score":0.916,"routerid":"toron01a","id":"a6rr4a39bbak","geo_precision":"range","address":"2000 TORONADO BLVD","state":"Ohio"},"type":"Feature","geometry":{"type":"Point","coordinates":[-82.93997,39.927338]}},{"properties":{"city":"COLUMBUS","zip":"43219","ospf area":"68","carrier":"att","router":"3745","bandwidth (mbps)":"1.5","county number":"25","county":"FRANKLIN","geo_score":0.916,"routerid":"pilot01a","id":"a6rr49zi8czu","geo_precision":"range","address":"4200 E 5TH AVE","state":"Ohio"},"type":"Feature","geometry":{"type":"Point","coordinates":[-82.889612,39.987318]}},{"properties":{"city":"COLUMBUS","zip":"43215","ospf area":"11","carrier":"twt","router":"3750","bandwidth (mbps)":"10","county number":"25","county":"FRANKLIN","geo_score":1.0,"routerid":"frank01a","id":"a6rr4a0zgzo9","geo_precision":"range","address":"80 E FULTON ST","state":"Ohio"},"type":"Feature","geometry":{"type":"Point","coordinates":[-82.997184,39.95375]}},{"properties":{"city":"COLUMBUS","zip":"43224","ospf area":"11","carrier":"twt","router":"3845","bandwidth (mbps)":"1000","county number":"25","county":"FRANKLIN","geo_score":0.662,"routerid":"frank0Xa","id":"a6rr4a2yxtxn","geo_precision":"street","address":"XXX NORTHLAND PARK AVE","state":"Ohio"},"type":"Feature","geometry":{"type":"Point","coordinates":[-82.950468,40.030196]}},{"properties":{"city":"COLUMBUS","zip":"43230","ospf area":"11","carrier":"twt","router":"3750","bandwidth (mbps)":"1000","county number":"25","county":"FRANKLIN","geo_score":0.902,"routerid":"frank0ya","id":"a6rr4a7mm440","geo_precision":"range","address":"5300 STRAWBERRY FARMS BLVD","state":"Ohio"},"type":"Feature","geometry":{"type":"Point","coordinates":[-82.915644,40.080242]}},{"properties":{"city":"COLUMBUS","zip":"43215","ospf area":"11","carrier":"twt","router":"3750","bandwidth (mbps)":"100","county number":"25","county":"FRANKLIN","geo_score":1.0,"routerid":"frank02ad1","id":"a6rr4ae9a4dh","geo_precision":"range","address":"80 E FULTON ST","state":"Ohio"},"type":"Feature","geometry":{"type":"Point","coordinates":[-82.997184,39.95375]}},{"properties":{"city":"COLUMBUS","zip":"43235","ospf area":"64","carrier":"att","router":"2610XM","bandwidth (mbps)":"1.5","county number":"25","county":"FRANKLIN","geo_score":0.941,"routerid":"frank11a","id":"a6rr4a75fe7s","geo_precision":"range","address":"294 CAMPUS VIEW BLVD","state":"Ohio"},"type":"Feature","geometry":{"type":"Point","coordinates":[-83.00704,40.118862]}},{"properties":{"city":"COLUMBUS","zip":"43215","ospf area":"DMZ","carrier":"DMZ","router":"DMZ","bandwidth (mbps)":"DMZ","county number":"25","county":"AHS","geo_score":1.0,"routerid":"ahs01a","id":"a6rr4a2ghobs","geo_precision":"range","address":"505 S HIGH ST","state":"Ohio"},"type":"Feature","geometry":{"type":"Point","coordinates":[-82.998669,39.951925]}},{"properties":{"city":"COLUMBUS","zip":"43215","ospf area":"?","carrier":"?","router":"?","bandwidth (mbps)":"?","county number":"25","county":"FRANKLIN","geo_score":1.0,"routerid":"Voice to Borden Bldg/Qwest","id":"a6rr4a206wyl","geo_precision":"range","address":"180 E BROAD ST","state":"Ohio"},"type":"Feature","geometry":{"type":"Point","coordinates":[-82.995804,39.962789]}},{"properties":{"city":"COLUMBUS","zip":"43203","ospf area":"11","carrier":"twt","router":"4500","bandwidth (mbps)":"1000","county number":"25","county":"FRANKLIN","geo_score":0.937,"routerid":"frank02ad1'","id":"a6rr4abg9u38","geo_precision":"range","address":"1055 MT VERNON AVE","state":"Ohio"},"type":"Feature","geometry":{"type":"Point","coordinates":[-82.973955,39.972058]}},{"properties":{"city":"COLUMBUS","zip":"43207","ospf area":"11","carrier":"twt","router":"4500","bandwidth (mbps)":"1000","county number":"25","county":"FRANKLIN","geo_score":0.916,"routerid":"frank02ad1\"","id":"a6rr4a2etjj9","geo_precision":"range","address":"3723 S HIGH ST","state":"Ohio"},"type":"Feature","geometry":{"type":"Point","coordinates":[-82.999348,39.885433]}},{"properties":{"city":"COLUMBUS","zip":"43204","ospf area":"11","carrier":"twt","router":"4500","bandwidth (mbps)":"1000","county number":"25","county":"FRANKLIN","geo_score":0.912,"routerid":"frank02ad1\"'","id":"a6rr4achc7r7","geo_precision":"range","address":"314 N WILSON RD","state":"Ohio"},"type":"Feature","geometry":{"type":"Point","coordinates":[-83.092707,39.96113]}},{"properties":{"city":"COLUMBUS","zip":"43223","ospf area":"128","carrier":"att","router":"2610XM","bandwidth (mbps)":"1.5","county number":"25","county":"FRANKLIN","geo_score":0.902,"routerid":"frank03a","id":"a6rr4abze9wb","geo_precision":"range","address":"855 W MOUND ST","state":"Ohio"},"type":"Feature","geometry":{"type":"Point","coordinates":[-83.021811,39.949501]}},{"properties":{"city":"COLUMBUS","zip":"43205","ospf area":"64","carrier":"att","router":"3745","bandwidth (mbps)":"1.5","county number":"25","county":"FRANKLIN","geo_score":1.0,"routerid":"frank04a","id":"a6rr4a3usoqw","geo_precision":"range","address":"1111 E BROAD ST","state":"Ohio"},"type":"Feature","geometry":{"type":"Point","coordinates":[-82.971159,39.965639]}},{"properties":{"city":"COLUMBUS","zip":"43215","ospf area":null,"carrier":null,"router":null,"bandwidth (mbps)":null,"county number":"25","county":"FRANKLIN","geo_score":1.0,"routerid":"COUNTY NET - 03a","id":"a6rr4abh2li1","geo_precision":"range","address":"525 E MOUND ST","state":"Ohio"},"type":"Feature","geometry":{"type":"Point","coordinates":[-82.985365,39.956394]}},{"properties":{"city":"COLUMBUS","zip":"43230","ospf area":null,"carrier":null,"router":null,"bandwidth (mbps)":null,"county number":"25","county":"FRANKLIN","geo_score":0.902,"routerid":"COUNTY NET - 03a","id":"a6rr49zb1t0q","geo_precision":"range","address":"205 N HAMILTON RD","state":"Ohio"},"type":"Feature","geometry":{"type":"Point","coordinates":[-82.86621,40.022925]}},{"properties":{"city":"COLUMBUS","zip":"43223","ospf area":null,"carrier":null,"router":null,"bandwidth (mbps)":null,"county number":"25","county":"FRANKLIN","geo_score":0.902,"routerid":"COUNTY NET - 03a","id":"a6rr4a8miytf","geo_precision":"range","address":"1919 FRANK RD","state":"Ohio"},"type":"Feature","geometry":{"type":"Point","coordinates":[-83.052646,39.919277]}},{"properties":{"city":"COSHOCTON","zip":"43812","ospf area":"112","carrier":"att","router":"3745","bandwidth (mbps)":"1.5","county number":"16","county":"COSHOCTON","geo_score":0.861,"routerid":"cosho01a","id":"a6rr4a57sqga","geo_precision":"range","address":"725 PINE ST","state":"Ohio"},"type":"Feature","geometry":{"type":"Point","coordinates":[-81.85928,40.267236]}},{"properties":{"city":"DAYTON","zip":"45417","ospf area":"80","carrier":"att","router":"3845","bandwidth (mbps)":"44","county number":"57","county":"MONTGOMERY","geo_score":0.805,"routerid":"(*a,a')montg01a [1]","id":"a6rr4aci9m1t","geo_precision":"range","address":"1111 S EDWIN C MOSES BLVD","state":"Ohio"},"type":"Feature","geometry":{"type":"Point","coordinates":[-84.194776,39.741825]}},{"properties":{"city":"DAYTON","zip":"45405","ospf area":"80","carrier":"att","router":"3845","bandwidth (mbps)":"44","county number":"57","county":"MONTGOMERY","geo_score":0.805,"routerid":"(*a\")montg02a [2]","id":"a6rr4a3w3zm7","geo_precision":"street","address":"3304 N MAIN ST","state":"Ohio"},"type":"Feature","geometry":{"type":"Point","coordinates":[-84.193615,39.765809]}},{"properties":{"city":"DAYTON","zip":"45402","ospf area":"80","carrier":"twt","router":"3825","bandwidth (mbps)":"1000","county number":"57","county":"MONTGOMERY","geo_score":0.902,"routerid":"montg03a [1-2]","id":"a6rr4aedv53j","geo_precision":"range","address":"14 W 4TH ST","state":"Ohio"},"type":"Feature","geometry":{"type":"Point","coordinates":[-84.191592,39.758083]}},{"properties":{"city":"DAYTON","zip":"45402","ospf area":"80","carrier":"att","router":"3745","bandwidth (mbps)":"1.5","county number":"57","county":"MONTGOMERY","geo_score":0.902,"routerid":"montg04a","id":"a6rr4a2wn6d4","geo_precision":"range","address":"301 W 3RD ST","state":"Ohio"},"type":"Feature","geometry":{"type":"Point","coordinates":[-84.19637,39.758781]}},{"properties":{"city":"DAYTON","zip":"45404","ospf area":"80","carrier":"att","router":"2610XM","bandwidth (mbps)":"1.5","county number":"57","county":"MONTGOMERY","geo_score":0.915,"routerid":"(*z\")montg06a","id":"a6rr4a5by6gz","geo_precision":"range","address":"741 VALLEY ST","state":"Ohio"},"type":"Feature","geometry":{"type":"Point","coordinates":[-84.168463,39.775315]}},{"properties":{"city":"DAYTON","zip":"45440","ospf area":"80","carrier":"att","router":"2610XM","bandwidth (mbps)":"1.5","county number":"57","county":"MONTGOMERY","geo_score":0.805,"routerid":"(*z)montg08a","id":"a6rr4a9k6myl","geo_precision":"range","address":"1 WYOMING ST","state":"Ohio"},"type":"Feature","geometry":{"type":"Point","coordinates":[-84.187482,39.74371]}},{"properties":{"city":"DAYTON","zip":"45417","ospf area":"80","carrier":"att","router":"2610XM","bandwidth (mbps)":"1.5","county number":"57","county":"MONTGOMERY","geo_score":0.805,"routerid":"(*z')montg09a","id":"a6rr4acy3b69","geo_precision":"range","address":"165 S EDWIN C MOSES BLVD","state":"Ohio"},"type":"Feature","geometry":{"type":"Point","coordinates":[-84.20456,39.752143]}},{"properties":{"city":"DAYTON","zip":"45424","ospf area":"80","carrier":"att","router":"3725","bandwidth (mbps)":"6","county number":"57","county":"MONTGOMERY","geo_score":0.911,"routerid":"montg14a","id":"a6rr4a2ga5q2","geo_precision":"range","address":"4429 INTERPOINT BLVD","state":"Ohio"},"type":"Feature","geometry":{"type":"Point","coordinates":[-84.1349,39.818952]}},{"properties":{"city":"DAYTON","zip":"45424","ospf area":"80","carrier":"att","router":"3845","bandwidth (mbps)":"3","county number":"57","county":"MONTGOMERY","geo_score":0.911,"routerid":"montg14b","id":"a6rr4a61v01y","geo_precision":"range","address":"4429 INTERPOINT BLVD","state":"Ohio"},"type":"Feature","geometry":{"type":"Point","coordinates":[-84.1349,39.818952]}},{"properties":{"city":"DEFIANCE","zip":"43512","ospf area":"88","carrier":"att","router":"3745","bandwidth (mbps)":"3","county number":"20","county":"DEFIANCE","geo_score":0.915,"routerid":"(*a,a')defia02a","id":"a6rr4ac7z9qt","geo_precision":"range","address":"6879 EVANSPORT RD","state":"Ohio"},"type":"Feature","geometry":{"type":"Point","coordinates":[-84.418675,41.342608]}},{"properties":{"city":"DEFIANCE","zip":"43512","ospf area":"88","carrier":"twc","router":"3825","bandwidth (mbps)":"on order","county number":"20","county":"DEFIANCE","geo_score":0.915,"routerid":"defia02b","id":"a6rr4a3u7lyc","geo_precision":"range","address":"6879 EVANSPORT RD","state":"Ohio"},"type":"Feature","geometry":{"type":"Point","coordinates":[-84.418675,41.342608]}},{"properties":{"city":"DEFIANCE","zip":"43512","ospf area":"88","carrier":"att","router":"2610XM","bandwidth (mbps)":"1.5","county number":"20","county":"DEFIANCE","geo_score":0.817,"routerid":"(*z)defia03a","id":"a6rr49z6v2if","geo_precision":"range","address":"1933 E 2ND ST","state":"Ohio"},"type":"Feature","geometry":{"type":"Point","coordinates":[-84.3268,41.282566]}},{"properties":{"city":"DEFIANCE","zip":"43512","ospf area":"88","carrier":"att","router":"3745","bandwidth (mbps)":"1.5","county number":"20","county":"DEFIANCE","geo_score":0.789,"routerid":"defia04a","id":"a6rr49zu8h6j","geo_precision":"range","address":"500 COURT ST","state":"Ohio"},"type":"Feature","geometry":{"type":"Point","coordinates":[-84.360604,41.28673]}},{"properties":{"city":"DEFIANCE","zip":"43512","ospf area":"88","carrier":"att","router":"2610XM","bandwidth (mbps)":"1.5","county number":"20","county":"DEFIANCE","geo_score":0.817,"routerid":"(*z')defia06a","id":"a6rr4a7xjqme","geo_precision":"range","address":"1300 E 2ND ST","state":"Ohio"},"type":"Feature","geometry":{"type":"Point","coordinates":[-84.341751,41.282768]}},{"properties":{"city":"DELAWARE","zip":"43015","ospf area":"64","carrier":"att/twc","router":"3745","bandwidth (mbps)":"1.5/100","county number":"21","county":"DELAWARE","geo_score":0.922,"routerid":"(*a)delaw01a","id":"a6rr4a0rhpba","geo_precision":"range","address":"140 N SANDUSKY ST","state":"Ohio"},"type":"Feature","geometry":{"type":"Point","coordinates":[-83.067391,40.303235]}},{"properties":{"city":"DELAWARE","zip":"43015","ospf area":null,"carrier":"twc","router":null,"bandwidth (mbps)":"10","county number":"21-42","county":"DELAWARE","geo_score":0.922,"routerid":"delaw01a-knox01a","id":"a6rr4acpp3h5","geo_precision":"range","address":"140 N SANDUSKY ST","state":"Ohio"},"type":"Feature","geometry":{"type":"Point","coordinates":[-83.067391,40.303235]}},{"properties":{"city":"DELAWARE","zip":"43015","ospf area":"64","carrier":"att","router":"2610XM","bandwidth (mbps)":"1.5","county number":"21","county":"DELAWARE","geo_score":0.922,"routerid":"(*z)delaw02a","id":"a6rr4af0i1c3","geo_precision":"range","address":"4565 COLUMBUS PIKE","state":"Ohio"},"type":"Feature","geometry":{"type":"Point","coordinates":[-83.040448,40.231063]}},{"properties":{"city":"DUBLIN","zip":"43017","ospf area":"DMZ","carrier":"DMZ","router":"DMZ","bandwidth (mbps)":"DMZ","county number":"25","county":"AHS","geo_score":1.0,"routerid":"ahs02a","id":"a6rr4a4cqnxb","geo_precision":"range","address":"300 CRAMER CREEK CT","state":"Ohio"},"type":"Feature","geometry":{"type":"Point","coordinates":[-83.121299,40.0838]}},{"properties":{"city":"EATON","zip":"45320","ospf area":"80","carrier":"att","router":"3745","bandwidth (mbps)":"1.5","county number":"68","county":"PREBLE","geo_score":0.935,"routerid":"prebl01a","id":"a6rr4a5p4z8e","geo_precision":"range","address":"1500 PARK AVE","state":"Ohio"},"type":"Feature","geometry":{"type":"Point","coordinates":[-84.646118,39.758617]}},{"properties":{"city":"FAIRFIELD","zip":"45014","ospf area":"76","carrier":"DF","router":"3750","bandwidth (mbps)":"1000","county number":"09","county":"BUTLER","geo_score":0.902,"routerid":"butle06a'","id":"a6rr4a8bdhw4","geo_precision":"range","address":"4631 DIXIE HWY","state":"Ohio"},"type":"Feature","geometry":{"type":"Point","coordinates":[-84.542446,39.350806]}},{"properties":{"city":"FINDLAY","zip":"45840","ospf area":"68","carrier":"att/twc","router":"3745","bandwidth (mbps)":"1.5/100","county number":"32","county":"HANCOCK","geo_score":0.915,"routerid":"hanco01a","id":"a6rr4aa8tl4g","geo_precision":"range","address":"7814 COUNTY ROAD 140","state":"Ohio"},"type":"Feature","geometry":{"type":"Point","coordinates":[-83.688395,41.05749]}},{"properties":{"city":"FINDLAY","zip":"45840","ospf area":"68","carrier":"twc","router":null,"bandwidth (mbps)":"10","county number":"32-53","county":"HANCOCK","geo_score":0.915,"routerid":"hanco01a-morro03a","id":"a6rr4aclphme","geo_precision":"range","address":"7814 COUNTY ROAD 140","state":"Ohio"},"type":"Feature","geometry":{"type":"Point","coordinates":[-83.688395,41.05749]}},{"properties":{"city":"FORT LORAMIE","zip":"45845","ospf area":"92","carrier":"att","router":"3745","bandwidth (mbps)":"1.5","county number":"75","county":"SHELBY","geo_score":0.707,"routerid":"shelb02a","id":"a6rr4a462wl4","geo_precision":"range","address":"4040 OHIO 705","state":"Ohio"},"type":"Feature","geometry":{"type":"Point","coordinates":[-84.361613,40.345116]}},{"properties":{"city":"FORT LORAMIE","zip":"45845","ospf area":"92","carrier":"att","router":"3845","bandwidth (mbps)":"1.5","county number":"75","county":"SHELBY","geo_score":0.707,"routerid":"shelb02b","id":"a6rr4af3t8u9","geo_precision":"range","address":"4040 OHIO 705","state":"Ohio"},"type":"Feature","geometry":{"type":"Point","coordinates":[-84.361613,40.345116]}},{"properties":{"city":"GALLIPOLIS","zip":"45631","ospf area":"64","carrier":"att","router":"3845","bandwidth (mbps)":"1.5","county number":"27","county":"GALLIA","geo_score":0.815,"routerid":"galli02a","id":"a6rr4a5vz0ji","geo_precision":"range","address":"848 3RD AVE","state":"Ohio"},"type":"Feature","geometry":{"type":"Point","coordinates":[-82.197247,38.814797]}},{"properties":{"city":"GALLIPOLIS","zip":"45631","ospf area":"64","carrier":"att","router":"3725","bandwidth (mbps)":"1.5","county number":"27","county":"GALLIA","geo_score":0.912,"routerid":"galli03a","id":"a6rr4adnglnn","geo_precision":"range","address":"83 SHAWNEE LN","state":"Ohio"},"type":"Feature","geometry":{"type":"Point","coordinates":[-82.236451,38.853614]}},{"properties":{"city":"GENOA","zip":"43430","ospf area":"92","carrier":"att","router":"2610XM","bandwidth (mbps)":"1.5","county number":"62","county":"OTTAWA","geo_score":0.61,"routerid":"ottaw02a","id":"a6rr4a033j1n","geo_precision":"street","address":"20911 OHIO 51","state":"Ohio"},"type":"Feature","geometry":{"type":"Point","coordinates":[-83.358527,41.574351]}},{"properties":{"city":"GEORGETOWN","zip":"45121","ospf area":"76","carrier":"att","router":"3745","bandwidth (mbps)":"1.5","county number":"08","county":"BROWN","geo_score":0.835,"routerid":"brown01a","id":"a6rr4a6346sz","geo_precision":"range","address":"740 MT ORAB PIKE","state":"Ohio"},"type":"Feature","geometry":{"type":"Point","coordinates":[-83.901871,38.874566]}},{"properties":{"city":"GEORGETOWN","zip":"45121","ospf area":"76","carrier":"att","router":"3745","bandwidth (mbps)":"1.5","county number":"08","county":"BROWN","geo_score":0.835,"routerid":"brown02a","id":"a6rr4aawiq09","geo_precision":"range","address":"775 MT ORAB PIKE","state":"Ohio"},"type":"Feature","geometry":{"type":"Point","coordinates":[-83.901754,38.874852]}},{"properties":{"city":"GEORGETOWN","zip":"45121","ospf area":"76","carrier":"att","router":"2610XM","bandwidth (mbps)":"1.5","county number":"08","county":"BROWN","geo_score":0.902,"routerid":"brown03a","id":"a6rr4a84qb0e","geo_precision":"range","address":"406 W PLUM ST","state":"Ohio"},"type":"Feature","geometry":{"type":"Point","coordinates":[-83.908758,38.867976]}},{"properties":{"city":"GREENVILLE","zip":"45331","ospf area":"76","carrier":"att","router":"3745","bandwidth (mbps)":"1.5","county number":"19","county":"DARKE","geo_score":0.902,"routerid":"darke02a","id":"a6rr4ab0cuk2","geo_precision":"range","address":"603 WAGNER AVE","state":"Ohio"},"type":"Feature","geometry":{"type":"Point","coordinates":[-84.622343,40.117026]}},{"properties":{"city":"HAMILTON","zip":"45013","ospf area":"76","carrier":"att","router":"2610XM","bandwidth (mbps)":"1.5","county number":"09","county":"BUTLER","geo_score":0.913,"routerid":"butle01a","id":"a6rr4acy9bw9","geo_precision":"range","address":"190 N BROOKWOOD AVE","state":"Ohio"},"type":"Feature","geometry":{"type":"Point","coordinates":[-84.584979,39.424174]}},{"properties":{"city":"HAMILTON","zip":"45011","ospf area":"76","carrier":"att","router":"3725","bandwidth (mbps)":"1.5","county number":"09","county":"BUTLER","geo_score":0.919,"routerid":"butle02a","id":"a6rr4aab1glv","geo_precision":"range","address":"280 N FAIR AVE","state":"Ohio"},"type":"Feature","geometry":{"type":"Point","coordinates":[-84.541328,39.397428]}},{"properties":{"city":"HAMILTON","zip":"45011","ospf area":"76","carrier":"att","router":"3745","bandwidth (mbps)":"1.5","county number":"09","county":"BUTLER","geo_score":0.919,"routerid":"butle05a","id":"a6rr4adl1xj3","geo_precision":"range","address":"300 N FAIR AVE","state":"Ohio"},"type":"Feature","geometry":{"type":"Point","coordinates":[-84.540945,39.398489]}},{"properties":{"city":"HAMILTON","zip":"45011","ospf area":"76","carrier":"twc","router":"3750","bandwidth (mbps)":"10","county number":"09","county":"BUTLER","geo_score":0.919,"routerid":"butle06asw1","id":"a6rr4a61fx5d","geo_precision":"range","address":"315 HIGH ST","state":"Ohio"},"type":"Feature","geometry":{"type":"Point","coordinates":[-84.559959,39.399215]}},{"properties":{"city":"HILLSBORO","zip":"45133","ospf area":"76","carrier":"att","router":"3745","bandwidth (mbps)":"1.5","county number":"36","county":"HIGHLAND","geo_score":0.932,"routerid":"highl01a","id":"a6rr4a9ocbns","geo_precision":"range","address":"1575 N HIGH ST","state":"Ohio"},"type":"Feature","geometry":{"type":"Point","coordinates":[-83.609183,39.236172]}},{"properties":{"city":"IRONTON","zip":"45638","ospf area":"68","carrier":"att/twc","router":"3725","bandwidth (mbps)":"3/10","county number":"44","county":"LAWRENCE","geo_score":0.814,"routerid":"lawre02a","id":"a6rr4a1qb1sl","geo_precision":"range","address":"1100 S 7TH ST","state":"Ohio"},"type":"Feature","geometry":{"type":"Point","coordinates":[-82.674846,38.529517]}},{"properties":{"city":"IRONTON","zip":"45638","ospf area":"68","carrier":"att","router":"3745","bandwidth (mbps)":"3","county number":"44","county":"LAWRENCE","geo_score":0.814,"routerid":"lawre04a","id":"a6rr4a7vgaxg","geo_precision":"range","address":"120 N 3RD ST","state":"Ohio"},"type":"Feature","geometry":{"type":"Point","coordinates":[-82.685907,38.535606]}},{"properties":{"city":"IRONTON","zip":"45638","ospf area":"68","carrier":"att","router":"3845","bandwidth (mbps)":"1.5","county number":"44","county":"LAWRENCE","geo_score":0.814,"routerid":"lawre04b","id":"a6rr4a9wsy2b","geo_precision":"range","address":"120 N 3RD ST","state":"Ohio"},"type":"Feature","geometry":{"type":"Point","coordinates":[-82.685907,38.535606]}},{"properties":{"city":"JACKSON","zip":"45640","ospf area":"64","carrier":"att","router":"3745","bandwidth (mbps)":"1.5","county number":"40","county":"JACKSON","geo_score":0.776,"routerid":"jacks01a","id":"a6rr49zrhzeb","geo_precision":"range","address":"25 E SOUTH ST","state":"Ohio"},"type":"Feature","geometry":{"type":"Point","coordinates":[-82.64223,39.048676]}},{"properties":{"city":"JEFFERSON","zip":"44047","ospf area":"100","carrier":"att","router":"2610XM","bandwidth (mbps)":"1.5","county number":"04","county":"ASHTABULA","geo_score":0.911,"routerid":"(*z)ashta05a","id":"a6rr4a0t1u4n","geo_precision":"range","address":"25 W JEFFERSON ST","state":"Ohio"},"type":"Feature","geometry":{"type":"Point","coordinates":[-80.77003,41.738327]}},{"properties":{"city":"KENTON","zip":"43326","ospf area":"88","carrier":"att","router":"3745","bandwidth (mbps)":"1.5","county number":"33","county":"HARDIN","geo_score":0.935,"routerid":"(*a)hardi01a","id":"a6rr4aas5421","geo_precision":"range","address":"175 W FRANKLIN ST","state":"Ohio"},"type":"Feature","geometry":{"type":"Point","coordinates":[-83.608787,40.647202]}},{"properties":{"city":"KENTON","zip":"43326","ospf area":"88","carrier":"att","router":"2610XM","bandwidth (mbps)":"1.5","county number":"33","county":"HARDIN","geo_score":0.893,"routerid":"(*z)hardi02a","id":"a6rr4aero7vf","geo_precision":"range","address":"1021 W LIMA ST","state":"Ohio"},"type":"Feature","geometry":{"type":"Point","coordinates":[-83.623998,40.651571]}},{"properties":{"city":"LAKEVIEW","zip":"43331","ospf area":"88","carrier":"att","router":"2610XM","bandwidth (mbps)":"1.5","county number":"46","county":"LOGAN","geo_score":0.83,"routerid":"(*z)logan05a","id":"a6rr4adesrx8","geo_precision":"range","address":"13976 IRONWOOD ST","state":"Ohio"},"type":"Feature","geometry":{"type":"Point","coordinates":[-83.884016,40.516507]}},{"properties":{"city":"LANCASTER","zip":"43130","ospf area":"64","carrier":"att","router":"3845","bandwidth (mbps)":"10","county number":"23","county":"FAIRFIELD","geo_score":0.924,"routerid":"fairf01a","id":"a6rr4a9tsupt","geo_precision":"range","address":"239 W MAIN ST","state":"Ohio"},"type":"Feature","geometry":{"type":"Point","coordinates":[-82.605122,39.713844]}},{"properties":{"city":"LEBANON","zip":"45036","ospf area":"80","carrier":"att","router":"3725","bandwidth (mbps)":"3","county number":"83","county":"WARREN","geo_score":0.912,"routerid":"warre01a","id":"a6rr4a1e01un","geo_precision":"range","address":"500 JUSTICE DR","state":"Ohio"},"type":"Feature","geometry":{"type":"Point","coordinates":[-84.20026,39.423856]}},{"properties":{"city":"LEBANON","zip":"45036","ospf area":"80","carrier":"att","router":"3725","bandwidth (mbps)":"3","county number":"83","county":"WARREN","geo_score":0.787,"routerid":"(*a)warre02a","id":"a6rr4a16axvf","geo_precision":"range","address":"400 S EAST ST","state":"Ohio"},"type":"Feature","geometry":{"type":"Point","coordinates":[-84.204759,39.42695]}},{"properties":{"city":"LEBANON","zip":"45036","ospf area":"80","carrier":"att","router":"2610XM","bandwidth (mbps)":"1.5","county number":"83","county":"WARREN","geo_score":0.912,"routerid":"(*z)warre03a","id":"a6rr4ado4igq","geo_precision":"range","address":"300 E SILVER ST","state":"Ohio"},"type":"Feature","geometry":{"type":"Point","coordinates":[-84.20373,39.435212]}},{"properties":{"city":"LIMA","zip":"45801","ospf area":"88","carrier":"att","router":"3745","bandwidth (mbps)":"1.5","county number":"02","county":"ALLEN","geo_score":0.915,"routerid":"allen01a","id":"a6rr4a21qac6","geo_precision":"range","address":"200 W MARKET ST","state":"Ohio"},"type":"Feature","geometry":{"type":"Point","coordinates":[-84.106809,40.740023]}},{"properties":{"city":"LIMA","zip":"45804","ospf area":"88","carrier":"att","router":"3745","bandwidth (mbps)":"1.5","county number":"02","county":"ALLEN","geo_score":1.0,"routerid":"allen02a","id":"a6rr4abj8a6l","geo_precision":"range","address":"1501 S DIXIE HWY","state":"Ohio"},"type":"Feature","geometry":{"type":"Point","coordinates":[-84.115555,40.714809]}},{"properties":{"city":"LIMA","zip":"45801","ospf area":"88","carrier":"att","router":"3745","bandwidth (mbps)":"1.5","county number":"02","county":"ALLEN","geo_score":0.915,"routerid":"allen03a","id":"a6rr4a5pur53","geo_precision":"range","address":"123 W SPRING ST","state":"Ohio"},"type":"Feature","geometry":{"type":"Point","coordinates":[-84.105313,40.738611]}},{"properties":{"city":"LIMA","zip":"45801","ospf area":"88","carrier":"att","router":"3745","bandwidth (mbps)":"1.5","county number":"02","county":"ALLEN","geo_score":0.915,"routerid":"allen07a","id":"a6rr4a5oga37","geo_precision":"range","address":"799 N MAIN ST","state":"Ohio"},"type":"Feature","geometry":{"type":"Point","coordinates":[-84.104951,40.750932]}},{"properties":{"city":"LIMA","zip":"45801","ospf area":"88","carrier":"att","router":"3845","bandwidth (mbps)":"1.5","county number":"02","county":"ALLEN","geo_score":0.915,"routerid":"allen07b","id":"a6rr4a76vn8w","geo_precision":"range","address":"799 N MAIN ST","state":"Ohio"},"type":"Feature","geometry":{"type":"Point","coordinates":[-84.104951,40.750932]}},{"properties":{"city":"LOGAN","zip":"43138","ospf area":"64","carrier":"att","router":"3725","bandwidth (mbps)":"1.5","county number":"37","county":"HOCKING","geo_score":0.637,"routerid":"hocki01a","id":"a6rr4a8r6kly","geo_precision":"street","address":"350 OHIO 664","state":"Ohio"},"type":"Feature","geometry":{"type":"Point","coordinates":[-82.397416,39.54488]}},{"properties":{"city":"LOGAN","zip":"43138","ospf area":"64","carrier":"att","router":"3745","bandwidth (mbps)":"1.5","county number":"37","county":"HOCKING","geo_score":0.957,"routerid":"hocki03a","id":"a6rr4a37h5hp","geo_precision":"range","address":"389 W FRONT ST","state":"Ohio"},"type":"Feature","geometry":{"type":"Point","coordinates":[-82.41611,39.538476]}},{"properties":{"city":"LOGAN","zip":"43138","ospf area":"64","carrier":"att","router":"3725","bandwidth (mbps)":"1.5","county number":"37","county":"HOCKING","geo_score":0.957,"routerid":"hocki04a","id":"a6rr4a3bfky9","geo_precision":"range","address":"93 W HUNTER ST","state":"Ohio"},"type":"Feature","geometry":{"type":"Point","coordinates":[-82.41048,39.5413]}},{"properties":{"city":"LONDON","zip":"43140","ospf area":"80","carrier":"att","router":"3745","bandwidth (mbps)":"1.5","county number":"49","county":"MADISON","geo_score":0.911,"routerid":"madis01a","id":"a6rr4ac3z2ny","geo_precision":"range","address":"200 MIDWAY ST","state":"Ohio"},"type":"Feature","geometry":{"type":"Point","coordinates":[-83.456001,39.8769]}},{"properties":{"city":"LOVELAND","zip":"45140","ospf area":"76","carrier":"DF","router":"3750","bandwidth (mbps)":"1000","county number":"09","county":"BUTLER","geo_score":0.902,"routerid":"butle06'''","id":"a6rr4a2nwsy6","geo_precision":"range","address":"420 WARDS CORNER RD","state":"Ohio"},"type":"Feature","geometry":{"type":"Point","coordinates":[-84.289873,39.220422]}},{"properties":{"city":"MARIETTA","zip":"45750","ospf area":"116","carrier":"att","router":"3745","bandwidth (mbps)":"1.5","county number":"84","county":"WASHINGTON","geo_score":0.967,"routerid":"washi01a","id":"a6rr49yylrep","geo_precision":"range","address":"205 PUTNAM ST","state":"Ohio"},"type":"Feature","geometry":{"type":"Point","coordinates":[-81.454647,39.415384]}},{"properties":{"city":"MARIETTA","zip":"45750","ospf area":"116","carrier":"att","router":"3745","bandwidth (mbps)":"1.5","county number":"84","county":"WASHINGTON","geo_score":0.967,"routerid":"washi02a","id":"a6rr4a26utci","geo_precision":"range","address":"1115 GILMAN AVE","state":"Ohio"},"type":"Feature","geometry":{"type":"Point","coordinates":[-81.474203,39.425874]}},{"properties":{"city":"MARIETTA","zip":"45750","ospf area":"116","carrier":"att","router":"3745","bandwidth (mbps)":"1.5","county number":"84","county":"WASHINGTON","geo_score":0.967,"routerid":"washi03a","id":"a6rr4a4c2lec","geo_precision":"range","address":"204 DAVIS AVE","state":"Ohio"},"type":"Feature","geometry":{"type":"Point","coordinates":[-81.458698,39.439751]}},{"properties":{"city":"MARIETTA","zip":"45750","ospf area":"116","carrier":"att","router":"3745","bandwidth (mbps)":"1.5","county number":"84","county":"WASHINGTON","geo_score":0.675,"routerid":"washi04a","id":"a6rr4a09g53m","geo_precision":"street","address":"27811 OHIO 7","state":"Ohio"},"type":"Feature","geometry":{"type":"Point","coordinates":[-81.446024,39.411117]}},{"properties":{"city":"MARIETTA","zip":"45750","ospf area":"116","carrier":"att","router":"3845","bandwidth (mbps)":"1.5","county number":"84","county":"WASHINGTON","geo_score":0.675,"routerid":"washi04b","id":"a6rr4a6tazou","geo_precision":"street","address":"27811 OHIO 7","state":"Ohio"},"type":"Feature","geometry":{"type":"Point","coordinates":[-81.446024,39.411117]}},{"properties":{"city":"MARIETTA","zip":"45750","ospf area":"116","carrier":"att","router":"2610XM","bandwidth (mbps)":"1.5","county number":"84","county":"WASHINGTON","geo_score":0.967,"routerid":"washi05a","id":"a6rr4acoa8d0","geo_precision":"range","address":"218 PUTNAM ST","state":"Ohio"},"type":"Feature","geometry":{"type":"Point","coordinates":[-81.454494,39.415504]}},{"properties":{"city":"MARION","zip":"43301","ospf area":"92","carrier":"att/twc","router":"3745","bandwidth (mbps)":"1.5/100","county number":"51","county":"MARION","geo_score":0.805,"routerid":"mario01a","id":"a6rr4a4gyd72","geo_precision":"range","address":"363 W FAIRGROUND ST","state":"Ohio"},"type":"Feature","geometry":{"type":"Point","coordinates":[-83.136143,40.600287]}},{"properties":{"city":"MARION","zip":"43302","ospf area":"92","carrier":"att","router":"3745","bandwidth (mbps)":"1.5","county number":"51","county":"MARION","geo_score":0.922,"routerid":"mario02a","id":"a6rr4a113yoj","geo_precision":"range","address":"1680 MARION-WALDO RD","state":"Ohio"},"type":"Feature","geometry":{"type":"Point","coordinates":[-83.117343,40.557659]}},{"properties":{"city":"MARTINS FERRY","zip":"43935","ospf area":"112","carrier":"att","router":"3745","bandwidth (mbps)":"1.5","county number":"07","county":"BELMONT","geo_score":0.921,"routerid":"belmo03a","id":"a6rr4a4oqw7m","geo_precision":"range","address":"302 WALNUT ST","state":"Ohio"},"type":"Feature","geometry":{"type":"Point","coordinates":[-80.723985,40.094776]}},{"properties":{"city":"MARYSVILLE","zip":"43040","ospf area":"68","carrier":"att","router":"3725","bandwidth (mbps)":"3","county number":"80","county":"UNION","geo_score":0.922,"routerid":"union01a","id":"a6rr4aave2ct","geo_precision":"range","address":"940 LONDON AVE","state":"Ohio"},"type":"Feature","geometry":{"type":"Point","coordinates":[-83.371451,40.224097]}},{"properties":{"city":"MAUMEE","zip":"43537","ospf area":"88","carrier":"att","router":"3725","bandwidth (mbps)":"6","county number":"48","county":"LUCAS","geo_score":1.0,"routerid":"lucas10a","id":"a6rr4aa9nggo","geo_precision":"range","address":"1684 WOODLANDS DR","state":"Ohio"},"type":"Feature","geometry":{"type":"Point","coordinates":[-83.685118,41.587248]}},{"properties":{"city":"MAUMEE","zip":"43537","ospf area":"88","carrier":"att","router":"3845","bandwidth (mbps)":"3","county number":"48","county":"LUCAS","geo_score":1.0,"routerid":"lucas10b","id":"a6rr4aagqboa","geo_precision":"range","address":"1684 WOODLANDS DR","state":"Ohio"},"type":"Feature","geometry":{"type":"Point","coordinates":[-83.685118,41.587248]}},{"properties":{"city":"MCARTHUR","zip":"45651","ospf area":"68","carrier":"att","router":"3725","bandwidth (mbps)":"1.5","county number":"82","county":"VINTON","geo_score":0.463,"routerid":"vinto01a","id":"a6rr4a6uo8c8","geo_precision":"street","address":"30975 INDUSTRIAL  PARK RD","state":"Ohio"},"type":"Feature","geometry":{"type":"Point","coordinates":[-82.599459,39.035723]}},{"properties":{"city":"MCCONNELSVILLE","zip":"43756","ospf area":"112","carrier":"att","router":"3745","bandwidth (mbps)":"1.5","county number":"58","county":"MORGAN","geo_score":0.951,"routerid":"morga01a","id":"a6rr4a0vcdnl","geo_precision":"range","address":"155 E MAIN ST","state":"Ohio"},"type":"Feature","geometry":{"type":"Point","coordinates":[-81.851374,39.648713]}},{"properties":{"city":"MIDDLEPORT","zip":"45760","ospf area":"68","carrier":"att","router":"3745","bandwidth (mbps)":"1.5","county number":"53","county":"MEIGS","geo_score":0.912,"routerid":"meigs01a","id":"a6rr4a8u39ar","geo_precision":"range","address":"175 RACE ST","state":"Ohio"},"type":"Feature","geometry":{"type":"Point","coordinates":[-82.048893,39.002643]}},{"properties":{"city":"MIDDLETOWN","zip":"45044","ospf area":"76","carrier":"DF","router":"3750","bandwidth (mbps)":"1000","county number":"09","county":"BUTLER","geo_score":0.922,"routerid":"butle05a'","id":"a6rr4a3ubo4u","geo_precision":"range","address":"1001 GROVE ST","state":"Ohio"},"type":"Feature","geometry":{"type":"Point","coordinates":[-84.401438,39.505419]}},{"properties":{"city":"MIDDLETOWN","zip":"45042","ospf area":"76","carrier":"DF","router":"3750","bandwidth (mbps)":"1000","county number":"09","county":"BUTLER","geo_score":0.591,"routerid":"butle06\"","id":"a6rr4a26rehd","geo_precision":"street","address":"1021 CENTRAL AVE","state":"Ohio"},"type":"Feature","geometry":{"type":"Point","coordinates":[-84.430686,39.503681]}},{"properties":{"city":"MILLERSBURG","zip":"44654","ospf area":"112","carrier":"att","router":"3745","bandwidth (mbps)":"1.5","county number":"38","county":"HOLMES","geo_score":0.947,"routerid":"holme01a","id":"a6rr4a4qtrz6","geo_precision":"range","address":"85 N GRANT ST","state":"Ohio"},"type":"Feature","geometry":{"type":"Point","coordinates":[-81.920766,40.555288]}},{"properties":{"city":"MT GILEAD","zip":"43338","ospf area":"68","carrier":"att/twc","router":"3745","bandwidth (mbps)":"1.5/100","county number":"59","county":"MORROW","geo_score":0.846,"routerid":"morro03a","id":"a6rr4a3ycnoe","geo_precision":"range","address":"619 W MARION RD","state":"Ohio"},"type":"Feature","geometry":{"type":"Point","coordinates":[-82.84753,40.54895]}},{"properties":{"city":"MT VERNON","zip":"43050","ospf area":"64","carrier":"att/twc","router":"3745","bandwidth (mbps)":"1.5/100","county number":"42","county":"KNOX","geo_score":0.951,"routerid":"knox01a","id":"a6rr49zzqmmx","geo_precision":"range","address":"117 E HIGH ST","state":"Ohio"},"type":"Feature","geometry":{"type":"Point","coordinates":[-82.483857,40.393545]}},{"properties":{"city":"MT VERNON","zip":"43050","ospf area":"64","carrier":"att","router":"3745","bandwidth (mbps)":"1.5","county number":"42","county":"KNOX","geo_score":0.878,"routerid":"knox02a","id":"a6rr4adqye6v","geo_precision":"range","address":"17604 COSHOCTON AVE","state":"Ohio"},"type":"Feature","geometry":{"type":"Point","coordinates":[-82.434076,40.404668]}},{"properties":{"city":"NAPOLEON","zip":"43545","ospf area":"88","carrier":"att","router":"3745","bandwidth (mbps)":"1.5","county number":"35","county":"HENRY","geo_score":0.915,"routerid":"henry01a","id":"a6rr49zs09tg","geo_precision":"range","address":"1809 OAKWOOD AVE","state":"Ohio"},"type":"Feature","geometry":{"type":"Point","coordinates":[-84.119437,41.411087]}},{"properties":{"city":"NAPOLEON","zip":"43545","ospf area":"88","carrier":"att","router":"3745","bandwidth (mbps)":"1.5","county number":"35","county":"HENRY","geo_score":0.915,"routerid":"henry02a","id":"a6rr4aaauy8b","geo_precision":"range","address":"140 E WASHINGTON ST","state":"Ohio"},"type":"Feature","geometry":{"type":"Point","coordinates":[-84.124184,41.391317]}},{"properties":{"city":"NEW BOSTON","zip":"45662","ospf area":"68","carrier":"att","router":"3745","bandwidth (mbps)":"1.5","county number":"73","county":"SCIOTO","geo_score":0.808,"routerid":"sciot02a","id":"a6rr4a6o1wpm","geo_precision":"range","address":"3940 GALLIA ST","state":"Ohio"},"type":"Feature","geometry":{"type":"Point","coordinates":[-82.937158,38.752459]}},{"properties":{"city":"NEW LEXINGTON","zip":"43764","ospf area":"68","carrier":"twc","router":"3750","bandwidth (mbps)":"10","county number":"64","county":"PERRY","geo_score":0.927,"routerid":"perry02asw1","id":"a6rr4a2u7trb","geo_precision":"range","address":"212 S MAIN ST","state":"Ohio"},"type":"Feature","geometry":{"type":"Point","coordinates":[-82.206905,39.713084]}},{"properties":{"city":"NEW LEXINGTON","zip":"43764","ospf area":"68","carrier":"twc","router":"3750","bandwidth (mbps)":"10","county number":"64","county":"PERRY","geo_score":0.927,"routerid":"perry03asw1","id":"a6rr4a6ollnz","geo_precision":"range","address":"526 MILL ST","state":"Ohio"},"type":"Feature","geometry":{"type":"Point","coordinates":[-82.198178,39.71125]}},{"properties":{"city":"NEWARK","zip":"43055","ospf area":"68","carrier":"att","router":"3745","bandwidth (mbps)":"1.5","county number":"45","county":"LICKING","geo_score":0.916,"routerid":"licki01a","id":"a6rr4a8zh8t7","geo_precision":"range","address":"65 E MAIN ST","state":"Ohio"},"type":"Feature","geometry":{"type":"Point","coordinates":[-82.399946,40.058423]}},{"properties":{"city":"NEWARK","zip":"43055","ospf area":"68","carrier":"att","router":"3745","bandwidth (mbps)":"1.5","county number":"45","county":"LICKING","geo_score":0.819,"routerid":"licki02a","id":"a6rr4a3yl47y","geo_precision":"range","address":"74 S 2ND ST","state":"Ohio"},"type":"Feature","geometry":{"type":"Point","coordinates":[-82.39979,40.056077]}},{"properties":{"city":"NEWARK","zip":"43055","ospf area":"68","carrier":"att","router":"2610XM","bandwidth (mbps)":"1.5","county number":"45","county":"LICKING","geo_score":0.916,"routerid":"licki03a","id":"a6rr4a5xadqh","geo_precision":"range","address":"998 E MAIN ST","state":"Ohio"},"type":"Feature","geometry":{"type":"Point","coordinates":[-82.364305,40.060907]}},{"properties":{"city":"NORWALK","zip":"44857","ospf area":"88","carrier":"att","router":"3745","bandwidth (mbps)":"1.5","county number":"39","county":"HURON","geo_score":0.863,"routerid":"huron01a","id":"a6rr4a7egsja","geo_precision":"range","address":"185 SHADY LANE DR","state":"Ohio"},"type":"Feature","geometry":{"type":"Point","coordinates":[-82.607519,41.224203]}},{"properties":{"city":"OAK HARBOR","zip":"43449","ospf area":"92","carrier":"att","router":"3725","bandwidth (mbps)":"1.5","county number":"62","county":"OTTAWA","geo_score":0.7,"routerid":"ottaw01a","id":"a6rr49zxicle","geo_precision":"range","address":"8043 OHIO 163","state":"Ohio"},"type":"Feature","geometry":{"type":"Point","coordinates":[-83.088084,41.50986]}},{"properties":{"city":"OTTAWA","zip":"45875","ospf area":"92","carrier":"att","router":"3845","bandwidth (mbps)":"1.5","county number":"69","county":"PUTNAM","geo_score":0.813,"routerid":"putna02a","id":"a6rr4ad6phmh","geo_precision":"range","address":"1225 E 3RD ST","state":"Ohio"},"type":"Feature","geometry":{"type":"Point","coordinates":[-84.034065,41.020386]}},{"properties":{"city":"PAULDING","zip":"45879","ospf area":"92","carrier":"att","router":"3745","bandwidth (mbps)":"1.5","county number":"63","county":"PAULDING","geo_score":0.902,"routerid":"pauld01a","id":"a6rr4ad8lz8p","geo_precision":"range","address":"201 E CAROLINE ST","state":"Ohio"},"type":"Feature","geometry":{"type":"Point","coordinates":[-84.579514,41.139244]}},{"properties":{"city":"PAULDING","zip":"45879","ospf area":"92","carrier":"att","router":"3745","bandwidth (mbps)":"1.5","county number":"63","county":"PAULDING","geo_score":0.902,"routerid":"(*a)pauld02a","id":"a6rr4a0eshaq","geo_precision":"range","address":"303 W HARRISON ST","state":"Ohio"},"type":"Feature","geometry":{"type":"Point","coordinates":[-84.583245,41.136345]}},{"properties":{"city":"PAULDING","zip":"45879","ospf area":"92","carrier":"att","router":"2610XM","bandwidth (mbps)":"1.5","county number":"63","county":"PAULDING","geo_score":0.714,"routerid":"(*z)pauld03a","id":"a6rr4aer8q3w","geo_precision":"street","address":"250 DOOLEY DR","state":"Ohio"},"type":"Feature","geometry":{"type":"Point","coordinates":[-84.573442,41.150003]}},{"properties":{"city":"PIKETON","zip":"45661","ospf area":"68","carrier":"att","router":"2610XM","bandwidth (mbps)":"1.5","county number":"66","county":"PIKE","geo_score":0.924,"routerid":"pike04a","id":"a6rr4a4v889o","geo_precision":"range","address":"941 MARKET ST","state":"Ohio"},"type":"Feature","geometry":{"type":"Point","coordinates":[-82.979554,39.064074]}},{"properties":{"city":"PORTSMOUTH","zip":"45662","ospf area":"68","carrier":"att","router":"3745","bandwidth (mbps)":"1.5","county number":"73","county":"SCIOTO","geo_score":0.847,"routerid":"sciot01a","id":"a6rr4a6piive","geo_precision":"range","address":"710 COURT ST","state":"Ohio"},"type":"Feature","geometry":{"type":"Point","coordinates":[-83.000644,38.73581]}},{"properties":{"city":"PORTSMOUTH","zip":"45662","ospf area":"68","carrier":"att","router":"2610XM","bandwidth (mbps)":"1.5","county number":"73","county":"SCIOTO","geo_score":0.855,"routerid":"sciot03a","id":"a6rr4a65ofe6","geo_precision":"range","address":"433 3RD ST","state":"Ohio"},"type":"Feature","geometry":{"type":"Point","coordinates":[-83.004565,38.73256]}},{"properties":{"city":"SIDNEY","zip":"45365","ospf area":"92","carrier":"att","router":"3745","bandwidth (mbps)":"1.5","county number":"75","county":"SHELBY","geo_score":0.902,"routerid":"shelb01a","id":"a6rr4aecqm0n","geo_precision":"range","address":"227 S OHIO AVE","state":"Ohio"},"type":"Feature","geometry":{"type":"Point","coordinates":[-84.15664,40.284055]}},{"properties":{"city":"SPRINGDALE","zip":"45246","ospf area":"76","carrier":"att","router":"3725","bandwidth (mbps)":"6","county number":"31","county":"HAMILTON","geo_score":0.683,"routerid":"hamil09a","id":"a6rr4a3amtqv","geo_precision":"zip","address":"225 PICTORIA DR","state":"Ohio"},"type":"Feature","geometry":{"type":"Point","coordinates":[-84.485221,39.287002]}},{"properties":{"city":"SPRINGDALE","zip":"45246","ospf area":"76","carrier":"att","router":"3845","bandwidth (mbps)":"3","county number":"31","county":"HAMILTON","geo_score":0.683,"routerid":"hamil09b","id":"a6rr4a36rr9w","geo_precision":"zip","address":"225 PICTORIA DR","state":"Ohio"},"type":"Feature","geometry":{"type":"Point","coordinates":[-84.485221,39.287002]}},{"properties":{"city":"SPRINGDALE","zip":"45246","ospf area":"76","carrier":"att","router":"3845","bandwidth (mbps)":"1.5","county number":"31","county":"HAMILTON","geo_score":1.0,"routerid":"hamil11a","id":"a6rr4a84jz1w","geo_precision":"range","address":"110 BOGGS LN","state":"Ohio"},"type":"Feature","geometry":{"type":"Point","coordinates":[-84.470379,39.284554]}},{"properties":{"city":"SPRINGFIELD","zip":"45503","ospf area":"76","carrier":"att/twc","router":"3745","bandwidth (mbps)":"3/10","county number":"12","county":"CLARK","geo_score":0.798,"routerid":"(*a)clark02a","id":"a6rr4a7q2q9u","geo_precision":"range","address":"1345 LAGONDA AVE","state":"Ohio"},"type":"Feature","geometry":{"type":"Point","coordinates":[-83.788424,39.930938]}},{"properties":{"city":"SPRINGFIELD","zip":"45506","ospf area":"76","carrier":"att","router":"2610XM","bandwidth (mbps)":"1.5","county number":"12","county":"CLARK","geo_score":0.805,"routerid":"(*z)clark04a","id":"a6rr4a1er4y4","geo_precision":"range","address":"651 S LIMESTONE ST","state":"Ohio"},"type":"Feature","geometry":{"type":"Point","coordinates":[-83.809187,39.916654]}},{"properties":{"city":"ST CLAIRSVILLE","zip":"43950","ospf area":"112","carrier":"att","router":"3745","bandwidth (mbps)":"1.5","county number":"07","county":"BELMONT","geo_score":0.488,"routerid":"belmo02a","id":"a6rr4a9nuond","geo_precision":"street","address":"310 FOX SHANNON PL","state":"Ohio"},"type":"Feature","geometry":{"type":"Point","coordinates":[-80.791908,40.117292]}},{"properties":{"city":"STEUBENVILLE","zip":"43952","ospf area":"112","carrier":"att","router":"3745","bandwidth (mbps)":"1.5","county number":"41","county":"JEFFERSON","geo_score":0.829,"routerid":"jeffe01a","id":"a6rr4a0k91go","geo_precision":"range","address":"125 S 5TH ST","state":"Ohio"},"type":"Feature","geometry":{"type":"Point","coordinates":[-80.616751,40.359811]}},{"properties":{"city":"STEUBENVILLE","zip":"43952","ospf area":"112","carrier":"att","router":"2610XM","bandwidth (mbps)":"1.5","county number":"41","county":"JEFFERSON","geo_score":0.829,"routerid":"jeffe03a","id":"a6rr4a5ud3am","geo_precision":"range","address":"114 N 4TH ST","state":"Ohio"},"type":"Feature","geometry":{"type":"Point","coordinates":[-80.615153,40.360091]}},{"properties":{"city":"THE PLAINS","zip":"45780","ospf area":"64","carrier":"att","router":"3745","bandwidth (mbps)":"1.5","county number":"05","county":"ATHENS","geo_score":0.967,"routerid":"athen04a","id":"a6rr49ytjzsz","geo_precision":"range","address":"70 N PLAINS RD","state":"Ohio"},"type":"Feature","geometry":{"type":"Point","coordinates":[-82.131062,39.365421]}},{"properties":{"city":"THE PLAINS","zip":"45780","ospf area":"64","carrier":"att","router":"3745","bandwidth (mbps)":"1.5","county number":"05","county":"ATHENS","geo_score":0.967,"routerid":"athen05a","id":"a6rr4a7ex9d3","geo_precision":"range","address":"88 N PLAINS RD","state":"Ohio"},"type":"Feature","geometry":{"type":"Point","coordinates":[-82.130645,39.364117]}},{"properties":{"city":"THE PLAINS","zip":"45780","ospf area":"64","carrier":"att","router":"3845","bandwidth (mbps)":"1.5","county number":"05","county":"ATHENS","geo_score":0.967,"routerid":"athen05b","id":"a6rr4ad5cg72","geo_precision":"range","address":"88 N PLAINS RD","state":"Ohio"},"type":"Feature","geometry":{"type":"Point","coordinates":[-82.130645,39.364117]}},{"properties":{"city":"THE PLAINS","zip":"45780","ospf area":"64","carrier":"att","router":"3745","bandwidth (mbps)":"1.5","county number":"05","county":"ATHENS","geo_score":1.0,"routerid":"athen06a","id":"a6rr4a0d9srd","geo_precision":"range","address":"99 CONNETT RD","state":"Ohio"},"type":"Feature","geometry":{"type":"Point","coordinates":[-82.143841,39.371075]}},{"properties":{"city":"TIFFIN","zip":"44883","ospf area":"92","carrier":"att/twc","router":"3745","bandwidth (mbps)":"1.5/10","county number":"74","county":"SENECA","geo_score":0.878,"routerid":"senec01a","id":"a6rr4a73c4jx","geo_precision":"range","address":"3362 S INFIRMARY RD","state":"Ohio"},"type":"Feature","geometry":{"type":"Point","coordinates":[-83.150812,41.070715]}},{"properties":{"city":"TIFFIN","zip":"44883","ospf area":"92","carrier":"att","router":"3745","bandwidth (mbps)":"1.5","county number":"74","county":"SENECA","geo_score":0.902,"routerid":"senec03a","id":"a6rr4a03zatp","geo_precision":"range","address":"668 MIAMI ST","state":"Ohio"},"type":"Feature","geometry":{"type":"Point","coordinates":[-83.202861,41.116598]}},{"properties":{"city":"TIFFIN","zip":"44883","ospf area":"92","carrier":"att","router":"3845","bandwidth (mbps)":"1.5","county number":"74","county":"SENECA","geo_score":0.902,"routerid":"senec03b","id":"a6rr4a4kppgf","geo_precision":"range","address":"668 MIAMI ST","state":"Ohio"},"type":"Feature","geometry":{"type":"Point","coordinates":[-83.202861,41.116598]}},{"properties":{"city":"TOLEDO","zip":"43604","ospf area":"88","carrier":"att","router":"3745","bandwidth (mbps)":"3","county number":"48","county":"LUCAS","geo_score":1.0,"routerid":"lucas01a","id":"a6rr49zld4fa","geo_precision":"range","address":"701 ADAMS ST","state":"Ohio"},"type":"Feature","geometry":{"type":"Point","coordinates":[-83.536776,41.654053]}},{"properties":{"city":"TOLEDO","zip":"43606","ospf area":"88","carrier":"att","router":"3745","bandwidth (mbps)":"3","county number":"48","county":"LUCAS","geo_score":0.911,"routerid":"lucas02a","id":"a6rr4ad17cqe","geo_precision":"range","address":"3210 MONROE ST","state":"Ohio"},"type":"Feature","geometry":{"type":"Point","coordinates":[-83.574313,41.666558]}},{"properties":{"city":"TOLEDO","zip":"43604","ospf area":"88","carrier":"att","router":"2610XM","bandwidth (mbps)":"1.5","county number":"48","county":"LUCAS","geo_score":1.0,"routerid":"lucas03a","id":"a6rr4a6p1ti4","geo_precision":"range","address":"705 ADAMS ST","state":"Ohio"},"type":"Feature","geometry":{"type":"Point","coordinates":[-83.536806,41.654073]}},{"properties":{"city":"TOLEDO","zip":"43604","ospf area":"88","carrier":"att","router":"3745","bandwidth (mbps)":"1.5","county number":"48","county":"LUCAS","geo_score":1.0,"routerid":"lucas04a","id":"a6rr4a3csnhj","geo_precision":"range","address":"1301 MONROE ST","state":"Ohio"},"type":"Feature","geometry":{"type":"Point","coordinates":[-83.545234,41.652643]}},{"properties":{"city":"TOLEDO","zip":"43604","ospf area":"88","carrier":"att","router":"3845","bandwidth (mbps)":"1.5","county number":"48","county":"LUCAS","geo_score":0.902,"routerid":"lucas11a","id":"a6rr4a6m9rdf","geo_precision":"range","address":"1946 13TH ST","state":"Ohio"},"type":"Feature","geometry":{"type":"Point","coordinates":[-83.540935,41.660015]}},{"properties":{"city":"TOLEDO","zip":"43604","ospf area":null,"carrier":"EMPLOYEES","router":"FIND","bandwidth (mbps)":"CLOSED","county number":"48","county":"LUCAS","geo_score":0.585,"routerid":"toldo01a","id":"a6rr4adl9zh5","geo_precision":"range","address":"1 GOVERNMENT CENTER","state":"Ohio"},"type":"Feature","geometry":{"type":"Point","coordinates":[-83.558348,41.638346]}},{"properties":{"city":"TROY","zip":"45373","ospf area":"80","carrier":"att","router":"3745","bandwidth (mbps)":"1.5","county number":"55","county":"MIAMI","geo_score":0.927,"routerid":"miami01a","id":"a6rr4a21s7j5","geo_precision":"range","address":"2040 N COUNTY ROAD 25A","state":"Ohio"},"type":"Feature","geometry":{"type":"Point","coordinates":[-84.217026,40.07163]}},{"properties":{"city":"TROY","zip":"45373","ospf area":"80","carrier":"att","router":"3745","bandwidth (mbps)":"1.5","county number":"55","county":"MIAMI","geo_score":0.927,"routerid":"miami02a","id":"a6rr4a5gi4tt","geo_precision":"range","address":"510 W WATER ST","state":"Ohio"},"type":"Feature","geometry":{"type":"Point","coordinates":[-84.207395,40.042733]}},{"properties":{"city":"UPPER SANDUSKY","zip":"43351","ospf area":"92","carrier":"att","router":"3745","bandwidth (mbps)":"1.5","county number":"88","county":"WYANDOT","geo_score":0.902,"routerid":"wyand01a","id":"a6rr4a6n5f18","geo_precision":"range","address":"120 E JOHNSON ST","state":"Ohio"},"type":"Feature","geometry":{"type":"Point","coordinates":[-83.28113,40.826119]}},{"properties":{"city":"URBANA","zip":"43078","ospf area":"76","carrier":"att","router":"3745","bandwidth (mbps)":"1.5","county number":"11","county":"CHAMPAIGN","geo_score":0.708,"routerid":"champ01a","id":"a6rr4a0jb7up","geo_precision":"street","address":"1512 S MAIN ST","state":"Ohio"},"type":"Feature","geometry":{"type":"Point","coordinates":[-83.754233,40.09393]}},{"properties":{"city":"VAN WERT","zip":"45891","ospf area":"92","carrier":"att","router":"3745","bandwidth (mbps)":"1.5","county number":"81","county":"VAN WERT","geo_score":0.944,"routerid":"(*a)vanwe01a","id":"a6rr4acigzv0","geo_precision":"range","address":"114 E MAIN ST","state":"Ohio"},"type":"Feature","geometry":{"type":"Point","coordinates":[-84.582648,40.869646]}},{"properties":{"city":"VAN WERT","zip":"45890","ospf area":"92","carrier":"att","router":"2610XM","bandwidth (mbps)":"1.5","county number":"81","county":"VAN WERT","geo_score":0.944,"routerid":"(*z)vanwe02a","id":"a6rr4a48ycaq","geo_precision":"range","address":"120 W MAIN ST","state":"Ohio"},"type":"Feature","geometry":{"type":"Point","coordinates":[-83.481516,40.975922]}},{"properties":{"city":"WAPAKONETA","zip":"45895","ospf area":"88","carrier":"att","router":"3725","bandwidth (mbps)":"1.5","county number":"06","county":"AUGLAIZE","geo_score":0.922,"routerid":"(*a)augla01a","id":"a6rr4abj4ajj","geo_precision":"range","address":"12 N WOOD ST","state":"Ohio"},"type":"Feature","geometry":{"type":"Point","coordinates":[-84.18371,40.56997]}},{"properties":{"city":"WAPAKONETA","zip":"45895","ospf area":"88","carrier":"att","router":"2610XM","bandwidth (mbps)":"1.5","county number":"06","county":"AUGLAIZE","geo_score":0.922,"routerid":"(*z)augla02a","id":"a6rr4aboc4f7","geo_precision":"range","address":"801 MIDDLE ST","state":"Ohio"},"type":"Feature","geometry":{"type":"Point","coordinates":[-84.183708,40.569901]}},{"properties":{"city":"WARREN","zip":"44483","ospf area":"105","carrier":"att","router":"3745","bandwidth (mbps)":"1.5","county number":"78","county":"TRUMBULL","geo_score":0.732,"routerid":"trumb01a","id":"a6rr4acttxvl","geo_precision":"street","address":"160 HIGH ST NW","state":"Ohio"},"type":"Feature","geometry":{"type":"Point","coordinates":[-80.848496,41.300926]}},{"properties":{"city":"WARREN","zip":"44483","ospf area":"105","carrier":"att","router":"3745","bandwidth (mbps)":"1.5","county number":"78","county":"TRUMBULL","geo_score":0.927,"routerid":"trumb03a","id":"a6rr4aa1q259","geo_precision":"range","address":"2292 REEVES RD NE","state":"Ohio"},"type":"Feature","geometry":{"type":"Point","coordinates":[-80.786986,41.253335]}},{"properties":{"city":"WARREN","zip":"44483","ospf area":"105","carrier":"DF","router":"3750","bandwidth (mbps)":"1000","county number":"78","county":"TRUMBULL","geo_score":0.927,"routerid":"trumb03a'","id":"a6rr4a8kxjkn","geo_precision":"range","address":"2296 REEVES RD NE","state":"Ohio"},"type":"Feature","geometry":{"type":"Point","coordinates":[-80.78695,41.253336]}},{"properties":{"city":"WARREN","zip":"44483","ospf area":"105","carrier":"twc","router":"3745","bandwidth (mbps)":"100","county number":"78","county":"TRUMBULL","geo_score":0.732,"routerid":"trumb04a","id":"a6rr4a2ldm71","geo_precision":"street","address":"280 N PARK AVE","state":"Ohio"},"type":"Feature","geometry":{"type":"Point","coordinates":[-80.818203,41.241851]}},{"properties":{"city":"WASHINGTON COURT HOUSE","zip":"43160","ospf area":"80","carrier":"att","router":"3745","bandwidth (mbps)":"1.5","county number":"24","county":"FAYETTE","geo_score":0.927,"routerid":"fayet01a","id":"a6rr4a4snyig","geo_precision":"range","address":"133 S MAIN ST","state":"Ohio"},"type":"Feature","geometry":{"type":"Point","coordinates":[-83.439813,39.535585]}},{"properties":{"city":"WASHINGTON COURT HOUSE","zip":"43160","ospf area":"80","carrier":"att","router":"2610XM","bandwidth (mbps)":"1.5","county number":"24","county":"FAYETTE","geo_score":0.801,"routerid":"fayet03a","id":"a6rr4a5znbgu","geo_precision":"range","address":"1270 US 62","state":"Ohio"},"type":"Feature","geometry":{"type":"Point","coordinates":[-83.457164,39.52545]}},{"properties":{"city":"WAUSEON","zip":"43567","ospf area":"88","carrier":"att","router":"3745","bandwidth (mbps)":"1.5","county number":"26","county":"FULTON","geo_score":0.916,"routerid":"(*a,a')fulto01a","id":"a6rr4a8jb4fc","geo_precision":"range","address":"604 S SHOOP AVE","state":"Ohio"},"type":"Feature","geometry":{"type":"Point","coordinates":[-84.134287,41.540546]}},{"properties":{"city":"WAUSEON","zip":"43567","ospf area":"88","carrier":"att","router":"2610XM","bandwidth (mbps)":"1.5","county number":"26","county":"FULTON","geo_score":0.916,"routerid":"(*z)fulto02a","id":"a6rr4a12vwjq","geo_precision":"range","address":"210 S FULTON ST","state":"Ohio"},"type":"Feature","geometry":{"type":"Point","coordinates":[-84.140655,41.546144]}},{"properties":{"city":"WAUSEON","zip":"43567","ospf area":"88","carrier":"att","router":"2610XM","bandwidth (mbps)":"1.5","county number":"26","county":"FULTON","geo_score":0.376,"routerid":"(*z')fulto03a","id":"a6rr4a01hxvc","geo_precision":"street","address":"123 COURT HOUSE PLAZA","state":"Ohio"},"type":"Feature","geometry":{"type":"Point","coordinates":[-84.346566,41.279064]}},{"properties":{"city":"WAVERLY","zip":"45690","ospf area":"68","carrier":"att","router":"3745","bandwidth (mbps)":"1.5","county number":"66","county":"PIKE","geo_score":0.762,"routerid":"pike01a","id":"a6rr4a3ogj7m","geo_precision":"street","address":"230 COUNTY ROAD 49","state":"Ohio"},"type":"Feature","geometry":{"type":"Point","coordinates":[-83.006833,39.116276]}},{"properties":{"city":"WAVERLY","zip":"45690","ospf area":null,"carrier":"att","router":"3745","bandwidth (mbps)":"1.5","county number":"66","county":"PIKE","geo_score":0.955,"routerid":"pike03a","id":"a6rr4a95t7ur","geo_precision":"range","address":"525 WALNUT ST","state":"Ohio"},"type":"Feature","geometry":{"type":"Point","coordinates":[-82.982007,39.131859]}},{"properties":{"city":"WEST UNION","zip":"45693","ospf area":"76","carrier":"att","router":"3745","bandwidth (mbps)":"1.5","county number":"01","county":"ADAMS","geo_score":0.935,"routerid":"adams01a","id":"a6rr4a2aaben","geo_precision":"range","address":"482 RICE DR","state":"Ohio"},"type":"Feature","geometry":{"type":"Point","coordinates":[-83.563742,38.775329]}},{"properties":{"city":"WEST UNION","zip":"45693","ospf area":"76","carrier":"att","router":"3745","bandwidth (mbps)":"1.5","county number":"01","county":"ADAMS","geo_score":0.935,"routerid":"adams02a","id":"a6rr4a2pu3mo","geo_precision":"range","address":"300 N WILSON DR","state":"Ohio"},"type":"Feature","geometry":{"type":"Point","coordinates":[-83.536643,38.795158]}},{"properties":{"city":"WILMINGTON","zip":"45177","ospf area":"76","carrier":"att","router":"3745","bandwidth (mbps)":"3","county number":"14","county":"CLINTON","geo_score":0.795,"routerid":"clint01a","id":"a6rr4a2jn8o0","geo_precision":"range","address":"1025 S SOUTH ST","state":"Ohio"},"type":"Feature","geometry":{"type":"Point","coordinates":[-83.830317,39.43362]}},{"properties":{"city":"WINCHESTER","zip":"45697","ospf area":"76","carrier":"att","router":"2610XM","bandwidth (mbps)":"1.5","county number":"01","county":"ADAMS","geo_score":0.912,"routerid":"adams03a","id":"a6rr4a8cbr71","geo_precision":"range","address":"19211 MAIN ST","state":"Ohio"},"type":"Feature","geometry":{"type":"Point","coordinates":[-83.651412,38.941513]}},{"properties":{"city":"WOODSFIELD","zip":"43793","ospf area":"112","carrier":"att","router":"3745","bandwidth (mbps)":"1.5","county number":"56","county":"MONROE","geo_score":0.922,"routerid":"monro01a","id":"a6rr4a6jq67e","geo_precision":"range","address":"100 HOME AVE","state":"Ohio"},"type":"Feature","geometry":{"type":"Point","coordinates":[-81.108981,39.760142]}},{"properties":{"city":"XENIA","zip":"45385","ospf area":"76","carrier":"att/twc","router":"3745","bandwidth (mbps)":"3/10","county number":"29","county":"GREENE","geo_score":0.927,"routerid":"(*a,a')green01a","id":"a6rr4a6l4u4r","geo_precision":"range","address":"541 LEDBETTER RD","state":"Ohio"},"type":"Feature","geometry":{"type":"Point","coordinates":[-83.944292,39.667634]}},{"properties":{"city":"XENIA","zip":"45385","ospf area":"76","carrier":"DF","router":"3750","bandwidth (mbps)":"1000","county number":"29","county":"GREENE","geo_score":0.927,"routerid":"green01a'","id":"a6rr4a3vy4r2","geo_precision":"range","address":"581 LEDBETTER RD","state":"Ohio"},"type":"Feature","geometry":{"type":"Point","coordinates":[-83.944437,39.667658]}},{"properties":{"city":"XENIA","zip":"45385","ospf area":"76","carrier":"DF","router":"3750","bandwidth (mbps)":"1000","county number":"29","county":"GREENE","geo_score":0.927,"routerid":"green01a\"","id":"a6rr4a4fzl5h","geo_precision":"range","address":"601 LEDBETTER RD","state":"Ohio"},"type":"Feature","geometry":{"type":"Point","coordinates":[-83.94487,39.667701]}},{"properties":{"city":"ZANESVILLE","zip":"43701","ospf area":"116","carrier":"att","router":"3745","bandwidth (mbps)":"1.5","county number":"60","county":"MUSKINGUM","geo_score":0.488,"routerid":"muski01a","id":"a6rr4a4mhzpf","geo_precision":"street","address":"1830 E PIKE","state":"Ohio"},"type":"Feature","geometry":{"type":"Point","coordinates":[-81.744081,39.992891]}},{"properties":{"city":"ZANESVILLE","zip":"43701","ospf area":"116","carrier":"att","router":"3725","bandwidth (mbps)":"1.5","county number":"60","county":"MUSKINGUM","geo_score":0.902,"routerid":"muski02a","id":"a6rr4a9xc5pd","geo_precision":"range","address":"445 WOODLAWN AVE","state":"Ohio"},"type":"Feature","geometry":{"type":"Point","coordinates":[-82.008618,39.932325]}},{"properties":{"city":"ZANESVILLE","zip":"43701","ospf area":"116","carrier":"att","router":"3725","bandwidth (mbps)":"1.5","county number":"60","county":"MUSKINGUM","geo_score":0.805,"routerid":"muski03a","id":"a6rr4a6ulinx","geo_precision":"range","address":"205 N 7TH ST","state":"Ohio"},"type":"Feature","geometry":{"type":"Point","coordinates":[-82.003742,39.943435]}},{"properties":{"city":"ZANESVILLE","zip":"43701","ospf area":"116","carrier":"att","router":"3745","bandwidth (mbps)":"1.5","county number":"60","county":"MUSKINGUM","geo_score":0.805,"routerid":"muski04a","id":"a6rr4a76prye","geo_precision":"street","address":"4155 ROSEVILLE RD","state":"Ohio"},"type":"Feature","geometry":{"type":"Point","coordinates":[-82.063267,39.872941]}},{"properties":{"city":"ZANESVILLE","zip":"43701","ospf area":"116","carrier":"att","router":"2610XM","bandwidth (mbps)":"1.5","county number":"60","county":"MUSKINGUM","geo_score":0.902,"routerid":"muski05a","id":"a6rr4aegbd9s","geo_precision":"range","address":"503 MAIN ST","state":"Ohio"},"type":"Feature","geometry":{"type":"Point","coordinates":[-82.006477,39.940092]}}],"is_temporal":false,"author":{"url":"","metadata":"","contact_name":"","contact_address":"","source":"","contact_phone":""},"source":"","pagination":{"sort":null,"start":0,"total":222,"limit":1000000},"state":"complete","tags":"","published":"2014-08-13T03:13:56-04:00","id":173842}