{"type":"FeatureCollection","data_type":"Dataset","url_type":null,"permissions":[{"permissions":{"download":true,"view":true},"group_id":"everyone"}],"classification":null,"title":"Workbook2","count":17,"stream_id":174499,"contributor":{"url":"http://geocommons.com/users/22134","name":"aaronksaunders"},"data_attributes":null,"calculation_params":null,"icon_link":null,"link":"http://geocommons.com/overlays/174499.json","extent":[-104.943,30.227,-77.0276,39.7082],"geometry_types":["point"],"unique_name":null,"name":"Workbook2","feature_count":17,"description":"","next_feature":null,"is_raster":false,"short_classification":"Y","stats":{"stationno":{"max":741,"mean":144.647058823529,"variance":24188.9926470588,"stdev":155.528108864793,"min":101,"median":101}},"features":[{"properties":{"city":"Washington","zip":"20420","zipex":null,"region":"VA Central Office","facility":"Department of Veterans Affairs","geo_score":0.585,"type":"VA Central Offices","street address":"810 Vermont Ave NW","phone":null,"id":"a67j6bnz0mgq","geo_precision":"zip","state":"DC","stationno":101},"type":"Feature","geometry":{"type":"Point","coordinates":[-77.027648,38.903461]}},{"properties":{"city":"Washington","zip":"20420","zipex":null,"region":"VA Central Office","facility":"Veterans Health Administration","geo_score":0.857,"type":"VA Central Offices","street address":"810 Vermont Ave. NW","phone":"202-273-5400","id":"a67j6bliy6bp","geo_precision":"zip","state":"DC","stationno":101},"type":"Feature","geometry":{"type":"Point","coordinates":[-77.027648,38.903461]}},{"properties":{"city":"Washington","zip":"20420","zipex":null,"region":"VA Central Office","facility":"Veterans Benefits Administration","geo_score":0.857,"type":"VA Central Offices","street address":"810 Vermont Ave. NW","phone":null,"id":"a67j6bn9i5qr","geo_precision":"zip","state":"DC","stationno":101},"type":"Feature","geometry":{"type":"Point","coordinates":[-77.027648,38.903461]}},{"properties":{"city":"Washington","zip":"20420","zipex":null,"region":"VA Central Office","facility":"National Cemetery Administration","geo_score":0.857,"type":"VA Central Offices","street address":"810 Vermont Ave. NW","phone":null,"id":"a67j6bgyvuyw","geo_precision":"zip","state":"DC","stationno":101},"type":"Feature","geometry":{"type":"Point","coordinates":[-77.027648,38.903461]}},{"properties":{"city":"Washington","zip":"20420","zipex":null,"region":"VA Central Office","facility":"Office of Inspector General","geo_score":0.857,"type":"VA Central Offices","street address":"810 Vermont Ave. NW","phone":null,"id":"a67j6bo8yfiu","geo_precision":"zip","state":"DC","stationno":101},"type":"Feature","geometry":{"type":"Point","coordinates":[-77.027648,38.903461]}},{"properties":{"city":"Washington","zip":"20420","zipex":null,"region":"VA Central Office","facility":"Board of Contract Appeals","geo_score":0.857,"type":"VA Central Offices","street address":"810 Vermont Ave. NW","phone":null,"id":"a67j6buzbpwd","geo_precision":"zip","state":"DC","stationno":101},"type":"Feature","geometry":{"type":"Point","coordinates":[-77.027648,38.903461]}},{"properties":{"city":"Washington","zip":"20420","zipex":null,"region":"VA Central Office","facility":"Office of Small &amp; Disadvantaged Business Utilization","geo_score":0.857,"type":"VA Central Offices","street address":"810 Vermont Ave. NW","phone":null,"id":"a67j6bjco1ru","geo_precision":"zip","state":"DC","stationno":101},"type":"Feature","geometry":{"type":"Point","coordinates":[-77.027648,38.903461]}},{"properties":{"city":"Washington","zip":"20420","zipex":null,"region":"VA Central Office","facility":"Center for Minority Veterans","geo_score":0.857,"type":"VA Central Offices","street address":"810 Vermont Ave. NW","phone":null,"id":"a67j6bn1iz2i","geo_precision":"zip","state":"DC","stationno":101},"type":"Feature","geometry":{"type":"Point","coordinates":[-77.027648,38.903461]}},{"properties":{"city":"Washington","zip":"20420","zipex":null,"region":"VA Central Office","facility":"Office of Employment Discrimination Complaint Adjudication","geo_score":0.857,"type":"VA Central Offices","street address":"810 Vermont Ave. NW","phone":null,"id":"a67j6blksyzo","geo_precision":"zip","state":"DC","stationno":101},"type":"Feature","geometry":{"type":"Point","coordinates":[-77.027648,38.903461]}},{"properties":{"city":"Washington","zip":"20420","zipex":null,"region":"VA Central Office","facility":"Office of General Counsel","geo_score":0.857,"type":"VA Central Offices","street address":"810 Vermont Ave. NW","phone":null,"id":"a67j6bhqxzmw","geo_precision":"zip","state":"DC","stationno":101},"type":"Feature","geometry":{"type":"Point","coordinates":[-77.027648,38.903461]}},{"properties":{"city":"Washington","zip":"20420","zipex":null,"region":"VA Central Office","facility":"Board of Veterans' Appeals","geo_score":0.857,"type":"VA Central Offices","street address":"810 Vermont Ave. NW","phone":null,"id":"a67j6bkfgdw7","geo_precision":"zip","state":"DC","stationno":101},"type":"Feature","geometry":{"type":"Point","coordinates":[-77.027648,38.903461]}},{"properties":{"city":"Washington","zip":"20420","zipex":null,"region":"VA Central Office","facility":"Special Assistant to the Secretary for Veterans Service Organizations Liaison","geo_score":0.857,"type":"VA Central Offices","street address":"810 Vermont Ave. NW","phone":null,"id":"a67j6bp212dz","geo_precision":"zip","state":"DC","stationno":101},"type":"Feature","geometry":{"type":"Point","coordinates":[-77.027648,38.903461]}},{"properties":{"city":"Washington","zip":"20420","zipex":null,"region":"VA Central Office","facility":"Center for Women Veterans","geo_score":0.857,"type":"VA Central Offices","street address":"810 Vermont Ave. NW","phone":"800-827-1000","id":"a67j6brnin0s","geo_precision":"zip","state":"DC","stationno":101},"type":"Feature","geometry":{"type":"Point","coordinates":[-77.027648,38.903461]}},{"properties":{"city":null,"zip":null,"zipex":null,"region":"VA Central Office","facility":"Austin Automation Center","geo_score":0.0,"type":"VA Central Offices","street address":null,"phone":null,"id":"a67j6bj24hpv","geo_precision":"unmatched","state":null,"stationno":200},"type":"Feature","geometry":null},{"properties":{"city":"Denver","zip":"80209","zipex":null,"region":"VA Central Office","facility":"VA Health Administration Center, Denver","geo_score":0.861,"type":"VA Central Offices","street address":"3773 Cherry Creek North Drive","phone":"303-331-7500","id":"a67j6bq327o8","geo_precision":"range","state":"CO","stationno":741},"type":"Feature","geometry":{"type":"Point","coordinates":[-104.943303,39.708228]}},{"properties":{"city":"Austin","zip":"78772","zipex":null,"region":"VA Central Office","facility":"Austin, Financial Services Center","geo_score":0.429,"type":"VA Central Offices","street address":"1615 E. Woodward St.","phone":null,"id":"a67j6bpa0vtq","geo_precision":"street","state":"TX","stationno":104},"type":"Feature","geometry":{"type":"Point","coordinates":[-97.754584,30.226988]}},{"properties":{"city":"Washington","zip":"20005","zipex":null,"region":"VA Central Office","facility":"Office of Construction &amp; Facilities Management","geo_score":0.5,"type":"VA Central Offices","street address":"811 Vermont Ave NW, Rm 447 LAF","phone":"202-461-8009","id":"a67j6bih9bqs","geo_precision":"street","state":"DC","stationno":101},"type":"Feature","geometry":{"type":"Point","coordinates":[-77.033632,38.902518]}}],"is_temporal":false,"author":{"url":"","metadata":"","contact_name":"","contact_address":"","source":"","contact_phone":""},"source":"","pagination":{"sort":null,"start":0,"total":17,"limit":1000000},"state":"complete","tags":"","published":"2014-08-13T04:15:27-04:00","id":174499}