{"type":"FeatureCollection","data_type":"Dataset","url_type":null,"permissions":[{"permissions":{"download":true,"view":true},"group_id":"everyone"}],"classification":null,"title":"ODJFScountiesCNI","count":74,"stream_id":174405,"contributor":{"url":"http://geocommons.com/users/12008","name":"pantheon"},"data_attributes":null,"calculation_params":null,"icon_link":null,"link":"http://geocommons.com/overlays/174405.json","extent":[-84.6461,39.2204,-83.0405,41.5461],"geometry_types":["point"],"unique_name":null,"name":"ODJFScountiesCNI","feature_count":74,"description":"","next_feature":null,"is_raster":false,"short_classification":"Y","stats":{},"features":[{"properties":{"cni local broadband service partner":null,"city":"BEAVERCREEK","zip":"45432","carrier":"att","county":"GREENE","geo_score":0.805,"wire center":"BEAVERCREEK","cni middle mile network status":null,"id":"a6ckym8zk017","geo_precision":"range","address":"1312 RESEARCH PARK DR"},"type":"Feature","geometry":{"type":"Point","coordinates":[-84.06715,39.728861]}},{"properties":{"cni local broadband service partner":null,"city":"BEAVERCREEK","zip":"45434","carrier":"att","county":"GREENE","geo_score":0.777,"wire center":"BEAVERCREEK","cni middle mile network status":null,"id":"a6ckymez9wxf","geo_precision":"range","address":"658 S ALPHA RD"},"type":"Feature","geometry":{"type":"Point","coordinates":[-84.026252,39.707784]}},{"properties":{"cni local broadband service partner":null,"city":"BELLEFONTAINE","zip":"43311","carrier":"att","county":"LOGAN","geo_score":0.598,"wire center":"BELLEFONTAINE","cni middle mile network status":null,"id":"a6ckym71r6y4","geo_precision":"street","address":"211 E COLUMBUS ST"},"type":"Feature","geometry":{"type":"Point","coordinates":[-83.67754,40.337215]}},{"properties":{"cni local broadband service partner":null,"city":"BELLEFONTAINE","zip":"43311","carrier":"att","county":"LOGAN","geo_score":0.5,"wire center":"BELLEFONTAINE","cni middle mile network status":null,"id":"a6ckym5wsf5g","geo_precision":"street","address":"1855 OHIO 47 W"},"type":"Feature","geometry":{"type":"Point","coordinates":[-83.769121,40.373979]}},{"properties":{"cni local broadband service partner":"Bowling Green Municipal Electric","city":"BOWLING GREEN","zip":"43402","carrier":"att","county":"WOOD","geo_score":0.569,"wire center":"BOWLING GREEN","cni middle mile network status":"In Engineering Materials Due 2012Q1","id":"a6ckymfqeezh","geo_precision":"street","address":"1940 E GYPSY LANE RD"},"type":"Feature","geometry":{"type":"Point","coordinates":[-83.640119,41.356497]}},{"properties":{"cni local broadband service partner":"Bowling Green Municipal Electric","city":"BOWLING GREEN","zip":"43402","carrier":"att/twc","county":"WOOD","geo_score":0.569,"wire center":"BOWLING GREEN","cni middle mile network status":"In Engineering Materials Due 2012Q1","id":"a6ckym5huhzq","geo_precision":"street","address":"1928 E GYPSY LANE RD"},"type":"Feature","geometry":{"type":"Point","coordinates":[-83.640119,41.356497]}},{"properties":{"cni local broadband service partner":"Bowling Green Municipal Electric","city":"BOWLING GREEN","zip":"43402","carrier":"att","county":"WOOD","geo_score":0.415,"wire center":"BOWLING GREEN","cni middle mile network status":"In Engineering Materials Due 2012Q1","id":"a6ckym9b1uo5","geo_precision":"street","address":"1 COURT HOUSE SQUARE"},"type":"Feature","geometry":{"type":"Point","coordinates":[-83.050167,41.424085]}},{"properties":{"cni local broadband service partner":"Bowling Green Municipal Electric","city":"BOWLING GREEN","zip":"43402","carrier":"att","county":"WOOD","geo_score":0.813,"wire center":"BOWLING GREEN","cni middle mile network status":"In Engineering Materials Due 2012Q1","id":"a6ckym4bxbft","geo_precision":"range","address":"1234 N MAIN ST"},"type":"Feature","geometry":{"type":"Point","coordinates":[-83.65063,41.397879]}},{"properties":{"cni local broadband service partner":"Bowling Green Municipal Electric","city":"BOWLING GREEN","zip":"43402","carrier":"att","county":"WOOD","geo_score":0.813,"wire center":"BOWLING GREEN","cni middle mile network status":"In Engineering Materials Due 2012Q1","id":"a6ckymeijg7h","geo_precision":"range","address":"1234 N MAIN ST"},"type":"Feature","geometry":{"type":"Point","coordinates":[-83.65063,41.397879]}},{"properties":{"cni local broadband service partner":"Bryan Municipal Electric","city":"BRYAN","zip":"43506","carrier":"att","county":"WILLIAMS","geo_score":0.819,"wire center":"BRYAN","cni middle mile network status":"Existing","id":"a6ckym8auoe1","geo_precision":"range","address":"117 W BUTLER ST"},"type":"Feature","geometry":{"type":"Point","coordinates":[-84.551213,41.473296]}},{"properties":{"cni local broadband service partner":"Bryan Municipal Electric","city":"BRYAN","zip":"43506","carrier":"att","county":"WILLIAMS","geo_score":0.819,"wire center":"BRYAN","cni middle mile network status":"Existing","id":"a6ckym7jbayk","geo_precision":"range","address":"228 S MAIN ST"},"type":"Feature","geometry":{"type":"Point","coordinates":[-84.551041,41.472932]}},{"properties":{"cni local broadband service partner":null,"city":"CELINA","zip":"45822","carrier":"att","county":"MERCER","geo_score":0.805,"wire center":"CELINA","cni middle mile network status":null,"id":"a6ckymcbveac","geo_precision":"range","address":"220 W LIVINGSTON ST"},"type":"Feature","geometry":{"type":"Point","coordinates":[-84.57259,40.550009]}},{"properties":{"cni local broadband service partner":"Qualstar/RTEC","city":"DEFIANCE","zip":"43512","carrier":"att","county":"DEFIANCE","geo_score":0.817,"wire center":"DEFIANCE","cni middle mile network status":"Existing","id":"a6ckym8zs0yd","geo_precision":"range","address":"6879 EVANSPORT RD"},"type":"Feature","geometry":{"type":"Point","coordinates":[-84.418675,41.342608]}},{"properties":{"cni local broadband service partner":"Qualstar/RTEC","city":"DEFIANCE","zip":"43512","carrier":"twc","county":"DEFIANCE","geo_score":0.817,"wire center":"DEFIANCE","cni middle mile network status":"Existing","id":"a6ckym0xfafv","geo_precision":"range","address":"6879 EVANSPORT RD"},"type":"Feature","geometry":{"type":"Point","coordinates":[-84.418675,41.342608]}},{"properties":{"cni local broadband service partner":"Qualstar/RTEC","city":"DEFIANCE","zip":"43512","carrier":"att","county":"DEFIANCE","geo_score":0.72,"wire center":"DEFIANCE","cni middle mile network status":"Existing","id":"a6ckym24buh1","geo_precision":"range","address":"1933 E 2ND ST"},"type":"Feature","geometry":{"type":"Point","coordinates":[-84.3268,41.282566]}},{"properties":{"cni local broadband service partner":"Qualstar/RTEC","city":"DEFIANCE","zip":"43512","carrier":"att","county":"DEFIANCE","geo_score":0.692,"wire center":"DEFIANCE","cni middle mile network status":"Existing","id":"a6ckym5w8pef","geo_precision":"range","address":"500 COURT ST"},"type":"Feature","geometry":{"type":"Point","coordinates":[-84.360604,41.28673]}},{"properties":{"cni local broadband service partner":"Qualstar/RTEC","city":"DEFIANCE","zip":"43512","carrier":"att","county":"DEFIANCE","geo_score":0.72,"wire center":"DEFIANCE","cni middle mile network status":"Existing","id":"a6ckym12l22b","geo_precision":"range","address":"1300 E 2ND ST"},"type":"Feature","geometry":{"type":"Point","coordinates":[-84.341751,41.282768]}},{"properties":{"cni local broadband service partner":"Consolidated/IFN","city":"DELAWARE","zip":"43015","carrier":"att/twc","county":"DELAWARE","geo_score":0.824,"wire center":"DELWARE","cni middle mile network status":"Existing","id":"a6ckymagb4k2","geo_precision":"range","address":"140 N SANDUSKY ST"},"type":"Feature","geometry":{"type":"Point","coordinates":[-83.067391,40.303235]}},{"properties":{"cni local broadband service partner":"Consolidated/IFN","city":"DELAWARE","zip":"43015","carrier":"twc","county":"DELAWARE","geo_score":0.824,"wire center":"DELWARE","cni middle mile network status":"Existing","id":"a6ckym08bxku","geo_precision":"range","address":"140 N SANDUSKY ST"},"type":"Feature","geometry":{"type":"Point","coordinates":[-83.067391,40.303235]}},{"properties":{"cni local broadband service partner":"Consolidated/IFN","city":"DELAWARE","zip":"43015","carrier":"att","county":"DELAWARE","geo_score":0.824,"wire center":"CHESHIRE CENTER","cni middle mile network status":"Existing","id":"a6ckymfno5k6","geo_precision":"range","address":"4565 COLUMBUS PIKE"},"type":"Feature","geometry":{"type":"Point","coordinates":[-83.040448,40.231063]}},{"properties":{"cni local broadband service partner":"IFN","city":"EATON","zip":"45320","carrier":"att","county":"PREBLE","geo_score":0.837,"wire center":"EATON","cni middle mile network status":"2013Q1","id":"a6ckym5c6sq6","geo_precision":"range","address":"1500 PARK AVE"},"type":"Feature","geometry":{"type":"Point","coordinates":[-84.646118,39.758617]}},{"properties":{"cni local broadband service partner":null,"city":"FAIRFIELD","zip":"45014","carrier":"DF","county":"BUTLER","geo_score":0.805,"wire center":"HAMILTON","cni middle mile network status":null,"id":"a6ckym0j6bgo","geo_precision":"range","address":"4631 DIXIE HWY"},"type":"Feature","geometry":{"type":"Point","coordinates":[-84.542446,39.350806]}},{"properties":{"cni local broadband service partner":null,"city":"FINDLAY","zip":"45840","carrier":"att/twc","county":"HANCOCK","geo_score":0.817,"wire center":"FINDLAY","cni middle mile network status":"Build In-Progress","id":"a6ckymf60b02","geo_precision":"range","address":"7814 COUNTY ROAD 140"},"type":"Feature","geometry":{"type":"Point","coordinates":[-83.688395,41.05749]}},{"properties":{"cni local broadband service partner":null,"city":"FINDLAY","zip":"45840","carrier":"twc","county":"HANCOCK","geo_score":0.817,"wire center":"FINDLAY","cni middle mile network status":"Build In-Progress","id":"a6ckym9rozsc","geo_precision":"range","address":"7814 COUNTY ROAD 140"},"type":"Feature","geometry":{"type":"Point","coordinates":[-83.688395,41.05749]}},{"properties":{"cni local broadband service partner":"NKTelco","city":"FORT LORAMIE","zip":"45845","carrier":"att","county":"SHELBY","geo_score":0.61,"wire center":"FORT LORAMIE","cni middle mile network status":"Existing","id":"a6ckym9wlgxb","geo_precision":"range","address":"4040 OHIO 705"},"type":"Feature","geometry":{"type":"Point","coordinates":[-84.361613,40.345116]}},{"properties":{"cni local broadband service partner":"NKTelco","city":"FORT LORAMIE","zip":"45845","carrier":"att","county":"SHELBY","geo_score":0.61,"wire center":"FORT LORAMIE","cni middle mile network status":"Existing","id":"a6ckymczhuga","geo_precision":"range","address":"4040 OHIO 705"},"type":"Feature","geometry":{"type":"Point","coordinates":[-84.361613,40.345116]}},{"properties":{"cni local broadband service partner":"IFN","city":"GREENVILLE","zip":"45331","carrier":"att","county":"DARKE","geo_score":0.805,"wire center":"GREENVILLE","cni middle mile network status":"2013Q1","id":"a6ckym7u389p","geo_precision":"range","address":"603 WAGNER AVE"},"type":"Feature","geometry":{"type":"Point","coordinates":[-84.622343,40.117026]}},{"properties":{"cni local broadband service partner":null,"city":"HAMILTON","zip":"45013","carrier":"att","county":"BUTLER","geo_score":0.816,"wire center":"HAMILTON","cni middle mile network status":null,"id":"a6ckymc4ryx7","geo_precision":"range","address":"190 N BROOKWOOD AVE"},"type":"Feature","geometry":{"type":"Point","coordinates":[-84.584979,39.424174]}},{"properties":{"cni local broadband service partner":null,"city":"HAMILTON","zip":"45011","carrier":"att","county":"BUTLER","geo_score":0.821,"wire center":"HAMILTON","cni middle mile network status":null,"id":"a6ckymetifys","geo_precision":"range","address":"280 N FAIR AVE"},"type":"Feature","geometry":{"type":"Point","coordinates":[-84.541328,39.397428]}},{"properties":{"cni local broadband service partner":null,"city":"HAMILTON","zip":"45011","carrier":"att","county":"BUTLER","geo_score":0.821,"wire center":"HAMILTON","cni middle mile network status":null,"id":"a6ckymegv0y8","geo_precision":"range","address":"300 N FAIR AVE"},"type":"Feature","geometry":{"type":"Point","coordinates":[-84.540945,39.398489]}},{"properties":{"cni local broadband service partner":null,"city":"HAMILTON","zip":"45011","carrier":"twc","county":"BUTLER","geo_score":0.821,"wire center":"HAMILTON","cni middle mile network status":null,"id":"a6ckym0t7vba","geo_precision":"range","address":"315 HIGH ST"},"type":"Feature","geometry":{"type":"Point","coordinates":[-84.559959,39.399215]}},{"properties":{"cni local broadband service partner":"IFN","city":"KENTON","zip":"43326","carrier":"att","county":"HARDIN","geo_score":0.837,"wire center":"KENTON","cni middle mile network status":"Under Construction","id":"a6ckym509i3n","geo_precision":"range","address":"175 W FRANKLIN ST"},"type":"Feature","geometry":{"type":"Point","coordinates":[-83.608787,40.647202]}},{"properties":{"cni local broadband service partner":"IFN","city":"KENTON","zip":"43326","carrier":"att","county":"HARDIN","geo_score":0.796,"wire center":"KENTON","cni middle mile network status":"Under Construction","id":"a6ckym1hqb8n","geo_precision":"range","address":"1021 W LIMA ST"},"type":"Feature","geometry":{"type":"Point","coordinates":[-83.623998,40.651571]}},{"properties":{"cni local broadband service partner":null,"city":"LAKEVIEW","zip":"43331","carrier":"att","county":"LOGAN","geo_score":0.733,"wire center":"RUSSELLS POINT","cni middle mile network status":null,"id":"a6ckym3jqa0u","geo_precision":"range","address":"13976 IRONWOOD ST"},"type":"Feature","geometry":{"type":"Point","coordinates":[-83.884016,40.516507]}},{"properties":{"cni local broadband service partner":null,"city":"LEBANON","zip":"45036","carrier":"att","county":"WARREN","geo_score":0.815,"wire center":"LEBANON","cni middle mile network status":null,"id":"a6ckym51zaq8","geo_precision":"range","address":"500 JUSTICE DR"},"type":"Feature","geometry":{"type":"Point","coordinates":[-84.20026,39.423856]}},{"properties":{"cni local broadband service partner":null,"city":"LEBANON","zip":"45036","carrier":"att","county":"WARREN","geo_score":0.689,"wire center":"LEBANON","cni middle mile network status":null,"id":"a6ckymboaeqo","geo_precision":"range","address":"400 S EAST ST"},"type":"Feature","geometry":{"type":"Point","coordinates":[-84.204759,39.42695]}},{"properties":{"cni local broadband service partner":null,"city":"LEBANON","zip":"45036","carrier":"att","county":"WARREN","geo_score":0.815,"wire center":"LEBANON","cni middle mile network status":null,"id":"a6ckymevsbo9","geo_precision":"range","address":"300 E SILVER ST"},"type":"Feature","geometry":{"type":"Point","coordinates":[-84.20373,39.435212]}},{"properties":{"cni local broadband service partner":"TSC","city":"LIMA","zip":"45801","carrier":"att","county":"ALLEN","geo_score":0.817,"wire center":"LIMA","cni middle mile network status":"Existing","id":"a6ckym6etlia","geo_precision":"range","address":"200 W MARKET ST"},"type":"Feature","geometry":{"type":"Point","coordinates":[-84.106809,40.740023]}},{"properties":{"cni local broadband service partner":"TSC","city":"LIMA","zip":"45804","carrier":"att","county":"ALLEN","geo_score":0.902,"wire center":"LIMA","cni middle mile network status":"Existing","id":"a6ckymawm3ft","geo_precision":"range","address":"1501 S DIXIE HWY"},"type":"Feature","geometry":{"type":"Point","coordinates":[-84.115555,40.714809]}},{"properties":{"cni local broadband service partner":"TSC","city":"LIMA","zip":"45801","carrier":"att","county":"ALLEN","geo_score":0.817,"wire center":"LIMA","cni middle mile network status":"Existing","id":"a6ckymaa4s2j","geo_precision":"range","address":"123 W SPRING ST"},"type":"Feature","geometry":{"type":"Point","coordinates":[-84.105313,40.738611]}},{"properties":{"cni local broadband service partner":"TSC","city":"LIMA","zip":"45801","carrier":"att","county":"ALLEN","geo_score":0.817,"wire center":"LIMA","cni middle mile network status":"Existing","id":"a6ckymaws5r8","geo_precision":"range","address":"799 N MAIN ST"},"type":"Feature","geometry":{"type":"Point","coordinates":[-84.104951,40.750932]}},{"properties":{"cni local broadband service partner":"TSC","city":"LIMA","zip":"45801","carrier":"att","county":"ALLEN","geo_score":0.817,"wire center":"LIMA","cni middle mile network status":"Existing","id":"a6ckym3sfyma","geo_precision":"range","address":"799 N MAIN ST"},"type":"Feature","geometry":{"type":"Point","coordinates":[-84.104951,40.750932]}},{"properties":{"cni local broadband service partner":null,"city":"LONDON","zip":"43140","carrier":"att","county":"MADISON","geo_score":0.813,"wire center":"LONDON","cni middle mile network status":null,"id":"a6ckym7x7f67","geo_precision":"range","address":"200 MIDWAY ST"},"type":"Feature","geometry":{"type":"Point","coordinates":[-83.456001,39.8769]}},{"properties":{"cni local broadband service partner":null,"city":"LOVELAND","zip":"45140","carrier":"DF","county":"BUTLER","geo_score":0.805,"wire center":"LITTLE MIAMI","cni middle mile network status":null,"id":"a6ckymfb370t","geo_precision":"range","address":"420 WARDS CORNER RD"},"type":"Feature","geometry":{"type":"Point","coordinates":[-84.289873,39.220422]}},{"properties":{"cni local broadband service partner":null,"city":"MARYSVILLE","zip":"43040","carrier":"att","county":"UNION","geo_score":0.824,"wire center":"MARYSVILLE","cni middle mile network status":null,"id":"a6ckymdsuo8r","geo_precision":"range","address":"940 LONDON AVE"},"type":"Feature","geometry":{"type":"Point","coordinates":[-83.371451,40.224097]}},{"properties":{"cni local broadband service partner":null,"city":"MIDDLETOWN","zip":"45044","carrier":"DF","county":"BUTLER","geo_score":0.824,"wire center":"MIDDLETOWN","cni middle mile network status":null,"id":"a6ckym9xuslv","geo_precision":"range","address":"1001 GROVE ST"},"type":"Feature","geometry":{"type":"Point","coordinates":[-84.401438,39.505419]}},{"properties":{"cni local broadband service partner":null,"city":"MIDDLETOWN","zip":"45042","carrier":"DF","county":"BUTLER","geo_score":0.493,"wire center":"MIDDLETOWN","cni middle mile network status":null,"id":"a6ckyma0o4l0","geo_precision":"street","address":"1021 CENTRAL AVE"},"type":"Feature","geometry":{"type":"Point","coordinates":[-84.430686,39.503681]}},{"properties":{"cni local broadband service partner":"Farmers-North/RTEC","city":"NAPOLEON","zip":"43545","carrier":"att","county":"HENRY","geo_score":0.817,"wire center":"NAPOLEON","cni middle mile network status":"Existing","id":"a6ckym2cxvdq","geo_precision":"range","address":"1809 OAKWOOD AVE"},"type":"Feature","geometry":{"type":"Point","coordinates":[-84.119437,41.411087]}},{"properties":{"cni local broadband service partner":"Farmers-North/RTEC","city":"NAPOLEON","zip":"43545","carrier":"att","county":"HENRY","geo_score":0.817,"wire center":"NAPOLEON","cni middle mile network status":"Existing","id":"a6ckym4meb1h","geo_precision":"range","address":"140 E WASHINGTON ST"},"type":"Feature","geometry":{"type":"Point","coordinates":[-84.124184,41.391317]}},{"properties":{"cni local broadband service partner":"Glandorf","city":"OTTAWA","zip":"45875","carrier":"att","county":"PUTNAM","geo_score":0.715,"wire center":"OTTAWA","cni middle mile network status":"Existing","id":"a6ckymachn65","geo_precision":"range","address":"1225 E 3RD ST"},"type":"Feature","geometry":{"type":"Point","coordinates":[-84.034065,41.020386]}},{"properties":{"cni local broadband service partner":"Qualstar","city":"PAULDING","zip":"45879","carrier":"att","county":"PAULDING","geo_score":0.805,"wire center":"PAULDING","cni middle mile network status":"Complete","id":"a6ckymfua188","geo_precision":"range","address":"201 E CAROLINE ST"},"type":"Feature","geometry":{"type":"Point","coordinates":[-84.579514,41.139244]}},{"properties":{"cni local broadband service partner":"Qualstar","city":"PAULDING","zip":"45879","carrier":"att","county":"PAULDING","geo_score":0.805,"wire center":"PAULDING","cni middle mile network status":"Complete","id":"a6ckym2tlh0q","geo_precision":"range","address":"303 W HARRISON ST"},"type":"Feature","geometry":{"type":"Point","coordinates":[-84.583245,41.136345]}},{"properties":{"cni local broadband service partner":"Qualstar","city":"PAULDING","zip":"45879","carrier":"att","county":"PAULDING","geo_score":0.617,"wire center":"PAULDING","cni middle mile network status":"Complete","id":"a6ckymg8ovhb","geo_precision":"street","address":"250 DOOLEY DR"},"type":"Feature","geometry":{"type":"Point","coordinates":[-84.573442,41.150003]}},{"properties":{"cni local broadband service partner":"NKTelco","city":"SIDNEY","zip":"45365","carrier":"att","county":"SHELBY","geo_score":0.805,"wire center":"SIDNEY","cni middle mile network status":"Existing","id":"a6ckym8qlfuj","geo_precision":"range","address":"227 S OHIO AVE"},"type":"Feature","geometry":{"type":"Point","coordinates":[-84.15664,40.284055]}},{"properties":{"cni local broadband service partner":null,"city":"SPRINGFIELD","zip":"45503","carrier":"att/twc","county":"CLARK","geo_score":0.701,"wire center":"SPRINGFIELD","cni middle mile network status":null,"id":"a6ckym08b2lo","geo_precision":"range","address":"1345 LAGONDA AVE"},"type":"Feature","geometry":{"type":"Point","coordinates":[-83.788424,39.930938]}},{"properties":{"cni local broadband service partner":null,"city":"SPRINGFIELD","zip":"45506","carrier":"att","county":"CLARK","geo_score":0.805,"wire center":"SPRINGFIELD","cni middle mile network status":null,"id":"a6ckymg1hk7k","geo_precision":"range","address":"651 S LIMESTONE ST"},"type":"Feature","geometry":{"type":"Point","coordinates":[-83.809187,39.916654]}},{"properties":{"cni local broadband service partner":"Bascom","city":"TIFFIN","zip":"44883","carrier":"att/twc","county":"SENECA","geo_score":0.78,"wire center":"TIFFIN","cni middle mile network status":"Existing","id":"a6ckym45r5fi","geo_precision":"range","address":"3362 S INFIRMARY RD"},"type":"Feature","geometry":{"type":"Point","coordinates":[-83.150812,41.070715]}},{"properties":{"cni local broadband service partner":"Bascom","city":"TIFFIN","zip":"44883","carrier":"att","county":"SENECA","geo_score":0.805,"wire center":"TIFFIN","cni middle mile network status":"Existing","id":"a6ckym1jweqx","geo_precision":"range","address":"668 MIAMI ST"},"type":"Feature","geometry":{"type":"Point","coordinates":[-83.202861,41.116598]}},{"properties":{"cni local broadband service partner":"Bascom","city":"TIFFIN","zip":"44883","carrier":"att","county":"SENECA","geo_score":0.805,"wire center":"TIFFIN","cni middle mile network status":"Existing","id":"a6ckym0609lr","geo_precision":"range","address":"668 MIAMI ST"},"type":"Feature","geometry":{"type":"Point","coordinates":[-83.202861,41.116598]}},{"properties":{"cni local broadband service partner":"IFN","city":"TROY","zip":"45373","carrier":"att","county":"MIAMI","geo_score":0.829,"wire center":"TROY","cni middle mile network status":"Engineering - Materials 2012 Q1","id":"a6ckym1cbr5o","geo_precision":"range","address":"2040 N COUNTY ROAD 25A"},"type":"Feature","geometry":{"type":"Point","coordinates":[-84.217026,40.07163]}},{"properties":{"cni local broadband service partner":"IFN","city":"TROY","zip":"45373","carrier":"att","county":"MIAMI","geo_score":0.829,"wire center":"TROY","cni middle mile network status":"Engineering - Materials 2012 Q1","id":"a6ckym2z8swz","geo_precision":"range","address":"510 W WATER ST"},"type":"Feature","geometry":{"type":"Point","coordinates":[-84.207395,40.042733]}},{"properties":{"cni local broadband service partner":"Sycamore","city":"UPPER SANDUSKY","zip":"43351","carrier":"att","county":"WYANDOT","geo_score":0.805,"wire center":"UPPER SANDUSKY","cni middle mile network status":"Under Construction","id":"a6ckymchd9mk","geo_precision":"range","address":"120 E JOHNSON ST"},"type":"Feature","geometry":{"type":"Point","coordinates":[-83.28113,40.826119]}},{"properties":{"cni local broadband service partner":"CTC","city":"URBANA","zip":"43078","carrier":"att","county":"CHAMPAIGN","geo_score":0.61,"wire center":"URBANA","cni middle mile network status":"Under Construction","id":"a6ckymeis5z0","geo_precision":"street","address":"1512 S MAIN ST"},"type":"Feature","geometry":{"type":"Point","coordinates":[-83.754233,40.09393]}},{"properties":{"cni local broadband service partner":"NWNet/Middle Point","city":"VAN WERT","zip":"45891","carrier":"att","county":"VAN WERT","geo_score":0.847,"wire center":"VAN WERT","cni middle mile network status":"Existing","id":"a6ckym3kr17n","geo_precision":"range","address":"114 E MAIN ST"},"type":"Feature","geometry":{"type":"Point","coordinates":[-84.582648,40.869646]}},{"properties":{"cni local broadband service partner":"NWNet/Middle Point","city":"VAN WERT","zip":"45890","carrier":"att","county":"VAN WERT","geo_score":0.847,"wire center":"VAN WERT","cni middle mile network status":"Existing","id":"a6ckyme902c0","geo_precision":"range","address":"120 W MAIN ST"},"type":"Feature","geometry":{"type":"Point","coordinates":[-83.481516,40.975922]}},{"properties":{"cni local broadband service partner":"TSC","city":"WAPAKONETA","zip":"45895","carrier":"att","county":"AUGLAIZE","geo_score":0.824,"wire center":"WAPAKONETA","cni middle mile network status":"Existing","id":"a6ckym7fglse","geo_precision":"range","address":"12 N WOOD ST"},"type":"Feature","geometry":{"type":"Point","coordinates":[-84.18371,40.56997]}},{"properties":{"cni local broadband service partner":"TSC","city":"WAPAKONETA","zip":"45895","carrier":"att","county":"AUGLAIZE","geo_score":0.824,"wire center":"WAPAKONETA","cni middle mile network status":"Existing","id":"a6ckym8u5645","geo_precision":"range","address":"801 MIDDLE ST"},"type":"Feature","geometry":{"type":"Point","coordinates":[-84.183708,40.569901]}},{"properties":{"cni local broadband service partner":"RTEC","city":"WAUSEON","zip":"43567","carrier":"att","county":"FULTON","geo_score":0.819,"wire center":"WAUSEON","cni middle mile network status":"Existing","id":"a6ckym68ggg5","geo_precision":"range","address":"604 S SHOOP AVE"},"type":"Feature","geometry":{"type":"Point","coordinates":[-84.134287,41.540546]}},{"properties":{"cni local broadband service partner":"RTEC","city":"WAUSEON","zip":"43567","carrier":"att","county":"FULTON","geo_score":0.819,"wire center":"WAUSEON","cni middle mile network status":"Existing","id":"a6ckymfc60o5","geo_precision":"range","address":"210 S FULTON ST"},"type":"Feature","geometry":{"type":"Point","coordinates":[-84.140655,41.546144]}},{"properties":{"cni local broadband service partner":"RTEC","city":"WAUSEON","zip":"43567","carrier":"att","county":"FULTON","geo_score":0.376,"wire center":"WAUSEON","cni middle mile network status":"Existing","id":"a6ckym6pykbo","geo_precision":"street","address":"123 COURT HOUSE PLAZA"},"type":"Feature","geometry":{"type":"Point","coordinates":[-84.346566,41.279064]}},{"properties":{"cni local broadband service partner":null,"city":"WILMINGTON","zip":"45177","carrier":"att","county":"CLINTON","geo_score":0.698,"wire center":"WILMINGTON","cni middle mile network status":null,"id":"a6ckym2r1inr","geo_precision":"range","address":"1025 S SOUTH ST"},"type":"Feature","geometry":{"type":"Point","coordinates":[-83.830317,39.43362]}},{"properties":{"cni local broadband service partner":null,"city":"XENIA","zip":"45385","carrier":"att/twc","county":"GREENE","geo_score":0.829,"wire center":"XENIA","cni middle mile network status":null,"id":"a6ckymb9th4l","geo_precision":"range","address":"541 LEDBETTER RD"},"type":"Feature","geometry":{"type":"Point","coordinates":[-83.944292,39.667634]}},{"properties":{"cni local broadband service partner":null,"city":"XENIA","zip":"45385","carrier":"DF","county":"GREENE","geo_score":0.829,"wire center":"XENIA","cni middle mile network status":null,"id":"a6ckym6nrxdv","geo_precision":"range","address":"581 LEDBETTER RD"},"type":"Feature","geometry":{"type":"Point","coordinates":[-83.944437,39.667658]}},{"properties":{"cni local broadband service partner":null,"city":"XENIA","zip":"45385","carrier":"DF","county":"GREENE","geo_score":0.829,"wire center":"XENIA","cni middle mile network status":null,"id":"a6ckym5bzmg2","geo_precision":"range","address":"601 LEDBETTER RD"},"type":"Feature","geometry":{"type":"Point","coordinates":[-83.94487,39.667701]}}],"is_temporal":false,"author":{"url":"","metadata":"","contact_name":"","contact_address":"","source":"","contact_phone":""},"source":"","pagination":{"sort":null,"start":0,"total":74,"limit":1000000},"state":"complete","tags":"","published":"2014-08-13T04:07:43-04:00","id":174405}