{"type":"FeatureCollection","data_type":"Dataset","url_type":null,"permissions":[{"permissions":{"download":true,"view":true},"group_id":"everyone"}],"classification":null,"title":"ABATED1","count":246,"stream_id":174946,"contributor":{"url":"http://geocommons.com/users/35384","name":"aolding"},"data_attributes":null,"calculation_params":null,"icon_link":null,"link":"http://geocommons.com/overlays/174946.json","extent":[-91.2379,38.1279,-90.2642,38.8273],"geometry_types":["point"],"unique_name":null,"name":"ABATED1","feature_count":246,"description":"","next_feature":null,"is_raster":false,"short_classification":"Y","stats":{},"features":[{"properties":{"geo_score":0.475,"id":"a6koqy0k0fjf","geo_precision":"street","address":"503 N BOONVILLE AVE, SPRINGFIELD, MO"},"type":"Feature","geometry":{"type":"Point","coordinates":[-90.372354,38.793547]}},{"properties":{"geo_score":0.512,"id":"a6koqxvku5xy","geo_precision":"street","address":"221 W PHELPS ST, SPRINGFIELD, MO"},"type":"Feature","geometry":{"type":"Point","coordinates":[-90.41954,38.758732]}},{"properties":{"geo_score":0.512,"id":"a6koqy6x7uxe","geo_precision":"street","address":"212 W PHELPS ST, SPRINGFIELD, MO"},"type":"Feature","geometry":{"type":"Point","coordinates":[-90.41954,38.758732]}},{"properties":{"geo_score":0.475,"id":"a6koqy8taknl","geo_precision":"street","address":"429 N BOONVILLE AVE, SPRINGFIELD, MO"},"type":"Feature","geometry":{"type":"Point","coordinates":[-90.372354,38.793547]}},{"properties":{"geo_score":0.622,"id":"a6koqy9f2vee","geo_precision":"street","address":"327 W MILL ST, SPRINGFIELD, MO"},"type":"Feature","geometry":{"type":"Point","coordinates":[-91.163801,38.206272]}},{"properties":{"geo_score":0.622,"id":"a6koqy6nwtza","geo_precision":"street","address":"309 W MILL ST, SPRINGFIELD, MO"},"type":"Feature","geometry":{"type":"Point","coordinates":[-91.163801,38.206272]}},{"properties":{"geo_score":0.415,"id":"a6koqy4p258x","geo_precision":"street","address":"420-440 N CAMPBELL AVE, SPRINGFIELD, MO"},"type":"Feature","geometry":{"type":"Point","coordinates":[-90.51643,38.17902]}},{"properties":{"geo_score":0.512,"id":"a6koqy5mbq4a","geo_precision":"street","address":"212 W PHELPS ST, SPRINGFIELD, MO"},"type":"Feature","geometry":{"type":"Point","coordinates":[-90.41954,38.758732]}},{"properties":{"geo_score":0.512,"id":"a6koqy77qfac","geo_precision":"street","address":"420 N CAMPBELL AVE, SPRINGFIELD, MO"},"type":"Feature","geometry":{"type":"Point","coordinates":[-90.51643,38.17902]}},{"properties":{"geo_score":0.622,"id":"a6koqy7h7xa1","geo_precision":"street","address":"215 W MILL ST, SPRINGFIELD, MO"},"type":"Feature","geometry":{"type":"Point","coordinates":[-91.163801,38.206272]}},{"properties":{"geo_score":0.525,"id":"a6koqxyarodh","geo_precision":"street","address":"225-305 W MILL ST, SPRINGFIELD, MO"},"type":"Feature","geometry":{"type":"Point","coordinates":[-91.163801,38.206272]}},{"properties":{"geo_score":0.512,"id":"a6koqy736mly","geo_precision":"city","address":"601 N NATIONAL AVE, SPRINGFIELD, MO"},"type":"Feature","geometry":{"type":"Point","coordinates":[-91.237925,38.295605]}},{"properties":{"geo_score":0.512,"id":"a6koqy55oycw","geo_precision":"city","address":"601 N NATIONAL AVE, SPRINGFIELD, MO"},"type":"Feature","geometry":{"type":"Point","coordinates":[-91.237925,38.295605]}},{"properties":{"geo_score":0.512,"id":"a6koqy65aknr","geo_precision":"city","address":"601 N NATIONAL AVE, SPRINGFIELD, MO"},"type":"Feature","geometry":{"type":"Point","coordinates":[-91.237925,38.295605]}},{"properties":{"geo_score":0.512,"id":"a6koqy7cv3lj","geo_precision":"city","address":"601 N NATIONAL AVE, SPRINGFIELD, MO"},"type":"Feature","geometry":{"type":"Point","coordinates":[-91.237925,38.295605]}},{"properties":{"geo_score":0.512,"id":"a6koqy6w7p8w","geo_precision":"city","address":"601 N NATIONAL AVE, SPRINGFIELD, MO"},"type":"Feature","geometry":{"type":"Point","coordinates":[-91.237925,38.295605]}},{"properties":{"geo_score":0.512,"id":"a6koqxxqoovg","geo_precision":"city","address":"601 N NATIONAL AVE, SPRINGFIELD, MO"},"type":"Feature","geometry":{"type":"Point","coordinates":[-91.237925,38.295605]}},{"properties":{"geo_score":0.512,"id":"a6koqxvxibv9","geo_precision":"city","address":"601 N NATIONAL AVE, SPRINGFIELD, MO"},"type":"Feature","geometry":{"type":"Point","coordinates":[-91.237925,38.295605]}},{"properties":{"geo_score":0.512,"id":"a6koqxwswf0r","geo_precision":"city","address":"601 N NATIONAL AVE, SPRINGFIELD,MO"},"type":"Feature","geometry":{"type":"Point","coordinates":[-91.237925,38.295605]}},{"properties":{"geo_score":0.512,"id":"a6koqxyn9fdo","geo_precision":"city","address":"601 N NATIONAL AVE, SPRINGFIELD,MO"},"type":"Feature","geometry":{"type":"Point","coordinates":[-91.237925,38.295605]}},{"properties":{"geo_score":0.512,"id":"a6koqxyotsut","geo_precision":"city","address":"601 N NATIONAL AVE, SPRINGFIELD,MO"},"type":"Feature","geometry":{"type":"Point","coordinates":[-91.237925,38.295605]}},{"properties":{"geo_score":0.512,"id":"a6koqy0cmcvb","geo_precision":"city","address":"601 N NATIONAL AVE, SPRINGFIELD,MO"},"type":"Feature","geometry":{"type":"Point","coordinates":[-91.237925,38.295605]}},{"properties":{"geo_score":0.512,"id":"a6koqy65id8w","geo_precision":"city","address":"601 N NATIONAL AVE, SPRINGFIELD,MO"},"type":"Feature","geometry":{"type":"Point","coordinates":[-91.237925,38.295605]}},{"properties":{"geo_score":0.512,"id":"a6koqy075xdb","geo_precision":"city","address":"601 N NATIONAL AVE, SPRINGFIELD,MO"},"type":"Feature","geometry":{"type":"Point","coordinates":[-91.237925,38.295605]}},{"properties":{"geo_score":0.512,"id":"a6koqy8brihj","geo_precision":"city","address":"601 N NATIONAL AVE, SPRINGFIELD,MO"},"type":"Feature","geometry":{"type":"Point","coordinates":[-91.237925,38.295605]}},{"properties":{"geo_score":0.512,"id":"a6koqy5kwn0s","geo_precision":"city","address":"601 N NATIONAL AVE, SPRINGFIELD,MO"},"type":"Feature","geometry":{"type":"Point","coordinates":[-91.237925,38.295605]}},{"properties":{"geo_score":0.512,"id":"a6koqy952j3b","geo_precision":"city","address":"601 N NATIONAL AVE, SPRINGFIELD,MO"},"type":"Feature","geometry":{"type":"Point","coordinates":[-91.237925,38.295605]}},{"properties":{"geo_score":0.512,"id":"a6koqybar918","geo_precision":"city","address":"601 N NATIONAL AVE, SPRINGFIELD,MO"},"type":"Feature","geometry":{"type":"Point","coordinates":[-91.237925,38.295605]}},{"properties":{"geo_score":0.512,"id":"a6koqy6almxa","geo_precision":"city","address":"601 N NATIONAL AVE, SPRINGFIELD,MO"},"type":"Feature","geometry":{"type":"Point","coordinates":[-91.237925,38.295605]}},{"properties":{"geo_score":0.512,"id":"a6koqxyq00or","geo_precision":"city","address":"601 N NATIONAL AVE, SPRINGFIELD,MO"},"type":"Feature","geometry":{"type":"Point","coordinates":[-91.237925,38.295605]}},{"properties":{"geo_score":0.512,"id":"a6koqy7iuzzx","geo_precision":"city","address":"601 N NATIONAL AVE, SPRINGFIELD,MO"},"type":"Feature","geometry":{"type":"Point","coordinates":[-91.237925,38.295605]}},{"properties":{"geo_score":0.512,"id":"a6koqxzp6mqb","geo_precision":"city","address":"601 N NATIONAL AVE, SPRINGFIELD,MO"},"type":"Feature","geometry":{"type":"Point","coordinates":[-91.237925,38.295605]}},{"properties":{"geo_score":0.512,"id":"a6koqxy304rf","geo_precision":"city","address":"601 N NATIONAL AVE, SPRINGFIELD,MO"},"type":"Feature","geometry":{"type":"Point","coordinates":[-91.237925,38.295605]}},{"properties":{"geo_score":0.512,"id":"a6koqy5tlq22","geo_precision":"city","address":"601 N NATIONAL AVE, SPRINGFIELD,MO"},"type":"Feature","geometry":{"type":"Point","coordinates":[-91.237925,38.295605]}},{"properties":{"geo_score":0.512,"id":"a6koqy99bgu8","geo_precision":"city","address":"601 N NATIONAL AVE, SPRINGFIELD,MO"},"type":"Feature","geometry":{"type":"Point","coordinates":[-91.237925,38.295605]}},{"properties":{"geo_score":0.512,"id":"a6koqy3ufg4w","geo_precision":"city","address":"601 N NATIONAL AVE, SPRINGFIELD,MO"},"type":"Feature","geometry":{"type":"Point","coordinates":[-91.237925,38.295605]}},{"properties":{"geo_score":0.512,"id":"a6koqy06ug18","geo_precision":"city","address":"601 N NATIONAL AVE, SPRINGFIELD,MO"},"type":"Feature","geometry":{"type":"Point","coordinates":[-91.237925,38.295605]}},{"properties":{"geo_score":0.512,"id":"a6koqy69bflb","geo_precision":"city","address":"601 N NATIONAL AVE, SPRINGFIELD,MO"},"type":"Feature","geometry":{"type":"Point","coordinates":[-91.237925,38.295605]}},{"properties":{"geo_score":0.512,"id":"a6koqxzef2uh","geo_precision":"city","address":"601 N NATIONAL AVE, SPRINGFIELD,MO"},"type":"Feature","geometry":{"type":"Point","coordinates":[-91.237925,38.295605]}},{"properties":{"geo_score":0.512,"id":"a6koqy2xsrgy","geo_precision":"city","address":"601 N NATIONAL AVE, SPRINGFIELD,MO"},"type":"Feature","geometry":{"type":"Point","coordinates":[-91.237925,38.295605]}},{"properties":{"geo_score":0.558,"id":"a6koqy54qiu3","geo_precision":"street","address":"N CONCORD AVE, SPRINGFIELD, MO"},"type":"Feature","geometry":{"type":"Point","coordinates":[-90.304722,38.818186]}},{"properties":{"geo_score":0.573,"id":"a6koqy0tzkrq","geo_precision":"street","address":"620 W SCOTT ST, SPRINGFIELD, MO"},"type":"Feature","geometry":{"type":"Point","coordinates":[-90.37516,38.43644]}},{"properties":{"geo_score":0.776,"id":"a6koqy2lld4f","geo_precision":"range","address":"415 W COLLEGE ST, SPRINGFIELD, MO"},"type":"Feature","geometry":{"type":"Point","coordinates":[-90.561536,38.128437]}},{"properties":{"geo_score":0.776,"id":"a6koqy2ytlhh","geo_precision":"range","address":"405 W COLLEGE ST, SPRINGFIELD, MO"},"type":"Feature","geometry":{"type":"Point","coordinates":[-90.56145,38.128412]}},{"properties":{"geo_score":0.671,"id":"a6koqy733e6b","geo_precision":"street","address":"W COLLEGE ST, SPRINGFIELD, MO"},"type":"Feature","geometry":{"type":"Point","coordinates":[-90.55921,38.127909]}},{"properties":{"geo_score":0.451,"id":"a6koqy86w2pq","geo_precision":"street","address":"W MCDANIEL ST, SPRINGFIELD, MO"},"type":"Feature","geometry":{"type":"Point","coordinates":[-90.353286,38.759271]}},{"properties":{"geo_score":0.776,"id":"a6koqxznkxcf","geo_precision":"range","address":"420 W COLLEGE ST, SPRINGFIELD, MO"},"type":"Feature","geometry":{"type":"Point","coordinates":[-90.561627,38.128452]}},{"properties":{"geo_score":0.776,"id":"a6koqy36b6my","geo_precision":"range","address":"420 W COLLEGE ST, SPRINGFIELD, MO"},"type":"Feature","geometry":{"type":"Point","coordinates":[-90.561627,38.128452]}},{"properties":{"geo_score":0.776,"id":"a6koqy6y7m0k","geo_precision":"range","address":"420 W COLLEGE ST, SPRINGFIELD, MO"},"type":"Feature","geometry":{"type":"Point","coordinates":[-90.561627,38.128452]}},{"properties":{"geo_score":0.582,"id":"a6koqxxn1cms","geo_precision":"street","address":"634 W COLLEGE ST, SPRINGFIELD, MO"},"type":"Feature","geometry":{"type":"Point","coordinates":[-90.562469,38.12864]}},{"properties":{"geo_score":0.631,"id":"a6koqy0cnhu3","geo_precision":"street","address":"727 W WALNUT ST, SPRINGFIELD, MO"},"type":"Feature","geometry":{"type":"Point","coordinates":[-91.166234,38.209683]}},{"properties":{"geo_score":0.581,"id":"a6koqxzk9dqg","geo_precision":"street","address":"736 W COLLEGE ST, SPRINGFIELD, MO"},"type":"Feature","geometry":{"type":"Point","coordinates":[-90.562469,38.12864]}},{"properties":{"geo_score":0.616,"id":"a6koqxyeyxhp","geo_precision":"street","address":"730 E ST LOUIS ST, SPRINGFIELD, MO"},"type":"Feature","geometry":{"type":"Point","coordinates":[-90.548949,38.12963]}},{"properties":{"geo_score":0.622,"id":"a6koqy9xtfhm","geo_precision":"street","address":"224 W MILL ST, SPRINGFIELD, MO"},"type":"Feature","geometry":{"type":"Point","coordinates":[-91.163801,38.206272]}},{"properties":{"geo_score":0.826,"id":"a6koqy5u489t","geo_precision":"range","address":"305 E WALNUT ST, SPRINGFIELD, MO"},"type":"Feature","geometry":{"type":"Point","coordinates":[-91.16395,38.209728]}},{"properties":{"geo_score":0.659,"id":"a6koqy155ujs","geo_precision":"range","address":"4825 E KEARNEY ST, SPRINGFIELD, MO"},"type":"Feature","geometry":{"type":"Point","coordinates":[-90.540247,38.459119]}},{"properties":{"geo_score":0.522,"id":"a6koqy1k2znu","geo_precision":"street","address":"2950 N MARTIN AVE, SPRINGFIELD, MO"},"type":"Feature","geometry":{"type":"Point","coordinates":[-91.014,38.533003]}},{"properties":{"geo_score":0.513,"id":"a6koqyav3hnp","geo_precision":"city","address":"2839 N INGRAM AVE, SPRINGFIELD, MO"},"type":"Feature","geometry":{"type":"Point","coordinates":[-91.237925,38.295605]}},{"properties":{"geo_score":0.513,"id":"a6koqyal958b","geo_precision":"city","address":"2940 N INGRAM AVE, SPRINGFIELD, MO"},"type":"Feature","geometry":{"type":"Point","coordinates":[-91.237925,38.295605]}},{"properties":{"geo_score":0.508,"id":"a6koqxv4pvk2","geo_precision":"city","address":"2600 N PARTNERSHIP BLVD, SPRINGFIELD, MO"},"type":"Feature","geometry":{"type":"Point","coordinates":[-91.237925,38.295605]}},{"properties":{"geo_score":0.508,"id":"a6koqxwyp82u","geo_precision":"city","address":"2700 N PARTNERSHIP BLVD, SPRINGFIELD, MO"},"type":"Feature","geometry":{"type":"Point","coordinates":[-91.237925,38.295605]}},{"properties":{"geo_score":0.512,"id":"a6koqxw4l1x9","geo_precision":"city","address":"4500 E MUSTARD WAY, SPRINGFIELD, MO"},"type":"Feature","geometry":{"type":"Point","coordinates":[-91.237925,38.295605]}},{"properties":{"geo_score":0.508,"id":"a6koqy2p9fdx","geo_precision":"city","address":"2500 N PARTNERSHIP BLVD, SPRINGFIELD, MO"},"type":"Feature","geometry":{"type":"Point","coordinates":[-91.237925,38.295605]}},{"properties":{"geo_score":0.512,"id":"a6koqy9jvuqc","geo_precision":"city","address":"4420 E MUSTARD WAY, SPRINGFIELD, MO"},"type":"Feature","geometry":{"type":"Point","coordinates":[-91.237925,38.295605]}},{"properties":{"geo_score":0.508,"id":"a6koqyadb19y","geo_precision":"city","address":"2727 N PARTNERSHIP BLVD, SPRINGFIELD, MO"},"type":"Feature","geometry":{"type":"Point","coordinates":[-91.237925,38.295605]}},{"properties":{"geo_score":0.509,"id":"a6koqya9tecp","geo_precision":"city","address":"4000 E CONTINENTAL WAY, SPRINGFIELD, MO"},"type":"Feature","geometry":{"type":"Point","coordinates":[-91.237925,38.295605]}},{"properties":{"geo_score":0.511,"id":"a6koqxyd334j","geo_precision":"city","address":"2828 N NEERGARD AVE, SPRINGFIELD, MO"},"type":"Feature","geometry":{"type":"Point","coordinates":[-91.237925,38.295605]}},{"properties":{"geo_score":0.511,"id":"a6koqy98g1hr","geo_precision":"city","address":"2838 N NEERGARD AVE, SPRINGFIELD, MO"},"type":"Feature","geometry":{"type":"Point","coordinates":[-91.237925,38.295605]}},{"properties":{"geo_score":0.565,"id":"a6koqxve4sbe","geo_precision":"street","address":"2830 N OAK GROVE AVE, SPRINGFIELD, MO"},"type":"Feature","geometry":{"type":"Point","coordinates":[-91.126008,38.27211]}},{"properties":{"geo_score":0.565,"id":"a6koqxxzinhm","geo_precision":"street","address":"2526 N OAK GROVE AVE, SPRINGFIELD, MO"},"type":"Feature","geometry":{"type":"Point","coordinates":[-91.126008,38.27211]}},{"properties":{"geo_score":0.538,"id":"a6koqy5u0d6i","geo_precision":"street","address":"2727 E JEAN ST, SPRINGFIELD, MO"},"type":"Feature","geometry":{"type":"Point","coordinates":[-91.147052,38.2114]}},{"properties":{"geo_score":0.565,"id":"a6koqxyks8l5","geo_precision":"street","address":"2803 N OAK GROVE AVE, SPRINGFIELD, MO"},"type":"Feature","geometry":{"type":"Point","coordinates":[-91.126008,38.27211]}},{"properties":{"geo_score":0.566,"id":"a6koqy46a20e","geo_precision":"street","address":"2504 N OAK GROVE AVE, SPRINGFIELD, MO"},"type":"Feature","geometry":{"type":"Point","coordinates":[-91.126008,38.27211]}},{"properties":{"geo_score":0.463,"id":"a6koqy8vzg0z","geo_precision":"street","address":"2707 N BARNES AVE, SPRINGFIELD, MO"},"type":"Feature","geometry":{"type":"Point","coordinates":[-90.398809,38.726943]}},{"properties":{"geo_score":0.538,"id":"a6koqy11mple","geo_precision":"street","address":"2105 E DALE ST, SPRINGFIELD, MO"},"type":"Feature","geometry":{"type":"Point","coordinates":[-91.169513,38.207147]}},{"properties":{"geo_score":0.382,"id":"a6koqy5296oj","geo_precision":"street","address":"1960 E BLAINE ST, SPRINGFIELD, MO"},"type":"Feature","geometry":{"type":"Point","coordinates":[-90.510626,38.583113]}},{"properties":{"geo_score":0.539,"id":"a6koqy3wemn9","geo_precision":"street","address":"3216-3358 E DIVISION ST, SPRINGFIELD, MO"},"type":"Feature","geometry":{"type":"Point","coordinates":[-91.17272,38.207481]}},{"properties":{"geo_score":0.366,"id":"a6koqya58bbh","geo_precision":"street","address":"1351 N BELCREST AVE, SPRINGFIELD, MO"},"type":"Feature","geometry":{"type":"Point","coordinates":[-90.309845,38.790662]}},{"properties":{"geo_score":0.366,"id":"a6koqxyivx7d","geo_precision":"street","address":"901 N BELCREST AVE, SPRINGFIELD, MO"},"type":"Feature","geometry":{"type":"Point","coordinates":[-90.309845,38.790662]}},{"properties":{"geo_score":0.517,"id":"a6koqy498h8f","geo_precision":"street","address":"820 N CEDARBROOK AVE, SPRINGFIELD, MO"},"type":"Feature","geometry":{"type":"Point","coordinates":[-91.215903,38.233492]}},{"properties":{"geo_score":0.497,"id":"a6koqxzi2pz0","geo_precision":"street","address":"3211 E CHESTNUT EXPY, SPRINGFIELD, MO"},"type":"Feature","geometry":{"type":"Point","coordinates":[-90.990084,38.342891]}},{"properties":{"geo_score":0.513,"id":"a6koqy0j31wl","geo_precision":"city","address":"3300 E PYTHIAN ST, SPRINGFIELD, MO"},"type":"Feature","geometry":{"type":"Point","coordinates":[-91.237925,38.295605]}},{"properties":{"geo_score":0.537,"id":"a6koqy13hio6","geo_precision":"street","address":"2109 E ROCKHURST ST, SPRINGFIELD, MO"},"type":"Feature","geometry":{"type":"Point","coordinates":[-90.500963,38.575806]}},{"properties":{"geo_score":0.537,"id":"a6koqy5kh78j","geo_precision":"street","address":"2103 E ROCKHURST ST, SPRINGFIELD, MO"},"type":"Feature","geometry":{"type":"Point","coordinates":[-90.500963,38.575806]}},{"properties":{"geo_score":0.537,"id":"a6koqxv2wwqw","geo_precision":"street","address":"2107 E ROCKHURST ST, SPRINGFIELD, MO"},"type":"Feature","geometry":{"type":"Point","coordinates":[-90.500963,38.575806]}},{"properties":{"geo_score":0.698,"id":"a6koqy6ffgii","geo_precision":"range","address":"535 N FREMONT AVE, SPRINGFIELD, MO"},"type":"Feature","geometry":{"type":"Point","coordinates":[-91.018532,38.558065]}},{"properties":{"geo_score":0.487,"id":"a6koqxz4nom9","geo_precision":"street","address":"2035 E BENNETT ST, SPRINGFIELD, MO"},"type":"Feature","geometry":{"type":"Point","coordinates":[-91.155453,38.214408]}},{"properties":{"geo_score":0.517,"id":"a6koqy6re2yh","geo_precision":"street","address":"2645 N AIRPORT PLAZA AVE, SPRINGFIELD, MO"},"type":"Feature","geometry":{"type":"Point","coordinates":[-91.164087,38.231721]}},{"properties":{"geo_score":0.659,"id":"a6koqy2zz7dq","geo_precision":"range","address":"4520 W KEARNEY ST, SPRINGFIELD, MO"},"type":"Feature","geometry":{"type":"Point","coordinates":[-90.540248,38.459183]}},{"properties":{"geo_score":0.659,"id":"a6koqxx8zfqh","geo_precision":"range","address":"4320 W KEARNEY ST, SPRINGFIELD, MO"},"type":"Feature","geometry":{"type":"Point","coordinates":[-90.540249,38.459225]}},{"properties":{"geo_score":0.659,"id":"a6koqyargbxn","geo_precision":"range","address":"4840 W KEARNEY ST, SPRINGFIELD, MO"},"type":"Feature","geometry":{"type":"Point","coordinates":[-90.540247,38.459116]}},{"properties":{"geo_score":0.511,"id":"a6koqy4ipyyd","geo_precision":"city","address":"1655 N ALLIANCE AVE, SPRINGFIELD, MO"},"type":"Feature","geometry":{"type":"Point","coordinates":[-91.237925,38.295605]}},{"properties":{"geo_score":0.511,"id":"a6koqy9j3ol0","geo_precision":"city","address":"2040 N ALLIANCE AVE, SPRINGFIELD, MO"},"type":"Feature","geometry":{"type":"Point","coordinates":[-91.237925,38.295605]}},{"properties":{"geo_score":0.511,"id":"a6koqy816fzb","geo_precision":"city","address":"2030 N ALLIANCE AVE, SPRINGFIELD, MO"},"type":"Feature","geometry":{"type":"Point","coordinates":[-91.237925,38.295605]}},{"properties":{"geo_score":0.511,"id":"a6koqxz4uq4w","geo_precision":"city","address":"2000 N ALLIANCE AVE, SPRINGFIELD, MO"},"type":"Feature","geometry":{"type":"Point","coordinates":[-91.237925,38.295605]}},{"properties":{"geo_score":0.555,"id":"a6koqy2t8vk4","geo_precision":"street","address":"4435 W MANUFACTURERS ST, SPRINGFIELD, MO"},"type":"Feature","geometry":{"type":"Point","coordinates":[-90.443908,38.536632]}},{"properties":{"geo_score":0.555,"id":"a6koqxwzddnh","geo_precision":"street","address":"4436 W MANUFACTURERS ST, SPRINGFIELD, MO"},"type":"Feature","geometry":{"type":"Point","coordinates":[-90.443908,38.536632]}},{"properties":{"geo_score":0.637,"id":"a6koqy0d7nyo","geo_precision":"street","address":"1421 W DIVISION ST, SPRINGFIELD, MO"},"type":"Feature","geometry":{"type":"Point","coordinates":[-91.17272,38.207481]}},{"properties":{"geo_score":0.782,"id":"a6koqy29eplm","geo_precision":"range","address":"514 E COMMERCIAL ST, SPRINGFIELD, MO"},"type":"Feature","geometry":{"type":"Point","coordinates":[-90.988895,38.344745]}},{"properties":{"geo_score":0.782,"id":"a6koqxvcunnq","geo_precision":"range","address":"739 E COMMERCIAL ST, SPRINGFIELD, MO"},"type":"Feature","geometry":{"type":"Point","coordinates":[-90.989914,38.343129]}},{"properties":{"geo_score":0.475,"id":"a6koqy3vg9o0","geo_precision":"street","address":"521 N BOONVILLE AVE, SPRINGFIELD, MO"},"type":"Feature","geometry":{"type":"Point","coordinates":[-90.372354,38.793547]}},{"properties":{"geo_score":0.692,"id":"a6koqy2fcw37","geo_precision":"range","address":"415 E CHESTNUT EXPY, SPRINGFIELD, MO"},"type":"Feature","geometry":{"type":"Point","coordinates":[-90.990136,38.34437]}},{"properties":{"geo_score":0.636,"id":"a6koqxzerfnx","geo_precision":"street","address":"3638 W DIVISION ST, SPRINGFIELD, MO"},"type":"Feature","geometry":{"type":"Point","coordinates":[-91.17272,38.207481]}},{"properties":{"geo_score":0.511,"id":"a6koqy5f0dbh","geo_precision":"city","address":"1430 N ALLIANCE AVE, SPRINGFIELD, MO"},"type":"Feature","geometry":{"type":"Point","coordinates":[-91.237925,38.295605]}},{"properties":{"geo_score":0.511,"id":"a6koqy95i11u","geo_precision":"city","address":"1320 N ALLIANCE AVE, SPRINGFIELD, MO"},"type":"Feature","geometry":{"type":"Point","coordinates":[-91.237925,38.295605]}},{"properties":{"geo_score":0.626,"id":"a6koqy5phbch","geo_precision":"street","address":"4551 W MAPLE ST, SPRINGFIELD, MO"},"type":"Feature","geometry":{"type":"Point","coordinates":[-91.165266,38.21163]}},{"properties":{"geo_score":0.342,"id":"a6koqxxvcbo2","geo_precision":"street","address":"4654 W FARM ROAD 130, SPRINGFIELD, MO"},"type":"Feature","geometry":{"type":"Point","coordinates":[-90.56018,38.26098]}},{"properties":{"geo_score":0.517,"id":"a6koqxx97vsn","geo_precision":"street","address":"2140 W GRAND ST, SPRINGFIELD, MO"},"type":"Feature","geometry":{"type":"Point","coordinates":[-91.173049,38.215413]}},{"properties":{"geo_score":0.506,"id":"a6koqxwwbe39","geo_precision":"range","address":"1601-1701 W SUNSHINE ST, SPRINGFIELD, MO"},"type":"Feature","geometry":{"type":"Point","coordinates":[-90.759872,38.356728]}},{"properties":{"geo_score":0.532,"id":"a6koqy3ex92j","geo_precision":"street","address":"2861 S MEADOWBROOK AVE, SPRINGFIELD, MO"},"type":"Feature","geometry":{"type":"Point","coordinates":[-90.551769,38.15707]}},{"properties":{"geo_score":0.566,"id":"a6koqy13msmf","geo_precision":"street","address":"2255 W SUNSET ST, SPRINGFIELD, MO"},"type":"Feature","geometry":{"type":"Point","coordinates":[-91.17145,38.189589]}},{"properties":{"geo_score":0.547,"id":"a6koqy5ge34i","geo_precision":"street","address":"3725 E BATTLEFIELD RD, SPRINGFIELD, MO"},"type":"Feature","geometry":{"type":"Point","coordinates":[-90.350207,38.827275]}},{"properties":{"geo_score":0.522,"id":"a6koqy8s4to9","geo_precision":"street","address":"2814 S GOLDEN AVE, SPRINGFIELD, MO"},"type":"Feature","geometry":{"type":"Point","coordinates":[-90.511649,38.49152]}},{"properties":{"geo_score":0.522,"id":"a6koqy2d6m1t","geo_precision":"street","address":"2859 N MARTIN AVE, SPRINGFIELD, MO"},"type":"Feature","geometry":{"type":"Point","coordinates":[-91.014,38.533003]}},{"properties":{"geo_score":0.547,"id":"a6koqy4wlyga","geo_precision":"street","address":"2720 N COMMERCE DRIVE AVE, SPRINGFIELD, MO"},"type":"Feature","geometry":{"type":"Point","coordinates":[-90.499922,38.489253]}},{"properties":{"geo_score":0.512,"id":"a6koqy25n2xz","geo_precision":"city","address":"3900 E MUSTARD WAY, SPRINGFIELD, MO"},"type":"Feature","geometry":{"type":"Point","coordinates":[-91.237925,38.295605]}},{"properties":{"geo_score":0.528,"id":"a6koqy53wsxa","geo_precision":"street","address":"2435 N PATTERSON AVE, SPRINGFIELD, MO"},"type":"Feature","geometry":{"type":"Point","coordinates":[-91.166772,38.215569]}},{"properties":{"geo_score":0.382,"id":"a6koqy00t8g8","geo_precision":"street","address":"2010 E BLAINE ST, SPRINGFIELD, MO"},"type":"Feature","geometry":{"type":"Point","coordinates":[-90.510626,38.583113]}},{"properties":{"geo_score":0.379,"id":"a6koqxzcqzgc","geo_precision":"street","address":"2019-2101 N LE COMPTE RD, SPRINGFIELD, MO"},"type":"Feature","geometry":{"type":"Point","coordinates":[-91.189957,38.2142]}},{"properties":{"geo_score":0.379,"id":"a6koqxy0ep3o","geo_precision":"street","address":"2019-2101 N LE COMPTE RD, SPRINGFIELD, MO"},"type":"Feature","geometry":{"type":"Point","coordinates":[-91.189957,38.2142]}},{"properties":{"geo_score":0.511,"id":"a6koqy88yyzt","geo_precision":"city","address":"4400 W PRODUCTION ST, SPRINGFIELD, MO"},"type":"Feature","geometry":{"type":"Point","coordinates":[-91.237925,38.295605]}},{"properties":{"geo_score":0.552,"id":"a6koqxyopsuc","geo_precision":"street","address":"2330 W CATALPA ST, SPRINGFIELD, MO"},"type":"Feature","geometry":{"type":"Point","coordinates":[-90.38156,38.40109]}},{"properties":{"geo_score":0.487,"id":"a6koqy3bnqb8","geo_precision":"street","address":"1930 W BENNETT ST, SPRINGFIELD, MO"},"type":"Feature","geometry":{"type":"Point","coordinates":[-91.155453,38.214408]}},{"properties":{"geo_score":0.475,"id":"a6koqxxwqeiq","geo_precision":"street","address":"600 N BOONVILLE AVE, SPRINGFIELD, MO"},"type":"Feature","geometry":{"type":"Point","coordinates":[-90.372354,38.793547]}},{"properties":{"geo_score":0.822,"id":"a6koqy2tdhc8","geo_precision":"range","address":"513 W OLIVE ST, SPRINGFIELD, MO"},"type":"Feature","geometry":{"type":"Point","coordinates":[-91.16509,38.210781]}},{"properties":{"geo_score":0.822,"id":"a6koqxymnyow","geo_precision":"range","address":"509 W OLIVE ST, SPRINGFIELD, MO"},"type":"Feature","geometry":{"type":"Point","coordinates":[-91.165089,38.21074]}},{"properties":{"geo_score":0.822,"id":"a6koqy1bz6qr","geo_precision":"range","address":"500 W OLIVE ST, SPRINGFIELD, MO"},"type":"Feature","geometry":{"type":"Point","coordinates":[-91.165086,38.210657]}},{"properties":{"geo_score":0.712,"id":"a6koqy7c9t77","geo_precision":"range","address":"319 N MAIN AVE, SPRINGFIELD, MO"},"type":"Feature","geometry":{"type":"Point","coordinates":[-91.161789,38.208469]}},{"properties":{"geo_score":0.582,"id":"a6koqxyy5d1u","geo_precision":"street","address":"600 W COLLEGE ST, SPRINGFIELD, MO"},"type":"Feature","geometry":{"type":"Point","coordinates":[-90.562469,38.12864]}},{"properties":{"geo_score":0.534,"id":"a6koqxylp3ct","geo_precision":"street","address":"609-623 W WALNUT ST, SPRINGFIELD, MO"},"type":"Feature","geometry":{"type":"Point","coordinates":[-91.166234,38.209683]}},{"properties":{"geo_score":0.534,"id":"a6koqxvkt6dy","geo_precision":"street","address":"609-623 W WALNUT ST, SPRINGFIELD, MO"},"type":"Feature","geometry":{"type":"Point","coordinates":[-91.166234,38.209683]}},{"properties":{"geo_score":0.534,"id":"a6koqxvf3uvr","geo_precision":"street","address":"609-623 W WALNUT ST, SPRINGFIELD, MO"},"type":"Feature","geometry":{"type":"Point","coordinates":[-91.166234,38.209683]}},{"properties":{"geo_score":0.534,"id":"a6koqy2fc4wp","geo_precision":"street","address":"609-623 W WALNUT ST, SPRINGFIELD, MO"},"type":"Feature","geometry":{"type":"Point","coordinates":[-91.166234,38.209683]}},{"properties":{"geo_score":0.534,"id":"a6koqxzu9hws","geo_precision":"street","address":"609-623 W WALNUT ST, SPRINGFIELD, MO"},"type":"Feature","geometry":{"type":"Point","coordinates":[-91.166234,38.209683]}},{"properties":{"geo_score":0.534,"id":"a6koqy52cs0i","geo_precision":"street","address":"609-623 W WALNUT ST, SPRINGFIELD, MO"},"type":"Feature","geometry":{"type":"Point","coordinates":[-91.166234,38.209683]}},{"properties":{"geo_score":0.534,"id":"a6koqy2lqmmq","geo_precision":"street","address":"609-623 W WALNUT ST, SPRINGFIELD, MO"},"type":"Feature","geometry":{"type":"Point","coordinates":[-91.166234,38.209683]}},{"properties":{"geo_score":0.534,"id":"a6koqy6oavss","geo_precision":"street","address":"609-623 W WALNUT ST, SPRINGFIELD, MO"},"type":"Feature","geometry":{"type":"Point","coordinates":[-91.166234,38.209683]}},{"properties":{"geo_score":0.534,"id":"a6koqy2cochj","geo_precision":"street","address":"609-623 W WALNUT ST, SPRINGFIELD, MO"},"type":"Feature","geometry":{"type":"Point","coordinates":[-91.166234,38.209683]}},{"properties":{"geo_score":0.534,"id":"a6koqy3l11hh","geo_precision":"street","address":"609-623 W WALNUT ST, SPRINGFIELD, MO"},"type":"Feature","geometry":{"type":"Point","coordinates":[-91.166234,38.209683]}},{"properties":{"geo_score":0.534,"id":"a6koqy4pl1u5","geo_precision":"street","address":"609-623 W WALNUT ST, SPRINGFIELD, MO"},"type":"Feature","geometry":{"type":"Point","coordinates":[-91.166234,38.209683]}},{"properties":{"geo_score":0.534,"id":"a6koqxxa6rc0","geo_precision":"street","address":"609-623 W WALNUT ST, SPRINGFIELD, MO"},"type":"Feature","geometry":{"type":"Point","coordinates":[-91.166234,38.209683]}},{"properties":{"geo_score":0.534,"id":"a6koqxzzhey3","geo_precision":"street","address":"609-623 W WALNUT ST, SPRINGFIELD, MO"},"type":"Feature","geometry":{"type":"Point","coordinates":[-91.166234,38.209683]}},{"properties":{"geo_score":0.534,"id":"a6koqy5aksqe","geo_precision":"street","address":"609-623 W WALNUT ST, SPRINGFIELD, MO"},"type":"Feature","geometry":{"type":"Point","coordinates":[-91.166234,38.209683]}},{"properties":{"geo_score":0.534,"id":"a6koqy7kqiq3","geo_precision":"street","address":"609-623 W WALNUT ST, SPRINGFIELD, MO"},"type":"Feature","geometry":{"type":"Point","coordinates":[-91.166234,38.209683]}},{"properties":{"geo_score":0.534,"id":"a6koqy8rwisd","geo_precision":"street","address":"609-623 W WALNUT ST, SPRINGFIELD, MO"},"type":"Feature","geometry":{"type":"Point","coordinates":[-91.166234,38.209683]}},{"properties":{"geo_score":0.534,"id":"a6koqy586h8z","geo_precision":"street","address":"609-623 W WALNUT ST, SPRINGFIELD, MO"},"type":"Feature","geometry":{"type":"Point","coordinates":[-91.166234,38.209683]}},{"properties":{"geo_score":0.534,"id":"a6koqy1hsu6c","geo_precision":"street","address":"609-623 W WALNUT ST, SPRINGFIELD, MO"},"type":"Feature","geometry":{"type":"Point","coordinates":[-91.166234,38.209683]}},{"properties":{"geo_score":0.534,"id":"a6koqy1t7kmr","geo_precision":"street","address":"609-623 W WALNUT ST, SPRINGFIELD, MO"},"type":"Feature","geometry":{"type":"Point","coordinates":[-91.166234,38.209683]}},{"properties":{"geo_score":0.534,"id":"a6koqxwp3fz7","geo_precision":"street","address":"609-623 W WALNUT ST, SPRINGFIELD, MO"},"type":"Feature","geometry":{"type":"Point","coordinates":[-91.166234,38.209683]}},{"properties":{"geo_score":0.534,"id":"a6koqy6kze72","geo_precision":"street","address":"609-623 W WALNUT ST, SPRINGFIELD, MO"},"type":"Feature","geometry":{"type":"Point","coordinates":[-91.166234,38.209683]}},{"properties":{"geo_score":0.534,"id":"a6koqy7l6kqe","geo_precision":"street","address":"609-623 W WALNUT ST, SPRINGFIELD, MO"},"type":"Feature","geometry":{"type":"Point","coordinates":[-91.166234,38.209683]}},{"properties":{"geo_score":0.534,"id":"a6koqxw4x5co","geo_precision":"street","address":"609-623 W WALNUT ST, SPRINGFIELD, MO"},"type":"Feature","geometry":{"type":"Point","coordinates":[-91.166234,38.209683]}},{"properties":{"geo_score":0.534,"id":"a6koqy3kxkzc","geo_precision":"street","address":"609-623 W WALNUT ST, SPRINGFIELD, MO"},"type":"Feature","geometry":{"type":"Point","coordinates":[-91.166234,38.209683]}},{"properties":{"geo_score":0.534,"id":"a6koqxypt8ng","geo_precision":"street","address":"609-623 W WALNUT ST, SPRINGFIELD, MO"},"type":"Feature","geometry":{"type":"Point","coordinates":[-91.166234,38.209683]}},{"properties":{"geo_score":0.534,"id":"a6koqy6s4sj2","geo_precision":"street","address":"609-623 W WALNUT ST, SPRINGFIELD, MO"},"type":"Feature","geometry":{"type":"Point","coordinates":[-91.166234,38.209683]}},{"properties":{"geo_score":0.534,"id":"a6koqxzgt6t9","geo_precision":"street","address":"609-623 W WALNUT ST, SPRINGFIELD, MO"},"type":"Feature","geometry":{"type":"Point","coordinates":[-91.166234,38.209683]}},{"properties":{"geo_score":0.534,"id":"a6koqy3ur0ef","geo_precision":"street","address":"609-623 W WALNUT ST, SPRINGFIELD, MO"},"type":"Feature","geometry":{"type":"Point","coordinates":[-91.166234,38.209683]}},{"properties":{"geo_score":0.534,"id":"a6koqy1w0y0y","geo_precision":"street","address":"609-623 W WALNUT ST, SPRINGFIELD, MO"},"type":"Feature","geometry":{"type":"Point","coordinates":[-91.166234,38.209683]}},{"properties":{"geo_score":0.534,"id":"a6koqy37o3nd","geo_precision":"street","address":"609-623 W WALNUT ST, SPRINGFIELD, MO"},"type":"Feature","geometry":{"type":"Point","coordinates":[-91.166234,38.209683]}},{"properties":{"geo_score":0.534,"id":"a6koqxxl67si","geo_precision":"street","address":"609-623 W WALNUT ST, SPRINGFIELD, MO"},"type":"Feature","geometry":{"type":"Point","coordinates":[-91.166234,38.209683]}},{"properties":{"geo_score":0.534,"id":"a6koqy2t0b0s","geo_precision":"street","address":"609-623 W WALNUT ST, SPRINGFIELD, MO"},"type":"Feature","geometry":{"type":"Point","coordinates":[-91.166234,38.209683]}},{"properties":{"geo_score":0.534,"id":"a6koqy7mgk1n","geo_precision":"street","address":"609-623 W WALNUT ST, SPRINGFIELD, MO"},"type":"Feature","geometry":{"type":"Point","coordinates":[-91.166234,38.209683]}},{"properties":{"geo_score":0.534,"id":"a6koqy9off2z","geo_precision":"street","address":"609-623 W WALNUT ST, SPRINGFIELD, MO"},"type":"Feature","geometry":{"type":"Point","coordinates":[-91.166234,38.209683]}},{"properties":{"geo_score":0.534,"id":"a6koqxvvgnqt","geo_precision":"street","address":"609-623 W WALNUT ST, SPRINGFIELD, MO"},"type":"Feature","geometry":{"type":"Point","coordinates":[-91.166234,38.209683]}},{"properties":{"geo_score":0.534,"id":"a6koqy7ga85z","geo_precision":"street","address":"609-623 W WALNUT ST, SPRINGFIELD, MO"},"type":"Feature","geometry":{"type":"Point","coordinates":[-91.166234,38.209683]}},{"properties":{"geo_score":0.534,"id":"a6koqy0jwu4u","geo_precision":"street","address":"609-623 W WALNUT ST, SPRINGFIELD, MO"},"type":"Feature","geometry":{"type":"Point","coordinates":[-91.166234,38.209683]}},{"properties":{"geo_score":0.534,"id":"a6koqy5opo95","geo_precision":"street","address":"609-623 W WALNUT ST, SPRINGFIELD, MO"},"type":"Feature","geometry":{"type":"Point","coordinates":[-91.166234,38.209683]}},{"properties":{"geo_score":0.534,"id":"a6koqy63vwhy","geo_precision":"street","address":"609-623 W WALNUT ST, SPRINGFIELD, MO"},"type":"Feature","geometry":{"type":"Point","coordinates":[-91.166234,38.209683]}},{"properties":{"geo_score":0.534,"id":"a6koqy30aunu","geo_precision":"street","address":"609-623 W WALNUT ST, SPRINGFIELD, MO"},"type":"Feature","geometry":{"type":"Point","coordinates":[-91.166234,38.209683]}},{"properties":{"geo_score":0.534,"id":"a6koqy9ugnkf","geo_precision":"street","address":"609-623 W WALNUT ST, SPRINGFIELD, MO"},"type":"Feature","geometry":{"type":"Point","coordinates":[-91.166234,38.209683]}},{"properties":{"geo_score":0.534,"id":"a6koqy9eo84k","geo_precision":"street","address":"609-623 W WALNUT ST, SPRINGFIELD, MO"},"type":"Feature","geometry":{"type":"Point","coordinates":[-91.166234,38.209683]}},{"properties":{"geo_score":0.534,"id":"a6koqy7yern8","geo_precision":"street","address":"609-623 W WALNUT ST, SPRINGFIELD, MO"},"type":"Feature","geometry":{"type":"Point","coordinates":[-91.166234,38.209683]}},{"properties":{"geo_score":0.534,"id":"a6koqy3kjq5e","geo_precision":"street","address":"609-623 W WALNUT ST, SPRINGFIELD, MO"},"type":"Feature","geometry":{"type":"Point","coordinates":[-91.166234,38.209683]}},{"properties":{"geo_score":0.534,"id":"a6koqy8q9fa3","geo_precision":"street","address":"609-623 W WALNUT ST, SPRINGFIELD, MO"},"type":"Feature","geometry":{"type":"Point","coordinates":[-91.166234,38.209683]}},{"properties":{"geo_score":0.534,"id":"a6koqxxcxabw","geo_precision":"street","address":"609-623 W WALNUT ST, SPRINGFIELD, MO"},"type":"Feature","geometry":{"type":"Point","coordinates":[-91.166234,38.209683]}},{"properties":{"geo_score":0.534,"id":"a6koqy5wv8c3","geo_precision":"street","address":"609-623 W WALNUT ST, SPRINGFIELD, MO"},"type":"Feature","geometry":{"type":"Point","coordinates":[-91.166234,38.209683]}},{"properties":{"geo_score":0.534,"id":"a6koqy47au4p","geo_precision":"street","address":"609-623 W WALNUT ST, SPRINGFIELD, MO"},"type":"Feature","geometry":{"type":"Point","coordinates":[-91.166234,38.209683]}},{"properties":{"geo_score":0.534,"id":"a6koqxv0dxdr","geo_precision":"street","address":"609-623 W WALNUT ST, SPRINGFIELD, MO"},"type":"Feature","geometry":{"type":"Point","coordinates":[-91.166234,38.209683]}},{"properties":{"geo_score":0.534,"id":"a6koqxxiba03","geo_precision":"street","address":"609-623 W WALNUT ST, SPRINGFIELD, MO"},"type":"Feature","geometry":{"type":"Point","coordinates":[-91.166234,38.209683]}},{"properties":{"geo_score":0.534,"id":"a6koqxw3l1mp","geo_precision":"street","address":"609-623 W WALNUT ST, SPRINGFIELD, MO"},"type":"Feature","geometry":{"type":"Point","coordinates":[-91.166234,38.209683]}},{"properties":{"geo_score":0.534,"id":"a6koqxv87hjn","geo_precision":"street","address":"609-623 W WALNUT ST, SPRINGFIELD, MO"},"type":"Feature","geometry":{"type":"Point","coordinates":[-91.166234,38.209683]}},{"properties":{"geo_score":0.534,"id":"a6koqyajqee6","geo_precision":"street","address":"609-623 W WALNUT ST, SPRINGFIELD, MO"},"type":"Feature","geometry":{"type":"Point","coordinates":[-91.166234,38.209683]}},{"properties":{"geo_score":0.826,"id":"a6koqyayo47q","geo_precision":"range","address":"400 W WALNUT ST, SPRINGFIELD, MO"},"type":"Feature","geometry":{"type":"Point","coordinates":[-91.165054,38.209708]}},{"properties":{"geo_score":0.506,"id":"a6koqy3rlgem","geo_precision":"street","address":"PARK CENTRAL W, SPRINGFIELD, MO"},"type":"Feature","geometry":{"type":"Point","coordinates":[-91.166113,38.205339]}},{"properties":{"geo_score":0.663,"id":"a6koqy7jpxfm","geo_precision":"range","address":"324 PARK CENTRAL W, SPRINGFIELD, MO"},"type":"Feature","geometry":{"type":"Point","coordinates":[-91.166146,38.20332]}},{"properties":{"geo_score":0.512,"id":"a6koqy64dpan","geo_precision":"street","address":"220 S CAMPBELL AVE, SPRINGFIELD, MO"},"type":"Feature","geometry":{"type":"Point","coordinates":[-90.51643,38.17902]}},{"properties":{"geo_score":0.512,"id":"a6koqxwiu6r0","geo_precision":"street","address":"300 S CAMPBELL AVE, SPRINGFIELD, MO"},"type":"Feature","geometry":{"type":"Point","coordinates":[-90.51643,38.17902]}},{"properties":{"geo_score":0.468,"id":"a6koqy7hym12","geo_precision":"street","address":"401 S SOUTH ST, SPRINGFIELD, MO"},"type":"Feature","geometry":{"type":"Point","coordinates":[-91.175358,38.208133]}},{"properties":{"geo_score":0.468,"id":"a6koqxvorsby","geo_precision":"street","address":"401 S SOUTH ST, SPRINGFIELD, MO"},"type":"Feature","geometry":{"type":"Point","coordinates":[-91.175358,38.208133]}},{"properties":{"geo_score":0.468,"id":"a6koqy23t2km","geo_precision":"street","address":"401 S SOUTH ST, SPRINGFIELD, MO"},"type":"Feature","geometry":{"type":"Point","coordinates":[-91.175358,38.208133]}},{"properties":{"geo_score":0.468,"id":"a6koqxxfa9m9","geo_precision":"street","address":"401 S SOUTH ST, SPRINGFIELD, MO"},"type":"Feature","geometry":{"type":"Point","coordinates":[-91.175358,38.208133]}},{"properties":{"geo_score":0.468,"id":"a6koqyb0bfkk","geo_precision":"street","address":"401 S SOUTH ST, SPRINGFIELD, MO"},"type":"Feature","geometry":{"type":"Point","coordinates":[-91.175358,38.208133]}},{"properties":{"geo_score":0.468,"id":"a6koqyakloo5","geo_precision":"street","address":"401 S SOUTH ST, SPRINGFIELD, MO"},"type":"Feature","geometry":{"type":"Point","coordinates":[-91.175358,38.208133]}},{"properties":{"geo_score":0.468,"id":"a6koqxv03sbs","geo_precision":"street","address":"401 S SOUTH ST, SPRINGFIELD, MO"},"type":"Feature","geometry":{"type":"Point","coordinates":[-91.175358,38.208133]}},{"properties":{"geo_score":0.468,"id":"a6koqy8oyiw1","geo_precision":"street","address":"401 S SOUTH ST, SPRINGFIELD, MO"},"type":"Feature","geometry":{"type":"Point","coordinates":[-91.175358,38.208133]}},{"properties":{"geo_score":0.468,"id":"a6koqyag9tq2","geo_precision":"street","address":"401 S SOUTH ST, SPRINGFIELD, MO"},"type":"Feature","geometry":{"type":"Point","coordinates":[-91.175358,38.208133]}},{"properties":{"geo_score":0.468,"id":"a6koqy8avbib","geo_precision":"street","address":"401 S SOUTH ST, SPRINGFIELD, MO"},"type":"Feature","geometry":{"type":"Point","coordinates":[-91.175358,38.208133]}},{"properties":{"geo_score":0.468,"id":"a6koqy6xkgmd","geo_precision":"street","address":"401 S SOUTH ST, SPRINGFIELD, MO"},"type":"Feature","geometry":{"type":"Point","coordinates":[-91.175358,38.208133]}},{"properties":{"geo_score":0.468,"id":"a6koqxzx9los","geo_precision":"street","address":"401 S SOUTH ST, SPRINGFIELD, MO"},"type":"Feature","geometry":{"type":"Point","coordinates":[-91.175358,38.208133]}},{"properties":{"geo_score":0.468,"id":"a6koqy1jve0a","geo_precision":"street","address":"401 S SOUTH ST, SPRINGFIELD, MO"},"type":"Feature","geometry":{"type":"Point","coordinates":[-91.175358,38.208133]}},{"properties":{"geo_score":0.371,"id":"a6koqxwqjma1","geo_precision":"street","address":"313-315 S SOUTH ST, SPRINGFIELD, MO"},"type":"Feature","geometry":{"type":"Point","coordinates":[-91.175358,38.208133]}},{"properties":{"geo_score":0.469,"id":"a6koqxylhkj2","geo_precision":"street","address":"325 S SOUTH ST, SPRINGFIELD, MO"},"type":"Feature","geometry":{"type":"Point","coordinates":[-91.175358,38.208133]}},{"properties":{"geo_score":0.691,"id":"a6koqyb5afq4","geo_precision":"range","address":"317 S SOUTH AVE, SPRINGFIELD, MO"},"type":"Feature","geometry":{"type":"Point","coordinates":[-91.176081,38.205564]}},{"properties":{"geo_score":0.691,"id":"a6koqy9rvqaz","geo_precision":"range","address":"317 S SOUTH AVE, SPRINGFIELD, MO"},"type":"Feature","geometry":{"type":"Point","coordinates":[-91.176081,38.205564]}},{"properties":{"geo_score":0.691,"id":"a6koqxxv8r6a","geo_precision":"range","address":"317 S SOUTH AVE, SPRINGFIELD, MO"},"type":"Feature","geometry":{"type":"Point","coordinates":[-91.176081,38.205564]}},{"properties":{"geo_score":0.691,"id":"a6koqy3r7tf0","geo_precision":"range","address":"317 S SOUTH AVE, SPRINGFIELD, MO"},"type":"Feature","geometry":{"type":"Point","coordinates":[-91.176081,38.205564]}},{"properties":{"geo_score":0.691,"id":"a6koqy5t1yo2","geo_precision":"range","address":"317 S SOUTH AVE, SPRINGFIELD, MO"},"type":"Feature","geometry":{"type":"Point","coordinates":[-91.176081,38.205564]}},{"properties":{"geo_score":0.691,"id":"a6koqy6u8z6j","geo_precision":"range","address":"317 S SOUTH AVE, SPRINGFIELD, MO"},"type":"Feature","geometry":{"type":"Point","coordinates":[-91.176081,38.205564]}},{"properties":{"geo_score":0.691,"id":"a6koqy9dai34","geo_precision":"range","address":"317 S SOUTH AVE, SPRINGFIELD, MO"},"type":"Feature","geometry":{"type":"Point","coordinates":[-91.176081,38.205564]}},{"properties":{"geo_score":0.691,"id":"a6koqxvfzmky","geo_precision":"range","address":"317 S SOUTH AVE, SPRINGFIELD, MO"},"type":"Feature","geometry":{"type":"Point","coordinates":[-91.176081,38.205564]}},{"properties":{"geo_score":0.691,"id":"a6koqy8qdlql","geo_precision":"range","address":"317 S SOUTH AVE, SPRINGFIELD, MO"},"type":"Feature","geometry":{"type":"Point","coordinates":[-91.176081,38.205564]}},{"properties":{"geo_score":0.691,"id":"a6koqxxikori","geo_precision":"range","address":"317 S SOUTH AVE, SPRINGFIELD, MO"},"type":"Feature","geometry":{"type":"Point","coordinates":[-91.176081,38.205564]}},{"properties":{"geo_score":0.691,"id":"a6koqy0w2y31","geo_precision":"range","address":"317 S SOUTH AVE, SPRINGFIELD, MO"},"type":"Feature","geometry":{"type":"Point","coordinates":[-91.176081,38.205564]}},{"properties":{"geo_score":0.67,"id":"a6koqxyeru6e","geo_precision":"range","address":"122 W PARK CENTRAL SQ, SPRINGFIELD, MO"},"type":"Feature","geometry":{"type":"Point","coordinates":[-91.166111,38.205242]}},{"properties":{"geo_score":0.67,"id":"a6koqy6l4ra9","geo_precision":"range","address":"124 W PARK CENTRAL SQ, SPRINGFIELD, MO"},"type":"Feature","geometry":{"type":"Point","coordinates":[-91.166111,38.205233]}},{"properties":{"geo_score":0.822,"id":"a6koqy7q0kyt","geo_precision":"range","address":"213 W OLIVE ST, SPRINGFIELD, MO"},"type":"Feature","geometry":{"type":"Point","coordinates":[-91.164946,38.205272]}},{"properties":{"geo_score":0.663,"id":"a6koqy3gq3y1","geo_precision":"range","address":"222 PARK CENTRAL N, SPRINGFIELD, MO"},"type":"Feature","geometry":{"type":"Point","coordinates":[-91.166173,38.208314]}},{"properties":{"geo_score":0.67,"id":"a6koqyaj0kmq","geo_precision":"range","address":"103 E PARK CENTRAL SQ, SPRINGFIELD, MO"},"type":"Feature","geometry":{"type":"Point","coordinates":[-91.166113,38.20533]}},{"properties":{"geo_score":0.507,"id":"a6koqy0ay5h8","geo_precision":"street","address":"416 S SOUTH AVE, SPRINGFIELD, MO"},"type":"Feature","geometry":{"type":"Point","coordinates":[-91.177049,38.204085]}},{"properties":{"geo_score":0.593,"id":"a6koqy3kk6se","geo_precision":"street","address":"400 S SOUTH AVE, SPRINGFIELD, MO"},"type":"Feature","geometry":{"type":"Point","coordinates":[-91.177049,38.204085]}},{"properties":{"geo_score":0.633,"id":"a6koqxz6jilv","geo_precision":"street","address":"216 E WALNUT ST, SPRINGFIELD, MO"},"type":"Feature","geometry":{"type":"Point","coordinates":[-91.163913,38.20973]}},{"properties":{"geo_score":0.633,"id":"a6koqyajgd0k","geo_precision":"street","address":"210 E WALNUT ST, SPRINGFIELD, MO"},"type":"Feature","geometry":{"type":"Point","coordinates":[-91.163913,38.20973]}},{"properties":{"geo_score":0.51,"id":"a6koqy4hngz8","geo_precision":"street","address":"412 S SOUTH AVE, SPRINGFIELD, MO"},"type":"Feature","geometry":{"type":"Point","coordinates":[-91.177049,38.204085]}},{"properties":{"geo_score":0.805,"id":"a6koqy2p2pvn","geo_precision":"range","address":"431 S JEFFERSON AVE, SPRINGFIELD, MO"},"type":"Feature","geometry":{"type":"Point","coordinates":[-91.007858,38.441345]}},{"properties":{"geo_score":0.805,"id":"a6koqy05degi","geo_precision":"range","address":"431 S JEFFERSON AVE, SPRINGFIELD, MO"},"type":"Feature","geometry":{"type":"Point","coordinates":[-91.007858,38.441345]}},{"properties":{"geo_score":0.805,"id":"a6koqy9mpb9q","geo_precision":"range","address":"431 S JEFFERSON AVE, SPRINGFIELD, MO"},"type":"Feature","geometry":{"type":"Point","coordinates":[-91.007858,38.441345]}},{"properties":{"geo_score":0.805,"id":"a6koqxvvu1z0","geo_precision":"range","address":"431 S JEFFERSON AVE, SPRINGFIELD, MO"},"type":"Feature","geometry":{"type":"Point","coordinates":[-91.007858,38.441345]}},{"properties":{"geo_score":0.826,"id":"a6koqy4vn778","geo_precision":"range","address":"323 E WALNUT ST, SPRINGFIELD, MO"},"type":"Feature","geometry":{"type":"Point","coordinates":[-91.164162,38.209721]}},{"properties":{"geo_score":0.826,"id":"a6koqxzg20vk","geo_precision":"range","address":"323 E WALNUT ST, SPRINGFIELD, MO"},"type":"Feature","geometry":{"type":"Point","coordinates":[-91.164162,38.209721]}},{"properties":{"geo_score":0.826,"id":"a6koqy3lic96","geo_precision":"range","address":"323 E WALNUT ST, SPRINGFIELD, MO"},"type":"Feature","geometry":{"type":"Point","coordinates":[-91.164162,38.209721]}},{"properties":{"geo_score":0.826,"id":"a6koqxvxxw5w","geo_precision":"range","address":"323 E WALNUT ST, SPRINGFIELD, MO"},"type":"Feature","geometry":{"type":"Point","coordinates":[-91.164162,38.209721]}},{"properties":{"geo_score":0.826,"id":"a6koqxux8jx3","geo_precision":"range","address":"323 E WALNUT ST, SPRINGFIELD, MO"},"type":"Feature","geometry":{"type":"Point","coordinates":[-91.164162,38.209721]}},{"properties":{"geo_score":0.822,"id":"a6koqy5l1ejn","geo_precision":"range","address":"312 E OLIVE ST, SPRINGFIELD, MO"},"type":"Feature","geometry":{"type":"Point","coordinates":[-91.16494,38.203472]}},{"properties":{"geo_score":0.663,"id":"a6koqyavnk41","geo_precision":"range","address":"313 PARK CENTRAL E, SPRINGFIELD, MO"},"type":"Feature","geometry":{"type":"Point","coordinates":[-91.166142,38.20349]}},{"properties":{"geo_score":0.826,"id":"a6koqyafm1gh","geo_precision":"range","address":"450 E WALNUT ST, SPRINGFIELD, MO"},"type":"Feature","geometry":{"type":"Point","coordinates":[-91.165577,38.209694]}},{"properties":{"geo_score":0.826,"id":"a6koqy558bsc","geo_precision":"range","address":"408 E WALNUT ST, SPRINGFIELD, MO"},"type":"Feature","geometry":{"type":"Point","coordinates":[-91.16513,38.209706]}},{"properties":{"geo_score":0.826,"id":"a6koqy8r8bun","geo_precision":"range","address":"400 E WALNUT ST, SPRINGFIELD, MO"},"type":"Feature","geometry":{"type":"Point","coordinates":[-91.165054,38.209708]}},{"properties":{"geo_score":0.805,"id":"a6koqy6qbj91","geo_precision":"range","address":"520 S JEFFERSON AVE, SPRINGFIELD, MO"},"type":"Feature","geometry":{"type":"Point","coordinates":[-91.007862,38.440024]}},{"properties":{"geo_score":0.805,"id":"a6koqxzaudfv","geo_precision":"range","address":"520 S JEFFERSON AVE, SPRINGFIELD, MO"},"type":"Feature","geometry":{"type":"Point","coordinates":[-91.007862,38.440024]}},{"properties":{"geo_score":0.805,"id":"a6koqxx2mqr2","geo_precision":"range","address":"520 S JEFFERSON AVE, SPRINGFIELD, MO"},"type":"Feature","geometry":{"type":"Point","coordinates":[-91.007862,38.440024]}},{"properties":{"geo_score":0.805,"id":"a6koqy314w5u","geo_precision":"range","address":"520 S JEFFERSON AVE, SPRINGFIELD, MO"},"type":"Feature","geometry":{"type":"Point","coordinates":[-91.007862,38.440024]}},{"properties":{"geo_score":0.805,"id":"a6koqyarnzmm","geo_precision":"range","address":"520 S JEFFERSON AVE, SPRINGFIELD, MO"},"type":"Feature","geometry":{"type":"Point","coordinates":[-91.007862,38.440024]}},{"properties":{"geo_score":0.805,"id":"a6koqya4rn7c","geo_precision":"range","address":"520 S JEFFERSON AVE, SPRINGFIELD, MO"},"type":"Feature","geometry":{"type":"Point","coordinates":[-91.007862,38.440024]}},{"properties":{"geo_score":0.422,"id":"a6koqxwe4pgt","geo_precision":"street","address":"733-737 S KIMBROUGH AVE, SPRINGFIELD, MO"},"type":"Feature","geometry":{"type":"Point","coordinates":[-90.264185,38.790107]}},{"properties":{"geo_score":0.829,"id":"a6koqy29zym4","geo_precision":"range","address":"519 E MADISON ST, SPRINGFIELD, MO"},"type":"Feature","geometry":{"type":"Point","coordinates":[-91.164553,38.205388]}},{"properties":{"geo_score":0.731,"id":"a6koqxvvpwn8","geo_precision":"range","address":"525-527 E MADISON ST, SPRINGFIELD, MO"},"type":"Feature","geometry":{"type":"Point","coordinates":[-91.164727,38.205388]}}],"is_temporal":false,"author":{"url":"","metadata":"","contact_name":"","contact_address":"","source":"","contact_phone":""},"source":"","pagination":{"sort":null,"start":0,"total":246,"limit":1000000},"state":"complete","tags":"","published":"2014-08-13T05:03:05-04:00","id":174946}