{"type":"FeatureCollection","data_type":"Dataset","url_type":null,"permissions":[{"permissions":{"download":true,"view":true},"group_id":"everyone"}],"classification":null,"title":"GGC 10-30-2009","count":458,"stream_id":17605,"contributor":{"url":"http://geocommons.com/users/9423","name":"dmckim"},"data_attributes":null,"calculation_params":null,"icon_link":null,"link":"http://geocommons.com/overlays/17605.json","extent":[-101.175,26.1788,72.222,72.222],"geometry_types":["point"],"unique_name":null,"name":"GGC 10-30-2009","feature_count":458,"description":"","next_feature":null,"is_raster":false,"short_classification":"Y","stats":{"ptd":{"max":22500,"mean":11060.4672489083,"variance":14398099.2647893,"stdev":3794.4827400832,"min":0,"median":11757},"days":{"max":292,"mean":18.5327510917031,"variance":558.19257928583,"stdev":23.626099536018,"min":-20,"median":12},"latitude":{"max":72.222,"mean":31.9824759825328,"variance":19.1077877248048,"stdev":4.37124555759624,"min":26.179,"median":32.077},"reptref":{"max":59,"mean":8.51310043668122,"variance":130.070943976762,"stdev":11.4048649258447,"min":1,"median":4},"longitude":{"max":72.222,"mean":-93.5984519650655,"variance":248.732034620226,"stdev":15.7712407444762,"min":-101.175,"median":-94.337}},"features":[{"properties":{"ptd":9200,"latitude":27.685,"days":13,"spud":"10/17/2009","county":"WEBB","operator":"ROSETTA RES OPTG/HOU","rig":"0032","rig_drill":"#0032 KEY ENERGY SVCS (A)","reptref":8,"dist":"4","well":"SOUTH CALLAGHAN RANCH #25","longitude":-99.249,"driller":"KEY ENERGY SVCS (A)","id":"a69k7gl5favc","state":"TX"},"type":"Feature","geometry":{"type":"Point","coordinates":[-99.249164,27.685136]}},{"properties":{"ptd":5800,"latitude":31.625,"days":5,"spud":"10/25/2009","county":"ADAMS","operator":"BURNSED OIL CO INC","rig":"1","rig_drill":"#1 D &amp; D DRILLING","reptref":2,"dist":null,"well":"PEARLINE #2A","longitude":-91.299,"driller":"D &amp; D DRILLING","id":"a69k7gh09o1k","state":"MS"},"type":"Feature","geometry":{"type":"Point","coordinates":[-91.299346,31.624648]}},{"properties":{"ptd":3750,"latitude":35.432,"days":10,"spud":"10/20/2009","county":"VAN BUREN","operator":"SEECO INC","rig":"1","rig_drill":"#1 DESOTO DRILLING","reptref":3,"dist":null,"well":"CENARK PROPERTIES 9-13 #1-7 H","longitude":-92.408,"driller":"DESOTO DRILLING","id":"a69k7gofxmgb","state":"AR"},"type":"Feature","geometry":{"type":"Point","coordinates":[-92.408418,35.432304]}},{"properties":{"ptd":4000,"latitude":29.629,"days":35,"spud":"9/25/2009","county":"VAL VERDE","operator":"PARADISE OIL","rig":"1","rig_drill":"#1 HINZ DRILLING","reptref":1,"dist":"1","well":"EL CHORRO #1","longitude":-101.175,"driller":"HINZ DRILLING","id":"a69k7gsw48ex","state":"TX"},"type":"Feature","geometry":{"type":"Point","coordinates":[-101.174872,29.628542]}},{"properties":{"ptd":11500,"latitude":30.645,"days":9,"spud":"10/21/2009","county":"BRAZOS","operator":"7711 CORPORATION","rig":"1","rig_drill":"#1 LONGHORN DRILLING","reptref":1,"dist":"3","well":"WINEMAN -X- #1","longitude":-96.19,"driller":"LONGHORN DRILLING","id":"a69k7gfyg19k","state":"TX"},"type":"Feature","geometry":{"type":"Point","coordinates":[-96.19016,30.645247]}},{"properties":{"ptd":9900,"latitude":32.922,"days":-6,"spud":"11/5/2009","county":"CLAIBORNE","operator":"RABALAIS OIL &amp; GAS","rig":"1","rig_drill":"#1 MIKE ROGERS DRILLING","reptref":1,"dist":"N","well":"LEWLA LLC #1","longitude":-92.839,"driller":"MIKE ROGERS DRILLING","id":"a69k7gecoxp7","state":"LA"},"type":"Feature","geometry":{"type":"Point","coordinates":[-92.839198,32.922087]}},{"properties":{"ptd":9000,"latitude":30.757,"days":22,"spud":"10/8/2009","county":"BRAZOS","operator":"CENTEX ENERGY LLC","rig":"1","rig_drill":"#1 NICKLOS DRILLING","reptref":2,"dist":"3","well":"GIBSON #1 H","longitude":-96.193,"driller":"NICKLOS DRILLING","id":"a69k7gqtfe0c","state":"TX"},"type":"Feature","geometry":{"type":"Point","coordinates":[-96.192612,30.756647]}},{"properties":{"ptd":12200,"latitude":32.136,"days":32,"spud":"9/28/2009","county":"DE SOTO","operator":"CHESAPEAKE/OKC","rig":"1","rig_drill":"#1 NOMAC DRLG LLC/MARSH","reptref":22,"dist":"N","well":"FULLER 8-13-13 -H- #1","longitude":-93.727,"driller":"NOMAC DRLG LLC/MARSH","id":"a69k7gid9i20","state":"LA"},"type":"Feature","geometry":{"type":"Point","coordinates":[-93.726978,32.135905]}},{"properties":{"ptd":10500,"latitude":28.047,"days":16,"spud":"10/14/2009","county":"ARANSAS","operator":"ESENJAY OPERATING","rig":"1","rig_drill":"#1 PIONEER DRILLING","reptref":1,"dist":"4","well":"KICKING BIRD UNIT #1","longitude":-97.179,"driller":"PIONEER DRILLING","id":"a69k7gphklb0","state":"TX"},"type":"Feature","geometry":{"type":"Point","coordinates":[-97.179338,28.046908]}},{"properties":{"ptd":3900,"latitude":28.933,"days":1,"spud":"10/29/2009","county":"VICTORIA","operator":"BLUE WING ENERGY","rig":"1","rig_drill":"#1 PROGRESS DRILLING","reptref":2,"dist":"2","well":"LEE #1","longitude":-97.031,"driller":"PROGRESS DRILLING","id":"a69k7gkz92hw","state":"TX"},"type":"Feature","geometry":{"type":"Point","coordinates":[-97.030782,28.932564]}},{"properties":{"ptd":7600,"latitude":72.222,"days":7,"spud":"10/23/2009","county":"ADAMS","operator":"WILCOX ENERGY CO.","rig":"1","rig_drill":"#1 SHAMROCK DRLG","reptref":1,"dist":null,"well":"MACNEIL ET AL #1","longitude":72.222,"driller":"SHAMROCK DRLG","id":"a69k7gjytbc9","state":"MS"},"type":"Feature","geometry":{"type":"Point","coordinates":[72.222,72.222]}},{"properties":{"ptd":5100,"latitude":35.32,"days":5,"spud":"10/25/2009","county":"CONWAY","operator":"SEECO INC","rig":"10","rig_drill":"#10 DESOTO DRILLING","reptref":2,"dist":null,"well":"SCHMOLL 08-17 #1-20 H21","longitude":-92.822,"driller":"DESOTO DRILLING","id":"a69k7gpu6a6s","state":"AR"},"type":"Feature","geometry":{"type":"Point","coordinates":[-92.822458,35.319716]}},{"properties":{"ptd":7375,"latitude":32.477,"days":7,"spud":"10/23/2009","county":"RANKIN","operator":"DENBURY ONSHORE","rig":"10","rig_drill":"#10 ENERGY DRILLING","reptref":1,"dist":null,"well":"BARKSDALE -SWD- #1","longitude":-89.928,"driller":"ENERGY DRILLING","id":"a69k7gr3xrvn","state":"MS"},"type":"Feature","geometry":{"type":"Point","coordinates":[-89.927864,32.476508]}},{"properties":{"ptd":12000,"latitude":27.974,"days":14,"spud":"10/16/2009","county":"WEBB","operator":"LEWIS PETRO PROP","rig":"10","rig_drill":"#10 LEWIS PETRO PROP","reptref":4,"dist":"4","well":"BRISCOE STATE -1130- #1 H","longitude":-99.481,"driller":"LEWIS PETRO PROP","id":"a69k7goyoi7r","state":"TX"},"type":"Feature","geometry":{"type":"Point","coordinates":[-99.48057,27.974381]}},{"properties":{"ptd":13000,"latitude":32.393,"days":4,"spud":"10/26/2009","county":"HARRISON","operator":"NFR ENERGY LLC","rig":"10","rig_drill":"#10 NABORS DRILLING (K)","reptref":6,"dist":"6","well":"BARTLEY GAS UNIT #2 H","longitude":-94.28,"driller":"NABORS DRILLING (K)","id":"a69k7gjw1zn6","state":"TX"},"type":"Feature","geometry":{"type":"Point","coordinates":[-94.280167,32.392875]}},{"properties":{"ptd":7150,"latitude":31.16,"days":18,"spud":"10/12/2009","county":"LEON","operator":"RIPPY OIL COMPANY","rig":"10","rig_drill":"#10 PIONEER DRILLING/H","reptref":6,"dist":"5","well":"SIMMS #3 H","longitude":-96.079,"driller":"PIONEER DRILLING/H","id":"a69k7gmr3ikc","state":"TX"},"type":"Feature","geometry":{"type":"Point","coordinates":[-96.079442,31.160222]}},{"properties":{"ptd":11000,"latitude":26.648,"days":3,"spud":"10/27/2009","county":"KENEDY","operator":"BLAKENERGY OPERATING","rig":"10","rig_drill":"#10 PREMIUM DRILLING","reptref":2,"dist":"4","well":"MILAN #2","longitude":-97.869,"driller":"PREMIUM DRILLING","id":"a69k7graq9vp","state":"TX"},"type":"Feature","geometry":{"type":"Point","coordinates":[-97.86941,26.648475]}},{"properties":{"ptd":11500,"latitude":32.313,"days":36,"spud":"9/24/2009","county":"CADDO","operator":"CHESAPEAKE/OKC","rig":"100","rig_drill":"#100 TRINIDAD DRLG/SHREVE","reptref":12,"dist":"N","well":"BRYAN 3-15-16H #1","longitude":-93.996,"driller":"TRINIDAD DRLG/SHREVE","id":"a69k7gomtdcg","state":"LA"},"type":"Feature","geometry":{"type":"Point","coordinates":[-93.995929,32.312518]}},{"properties":{"ptd":16500,"latitude":31.513,"days":-4,"spud":"11/3/2009","county":"NACOGDOCHES","operator":"SONERRA RESOURCES","rig":"101","rig_drill":"#101 BASIN DRILLING LP","reptref":1,"dist":"6","well":"STANDING PINE #1","longitude":-94.547,"driller":"BASIN DRILLING LP","id":"a69k7gix9uaz","state":"TX"},"type":"Feature","geometry":{"type":"Point","coordinates":[-94.547353,31.512888]}},{"properties":{"ptd":11250,"latitude":32.298,"days":15,"spud":"10/15/2009","county":"CADDO","operator":"CHESAPEAKE/OKC","rig":"101","rig_drill":"#101 NOMAC DRLG LLC/MARSH","reptref":16,"dist":"N","well":"MONAD WERNER 8-15-16H #1","longitude":-94.023,"driller":"NOMAC DRLG LLC/MARSH","id":"a69k7glsa303","state":"LA"},"type":"Feature","geometry":{"type":"Point","coordinates":[-94.02341,32.298173]}},{"properties":{"ptd":12000,"latitude":31.96,"days":-3,"spud":"11/2/2009","county":"RED RIVER","operator":"ENCANA O &amp; G/DALLAS","rig":"101","rig_drill":"#101 PRECISION DRILLING/E","reptref":14,"dist":"N","well":"LYSANDER WEBB -11H- #1","longitude":-93.357,"driller":"PRECISION DRILLING/E","id":"a69k7gokvqx9","state":"LA"},"type":"Feature","geometry":{"type":"Point","coordinates":[-93.356753,31.960351]}},{"properties":{"ptd":12000,"latitude":32.181,"days":60,"spud":"8/31/2009","county":"RED RIVER","operator":"ENCANA O &amp; G/DALLAS","rig":"101","rig_drill":"#101 PRECISION DRILLING/E","reptref":13,"dist":"N","well":"JAMES MARSTON -19H- #1","longitude":-93.426,"driller":"PRECISION DRILLING/E","id":"a69k7go7hsq8","state":"LA"},"type":"Feature","geometry":{"type":"Point","coordinates":[-93.425853,32.181214]}},{"properties":{"ptd":12200,"latitude":31.919,"days":39,"spud":"9/21/2009","county":"DE SOTO","operator":"CHESAPEAKE/OKC","rig":"101","rig_drill":"#101 TRINIDAD DRLG/SHREVE","reptref":23,"dist":"N","well":"WEYERHAEUSER 21-11-13H #1","longitude":-93.701,"driller":"TRINIDAD DRLG/SHREVE","id":"a69k7gg7nlbw","state":"LA"},"type":"Feature","geometry":{"type":"Point","coordinates":[-93.70075,31.91878]}},{"properties":{"ptd":14000,"latitude":31.833,"days":30,"spud":"9/30/2009","county":"SHELBY","operator":"BURK ROYALTY COMPANY","rig":"101","rig_drill":"#101 UNIT TEXAS (H)","reptref":9,"dist":"6","well":"J KIDD #1","longitude":-94.269,"driller":"UNIT TEXAS (H)","id":"a69k7gogpuej","state":"TX"},"type":"Feature","geometry":{"type":"Point","coordinates":[-94.269301,31.833058]}},{"properties":{"ptd":12420,"latitude":32.235,"days":16,"spud":"10/14/2009","county":"RED RIVER","operator":"SWEPI LP/UT","rig":"102","rig_drill":"#102 NABORS DRILLING (L)","reptref":8,"dist":"N","well":"MARY LONG -4- #1","longitude":-93.404,"driller":"NABORS DRILLING (L)","id":"a69k7gd6fj69","state":"LA"},"type":"Feature","geometry":{"type":"Point","coordinates":[-93.404019,32.234914]}},{"properties":{"ptd":9000,"latitude":32.698,"days":-5,"spud":"11/4/2009","county":"TARRANT","operator":"CHESAPEAKE/OKC","rig":"102","rig_drill":"#102 NOMAC DRLG LLC/MARSH","reptref":16,"dist":"5","well":"RIDGLEA TRIANGLE #1 H","longitude":-97.439,"driller":"NOMAC DRLG LLC/MARSH","id":"a69k7gjh7z9y","state":"TX"},"type":"Feature","geometry":{"type":"Point","coordinates":[-97.439249,32.697886]}},{"properties":{"ptd":9000,"latitude":32.733,"days":21,"spud":"10/9/2009","county":"TARRANT","operator":"CHESAPEAKE/OKC","rig":"102","rig_drill":"#102 NOMAC DRLG LLC/MARSH","reptref":15,"dist":"5","well":"BARRON #1 H","longitude":-97.167,"driller":"NOMAC DRLG LLC/MARSH","id":"a69k7gcr0vz6","state":"TX"},"type":"Feature","geometry":{"type":"Point","coordinates":[-97.16677,32.733208]}},{"properties":{"ptd":12700,"latitude":31.097,"days":49,"spud":"9/11/2009","county":"WILKINSON","operator":"AXIS ONSHORE LP","rig":"102","rig_drill":"#102 PRECISION DRILLING/E","reptref":1,"dist":null,"well":"GRAVES 37-1 #1","longitude":-91.08,"driller":"PRECISION DRILLING/E","id":"a69k7gj64ssl","state":"MS"},"type":"Feature","geometry":{"type":"Point","coordinates":[-91.080041,31.097228]}},{"properties":{"ptd":11500,"latitude":32.049,"days":16,"spud":"10/14/2009","county":"DE SOTO","operator":"CHESAPEAKE/OKC","rig":"102","rig_drill":"#102 TRINIDAD DRLG/SHREVE","reptref":54,"dist":"N","well":"NABORS 8-12-13H #1","longitude":-93.727,"driller":"TRINIDAD DRLG/SHREVE","id":"a69k7gntqm2j","state":"LA"},"type":"Feature","geometry":{"type":"Point","coordinates":[-93.72743,32.048637]}},{"properties":{"ptd":18000,"latitude":32.272,"days":46,"spud":"9/14/2009","county":"PANOLA","operator":"GOODRICH PETRO CO","rig":"103","rig_drill":"#103 PRECISION DRILLING/S","reptref":3,"dist":"6","well":"BILLY HARRIS HAY #1 H","longitude":-94.539,"driller":"PRECISION DRILLING/S","id":"a69k7gpcwhk5","state":"TX"},"type":"Feature","geometry":{"type":"Point","coordinates":[-94.539034,32.2715]}},{"properties":{"ptd":12300,"latitude":31.932,"days":6,"spud":"10/24/2009","county":"DE SOTO","operator":"CHESAPEAKE/OKC","rig":"103","rig_drill":"#103 TRINIDAD DRLG/SHREVE","reptref":20,"dist":"N","well":"CHK LA MINERALS -23H- #1","longitude":-93.665,"driller":"TRINIDAD DRLG/SHREVE","id":"a69k7glk266z","state":"LA"},"type":"Feature","geometry":{"type":"Point","coordinates":[-93.665061,31.931908]}},{"properties":{"ptd":4780,"latitude":35.313,"days":4,"spud":"10/26/2009","county":"WHITE","operator":"CHESAPEAKE/OKC","rig":"104","rig_drill":"#104 NOMAC DRILLING LLC","reptref":10,"dist":null,"well":"CHIEF 8-7 #4-16 H8","longitude":-91.758,"driller":"NOMAC DRILLING LLC","id":"a69k7gl35i44","state":"AR"},"type":"Feature","geometry":{"type":"Point","coordinates":[-91.758092,35.313481]}},{"properties":{"ptd":12150,"latitude":31.874,"days":35,"spud":"9/25/2009","county":"DE SOTO","operator":"CHESAPEAKE/OKC","rig":"104","rig_drill":"#104 TRINIDAD DRLG/SHREVE","reptref":26,"dist":"N","well":"MUENCH -10H- #1","longitude":-93.683,"driller":"TRINIDAD DRLG/SHREVE","id":"a69k7gespn7b","state":"LA"},"type":"Feature","geometry":{"type":"Point","coordinates":[-93.682817,31.873887]}},{"properties":{"ptd":9500,"latitude":31.657,"days":2,"spud":"10/28/2009","county":"SHELBY","operator":"CABOT O &amp; G/HOUSTON","rig":"105","rig_drill":"#105 PRECISION DRILLING/E","reptref":12,"dist":"6","well":"ODM (PETTET) #1","longitude":-94.254,"driller":"PRECISION DRILLING/E","id":"a69k7gmlip6n","state":"TX"},"type":"Feature","geometry":{"type":"Point","coordinates":[-94.253698,31.657139]}},{"properties":{"ptd":11700,"latitude":32.051,"days":23,"spud":"10/7/2009","county":"DE SOTO","operator":"CHESAPEAKE/OKC","rig":"105","rig_drill":"#105 TRINIDAD DRLG/SHREVE","reptref":52,"dist":"N","well":"FUNSTON 1-12-16H #1","longitude":-93.957,"driller":"TRINIDAD DRLG/SHREVE","id":"a69k7gogm101","state":"LA"},"type":"Feature","geometry":{"type":"Point","coordinates":[-93.957308,32.050672]}},{"properties":{"ptd":11800,"latitude":32.24,"days":17,"spud":"10/13/2009","county":"DE SOTO","operator":"CHESAPEAKE/OKC","rig":"106","rig_drill":"#106 TRINIDAD DRLG/SHREVE","reptref":47,"dist":"N","well":"DAVIS ET AL -36H- #1","longitude":-93.759,"driller":"TRINIDAD DRLG/SHREVE","id":"a69k7gmr7ekm","state":"LA"},"type":"Feature","geometry":{"type":"Point","coordinates":[-93.75942,32.239708]}},{"properties":{"ptd":12000,"latitude":32.191,"days":38,"spud":"9/22/2009","county":"RED RIVER","operator":"ENCANA O &amp; G/DALLAS","rig":"107","rig_drill":"#107 PRECISION DRILLING/S","reptref":15,"dist":"N","well":"RONALD GUIN -21H- #1","longitude":-93.396,"driller":"PRECISION DRILLING/S","id":"a69k7gcpbdta","state":"LA"},"type":"Feature","geometry":{"type":"Point","coordinates":[-93.395626,32.190624]}},{"properties":{"ptd":12300,"latitude":31.817,"days":49,"spud":"9/11/2009","county":"SABINE","operator":"CHESAPEAKE/OKC","rig":"107","rig_drill":"#107 TRINIDAD DRLG/SHREVE","reptref":3,"dist":"N","well":"LABOKAY 27-10-13H #1","longitude":-93.693,"driller":"TRINIDAD DRLG/SHREVE","id":"a69k7gkwj6lm","state":"LA"},"type":"Feature","geometry":{"type":"Point","coordinates":[-93.692725,31.816514]}},{"properties":{"ptd":12000,"latitude":32.193,"days":14,"spud":"10/16/2009","county":"RED RIVER","operator":"ENCANA O &amp; G/DALLAS","rig":"108","rig_drill":"#108 PRECISION DRILLING/S","reptref":16,"dist":"N","well":"JAMES MARSTON -17H- #1","longitude":-93.422,"driller":"PRECISION DRILLING/S","id":"a69k7gmyysbc","state":"LA"},"type":"Feature","geometry":{"type":"Point","coordinates":[-93.422448,32.193264]}},{"properties":{"ptd":11600,"latitude":32.368,"days":10,"spud":"10/20/2009","county":"CADDO","operator":"CHESAPEAKE/OKC","rig":"108","rig_drill":"#108 TRINIDAD DRLG/SHREVE","reptref":6,"dist":"N","well":"LAMBERT DEV CO 20-16-14H #1","longitude":-93.829,"driller":"TRINIDAD DRLG/SHREVE","id":"a69k7gjf1wfa","state":"LA"},"type":"Feature","geometry":{"type":"Point","coordinates":[-93.8295,32.368201]}},{"properties":{"ptd":4675,"latitude":35.392,"days":-2,"spud":"11/1/2009","county":"CLEBURNE","operator":"CHESAPEAKE/OKC","rig":"109","rig_drill":"#109 NOMAC DRILLING LLC","reptref":3,"dist":null,"well":"WILLIE BARGER 9-11 #1-24","longitude":-92.114,"driller":"NOMAC DRILLING LLC","id":"a69k7gcou1j4","state":"AR"},"type":"Feature","geometry":{"type":"Point","coordinates":[-92.114463,35.392391]}},{"properties":{"ptd":12500,"latitude":32.078,"days":35,"spud":"9/25/2009","county":"DE SOTO","operator":"CHESAPEAKE/OKC","rig":"109","rig_drill":"#109 TRINIDAD DRLG/SHREVE","reptref":13,"dist":"N","well":"CHK LA MINERALS -25H- #1","longitude":-93.547,"driller":"TRINIDAD DRLG/SHREVE","id":"a69k7grfw59l","state":"LA"},"type":"Feature","geometry":{"type":"Point","coordinates":[-93.546953,32.07815]}},{"properties":{"ptd":12000,"latitude":29.486,"days":10,"spud":"10/20/2009","county":"FORT BEND","operator":"GORDY OIL COMPANY","rig":"11","rig_drill":"#11 COASTAL DRLG LAND","reptref":1,"dist":"3","well":"MARJORIE RAGSDALE POLLARD ETAL #1","longitude":-96.021,"driller":"COASTAL DRLG LAND","id":"a69k7gnxirf0","state":"TX"},"type":"Feature","geometry":{"type":"Point","coordinates":[-96.021442,29.486359]}},{"properties":{"ptd":12450,"latitude":30.05,"days":9,"spud":"10/21/2009","county":"VERMILION","operator":"DYNAMIC EXPLORATION","rig":"11","rig_drill":"#11 ENERGY DRILLING","reptref":1,"dist":"S","well":"P PREVOST #1","longitude":-92.048,"driller":"ENERGY DRILLING","id":"a69k7gmbay39","state":"LA"},"type":"Feature","geometry":{"type":"Point","coordinates":[-92.048474,30.049711]}},{"properties":{"ptd":10800,"latitude":28.587,"days":15,"spud":"10/15/2009","county":"DIMMIT","operator":"KILLAM OIL/LAREDO","rig":"11","rig_drill":"#11 PATTERSON UTI/VICTOR","reptref":2,"dist":"1","well":"BRYMER UNIT #1 RE","longitude":-99.584,"driller":"PATTERSON UTI/VICTOR","id":"a69k7grv0uas","state":"TX"},"type":"Feature","geometry":{"type":"Point","coordinates":[-99.584284,28.586549]}},{"properties":{"ptd":7500,"latitude":30.341,"days":14,"spud":"10/16/2009","county":"LEE","operator":"GEOSOUTHERN/WOODLAND","rig":"11","rig_drill":"#11 WISCO MORAN DRILLING","reptref":1,"dist":"3","well":"WINKLER #1","longitude":-97.066,"driller":"WISCO MORAN DRILLING","id":"a69k7ggjdka2","state":"TX"},"type":"Feature","geometry":{"type":"Point","coordinates":[-97.066278,30.340858]}},{"properties":{"ptd":11492,"latitude":34.996,"days":10,"spud":"10/20/2009","county":"LATIMER","operator":"BP AMERICA/HOUSTON","rig":"110","rig_drill":"#110 HELMERICH &amp; PAYNE(O)","reptref":1,"dist":null,"well":"GARRETT #9","longitude":-95.171,"driller":"HELMERICH &amp; PAYNE(O)","id":"a69k7gil5iob","state":"OK"},"type":"Feature","geometry":{"type":"Point","coordinates":[-95.170985,34.995742]}},{"properties":{"ptd":9000,"latitude":32.48,"days":4,"spud":"10/26/2009","county":"JOHNSON","operator":"CHESAPEAKE/OKC","rig":"110","rig_drill":"#110 NOMAC DRLG LLC/MARSH","reptref":6,"dist":"5","well":"HOLLY #5 H","longitude":-97.394,"driller":"NOMAC DRLG LLC/MARSH","id":"a69k7gmvj321","state":"TX"},"type":"Feature","geometry":{"type":"Point","coordinates":[-97.39373,32.480164]}},{"properties":{"ptd":9000,"latitude":32.873,"days":16,"spud":"10/14/2009","county":"TARRANT","operator":"CHESAPEAKE/OKC","rig":"110","rig_drill":"#110 TRINIDAD DRLG/FW","reptref":21,"dist":"5","well":"GRAHAM -A- #2 H","longitude":-97.233,"driller":"TRINIDAD DRLG/FW","id":"a69k7gda82a7","state":"TX"},"type":"Feature","geometry":{"type":"Point","coordinates":[-97.233093,32.873138]}},{"properties":{"ptd":4465,"latitude":35.444,"days":3,"spud":"10/27/2009","county":"WHITE","operator":"XTO ENERGY/OKC","rig":"110","rig_drill":"#110 UNION DRILLING (T)","reptref":12,"dist":null,"well":"MUSE #1-32 H","longitude":-91.669,"driller":"UNION DRILLING (T)","id":"a69k7gehxt9g","state":"AR"},"type":"Feature","geometry":{"type":"Point","coordinates":[-91.669055,35.444111]}},{"properties":{"ptd":9000,"latitude":32.792,"days":12,"spud":"10/18/2009","county":"TARRANT","operator":"CHESAPEAKE/OKC","rig":"111","rig_drill":"#111 NOMAC DRLG LLC/MARSH","reptref":17,"dist":"5","well":"WORK #2 H","longitude":-97.223,"driller":"NOMAC DRLG LLC/MARSH","id":"a69k7gowfc6u","state":"TX"},"type":"Feature","geometry":{"type":"Point","coordinates":[-97.223237,32.791606]}},{"properties":{"ptd":9000,"latitude":32.442,"days":11,"spud":"10/19/2009","county":"JOHNSON","operator":"CHESAPEAKE/OKC","rig":"111","rig_drill":"#111 TRINIDAD DRLG/FW","reptref":9,"dist":"5","well":"LITTLE HOSS -7- #B3 H","longitude":-97.603,"driller":"TRINIDAD DRLG/FW","id":"a69k7gcydgum","state":"TX"},"type":"Feature","geometry":{"type":"Point","coordinates":[-97.603186,32.442032]}},{"properties":{"ptd":12000,"latitude":32.077,"days":31,"spud":"9/29/2009","county":"RED RIVER","operator":"ENCANA O &amp; G/DALLAS","rig":"112","rig_drill":"#112 TRINIDAD DRLG/SHREVE","reptref":21,"dist":"N","well":"WALKER LTD -PRT- ET AL #2 ALT","longitude":-93.303,"driller":"TRINIDAD DRLG/SHREVE","id":"a69k7gmcvo9e","state":"LA"},"type":"Feature","geometry":{"type":"Point","coordinates":[-93.302919,32.076733]}},{"properties":{"ptd":5600,"latitude":35.208,"days":11,"spud":"10/19/2009","county":"SEBASTIAN","operator":"HIGHLAND O &amp; G LLC","rig":"112","rig_drill":"#112 UNION DRILLING (T)","reptref":4,"dist":null,"well":"JOHNSON #9-11","longitude":-94.375,"driller":"UNION DRILLING (T)","id":"a69k7ge0lb6h","state":"AR"},"type":"Feature","geometry":{"type":"Point","coordinates":[-94.374734,35.208325]}},{"properties":{"ptd":5699,"latitude":35.273,"days":3,"spud":"10/27/2009","county":"CONWAY","operator":"PETROHAWK OPERATING","rig":"113","rig_drill":"#113 NABORS DRILLING (O)","reptref":1,"dist":null,"well":"MILLER 7-17 #1-2 H","longitude":-92.77,"driller":"NABORS DRILLING (O)","id":"a69k7gk65g95","state":"AR"},"type":"Feature","geometry":{"type":"Point","coordinates":[-92.770425,35.273346]}},{"properties":{"ptd":7150,"latitude":35.259,"days":3,"spud":"10/27/2009","county":"WHITE","operator":"CHESAPEAKE/OKC","rig":"115","rig_drill":"#115 NOMAC DRILLING LLC","reptref":3,"dist":null,"well":"WILSON-RIGGIN 7-10 #1-3 H","longitude":-92.054,"driller":"NOMAC DRILLING LLC","id":"a69k7golz8ax","state":"AR"},"type":"Feature","geometry":{"type":"Point","coordinates":[-92.054483,35.258821]}},{"properties":{"ptd":11300,"latitude":32.372,"days":7,"spud":"10/23/2009","county":"CADDO","operator":"CHESAPEAKE/OKC","rig":"116","rig_drill":"#116 NOMAC DRLG LLC/MARSH","reptref":15,"dist":"N","well":"QUERBES 18-16-16H #1","longitude":-94.039,"driller":"NOMAC DRLG LLC/MARSH","id":"a69k7gr6jwz4","state":"LA"},"type":"Feature","geometry":{"type":"Point","coordinates":[-94.038891,32.371606]}},{"properties":{"ptd":20000,"latitude":31.087,"days":13,"spud":"10/17/2009","county":"LEON","operator":"GASTAR EXPLORATION","rig":"117","rig_drill":"#117 TRINIDAD DRLG/SHREVE","reptref":1,"dist":"5","well":"GASTAR DONELSON GAS UNIT -1- #4","longitude":-96.221,"driller":"TRINIDAD DRLG/SHREVE","id":"a69k7gi39pj4","state":"TX"},"type":"Feature","geometry":{"type":"Point","coordinates":[-96.221233,31.087222]}},{"properties":{"ptd":9000,"latitude":32.671,"days":7,"spud":"10/23/2009","county":"TARRANT","operator":"CHESAPEAKE/OKC","rig":"118","rig_drill":"#118 NOMAC DRLG LLC/MARSH","reptref":18,"dist":"5","well":"FORD UNIT #6 H","longitude":-97.295,"driller":"NOMAC DRLG LLC/MARSH","id":"a69k7gnvnywn","state":"TX"},"type":"Feature","geometry":{"type":"Point","coordinates":[-97.295091,32.670554]}},{"properties":{"ptd":3500,"latitude":35.515,"days":-1,"spud":"10/31/2009","county":"WHITE","operator":"SEECO INC","rig":"118","rig_drill":"#118 SAXON DRILLING","reptref":19,"dist":null,"well":"KING 10-06 #4-7 H","longitude":-91.688,"driller":"SAXON DRILLING","id":"a69k7gf35z7c","state":"AR"},"type":"Feature","geometry":{"type":"Point","coordinates":[-91.68794,35.515442]}},{"properties":{"ptd":12000,"latitude":32.177,"days":57,"spud":"9/3/2009","county":"RED RIVER","operator":"ENCANA O &amp; G/DALLAS","rig":"118","rig_drill":"#118 TRINIDAD DRLG/SHREVE","reptref":22,"dist":"N","well":"BROWN SW MIN -26H- #1","longitude":-93.372,"driller":"TRINIDAD DRLG/SHREVE","id":"a69k7gjhpie9","state":"LA"},"type":"Feature","geometry":{"type":"Point","coordinates":[-93.371974,32.176539]}},{"properties":{"ptd":9000,"latitude":32.33,"days":3,"spud":"10/27/2009","county":"JOHNSON","operator":"CHESAPEAKE/OKC","rig":"119","rig_drill":"#119 NOMAC DRLG LLC/MARSH","reptref":7,"dist":"5","well":"SERENA BETH #3 H","longitude":-97.476,"driller":"NOMAC DRLG LLC/MARSH","id":"a69k7go1vycd","state":"TX"},"type":"Feature","geometry":{"type":"Point","coordinates":[-97.475935,32.32965]}},{"properties":{"ptd":3500,"latitude":35.471,"days":4,"spud":"10/26/2009","county":"WHITE","operator":"SEECO INC","rig":"119","rig_drill":"#119 SAXON DRILLING","reptref":20,"dist":null,"well":"SMITH 10-06 #1-25 H","longitude":-91.588,"driller":"SAXON DRILLING","id":"a69k7ghvir67","state":"AR"},"type":"Feature","geometry":{"type":"Point","coordinates":[-91.587536,35.471166]}},{"properties":{"ptd":12595,"latitude":32.079,"days":7,"spud":"10/23/2009","county":"RED RIVER","operator":"PETROHAWK OPERATING","rig":"119","rig_drill":"#119 TRINIDAD DRLG/SHREVE","reptref":4,"dist":"N","well":"BRIARWOOD -35H- #1","longitude":-93.467,"driller":"TRINIDAD DRLG/SHREVE","id":"a69k7gjmexyd","state":"LA"},"type":"Feature","geometry":{"type":"Point","coordinates":[-93.46716,32.078599]}},{"properties":{"ptd":12100,"latitude":31.773,"days":16,"spud":"10/14/2009","county":"SABINE","operator":"EAGLE OIL &amp; GAS CO","rig":"12","rig_drill":"#12 AQUILA DRILLING","reptref":4,"dist":"N","well":"GREER -15- #1","longitude":-93.785,"driller":"AQUILA DRILLING","id":"a69k7ge4euf5","state":"LA"},"type":"Feature","geometry":{"type":"Point","coordinates":[-93.785122,31.77293]}},{"properties":{"ptd":7300,"latitude":28.393,"days":9,"spud":"10/21/2009","county":"REFUGIO","operator":"POOL OPERATING CORP","rig":"12","rig_drill":"#12 COASTAL DRLG LAND","reptref":1,"dist":"2","well":"BARBER RANCH LTD #3 H","longitude":-97.29,"driller":"COASTAL DRLG LAND","id":"a69k7gopmuxe","state":"TX"},"type":"Feature","geometry":{"type":"Point","coordinates":[-97.290487,28.392773]}},{"properties":{"ptd":12480,"latitude":32.279,"days":17,"spud":"10/13/2009","county":"BIENVILLE","operator":"QUESTAR E&amp;P/TULSA","rig":"12","rig_drill":"#12 ENERGY DRILLING","reptref":2,"dist":"N","well":"BILLY R HARPER -14H- #1","longitude":-93.264,"driller":"ENERGY DRILLING","id":"a69k7gjcl4kr","state":"LA"},"type":"Feature","geometry":{"type":"Point","coordinates":[-93.264069,32.278829]}},{"properties":{"ptd":10000,"latitude":28.439,"days":5,"spud":"10/25/2009","county":"MCMULLEN","operator":"SWIFT ENERGY OPER","rig":"12","rig_drill":"#12 PIONEER DRILLING","reptref":9,"dist":"1","well":"QUINTANILLA #4","longitude":-98.535,"driller":"PIONEER DRILLING","id":"a69k7ggd1em9","state":"TX"},"type":"Feature","geometry":{"type":"Point","coordinates":[-98.53476,28.439124]}},{"properties":{"ptd":9000,"latitude":32.668,"days":2,"spud":"10/28/2009","county":"TARRANT","operator":"CHESAPEAKE/OKC","rig":"120","rig_drill":"#120 NOMAC DRLG LLC/MARSH","reptref":19,"dist":"5","well":"I-20 -JV- #6 H","longitude":-97.071,"driller":"NOMAC DRLG LLC/MARSH","id":"a69k7grfpxlz","state":"TX"},"type":"Feature","geometry":{"type":"Point","coordinates":[-97.071092,32.66836]}},{"properties":{"ptd":11700,"latitude":32.04,"days":19,"spud":"10/11/2009","county":"PANOLA","operator":"CONOCOPHILLIPS/HSTN","rig":"120","rig_drill":"#120 TRINIDAD DRLG/SHREVE","reptref":10,"dist":"6","well":"NAOMI -3- UNIT #16","longitude":-94.331,"driller":"TRINIDAD DRLG/SHREVE","id":"a69k7ges9avv","state":"TX"},"type":"Feature","geometry":{"type":"Point","coordinates":[-94.331011,32.040363]}},{"properties":{"ptd":10500,"latitude":32.497,"days":8,"spud":"10/22/2009","county":"BIENVILLE","operator":"CONOCOPHILLIPS/HSTN","rig":"121","rig_drill":"#121 TRINIDAD DRLG/SHREVE","reptref":4,"dist":"N","well":"OUZTS -A- #13","longitude":-93.117,"driller":"TRINIDAD DRLG/SHREVE","id":"a69k7gmgar0p","state":"LA"},"type":"Feature","geometry":{"type":"Point","coordinates":[-93.117326,32.497087]}},{"properties":{"ptd":13500,"latitude":32.167,"days":20,"spud":"10/10/2009","county":"DE SOTO","operator":"EXCO PRODUCTION","rig":"122","rig_drill":"#122 TRINIDAD DRLG/SHREVE","reptref":6,"dist":"N","well":"SMITH HEIRS #5 ALT","longitude":-93.746,"driller":"TRINIDAD DRLG/SHREVE","id":"a69k7gke210b","state":"LA"},"type":"Feature","geometry":{"type":"Point","coordinates":[-93.745944,32.166629]}},{"properties":{"ptd":5000,"latitude":35.376,"days":20,"spud":"10/10/2009","county":"CLEBURNE","operator":"XTO ENERGY/OKC","rig":"122","rig_drill":"#122 UNION DRILLING (T)","reptref":2,"dist":null,"well":"BOB DIXON #2-27 H","longitude":-92.048,"driller":"UNION DRILLING (T)","id":"a69k7gh29fp8","state":"AR"},"type":"Feature","geometry":{"type":"Point","coordinates":[-92.047926,35.376193]}},{"properties":{"ptd":11945,"latitude":32.34,"days":20,"spud":"10/10/2009","county":"DE SOTO","operator":"CAMTERRA RESOURCES","rig":"123","rig_drill":"#123 SAXON DRILLING","reptref":39,"dist":"N","well":"MCFERREN -25- #1","longitude":-93.76,"driller":"SAXON DRILLING","id":"a69k7geaf7ww","state":"LA"},"type":"Feature","geometry":{"type":"Point","coordinates":[-93.759743,32.339582]}},{"properties":{"ptd":12000,"latitude":32.18,"days":80,"spud":"8/11/2009","county":"RED RIVER","operator":"ENCANA O &amp; G/DALLAS","rig":"123","rig_drill":"#123 TRINIDAD DRLG/SHREVE","reptref":23,"dist":"N","well":"REX YOUNG -21H- #1","longitude":-93.511,"driller":"TRINIDAD DRLG/SHREVE","id":"a69k7gojei22","state":"LA"},"type":"Feature","geometry":{"type":"Point","coordinates":[-93.511025,32.179539]}},{"properties":{"ptd":12000,"latitude":32.223,"days":7,"spud":"10/23/2009","county":"DE SOTO","operator":"ENCANA O &amp; G/DALLAS","rig":"124","rig_drill":"#124 TRINIDAD DRLG/SHREVE","reptref":37,"dist":"N","well":"M &amp; M LONG PROPERTIES -9H- #1","longitude":-93.814,"driller":"TRINIDAD DRLG/SHREVE","id":"a69k7gd9jkjz","state":"LA"},"type":"Feature","geometry":{"type":"Point","coordinates":[-93.813928,32.223138]}},{"properties":{"ptd":7160,"latitude":34.897,"days":2,"spud":"10/28/2009","county":"HUGHES","operator":"NEWFIELD EXP MID-CON","rig":"125","rig_drill":"#125 CACTUS DRILLING","reptref":7,"dist":null,"well":"DAVID #1 H-7E","longitude":-96.179,"driller":"CACTUS DRILLING","id":"a69k7grpbu13","state":"OK"},"type":"Feature","geometry":{"type":"Point","coordinates":[-96.179106,34.896651]}},{"properties":{"ptd":4200,"latitude":35.376,"days":14,"spud":"10/16/2009","county":"CLEBURNE","operator":"XTO ENERGY/OKC","rig":"125","rig_drill":"#125 UNION DRILLING (T)","reptref":5,"dist":null,"well":"JONES #1-33 H","longitude":-92.179,"driller":"UNION DRILLING (T)","id":"a69k7ggb13j9","state":"AR"},"type":"Feature","geometry":{"type":"Point","coordinates":[-92.178626,35.376316]}},{"properties":{"ptd":12195,"latitude":34.666,"days":18,"spud":"10/12/2009","county":"COAL","operator":"NEWFIELD EXP MID-CON","rig":"126","rig_drill":"#126 CACTUS DRILLING","reptref":1,"dist":null,"well":"ENNIS #6 H12","longitude":-96.102,"driller":"CACTUS DRILLING","id":"a69k7gmhepmf","state":"OK"},"type":"Feature","geometry":{"type":"Point","coordinates":[-96.101754,34.665594]}},{"properties":{"ptd":12500,"latitude":32.077,"days":26,"spud":"10/4/2009","county":"DE SOTO","operator":"CHESAPEAKE/OKC","rig":"126","rig_drill":"#126 TRINIDAD DRLG/SHREVE","reptref":14,"dist":"N","well":"NABORS PROPERTIES -31H- #1","longitude":-93.539,"driller":"TRINIDAD DRLG/SHREVE","id":"a69k7gfe1rln","state":"LA"},"type":"Feature","geometry":{"type":"Point","coordinates":[-93.539008,32.077096]}},{"properties":{"ptd":5675,"latitude":35.361,"days":11,"spud":"10/19/2009","county":"CLEBURNE","operator":"XTO ENERGY/OKC","rig":"126","rig_drill":"#126 UNION DRILLING (T)","reptref":1,"dist":null,"well":"JESSICA PHILLIPS #1-35 H","longitude":-91.938,"driller":"UNION DRILLING (T)","id":"a69k7gs7vml0","state":"AR"},"type":"Feature","geometry":{"type":"Point","coordinates":[-91.938197,35.361466]}},{"properties":{"ptd":11500,"latitude":32.399,"days":25,"spud":"10/5/2009","county":"CADDO","operator":"CHESAPEAKE/OKC","rig":"127","rig_drill":"#127 TRINIDAD DRLG/SHREVE","reptref":13,"dist":"N","well":"L &amp; S DEV 7-16-15H #1","longitude":-93.938,"driller":"TRINIDAD DRLG/SHREVE","id":"a69k7gmpif4j","state":"LA"},"type":"Feature","geometry":{"type":"Point","coordinates":[-93.937625,32.398883]}},{"properties":{"ptd":8000,"latitude":28.072,"days":4,"spud":"10/26/2009","county":"WEBB","operator":"LEGEND NAT'L GAS III","rig":"128","rig_drill":"#128 PATTERSON UTI/VICTOR","reptref":10,"dist":"4","well":"GALVAN RANCH -O12- #1","longitude":-99.67,"driller":"PATTERSON UTI/VICTOR","id":"a69k7gednr50","state":"TX"},"type":"Feature","geometry":{"type":"Point","coordinates":[-99.669954,28.07222]}},{"properties":{"ptd":12300,"latitude":32.062,"days":47,"spud":"9/13/2009","county":"DE SOTO","operator":"CHESAPEAKE/OKC","rig":"128","rig_drill":"#128 TRINIDAD DRLG/SHREVE","reptref":21,"dist":"N","well":"NP LLC 5-12-13 H #1","longitude":-93.719,"driller":"TRINIDAD DRLG/SHREVE","id":"a69k7gm73ei5","state":"LA"},"type":"Feature","geometry":{"type":"Point","coordinates":[-93.718707,32.062233]}},{"properties":{"ptd":8000,"latitude":28.052,"days":-1,"spud":"10/31/2009","county":"WEBB","operator":"LEGEND NAT'L GAS III","rig":"129","rig_drill":"#129 PATTERSON UTI/VICTOR","reptref":11,"dist":"4","well":"GALVAN RANCH -M12- #1","longitude":-99.696,"driller":"PATTERSON UTI/VICTOR","id":"a69k7gm9glgq","state":"TX"},"type":"Feature","geometry":{"type":"Point","coordinates":[-99.695786,28.052497]}},{"properties":{"ptd":9000,"latitude":32.689,"days":8,"spud":"10/22/2009","county":"TARRANT","operator":"CHESAPEAKE/OKC","rig":"129","rig_drill":"#129 TRINIDAD DRLG/FW","reptref":22,"dist":"5","well":"AGAPE #3 H","longitude":-97.071,"driller":"TRINIDAD DRLG/FW","id":"a69k7gle1ay8","state":"TX"},"type":"Feature","geometry":{"type":"Point","coordinates":[-97.070595,32.689414]}},{"properties":{"ptd":13000,"latitude":31.581,"days":19,"spud":"10/11/2009","county":"CHEROKEE","operator":"XTO ENERGY/TYLER","rig":"13","rig_drill":"#13 LATSHAW DRILLING","reptref":2,"dist":"6","well":"CHRONISTER HEIRS #49","longitude":-94.995,"driller":"LATSHAW DRILLING","id":"a69k7glqsjea","state":"TX"},"type":"Feature","geometry":{"type":"Point","coordinates":[-94.99545,31.580736]}},{"properties":{"ptd":7141,"latitude":34.912,"days":44,"spud":"9/16/2009","county":"HUGHES","operator":"NEWFIELD EXP MID-CON","rig":"130","rig_drill":"#130 CACTUS DRILLING","reptref":8,"dist":null,"well":"MARTIN #1 H-15E","longitude":-96.132,"driller":"CACTUS DRILLING","id":"a69k7gqc1dtb","state":"OK"},"type":"Feature","geometry":{"type":"Point","coordinates":[-96.132091,34.911974]}},{"properties":{"ptd":9000,"latitude":32.526,"days":4,"spud":"10/26/2009","county":"JOHNSON","operator":"CHESAPEAKE/OKC","rig":"130","rig_drill":"#130 TRINIDAD DRLG/FW","reptref":10,"dist":"5","well":"GLADE TRUST #4 H","longitude":-97.357,"driller":"TRINIDAD DRLG/FW","id":"a69k7gdoi5jw","state":"TX"},"type":"Feature","geometry":{"type":"Point","coordinates":[-97.357193,32.525978]}},{"properties":{"ptd":12012,"latitude":32.181,"days":2,"spud":"10/28/2009","county":"DE SOTO","operator":"EXCO PRODUCTION","rig":"132","rig_drill":"#132 TRINIDAD DRLG/SHREVE","reptref":30,"dist":"N","well":"ULYSSES MURRAY -24- #1","longitude":-93.654,"driller":"TRINIDAD DRLG/SHREVE","id":"a69k7gic7272","state":"LA"},"type":"Feature","geometry":{"type":"Point","coordinates":[-93.653925,32.181096]}},{"properties":{"ptd":11005,"latitude":34.884,"days":82,"spud":"8/9/2009","county":"PITTSBURG","operator":"NEWFIELD EXP MID-CON","rig":"133","rig_drill":"#133 CACTUS DRILLING","reptref":3,"dist":null,"well":"MORGAN #1 H-17","longitude":-95.858,"driller":"CACTUS DRILLING","id":"a69k7gqk3bmn","state":"OK"},"type":"Feature","geometry":{"type":"Point","coordinates":[-95.858409,34.883908]}},{"properties":{"ptd":8000,"latitude":34.723,"days":9,"spud":"10/21/2009","county":"COAL","operator":"KAISER-FRANCIS OIL","rig":"134","rig_drill":"#134 CACTUS DRILLING","reptref":5,"dist":null,"well":"HARLOW CUNNINGHAM #3-14 H","longitude":-96.122,"driller":"CACTUS DRILLING","id":"a69k7gooo6zn","state":"OK"},"type":"Feature","geometry":{"type":"Point","coordinates":[-96.121923,34.722748]}},{"properties":{"ptd":14000,"latitude":31.782,"days":16,"spud":"10/14/2009","county":"FREESTONE","operator":"APACHE CORP/TULSA","rig":"135","rig_drill":"#135 CACTUS DRILLING","reptref":3,"dist":"5","well":"FOLK GAS UNIT #9 H","longitude":-96.087,"driller":"CACTUS DRILLING","id":"a69k7gqbwjhf","state":"TX"},"type":"Feature","geometry":{"type":"Point","coordinates":[-96.086843,31.781733]}},{"properties":{"ptd":10700,"latitude":34.987,"days":71,"spud":"8/20/2009","county":"PITTSBURG","operator":"XTO ENERGY/OKC","rig":"136","rig_drill":"#136 CACTUS DRILLING","reptref":4,"dist":null,"well":"LOTT #1-14 H","longitude":-95.803,"driller":"CACTUS DRILLING","id":"a69k7gpyw07n","state":"OK"},"type":"Feature","geometry":{"type":"Point","coordinates":[-95.803325,34.986747]}},{"properties":{"ptd":8300,"latitude":34.186,"days":59,"spud":"9/1/2009","county":"ATOKA","operator":"XTO ENERGY/OKC","rig":"137","rig_drill":"#137 CACTUS DRILLING","reptref":1,"dist":null,"well":"EAVES #1-30 H","longitude":-96.087,"driller":"CACTUS DRILLING","id":"a69k7gj31zkr","state":"OK"},"type":"Feature","geometry":{"type":"Point","coordinates":[-96.086691,34.185608]}},{"properties":{"ptd":12300,"latitude":31.477,"days":9,"spud":"10/21/2009","county":"LIMESTONE","operator":"XTO ENERGY/TYLER","rig":"14","rig_drill":"#14 LATSHAW DRILLING","reptref":2,"dist":"5","well":"ROBERT SIMS GAS UNIT #9","longitude":-96.374,"driller":"LATSHAW DRILLING","id":"a69k7gg5h2zf","state":"TX"},"type":"Feature","geometry":{"type":"Point","coordinates":[-96.373797,31.477172]}},{"properties":{"ptd":7000,"latitude":28.521,"days":3,"spud":"10/27/2009","county":"DIMMIT","operator":"CML EXPLORATION/HOU","rig":"14","rig_drill":"#14 PATTERSON UTI/VICTOR","reptref":5,"dist":"1","well":"SUGARLAND #1","longitude":-99.678,"driller":"PATTERSON UTI/VICTOR","id":"a69k7grulxiz","state":"TX"},"type":"Feature","geometry":{"type":"Point","coordinates":[-99.678055,28.521111]}},{"properties":{"ptd":11000,"latitude":32.657,"days":21,"spud":"10/9/2009","county":"TARRANT","operator":"XTO ENERGY/FT WORTH","rig":"140","rig_drill":"#140 CACTUS DRILLING","reptref":1,"dist":"5","well":"FOREST HILL RANCH #1 H","longitude":-97.255,"driller":"CACTUS DRILLING","id":"a69k7gpzhkhj","state":"TX"},"type":"Feature","geometry":{"type":"Point","coordinates":[-97.25533,32.65712]}},{"properties":{"ptd":11000,"latitude":32.587,"days":14,"spud":"10/16/2009","county":"TARRANT","operator":"XTO ENERGY/FT WORTH","rig":"141","rig_drill":"#141 CACTUS DRILLING","reptref":2,"dist":"5","well":"MIRA LAGOS UNIT #9 H","longitude":-97.047,"driller":"CACTUS DRILLING","id":"a69k7gfvxhj2","state":"TX"},"type":"Feature","geometry":{"type":"Point","coordinates":[-97.047362,32.587368]}},{"properties":{"ptd":11437,"latitude":32.034,"days":44,"spud":"9/16/2009","county":"DE SOTO","operator":"COMSTOCK OIL&amp;GAS LP","rig":"143","rig_drill":"#143 CACTUS DRILLING","reptref":56,"dist":"N","well":"COLLINS LA -15HZ- #3","longitude":-93.994,"driller":"CACTUS DRILLING","id":"a69k7gfzfg6m","state":"LA"},"type":"Feature","geometry":{"type":"Point","coordinates":[-93.994261,32.034459]}},{"properties":{"ptd":12825,"latitude":34.709,"days":87,"spud":"8/4/2009","county":"PITTSBURG","operator":"XTO ENERGY/OKC","rig":"145","rig_drill":"#145 CACTUS DRILLING","reptref":1,"dist":null,"well":"DOYLE #1-27 H","longitude":-95.919,"driller":"CACTUS DRILLING","id":"a69k7graewbm","state":"OK"},"type":"Feature","geometry":{"type":"Point","coordinates":[-95.919305,34.709268]}},{"properties":{"ptd":8999,"latitude":32.256,"days":6,"spud":"10/24/2009","county":"JOHNSON","operator":"EOG RESOURCES/FORT","rig":"145","rig_drill":"#145 SAXON DRILLING","reptref":13,"dist":"5","well":"U S LIME #28 H","longitude":-97.571,"driller":"SAXON DRILLING","id":"a69k7gm3ubf5","state":"TX"},"type":"Feature","geometry":{"type":"Point","coordinates":[-97.570656,32.255553]}},{"properties":{"ptd":10080,"latitude":31.811,"days":16,"spud":"10/14/2009","county":"HIDALGO","operator":"SHELL WESTERN/HOUSTN","rig":"1453","rig_drill":"#1453 NABORS WELL SVC/ALIC","reptref":6,"dist":"4","well":"PHARR FIELDWIDE UNIT #10","longitude":-94.341,"driller":"NABORS WELL SVC/ALIC","id":"a69k7gp321d2","state":"TX"},"type":"Feature","geometry":{"type":"Point","coordinates":[-94.341154,31.810935]}},{"properties":{"ptd":11757,"latitude":34.623,"days":14,"spud":"10/16/2009","county":"COAL","operator":"NEWFIELD EXP MID-CON","rig":"146","rig_drill":"#146 CACTUS DRILLING","reptref":2,"dist":null,"well":"DOWNEN #4 H25","longitude":-96.096,"driller":"CACTUS DRILLING","id":"a69k7gsquvr0","state":"OK"},"type":"Feature","geometry":{"type":"Point","coordinates":[-96.096346,34.623051]}},{"properties":{"ptd":12500,"latitude":32.077,"days":56,"spud":"9/4/2009","county":"DE SOTO","operator":"COMSTOCK OIL&amp;GAS LP","rig":"15","rig_drill":"#15 BRONCO DRILLING/OK","reptref":10,"dist":"N","well":"CALHOUN -HZ- #1","longitude":-93.659,"driller":"BRONCO DRILLING/OK","id":"a69k7gg4u7ks","state":"LA"},"type":"Feature","geometry":{"type":"Point","coordinates":[-93.658609,32.076631]}},{"properties":{"ptd":14100,"latitude":31.193,"days":17,"spud":"10/13/2009","county":"ROBERTSON","operator":"XTO ENERGY/TYLER","rig":"15","rig_drill":"#15 LATSHAW DRILLING","reptref":6,"dist":"5","well":"MILSTEAD GAS UNIT #8","longitude":-96.442,"driller":"LATSHAW DRILLING","id":"a69k7ge0e6wh","state":"TX"},"type":"Feature","geometry":{"type":"Point","coordinates":[-96.441988,31.192784]}},{"properties":{"ptd":8000,"latitude":28.039,"days":1,"spud":"10/29/2009","county":"WEBB","operator":"LEGEND NAT'L GAS III","rig":"15","rig_drill":"#15 PIONEER DRILLING","reptref":12,"dist":"4","well":"GALVAN RANCH -K16- #1","longitude":-99.706,"driller":"PIONEER DRILLING","id":"a69k7ggu521o","state":"TX"},"type":"Feature","geometry":{"type":"Point","coordinates":[-99.706342,28.039441]}},{"properties":{"ptd":12230,"latitude":34.722,"days":113,"spud":"7/9/2009","county":"PITTSBURG","operator":"SEDNA ENERGY INC","rig":"15","rig_drill":"#15 UNIT DRILLING (M)","reptref":2,"dist":null,"well":"VIRGINIA #2 H-21","longitude":-95.942,"driller":"UNIT DRILLING (M)","id":"a69k7gh2yii9","state":"OK"},"type":"Feature","geometry":{"type":"Point","coordinates":[-95.942241,34.722428]}},{"properties":{"ptd":8000,"latitude":30.005,"days":12,"spud":"10/18/2009","county":"AUSTIN","operator":"SANDALWOOD EXPL","rig":"16","rig_drill":"#16 COASTAL DRLG LAND","reptref":2,"dist":"3","well":"RACCOON BEND -UWX- OIL UNIT-2- #1","longitude":-96.125,"driller":"COASTAL DRLG LAND","id":"a69k7gnn0jck","state":"TX"},"type":"Feature","geometry":{"type":"Point","coordinates":[-96.12464,30.005239]}},{"properties":{"ptd":13500,"latitude":32.191,"days":21,"spud":"10/9/2009","county":"RED RIVER","operator":"FOREST OIL/DENVER","rig":"16","rig_drill":"#16 LANTERN DRILLING","reptref":2,"dist":"N","well":"H B LAWSON JR -20H- #1","longitude":-93.308,"driller":"LANTERN DRILLING","id":"a69k7gf9dyk8","state":"LA"},"type":"Feature","geometry":{"type":"Point","coordinates":[-93.307549,32.191058]}},{"properties":{"ptd":12000,"latitude":28.406,"days":13,"spud":"10/17/2009","county":"MCMULLEN","operator":"WELHAUSEN OPERATING","rig":"16","rig_drill":"#16 PREMIUM DRILLING","reptref":6,"dist":"1","well":"Q-JCB-A #3","longitude":-98.515,"driller":"PREMIUM DRILLING","id":"a69k7ghwq6h5","state":"TX"},"type":"Feature","geometry":{"type":"Point","coordinates":[-98.515445,28.40631]}},{"properties":{"ptd":8900,"latitude":28.487,"days":35,"spud":"9/25/2009","county":"DIMMIT","operator":"REDEMPTION OIL &amp; GAS","rig":"160","rig_drill":"#160 PATTERSON UTI/VICTOR","reptref":4,"dist":"1","well":"LATHAM-MCKNIGHT #101 H","longitude":-100.043,"driller":"PATTERSON UTI/VICTOR","id":"a69k7gpob5da","state":"TX"},"type":"Feature","geometry":{"type":"Point","coordinates":[-100.043325,28.487327]}},{"properties":{"ptd":21500,"latitude":30.659,"days":104,"spud":"7/18/2009","county":"POINTE COUPEE","operator":"ENERGY PRODUCTION","rig":"161","rig_drill":"#161 HELMERICH &amp; PAYNE/T","reptref":2,"dist":"S","well":"H L BONAVENTURE JR ET AL -51- #1","longitude":-91.512,"driller":"HELMERICH &amp; PAYNE/T","id":"a69k7gs06ril","state":"LA"},"type":"Feature","geometry":{"type":"Point","coordinates":[-91.512265,30.659041]}},{"properties":{"ptd":11000,"latitude":28.729,"days":12,"spud":"10/18/2009","county":"ATASCOSA","operator":"EOG RESOURCES/CORPUS","rig":"164","rig_drill":"#164 HELMERICH &amp; PAYNE(A)","reptref":1,"dist":"1","well":"PEELER RANCH #2 H","longitude":-98.456,"driller":"HELMERICH &amp; PAYNE(A)","id":"a69k7gr5dqq2","state":"TX"},"type":"Feature","geometry":{"type":"Point","coordinates":[-98.455956,28.728844]}},{"properties":{"ptd":13000,"latitude":27.918,"days":9,"spud":"10/21/2009","county":"WEBB","operator":"ESCONDIDO RES II LLC","rig":"165","rig_drill":"#165 HELMERICH &amp; PAYNE(A)","reptref":1,"dist":"4","well":"MATRIX LAND COMPANY #11 H","longitude":-99.463,"driller":"HELMERICH &amp; PAYNE(A)","id":"a69k7gnec732","state":"TX"},"type":"Feature","geometry":{"type":"Point","coordinates":[-99.463112,27.917785]}},{"properties":{"ptd":13000,"latitude":28.871,"days":-1,"spud":"10/31/2009","county":"KARNES","operator":"EOG RESOURCES/CORPUS","rig":"166","rig_drill":"#166 HELMERICH &amp; PAYNE(A)","reptref":3,"dist":"2","well":"LYSSY UNIT #1","longitude":-98.121,"driller":"HELMERICH &amp; PAYNE(A)","id":"a69k7gjmh4xh","state":"TX"},"type":"Feature","geometry":{"type":"Point","coordinates":[-98.121069,28.870974]}},{"properties":{"ptd":11700,"latitude":32.385,"days":9,"spud":"10/21/2009","county":"CADDO","operator":"CHESAPEAKE/OKC","rig":"18","rig_drill":"#18 NOMAC DRLG LLC/MARSH","reptref":1,"dist":"N","well":"DIXIE FARM 7-16-14H #1","longitude":-93.846,"driller":"NOMAC DRLG LLC/MARSH","id":"a69k7gqaex1n","state":"LA"},"type":"Feature","geometry":{"type":"Point","coordinates":[-93.846456,32.384588]}},{"properties":{"ptd":6200,"latitude":35.212,"days":16,"spud":"10/14/2009","county":"SEBASTIAN","operator":"STEPHENS PRODUCTION","rig":"18","rig_drill":"#18 REDLAND ENERGY SVC","reptref":3,"dist":null,"well":"CONDREN #3","longitude":-94.353,"driller":"REDLAND ENERGY SVC","id":"a69k7gnk8ccp","state":"AR"},"type":"Feature","geometry":{"type":"Point","coordinates":[-94.352943,35.212384]}},{"properties":{"ptd":13000,"latitude":27.81,"days":15,"spud":"10/15/2009","county":"WEBB","operator":"LAREDO ENERGY","rig":"183","rig_drill":"#183 HELMERICH &amp; PAYNE(A)","reptref":2,"dist":"4","well":"ROSA V BENAVIDES #4","longitude":-99.67,"driller":"HELMERICH &amp; PAYNE(A)","id":"a69k7ghpl19k","state":"TX"},"type":"Feature","geometry":{"type":"Point","coordinates":[-99.669675,27.809685]}},{"properties":{"ptd":13500,"latitude":30.078,"days":42,"spud":"9/18/2009","county":"JEFFERSON","operator":"CIMAREX ENERGY CO","rig":"185","rig_drill":"#185 HELMERICH &amp; PAYNE(A)","reptref":5,"dist":"3","well":"JEFFERSON AIRPLANE #3","longitude":-94.213,"driller":"HELMERICH &amp; PAYNE(A)","id":"a69k7gj4xyvp","state":"TX"},"type":"Feature","geometry":{"type":"Point","coordinates":[-94.21305,30.078274]}},{"properties":{"ptd":12500,"latitude":28.878,"days":6,"spud":"10/24/2009","county":"KARNES","operator":"EOG RESOURCES/CORPUS","rig":"187","rig_drill":"#187 HELMERICH &amp; PAYNE(A)","reptref":4,"dist":"2","well":"LYSSY UNIT #2 H","longitude":-98.124,"driller":"HELMERICH &amp; PAYNE(A)","id":"a69k7grhuyf2","state":"TX"},"type":"Feature","geometry":{"type":"Point","coordinates":[-98.124454,28.877753]}},{"properties":{"ptd":17500,"latitude":31.811,"days":33,"spud":"9/27/2009","county":"SHELBY","operator":"DEVON ENERGY/OKC","rig":"187","rig_drill":"#187 PATTERSON UTI/TYLER","reptref":4,"dist":"6","well":"WARR #1 H","longitude":-94.211,"driller":"PATTERSON UTI/TYLER","id":"a69k7ggmlten","state":"TX"},"type":"Feature","geometry":{"type":"Point","coordinates":[-94.211444,31.810587]}},{"properties":{"ptd":8010,"latitude":34.944,"days":26,"spud":"10/4/2009","county":"PITTSBURG","operator":"BP AMERICA/HOUSTON","rig":"189","rig_drill":"#189 HELMERICH &amp; PAYNE(O)","reptref":9,"dist":null,"well":"CHESTER #2-31 H","longitude":-95.982,"driller":"HELMERICH &amp; PAYNE(O)","id":"a69k7gq9gpg0","state":"OK"},"type":"Feature","geometry":{"type":"Point","coordinates":[-95.982168,34.943978]}},{"properties":{"ptd":11600,"latitude":32.37,"days":24,"spud":"10/6/2009","county":"CADDO","operator":"CHESAPEAKE/OKC","rig":"19","rig_drill":"#19 NOMAC DRLG LLC/MARSH","reptref":5,"dist":"N","well":"SANDFORD 16-16-14 H #1","longitude":-93.8,"driller":"NOMAC DRLG LLC/MARSH","id":"a69k7gmm8fg5","state":"LA"},"type":"Feature","geometry":{"type":"Point","coordinates":[-93.799967,32.370137]}},{"properties":{"ptd":10000,"latitude":32.259,"days":8,"spud":"10/22/2009","county":"PANOLA","operator":"LACY OPERATIONS LTD","rig":"19","rig_drill":"#19 PIONEER DRILLING/H","reptref":12,"dist":"6","well":"CAMERON UNIT -2- #14","longitude":-94.337,"driller":"PIONEER DRILLING/H","id":"a69k7gocn1ib","state":"TX"},"type":"Feature","geometry":{"type":"Point","coordinates":[-94.336518,32.258685]}},{"properties":{"ptd":20800,"latitude":30.547,"days":105,"spud":"7/17/2009","county":"W. BATON ROUGE","operator":"ENERGY PRODUCTION","rig":"196","rig_drill":"#196 NABORS DRILLING (L)","reptref":1,"dist":"S","well":"H H WHITE JR #1","longitude":-91.293,"driller":"NABORS DRILLING (L)","id":"a69k7ghr9dpf","state":"LA"},"type":"Feature","geometry":{"type":"Point","coordinates":[-91.293114,30.546911]}},{"properties":{"ptd":15100,"latitude":29.121,"days":4,"spud":"10/26/2009","county":"WHARTON","operator":"SANCHEZ OIL &amp; GAS","rig":"2","rig_drill":"#2 BIG E DRILLING","reptref":1,"dist":"3","well":"DYBALA-DUSON A-118 GAS UNIT #1","longitude":-96.234,"driller":"BIG E DRILLING","id":"a69k7govl2nn","state":"TX"},"type":"Feature","geometry":{"type":"Point","coordinates":[-96.233642,29.120866]}},{"properties":{"ptd":0,"latitude":72.222,"days":29,"spud":"10/1/2009","county":"TUSCALOOSA","operator":"JIM WALTER RESOURCES","rig":"2","rig_drill":"#2 CAPSTONE DRILLING","reptref":2,"dist":null,"well":"JWR -DM2- #2","longitude":72.222,"driller":"CAPSTONE DRILLING","id":"a69k7gi8tahw","state":"AL"},"type":"Feature","geometry":{"type":"Point","coordinates":[72.222,72.222]}},{"properties":{"ptd":9700,"latitude":30.042,"days":-3,"spud":"11/2/2009","county":"IBERIA","operator":"KINDEE OIL &amp; GAS LA","rig":"2","rig_drill":"#2 CROWN DRILLING","reptref":1,"dist":"S","well":"TGR LAND COMPANY INC ET AL #1","longitude":-91.64,"driller":"CROWN DRILLING","id":"a69k7gi1n4b1","state":"LA"},"type":"Feature","geometry":{"type":"Point","coordinates":[-91.640235,30.042105]}},{"properties":{"ptd":3800,"latitude":35.357,"days":1,"spud":"10/29/2009","county":"WHITE","operator":"SEECO INC","rig":"2","rig_drill":"#2 DESOTO DRILLING","reptref":15,"dist":null,"well":"HART 09-06 #1-31 H","longitude":-91.684,"driller":"DESOTO DRILLING","id":"a69k7gk3z85a","state":"AR"},"type":"Feature","geometry":{"type":"Point","coordinates":[-91.684319,35.356604]}},{"properties":{"ptd":13500,"latitude":29.312,"days":4,"spud":"10/26/2009","county":"WHARTON","operator":"HOLLIMON OIL CORP.","rig":"2","rig_drill":"#2 ORION DRILLING","reptref":3,"dist":"3","well":"MERTA #1","longitude":-96.331,"driller":"ORION DRILLING","id":"a69k7groyjx0","state":"TX"},"type":"Feature","geometry":{"type":"Point","coordinates":[-96.33098,29.312196]}},{"properties":{"ptd":6500,"latitude":26.179,"days":10,"spud":"10/20/2009","county":"HIDALGO","operator":"TRI-C RESOURCES LLC","rig":"2","rig_drill":"#2 PIONEER DRILLING","reptref":7,"dist":"4","well":"GRAND ROYAL ARCH UNIT #1","longitude":-98.253,"driller":"PIONEER DRILLING","id":"a69k7gfr90hh","state":"TX"},"type":"Feature","geometry":{"type":"Point","coordinates":[-98.25313,26.178815]}},{"properties":{"ptd":14749,"latitude":32.468,"days":18,"spud":"10/12/2009","county":"JACKSON","operator":"EXCO OPERATING CO LP","rig":"2","rig_drill":"#2 R&amp;R DRILLING CO","reptref":1,"dist":"N","well":"WEYERHAEUSER -10- #1","longitude":-92.558,"driller":"R&amp;R DRILLING CO","id":"a69k7gijyetb","state":"LA"},"type":"Feature","geometry":{"type":"Point","coordinates":[-92.558251,32.467994]}},{"properties":{"ptd":5000,"latitude":28.54,"days":9,"spud":"10/21/2009","county":"REFUGIO","operator":"T-C OIL COMPANY","rig":"2","rig_drill":"#2 UNISON DRILLING","reptref":2,"dist":"2","well":"RIVER RANCH -B- #1","longitude":-97.065,"driller":"UNISON DRILLING","id":"a69k7gpsa60w","state":"TX"},"type":"Feature","geometry":{"type":"Point","coordinates":[-97.064861,28.540158]}},{"properties":{"ptd":6300,"latitude":28.637,"days":12,"spud":"10/18/2009","county":"MCMULLEN","operator":"NCEY HOLDINGS LLC","rig":"2","rig_drill":"#2 VICTORY DRILLING","reptref":10,"dist":"1","well":"A W HODDE #6","longitude":-98.467,"driller":"VICTORY DRILLING","id":"a69k7gqtajvx","state":"TX"},"type":"Feature","geometry":{"type":"Point","coordinates":[-98.466791,28.637357]}},{"properties":{"ptd":7900,"latitude":31.599,"days":2,"spud":"10/28/2009","county":"SAN AUGUSTINE","operator":"SOUTHWESTERN ENERGY","rig":"20","rig_drill":"#20 DESOTO DRILLING","reptref":2,"dist":"6","well":"TIMBERSTAR -BP- WEAVER #3 H","longitude":-94.285,"driller":"DESOTO DRILLING","id":"a69k7gge3tv8","state":"TX"},"type":"Feature","geometry":{"type":"Point","coordinates":[-94.285178,31.599201]}},{"properties":{"ptd":8618,"latitude":35.028,"days":25,"spud":"10/5/2009","county":"PITTSBURG","operator":"PETROQUEST ENERGY","rig":"20","rig_drill":"#20 GOOBER DRILLING LLC","reptref":7,"dist":null,"well":"LOFTIN #1-32 H","longitude":-95.739,"driller":"GOOBER DRILLING LLC","id":"a69k7gi4iszu","state":"OK"},"type":"Feature","geometry":{"type":"Point","coordinates":[-95.739193,35.02767]}},{"properties":{"ptd":12000,"latitude":32.211,"days":26,"spud":"10/4/2009","county":"DE SOTO","operator":"CHESAPEAKE/OKC","rig":"20","rig_drill":"#20 NOMAC DRLG LLC/MARSH","reptref":35,"dist":"N","well":"KEATCHIE 9-14-15H #1","longitude":-93.906,"driller":"NOMAC DRLG LLC/MARSH","id":"a69k7gqq4411","state":"LA"},"type":"Feature","geometry":{"type":"Point","coordinates":[-93.906005,32.210518]}},{"properties":{"ptd":16000,"latitude":31.619,"days":1,"spud":"10/29/2009","county":"FREESTONE","operator":"XTO ENERGY/TYLER","rig":"20","rig_drill":"#20 PATTERSON UTI/TYLER","reptref":1,"dist":"5","well":"ROPER GAS UNIT #4 H","longitude":-96.264,"driller":"PATTERSON UTI/TYLER","id":"a69k7gkfkaea","state":"TX"},"type":"Feature","geometry":{"type":"Point","coordinates":[-96.263558,31.619261]}},{"properties":{"ptd":14500,"latitude":28.626,"days":9,"spud":"10/21/2009","county":"BEE","operator":"CRIMSON EXPL OPER","rig":"201","rig_drill":"#201 PATTERSON UTI/VICTOR","reptref":1,"dist":"2","well":"DUBOSE #1","longitude":-98.043,"driller":"PATTERSON UTI/VICTOR","id":"a69k7gi3paej","state":"TX"},"type":"Feature","geometry":{"type":"Point","coordinates":[-98.04345,28.626306]}},{"properties":{"ptd":12000,"latitude":27.838,"days":13,"spud":"10/17/2009","county":"NUECES","operator":"EOG RESOURCES/CORPUS","rig":"202","rig_drill":"#202 PATTERSON UTI/VICTOR","reptref":2,"dist":"4","well":"ST 749 #1","longitude":-97.385,"driller":"PATTERSON UTI/VICTOR","id":"a69k7ggxhek5","state":"TX"},"type":"Feature","geometry":{"type":"Point","coordinates":[-97.385227,27.838222]}},{"properties":{"ptd":13000,"latitude":27.865,"days":-20,"spud":"11/19/2009","county":"SAN PATRICIO","operator":"EOG RESOURCES/CORPUS","rig":"202","rig_drill":"#202 PATTERSON UTI/VICTOR","reptref":1,"dist":"4","well":"NUECES BAY ST -688- #4","longitude":-97.474,"driller":"PATTERSON UTI/VICTOR","id":"a69k7go4nst7","state":"TX"},"type":"Feature","geometry":{"type":"Point","coordinates":[-97.473623,27.864588]}},{"properties":{"ptd":11460,"latitude":32.267,"days":35,"spud":"9/25/2009","county":"DE SOTO","operator":"J-W OPER/KILGORE","rig":"203","rig_drill":"#203 PATTERSON UTI/TYLER","reptref":55,"dist":"N","well":"CRNKOVIC -27- #1","longitude":-93.693,"driller":"PATTERSON UTI/TYLER","id":"a69k7ghu07t6","state":"LA"},"type":"Feature","geometry":{"type":"Point","coordinates":[-93.693019,32.266808]}},{"properties":{"ptd":10200,"latitude":28.401,"days":17,"spud":"10/13/2009","county":"DIMMIT","operator":"REDEMPTION OIL &amp; GAS","rig":"204","rig_drill":"#204 PATTERSON UTI/VICTOR","reptref":3,"dist":"1","well":"SHOOK #101 H","longitude":-99.973,"driller":"PATTERSON UTI/VICTOR","id":"a69k7gmfkbqz","state":"TX"},"type":"Feature","geometry":{"type":"Point","coordinates":[-99.972989,28.400919]}},{"properties":{"ptd":15000,"latitude":31.452,"days":15,"spud":"10/15/2009","county":"FREESTONE","operator":"XTO ENERGY/TYLER","rig":"205","rig_drill":"#205 NABORS DRILLING (K)","reptref":2,"dist":"5","well":"H L &amp; P GAS UNIT #24","longitude":-96.237,"driller":"NABORS DRILLING (K)","id":"a69k7gq3la06","state":"TX"},"type":"Feature","geometry":{"type":"Point","coordinates":[-96.237245,31.451808]}},{"properties":{"ptd":14200,"latitude":31.651,"days":4,"spud":"10/26/2009","county":"SHELBY","operator":"XTO ENERGY/TYLER","rig":"206","rig_drill":"#206 NABORS DRILLING (K)","reptref":8,"dist":"6","well":"RED RAIDERS -DU- #1 H","longitude":-94.208,"driller":"NABORS DRILLING (K)","id":"a69k7go8lxi7","state":"TX"},"type":"Feature","geometry":{"type":"Point","coordinates":[-94.207758,31.650581]}},{"properties":{"ptd":11808,"latitude":32.137,"days":38,"spud":"9/22/2009","county":"DE SOTO","operator":"EL PASO E&amp;P COMPANY","rig":"206","rig_drill":"#206 PATTERSON UTI/TYLER","reptref":46,"dist":"N","well":"FRANKLIN ET AL -3H- #1","longitude":-93.785,"driller":"PATTERSON UTI/TYLER","id":"a69k7goe84hn","state":"LA"},"type":"Feature","geometry":{"type":"Point","coordinates":[-93.785361,32.137196]}},{"properties":{"ptd":13500,"latitude":32.225,"days":14,"spud":"10/16/2009","county":"DE SOTO","operator":"EXCO PRODUCTION","rig":"207","rig_drill":"#207 PATTERSON UTI/TYLER","reptref":1,"dist":"N","well":"MCCOY BROTHERS LUMBER CO -6- #2","longitude":-93.731,"driller":"PATTERSON UTI/TYLER","id":"a69k7gjgyau3","state":"LA"},"type":"Feature","geometry":{"type":"Point","coordinates":[-93.730735,32.224637]}},{"properties":{"ptd":9000,"latitude":32.905,"days":61,"spud":"8/30/2009","county":"TARRANT","operator":"CROW CREEK OPERATING","rig":"208","rig_drill":"#208 PATTERSON UTI/SPRING","reptref":20,"dist":"5","well":"HARBOUR VIEW #B2 H","longitude":-97.446,"driller":"PATTERSON UTI/SPRING","id":"a69k7gqdrwcp","state":"TX"},"type":"Feature","geometry":{"type":"Point","coordinates":[-97.445816,32.905035]}},{"properties":{"ptd":13500,"latitude":32.195,"days":25,"spud":"10/5/2009","county":"DE SOTO","operator":"EXCO PRODUCTION","rig":"209","rig_drill":"#209 PATTERSON UTI/TYLER","reptref":2,"dist":"N","well":"THIGPEN -14- #5","longitude":-93.665,"driller":"PATTERSON UTI/TYLER","id":"a69k7gqio6gy","state":"LA"},"type":"Feature","geometry":{"type":"Point","coordinates":[-93.664792,32.195481]}},{"properties":{"ptd":11954,"latitude":32.063,"days":37,"spud":"9/23/2009","county":"DE SOTO","operator":"BEUSA ENERGY INC","rig":"21","rig_drill":"#21 BRONCO DRILLING/OK","reptref":38,"dist":"N","well":"EVA CULVER BURNLEY -4- #1","longitude":-93.811,"driller":"BRONCO DRILLING/OK","id":"a69k7gq4pku5","state":"LA"},"type":"Feature","geometry":{"type":"Point","coordinates":[-93.810884,32.063091]}},{"properties":{"ptd":7600,"latitude":31.603,"days":9,"spud":"10/21/2009","county":"SAN AUGUSTINE","operator":"SOUTHWESTERN ENERGY","rig":"21","rig_drill":"#21 DESOTO DRILLING","reptref":3,"dist":"6","well":"TIMBERSTAR-PLATT GAS UNIT -1- #2 H","longitude":-94.271,"driller":"DESOTO DRILLING","id":"a69k7grsjlzg","state":"TX"},"type":"Feature","geometry":{"type":"Point","coordinates":[-94.270831,31.602894]}},{"properties":{"ptd":11550,"latitude":32.313,"days":16,"spud":"10/14/2009","county":"CADDO","operator":"CHESAPEAKE/OKC","rig":"21","rig_drill":"#21 NOMAC DRLG LLC/MARSH","reptref":8,"dist":"N","well":"MUSLOW 5-15-15H #1","longitude":-93.921,"driller":"NOMAC DRLG LLC/MARSH","id":"a69k7gnj18ns","state":"LA"},"type":"Feature","geometry":{"type":"Point","coordinates":[-93.920896,32.312561]}},{"properties":{"ptd":8500,"latitude":35.029,"days":27,"spud":"10/3/2009","county":"SEBASTIAN","operator":"ROSS EXPLORATIONS","rig":"21","rig_drill":"#21 ROSS DRILLING","reptref":1,"dist":null,"well":"TRACE #1-8","longitude":-94.304,"driller":"ROSS DRILLING","id":"a69k7gros2zr","state":"AR"},"type":"Feature","geometry":{"type":"Point","coordinates":[-94.30393,35.028738]}},{"properties":{"ptd":13000,"latitude":32.181,"days":12,"spud":"10/18/2009","county":"DE SOTO","operator":"EXCO PRODUCTION","rig":"210","rig_drill":"#210 PATTERSON UTI/TYLER","reptref":7,"dist":"N","well":"BURFORD -23- #3 ALT","longitude":-93.774,"driller":"PATTERSON UTI/TYLER","id":"a69k7gh34by2","state":"LA"},"type":"Feature","geometry":{"type":"Point","coordinates":[-93.773632,32.18138]}},{"properties":{"ptd":11175,"latitude":32.395,"days":4,"spud":"10/26/2009","county":"BOSSIER","operator":"J-W OPER/KILGORE","rig":"211","rig_drill":"#211 PATTERSON UTI/TYLER","reptref":4,"dist":"N","well":"WOMACK -2- #1","longitude":-93.474,"driller":"PATTERSON UTI/TYLER","id":"a69k7gpyrzvj","state":"LA"},"type":"Feature","geometry":{"type":"Point","coordinates":[-93.474165,32.394762]}},{"properties":{"ptd":13000,"latitude":32.165,"days":5,"spud":"10/25/2009","county":"DE SOTO","operator":"EXCO PRODUCTION","rig":"212","rig_drill":"#212 PATTERSON UTI/TYLER","reptref":8,"dist":"N","well":"HEWITT LAND INVESTMENTS -34- #1","longitude":-93.592,"driller":"PATTERSON UTI/TYLER","id":"a69k7gdf507p","state":"LA"},"type":"Feature","geometry":{"type":"Point","coordinates":[-93.592043,32.164731]}},{"properties":{"ptd":13500,"latitude":32.164,"days":7,"spud":"10/23/2009","county":"DE SOTO","operator":"EXCO PRODUCTION","rig":"213","rig_drill":"#213 PATTERSON UTI/TYLER","reptref":3,"dist":"N","well":"BRANCH RANCH -31- #2 ALT","longitude":-93.642,"driller":"PATTERSON UTI/TYLER","id":"a69k7gjpym6s","state":"LA"},"type":"Feature","geometry":{"type":"Point","coordinates":[-93.641504,32.164267]}},{"properties":{"ptd":13500,"latitude":32.152,"days":-6,"spud":"11/5/2009","county":"DE SOTO","operator":"EXCO PRODUCTION","rig":"214","rig_drill":"#214 PATTERSON UTI/TYLER","reptref":4,"dist":"N","well":"AMSOUTH TIMBER FUND LLC -32- #1","longitude":-93.718,"driller":"PATTERSON UTI/TYLER","id":"a69k7ghbll77","state":"LA"},"type":"Feature","geometry":{"type":"Point","coordinates":[-93.718264,32.151617]}},{"properties":{"ptd":11088,"latitude":32.009,"days":43,"spud":"9/17/2009","county":"DE SOTO","operator":"COMSTOCK OIL&amp;GAS LP","rig":"215","rig_drill":"#215 PATTERSON UTI/TYLER","reptref":58,"dist":"N","well":"CARAWAY ESTATE -29HZ- #1","longitude":-94.024,"driller":"PATTERSON UTI/TYLER","id":"a69k7gfbq91i","state":"LA"},"type":"Feature","geometry":{"type":"Point","coordinates":[-94.023519,32.009058]}},{"properties":{"ptd":16500,"latitude":29.996,"days":12,"spud":"10/18/2009","county":"JEFFERSON","operator":"SAMSON LONE STAR LLC","rig":"216","rig_drill":"#216 HELMERICH &amp; PAYNE/T","reptref":2,"dist":"3","well":"MCDERMOND #5","longitude":-94.385,"driller":"HELMERICH &amp; PAYNE/T","id":"a69k7goqjuwn","state":"TX"},"type":"Feature","geometry":{"type":"Point","coordinates":[-94.3845,29.996472]}},{"properties":{"ptd":13000,"latitude":26.787,"days":25,"spud":"10/5/2009","county":"BROOKS","operator":"CORONADO ENERGY E&amp;P","rig":"216","rig_drill":"#216 NABORS DRILLING (A)","reptref":1,"dist":"4","well":"MCGILL BROTHERS #629","longitude":-98.323,"driller":"NABORS DRILLING (A)","id":"a69k7gr0f8sf","state":"TX"},"type":"Feature","geometry":{"type":"Point","coordinates":[-98.322936,26.786728]}},{"properties":{"ptd":12009,"latitude":32.309,"days":16,"spud":"10/14/2009","county":"BIENVILLE","operator":"QUESTAR E&amp;P/TULSA","rig":"216","rig_drill":"#216 PATTERSON UTI/TYLER","reptref":3,"dist":"N","well":"BATCHELOR -2H- #1","longitude":-93.372,"driller":"PATTERSON UTI/TYLER","id":"a69k7ghyiiuv","state":"LA"},"type":"Feature","geometry":{"type":"Point","coordinates":[-93.371573,32.308842]}},{"properties":{"ptd":13500,"latitude":32.209,"days":5,"spud":"10/25/2009","county":"DE SOTO","operator":"EXCO PRODUCTION","rig":"217","rig_drill":"#217 PATTERSON UTI/TYLER","reptref":5,"dist":"N","well":"FLORSHEIM -18- #3 ALT","longitude":-93.635,"driller":"PATTERSON UTI/TYLER","id":"a69k7grbuma5","state":"LA"},"type":"Feature","geometry":{"type":"Point","coordinates":[-93.635142,32.208515]}},{"properties":{"ptd":7500,"latitude":32.883,"days":2,"spud":"10/28/2009","county":"TARRANT","operator":"WILLIAMS PROD/GULF","rig":"218","rig_drill":"#218 HELMERICH &amp; PAYNE/FW","reptref":23,"dist":"5","well":"PARR -B- #6 H","longitude":-97.333,"driller":"HELMERICH &amp; PAYNE/FW","id":"a69k7gmx0b9w","state":"TX"},"type":"Feature","geometry":{"type":"Point","coordinates":[-97.332628,32.883449]}},{"properties":{"ptd":11700,"latitude":32.225,"days":56,"spud":"9/4/2009","county":"DE SOTO","operator":"EXCO PRODUCTION","rig":"218","rig_drill":"#218 PATTERSON UTI/TYLER","reptref":51,"dist":"N","well":"MCCOY BROTHERS LUMBER CO -5- #2","longitude":-93.727,"driller":"PATTERSON UTI/TYLER","id":"a69k7goaeoor","state":"LA"},"type":"Feature","geometry":{"type":"Point","coordinates":[-93.726672,32.224596]}},{"properties":{"ptd":13500,"latitude":31.746,"days":38,"spud":"9/22/2009","county":"FREESTONE","operator":"DEVON ENERGY/OKC","rig":"219","rig_drill":"#219 HELMERICH &amp; PAYNE/T","reptref":5,"dist":"5","well":"MT PEYTON-FE HILL (SA) #2 H","longitude":-96.069,"driller":"HELMERICH &amp; PAYNE/T","id":"a69k7gdpcndr","state":"TX"},"type":"Feature","geometry":{"type":"Point","coordinates":[-96.069367,31.746267]}},{"properties":{"ptd":10688,"latitude":34.46,"days":65,"spud":"8/26/2009","county":"COAL","operator":"NEWFIELD EXP MID-CON","rig":"22","rig_drill":"#22 GOOBER DRILLING LLC","reptref":3,"dist":null,"well":"THOMAS #1H-17","longitude":-96.196,"driller":"GOOBER DRILLING LLC","id":"a69k7gickk8p","state":"OK"},"type":"Feature","geometry":{"type":"Point","coordinates":[-96.196222,34.460494]}},{"properties":{"ptd":11550,"latitude":32.384,"days":6,"spud":"10/24/2009","county":"CADDO","operator":"CHESAPEAKE/OKC","rig":"22","rig_drill":"#22 NOMAC DRLG LLC/MARSH","reptref":9,"dist":"N","well":"DIXIE FARM LLC -18H- #1","longitude":-93.847,"driller":"NOMAC DRLG LLC/MARSH","id":"a69k7gow6374","state":"LA"},"type":"Feature","geometry":{"type":"Point","coordinates":[-93.846898,32.383697]}},{"properties":{"ptd":11000,"latitude":32.505,"days":13,"spud":"10/17/2009","county":"JOHNSON","operator":"XTO ENERGY/FT WORTH","rig":"220","rig_drill":"#220 UNION DRILLING TEXAS","reptref":1,"dist":"5","well":"COLONIAL -A- UNIT #11 H","longitude":-97.259,"driller":"UNION DRILLING TEXAS","id":"a69k7gn8yol5","state":"TX"},"type":"Feature","geometry":{"type":"Point","coordinates":[-97.259216,32.505147]}},{"properties":{"ptd":5300,"latitude":35.257,"days":3,"spud":"10/27/2009","county":"WHITE","operator":"CHESAPEAKE/OKC","rig":"221","rig_drill":"#221 NOMAC DRILLING LLC","reptref":6,"dist":null,"well":"SIMMONS 7-8 #2-4 H","longitude":-91.855,"driller":"NOMAC DRILLING LLC","id":"a69k7ghfvw9d","state":"AR"},"type":"Feature","geometry":{"type":"Point","coordinates":[-91.855003,35.256787]}},{"properties":{"ptd":10500,"latitude":32.312,"days":-4,"spud":"11/3/2009","county":"DE SOTO","operator":"CAMTERRA RESOURCES","rig":"226","rig_drill":"#226 HELMERICH &amp; PAYNE/T","reptref":59,"dist":"N","well":"NEWPORT DEVELOPMENT LLC -1- #2","longitude":-93.761,"driller":"HELMERICH &amp; PAYNE/T","id":"a69k7gosxs3m","state":"LA"},"type":"Feature","geometry":{"type":"Point","coordinates":[-93.760851,32.311668]}},{"properties":{"ptd":14000,"latitude":30.16,"days":13,"spud":"10/17/2009","county":"ORANGE","operator":"HILCORP ENERGY CO.","rig":"229","rig_drill":"#229 HELMERICH &amp; PAYNE(A)","reptref":2,"dist":"3","well":"WILLIAMS #1","longitude":-93.976,"driller":"HELMERICH &amp; PAYNE(A)","id":"a69k7ghu9fve","state":"TX"},"type":"Feature","geometry":{"type":"Point","coordinates":[-93.976134,30.159618]}},{"properties":{"ptd":9400,"latitude":31.541,"days":-2,"spud":"11/1/2009","county":"NACOGDOCHES","operator":"ENEXCO INC","rig":"23","rig_drill":"#23 FELDERHOFF BROS","reptref":3,"dist":"6","well":"BLACK BRANCH GAS UNIT #1 H","longitude":-94.858,"driller":"FELDERHOFF BROS","id":"a69k7gkphahl","state":"TX"},"type":"Feature","geometry":{"type":"Point","coordinates":[-94.857809,31.541379]}},{"properties":{"ptd":3868,"latitude":35.431,"days":6,"spud":"10/24/2009","county":"WHITE","operator":"CHESAPEAKE/OKC","rig":"23","rig_drill":"#23 NOMAC DRILLING LLC","reptref":14,"dist":null,"well":"LOLA HOWELL 9-8 #2-1 H","longitude":-91.81,"driller":"NOMAC DRILLING LLC","id":"a69k7ghoqkoz","state":"AR"},"type":"Feature","geometry":{"type":"Point","coordinates":[-91.810208,35.431415]}},{"properties":{"ptd":12600,"latitude":32.788,"days":5,"spud":"10/25/2009","county":"UPSHUR","operator":"EXXONMOBIL DEV CO","rig":"233","rig_drill":"#233 HELMERICH &amp; PAYNE/T","reptref":1,"dist":"6","well":"DELROSE GAS UNIT -8- #2 H","longitude":-94.94,"driller":"HELMERICH &amp; PAYNE/T","id":"a69k7glycklf","state":"TX"},"type":"Feature","geometry":{"type":"Point","coordinates":[-94.940177,32.787808]}},{"properties":{"ptd":11000,"latitude":32.895,"days":4,"spud":"10/26/2009","county":"TARRANT","operator":"XTO ENERGY/FT WORTH","rig":"24","rig_drill":"#24 FELDERHOFF BROS","reptref":3,"dist":"5","well":"TRWD MARINE QUEST UNIT #1 H","longitude":-97.456,"driller":"FELDERHOFF BROS","id":"a69k7gn2gvqe","state":"TX"},"type":"Feature","geometry":{"type":"Point","coordinates":[-97.4564,32.894784]}},{"properties":{"ptd":1810,"latitude":35.613,"days":4,"spud":"10/26/2009","county":"VAN BUREN","operator":"CHESAPEAKE/OKC","rig":"24","rig_drill":"#24 NOMAC DRILLING LLC","reptref":6,"dist":null,"well":"HELEN SMITH 11-13 #2-1 H","longitude":-92.319,"driller":"NOMAC DRILLING LLC","id":"a69k7gn7xvz0","state":"AR"},"type":"Feature","geometry":{"type":"Point","coordinates":[-92.319208,35.612798]}},{"properties":{"ptd":11500,"latitude":29.134,"days":2,"spud":"10/28/2009","county":"BRAZORIA","operator":"SUEMAUR EXPLORATION","rig":"24","rig_drill":"#24 PIONEER DRILLING","reptref":1,"dist":"3","well":"WELCH FOUNDATION #2","longitude":-95.232,"driller":"PIONEER DRILLING","id":"a69k7gkc4dym","state":"TX"},"type":"Feature","geometry":{"type":"Point","coordinates":[-95.231639,29.134278]}},{"properties":{"ptd":15500,"latitude":31.638,"days":-4,"spud":"11/3/2009","county":"SHELBY","operator":"CABOT O &amp; G/HOUSTON","rig":"243","rig_drill":"#243 HELMERICH &amp; PAYNE/T","reptref":5,"dist":"6","well":"FORBIS -OUB- #1","longitude":-94.245,"driller":"HELMERICH &amp; PAYNE/T","id":"a69k7gnbpu06","state":"TX"},"type":"Feature","geometry":{"type":"Point","coordinates":[-94.244716,31.638196]}},{"properties":{"ptd":15000,"latitude":31.716,"days":11,"spud":"10/19/2009","county":"SHELBY","operator":"MARATHON OIL/HOUSTON","rig":"244","rig_drill":"#244 HELMERICH &amp; PAYNE/T","reptref":7,"dist":"6","well":"USA DOUBLE -H- #1","longitude":-93.972,"driller":"HELMERICH &amp; PAYNE/T","id":"a69k7gespbhx","state":"TX"},"type":"Feature","geometry":{"type":"Point","coordinates":[-93.972299,31.716228]}},{"properties":{"ptd":16000,"latitude":30.808,"days":18,"spud":"10/12/2009","county":"JASPER","operator":"ANADARKO E &amp; P CO LP","rig":"247","rig_drill":"#247 HELMERICH &amp; PAYNE/T","reptref":1,"dist":"3","well":"BP BLACK STONE A-400 UNIT #1","longitude":-94.008,"driller":"HELMERICH &amp; PAYNE/T","id":"a69k7gimg2wo","state":"TX"},"type":"Feature","geometry":{"type":"Point","coordinates":[-94.008066,30.807687]}},{"properties":{"ptd":12000,"latitude":28.282,"days":3,"spud":"10/27/2009","county":"DIMMIT","operator":"ANADARKO E &amp; P CO LP","rig":"248","rig_drill":"#248 HELMERICH &amp; PAYNE(A)","reptref":1,"dist":"1","well":"BRISCOE CATARINA WEST #4 H","longitude":-99.864,"driller":"HELMERICH &amp; PAYNE(A)","id":"a69k7ghzmmk7","state":"TX"},"type":"Feature","geometry":{"type":"Point","coordinates":[-99.863702,28.281765]}},{"properties":{"ptd":16000,"latitude":30.81,"days":14,"spud":"10/16/2009","county":"TYLER","operator":"ANADARKO E &amp; P CO LP","rig":"249","rig_drill":"#249 HELMERICH &amp; PAYNE/T","reptref":1,"dist":"3","well":"STERLING-BLACK STONE -A5- WEST #2","longitude":-94.538,"driller":"HELMERICH &amp; PAYNE/T","id":"a69k7gpbwj1z","state":"TX"},"type":"Feature","geometry":{"type":"Point","coordinates":[-94.53775,30.809787]}},{"properties":{"ptd":0,"latitude":32.546,"days":8,"spud":"10/22/2009","county":"HARRISON","operator":"MATADOR PRODUCTION","rig":"25","rig_drill":"#25 BRONCO DRILLING/OK","reptref":13,"dist":"6","well":"RUDD #1 ST","longitude":-94.044,"driller":"BRONCO DRILLING/OK","id":"a69k7gsnt9yc","state":"TX"},"type":"Feature","geometry":{"type":"Point","coordinates":[-94.044354,32.546383]}},{"properties":{"ptd":11800,"latitude":30.307,"days":16,"spud":"10/14/2009","county":"CALCASIEU","operator":"BRAMMER ENGINEERING","rig":"25","rig_drill":"#25 PATTERSON UTI/VICTOR","reptref":2,"dist":"S","well":"DUGAS #1","longitude":-93.048,"driller":"PATTERSON UTI/VICTOR","id":"a69k7grylodu","state":"LA"},"type":"Feature","geometry":{"type":"Point","coordinates":[-93.048051,30.306936]}},{"properties":{"ptd":15000,"latitude":32.253,"days":36,"spud":"9/24/2009","county":"SMITH","operator":"VALENCE OPERATING","rig":"25","rig_drill":"#25 PIONEER DRILLING/H","reptref":1,"dist":"6","well":"KATHERINE LUSCOMBE GAS UNIT #7","longitude":-95.403,"driller":"PIONEER DRILLING/H","id":"a69k7goxldqo","state":"TX"},"type":"Feature","geometry":{"type":"Point","coordinates":[-95.402924,32.252637]}},{"properties":{"ptd":7358,"latitude":34.896,"days":14,"spud":"10/16/2009","county":"HUGHES","operator":"NEWFIELD EXP MID-CON","rig":"250","rig_drill":"#250 HELMERICH &amp; PAYNE(O)","reptref":5,"dist":null,"well":"STUART #4 H-13","longitude":-96.104,"driller":"HELMERICH &amp; PAYNE(O)","id":"a69k7gd6yyz5","state":"OK"},"type":"Feature","geometry":{"type":"Point","coordinates":[-96.103663,34.895685]}},{"properties":{"ptd":7062,"latitude":34.765,"days":1,"spud":"10/29/2009","county":"COAL","operator":"NEWFIELD EXP MID-CON","rig":"251","rig_drill":"#251 HELMERICH &amp; PAYNE(O)","reptref":6,"dist":null,"well":"TURPIN #6 H-35","longitude":-96.224,"driller":"HELMERICH &amp; PAYNE(O)","id":"a69k7grj0nxj","state":"OK"},"type":"Feature","geometry":{"type":"Point","coordinates":[-96.223743,34.765382]}},{"properties":{"ptd":11825,"latitude":31.976,"days":27,"spud":"10/3/2009","county":"DE SOTO","operator":"BP AMERICA/HOUSTON","rig":"252","rig_drill":"#252 HELMERICH &amp; PAYNE/T","reptref":45,"dist":"N","well":"DUGAN -5H- #1","longitude":-93.832,"driller":"HELMERICH &amp; PAYNE/T","id":"a69k7ghhkqnz","state":"LA"},"type":"Feature","geometry":{"type":"Point","coordinates":[-93.832302,31.975964]}},{"properties":{"ptd":19000,"latitude":28.501,"days":17,"spud":"10/13/2009","county":"LIVE OAK","operator":"PIONEER NATURAL/IRV","rig":"254","rig_drill":"#254 HELMERICH &amp; PAYNE(A)","reptref":1,"dist":"2","well":"ROBERT CRAWLEY GAS UNIT #1","longitude":-98.196,"driller":"HELMERICH &amp; PAYNE(A)","id":"a69k7gmvilbj","state":"TX"},"type":"Feature","geometry":{"type":"Point","coordinates":[-98.195871,28.500868]}},{"properties":{"ptd":9000,"latitude":32.69,"days":10,"spud":"10/20/2009","county":"DALLAS","operator":"CHESAPEAKE/OKC","rig":"26","rig_drill":"#26 NOMAC DRLG LLC/MARSH","reptref":1,"dist":"5","well":"CHILDS KELLY -A- #1 H","longitude":-97.025,"driller":"NOMAC DRLG LLC/MARSH","id":"a69k7got5659","state":"TX"},"type":"Feature","geometry":{"type":"Point","coordinates":[-97.025297,32.689638]}},{"properties":{"ptd":12500,"latitude":30.956,"days":5,"spud":"10/25/2009","county":"RAPIDES","operator":"BRIDWELL OIL MGMT","rig":"26","rig_drill":"#26 PATTERSON UTI/VICTOR","reptref":1,"dist":"S","well":"BOM -24- #1","longitude":-92.727,"driller":"PATTERSON UTI/VICTOR","id":"a69k7ghcdz9o","state":"LA"},"type":"Feature","geometry":{"type":"Point","coordinates":[-92.726888,30.956093]}},{"properties":{"ptd":15000,"latitude":29.01,"days":40,"spud":"9/20/2009","county":"DE WITT","operator":"DAN A HUGHES CO LP","rig":"26","rig_drill":"#26 PIONEER DRILLING","reptref":1,"dist":"2","well":"BUCH-LEMPA UNIT #1","longitude":-97.334,"driller":"PIONEER DRILLING","id":"a69k7gk3npw0","state":"TX"},"type":"Feature","geometry":{"type":"Point","coordinates":[-97.333966,29.009809]}},{"properties":{"ptd":14000,"latitude":32.385,"days":-1,"spud":"10/31/2009","county":"HARRISON","operator":"PENN VIRGINIA O&amp;G LP","rig":"260","rig_drill":"#260 HELMERICH &amp; PAYNE/T","reptref":1,"dist":"6","well":"BROWN GAS UNIT #6 H","longitude":-94.309,"driller":"HELMERICH &amp; PAYNE/T","id":"a69k7gl7owkt","state":"TX"},"type":"Feature","geometry":{"type":"Point","coordinates":[-94.308939,32.384754]}},{"properties":{"ptd":9000,"latitude":32.363,"days":14,"spud":"10/16/2009","county":"JOHNSON","operator":"DEVON ENERGY/OKC","rig":"263","rig_drill":"#263 HELMERICH &amp; PAYNE/FW","reptref":2,"dist":"5","well":"HES -A- #3 H","longitude":-97.22,"driller":"HELMERICH &amp; PAYNE/FW","id":"a69k7gp8d0u4","state":"TX"},"type":"Feature","geometry":{"type":"Point","coordinates":[-97.219789,32.363247]}},{"properties":{"ptd":7954,"latitude":34.826,"days":20,"spud":"10/10/2009","county":"HUGHES","operator":"DEVON ENERGY/OKC","rig":"268","rig_drill":"#268 HELMERICH &amp; PAYNE(O)","reptref":4,"dist":null,"well":"WILLIAMS #1-9 H","longitude":-96.158,"driller":"HELMERICH &amp; PAYNE(O)","id":"a69k7ghikikx","state":"OK"},"type":"Feature","geometry":{"type":"Point","coordinates":[-96.157878,34.82567]}},{"properties":{"ptd":9000,"latitude":32.505,"days":-7,"spud":"11/6/2009","county":"JOHNSON","operator":"CHESAPEAKE/OKC","rig":"27","rig_drill":"#27 NOMAC DRLG LLC/MARSH","reptref":4,"dist":"5","well":"TERRY #8 H","longitude":-97.325,"driller":"NOMAC DRLG LLC/MARSH","id":"a69k7gdmxeh5","state":"TX"},"type":"Feature","geometry":{"type":"Point","coordinates":[-97.324533,32.505473]}},{"properties":{"ptd":9000,"latitude":32.404,"days":14,"spud":"10/16/2009","county":"JOHNSON","operator":"CHESAPEAKE/OKC","rig":"27","rig_drill":"#27 NOMAC DRLG LLC/MARSH","reptref":3,"dist":"5","well":"MIZE FAMILY #37 H","longitude":-97.475,"driller":"NOMAC DRLG LLC/MARSH","id":"a69k7gst96or","state":"TX"},"type":"Feature","geometry":{"type":"Point","coordinates":[-97.474968,32.40355]}},{"properties":{"ptd":11500,"latitude":28.575,"days":20,"spud":"10/10/2009","county":"MCMULLEN","operator":"AURORA RESOURCES","rig":"27","rig_drill":"#27 PIONEER DRILLING","reptref":8,"dist":"1","well":"TYLER RANCH #4","longitude":-98.446,"driller":"PIONEER DRILLING","id":"a69k7gq84u1u","state":"TX"},"type":"Feature","geometry":{"type":"Point","coordinates":[-98.445744,28.57462]}},{"properties":{"ptd":9000,"latitude":32.693,"days":2,"spud":"10/28/2009","county":"TARRANT","operator":"CHESAPEAKE/OKC","rig":"28","rig_drill":"#28 NOMAC DRLG LLC/MARSH","reptref":14,"dist":"5","well":"AIRFIELD #2 H","longitude":-97.043,"driller":"NOMAC DRLG LLC/MARSH","id":"a69k7gf82i7y","state":"TX"},"type":"Feature","geometry":{"type":"Point","coordinates":[-97.042861,32.692789]}},{"properties":{"ptd":12800,"latitude":32.531,"days":54,"spud":"9/6/2009","county":"HARRISON","operator":"UNIT PETROLEUM/TULSA","rig":"28","rig_drill":"#28 UNIT TEXAS (H)","reptref":7,"dist":"6","well":"LAWRENCE GAS UNIT #1","longitude":-94.629,"driller":"UNIT TEXAS (H)","id":"a69k7gq9j7gg","state":"TX"},"type":"Feature","geometry":{"type":"Point","coordinates":[-94.629494,32.53087]}},{"properties":{"ptd":8770,"latitude":34.999,"days":30,"spud":"9/30/2009","county":"PITTSBURG","operator":"ANTERO RESOURCES","rig":"29","rig_drill":"#29 BRONCO DRILLING/OK","reptref":5,"dist":null,"well":"CHUBLEE #12-3 H","longitude":-95.673,"driller":"BRONCO DRILLING/OK","id":"a69k7gmq1ooe","state":"OK"},"type":"Feature","geometry":{"type":"Point","coordinates":[-95.672754,34.998581]}},{"properties":{"ptd":9000,"latitude":32.489,"days":17,"spud":"10/13/2009","county":"JOHNSON","operator":"CHESAPEAKE/OKC","rig":"29","rig_drill":"#29 NOMAC DRLG LLC/MARSH","reptref":5,"dist":"5","well":"FIELDERDALE #1 H","longitude":-97.123,"driller":"NOMAC DRLG LLC/MARSH","id":"a69k7gron7te","state":"TX"},"type":"Feature","geometry":{"type":"Point","coordinates":[-97.123025,32.489189]}},{"properties":{"ptd":11000,"latitude":32.829,"days":-1,"spud":"10/31/2009","county":"TARRANT","operator":"XTO ENERGY/FT WORTH","rig":"297","rig_drill":"#297 HELMERICH &amp; PAYNE/FW","reptref":4,"dist":"5","well":"NOLAND UNIT #1 H","longitude":-97.487,"driller":"HELMERICH &amp; PAYNE/FW","id":"a69k7gohrs93","state":"TX"},"type":"Feature","geometry":{"type":"Point","coordinates":[-97.48651,32.829167]}},{"properties":{"ptd":11500,"latitude":29.081,"days":8,"spud":"10/22/2009","county":"MATAGORDA","operator":"TEXAKOMA OPERATING","rig":"2A","rig_drill":"#2A BLACK CREEK DRILLING","reptref":3,"dist":"3","well":"S LINNVILLE #1","longitude":-95.811,"driller":"BLACK CREEK DRILLING","id":"a69k7gcfme9g","state":"TX"},"type":"Feature","geometry":{"type":"Point","coordinates":[-95.811379,29.081385]}},{"properties":{"ptd":3900,"latitude":35.427,"days":8,"spud":"10/22/2009","county":"VAN BUREN","operator":"SEECO INC","rig":"3","rig_drill":"#3 DESOTO DRILLING","reptref":2,"dist":null,"well":"BRYANT 09-14 #1-10 H","longitude":-92.478,"driller":"DESOTO DRILLING","id":"a69k7gnz1pc1","state":"AR"},"type":"Feature","geometry":{"type":"Point","coordinates":[-92.477987,35.427243]}},{"properties":{"ptd":11700,"latitude":28.847,"days":9,"spud":"10/21/2009","county":"MATAGORDA","operator":"HOUSTON ENERGY LP","rig":"3","rig_drill":"#3 EDDE DRILLING","reptref":2,"dist":"3","well":"RIO RANCH #1","longitude":-95.992,"driller":"EDDE DRILLING","id":"a69k7gifh80q","state":"TX"},"type":"Feature","geometry":{"type":"Point","coordinates":[-95.992126,28.846765]}},{"properties":{"ptd":12000,"latitude":32.027,"days":19,"spud":"10/11/2009","county":"PANOLA","operator":"SOJITZ ENERGY VEN","rig":"3","rig_drill":"#3 NICKLOS DRILLING","reptref":9,"dist":"6","well":"SMITH #2","longitude":-94.529,"driller":"NICKLOS DRILLING","id":"a69k7gmrtcoc","state":"TX"},"type":"Feature","geometry":{"type":"Point","coordinates":[-94.528551,32.026676]}},{"properties":{"ptd":12000,"latitude":32.006,"days":1,"spud":"10/29/2009","county":"DE SOTO","operator":"CHESAPEAKE/OKC","rig":"3","rig_drill":"#3 NOMAC DRLG LLC/MARSH","reptref":34,"dist":"N","well":"HUNTER MANNIES ET AL -24H- #1","longitude":-93.762,"driller":"NOMAC DRLG LLC/MARSH","id":"a69k7gfv13cu","state":"LA"},"type":"Feature","geometry":{"type":"Point","coordinates":[-93.762011,32.006089]}},{"properties":{"ptd":8500,"latitude":28.085,"days":-12,"spud":"11/11/2009","county":"WEBB","operator":"ST MARY LAND &amp; EXP/H","rig":"3","rig_drill":"#3 ORION DRILLING","reptref":9,"dist":"4","well":"BRISCOE -G- GAS UNIT -1- #3 H","longitude":-99.924,"driller":"ORION DRILLING","id":"a69k7gs48fsq","state":"TX"},"type":"Feature","geometry":{"type":"Point","coordinates":[-99.924484,28.084576]}},{"properties":{"ptd":5777,"latitude":33.269,"days":54,"spud":"9/6/2009","county":"TUSCALOOSA","operator":"JIM WALTER RESOURCES","rig":"3","rig_drill":"#3 PERFORMANCE DRLG CO","reptref":1,"dist":null,"well":"JWR #25-14-04","longitude":-87.329,"driller":"PERFORMANCE DRLG CO","id":"a69k7gj5hnqq","state":"AL"},"type":"Feature","geometry":{"type":"Point","coordinates":[-87.32904,33.269273]}},{"properties":{"ptd":13500,"latitude":27.013,"days":31,"spud":"9/29/2009","county":"ZAPATA","operator":"L O G ENERGY EXP LTD","rig":"3","rig_drill":"#3 PIONEER DRILLING","reptref":1,"dist":"4","well":"ALEXANDER -A- #3","longitude":-99.229,"driller":"PIONEER DRILLING","id":"a69k7gnx5qzh","state":"TX"},"type":"Feature","geometry":{"type":"Point","coordinates":[-99.229181,27.012837]}},{"properties":{"ptd":3000,"latitude":29.846,"days":4,"spud":"10/26/2009","county":"JEFFERSON","operator":"HEMCO DEVELOPMENT","rig":"3","rig_drill":"#3 PROGRESS DRILLING","reptref":6,"dist":"3","well":"C M WILBANKS -SWD- #1","longitude":-94.09,"driller":"PROGRESS DRILLING","id":"a69k7ggs9zhy","state":"TX"},"type":"Feature","geometry":{"type":"Point","coordinates":[-94.089654,29.845611]}},{"properties":{"ptd":13369,"latitude":26.943,"days":4,"spud":"10/26/2009","county":"KENEDY","operator":"SAXUM OIL &amp; GAS","rig":"3","rig_drill":"#3 SCORPION E &amp; P","reptref":1,"dist":"4","well":"ARMSTRONG #1","longitude":-97.862,"driller":"SCORPION E &amp; P","id":"a69k7gfvnvnr","state":"TX"},"type":"Feature","geometry":{"type":"Point","coordinates":[-97.861771,26.943499]}},{"properties":{"ptd":5500,"latitude":35.276,"days":3,"spud":"10/27/2009","county":"FAULKNER","operator":"SEECO INC","rig":"30","rig_drill":"#30 DESOTO DRILLING","reptref":2,"dist":null,"well":"BREWER 08-11 #1-33 H","longitude":-92.181,"driller":"DESOTO DRILLING","id":"a69k7grl7xti","state":"AR"},"type":"Feature","geometry":{"type":"Point","coordinates":[-92.181362,35.276121]}},{"properties":{"ptd":5610,"latitude":35.27,"days":0,"spud":"10/30/2009","county":"WHITE","operator":"XTO ENERGY/OKC","rig":"30","rig_drill":"#30 GOOBER DRILLING LLC","reptref":5,"dist":null,"well":"LIGON #4-36 H","longitude":-91.813,"driller":"GOOBER DRILLING LLC","id":"a69k7gh2q9ks","state":"AR"},"type":"Feature","geometry":{"type":"Point","coordinates":[-91.812863,35.270167]}},{"properties":{"ptd":4582,"latitude":35.401,"days":7,"spud":"10/23/2009","county":"CLEBURNE","operator":"CHESAPEAKE/OKC","rig":"30","rig_drill":"#30 NOMAC DRILLING LLC","reptref":4,"dist":null,"well":"VAN GLENN 9-8 #2-21 H","longitude":-91.866,"driller":"NOMAC DRILLING LLC","id":"a69k7grk9v24","state":"AR"},"type":"Feature","geometry":{"type":"Point","coordinates":[-91.86586,35.401286]}},{"properties":{"ptd":9000,"latitude":32.352,"days":23,"spud":"10/7/2009","county":"JOHNSON","operator":"RANGE PRODUCTION CO","rig":"30","rig_drill":"#30 PIONEER DRILLING/A","reptref":8,"dist":"5","well":"BRUNER-LARAMORE UNIT #2 H","longitude":-97.158,"driller":"PIONEER DRILLING/A","id":"a69k7gop7lzi","state":"TX"},"type":"Feature","geometry":{"type":"Point","coordinates":[-97.158306,32.35238]}},{"properties":{"ptd":14000,"latitude":30.82,"days":60,"spud":"8/31/2009","county":"TYLER","operator":"BBX OPERATING LLC","rig":"30","rig_drill":"#30 ROWAN DRILLING","reptref":4,"dist":"3","well":"GUNTER #1 H","longitude":-94.209,"driller":"ROWAN DRILLING","id":"a69k7gfakmbw","state":"TX"},"type":"Feature","geometry":{"type":"Point","coordinates":[-94.209086,30.819951]}},{"properties":{"ptd":10000,"latitude":32.684,"days":8,"spud":"10/22/2009","county":"WOOD","operator":"ENERGY PRODUCTION","rig":"303","rig_drill":"#303 PRECISION DRILLING/S","reptref":1,"dist":"6","well":"TURBEVILLE #3 ST","longitude":-95.368,"driller":"PRECISION DRILLING/S","id":"a69k7gesrkil","state":"TX"},"type":"Feature","geometry":{"type":"Point","coordinates":[-95.367587,32.684197]}},{"properties":{"ptd":11339,"latitude":32.297,"days":26,"spud":"10/4/2009","county":"CADDO","operator":"QUESTAR E&amp;P/TULSA","rig":"306","rig_drill":"#306 UNIT DRILLING (M)","reptref":14,"dist":"N","well":"CUPPLES -H- #2","longitude":-93.552,"driller":"UNIT DRILLING (M)","id":"a69k7gnm49ae","state":"LA"},"type":"Feature","geometry":{"type":"Point","coordinates":[-93.551652,32.29744]}},{"properties":{"ptd":8650,"latitude":32.643,"days":12,"spud":"10/18/2009","county":"BOSSIER","operator":"DIAMOND OIL LLC","rig":"307","rig_drill":"#307 UNIT TEXAS (H)","reptref":5,"dist":"N","well":"VICE -13- #1","longitude":-93.452,"driller":"UNIT TEXAS (H)","id":"a69k7gl0f5sv","state":"LA"},"type":"Feature","geometry":{"type":"Point","coordinates":[-93.451706,32.643064]}},{"properties":{"ptd":4200,"latitude":35.519,"days":1,"spud":"10/29/2009","county":"WHITE","operator":"SEECO INC","rig":"31","rig_drill":"#31 DESOTO DRILLING","reptref":13,"dist":null,"well":"HENSLEY 10-07 #2-4 H","longitude":-91.748,"driller":"DESOTO DRILLING","id":"a69k7gl8602r","state":"AR"},"type":"Feature","geometry":{"type":"Point","coordinates":[-91.748115,35.518957]}},{"properties":{"ptd":3066,"latitude":35.497,"days":6,"spud":"10/24/2009","county":"VAN BUREN","operator":"CHESAPEAKE/OKC","rig":"31","rig_drill":"#31 NOMAC DRILLING LLC","reptref":4,"dist":null,"well":"SULLIVAN 10-13 #4-15 H","longitude":-92.353,"driller":"NOMAC DRILLING LLC","id":"a69k7gkgdm4v","state":"AR"},"type":"Feature","geometry":{"type":"Point","coordinates":[-92.35316,35.496783]}},{"properties":{"ptd":11000,"latitude":32.612,"days":11,"spud":"10/19/2009","county":"TARRANT","operator":"XTO ENERGY/FT WORTH","rig":"310","rig_drill":"#310 PATTERSON UTI/SPRING","reptref":6,"dist":"5","well":"BASPED UNIT #A4 H","longitude":-97.197,"driller":"PATTERSON UTI/SPRING","id":"a69k7gqlvh5s","state":"TX"},"type":"Feature","geometry":{"type":"Point","coordinates":[-97.197323,32.611662]}},{"properties":{"ptd":4800,"latitude":28.407,"days":8,"spud":"10/22/2009","county":"REFUGIO","operator":"HILCORP ENERGY CO.","rig":"311","rig_drill":"#311 PRECISION DRILLING/A","reptref":3,"dist":"2","well":"MAUDE WILLIAMS ET AL -A- #D207","longitude":-97.079,"driller":"PRECISION DRILLING/A","id":"a69k7gltfegp","state":"TX"},"type":"Feature","geometry":{"type":"Point","coordinates":[-97.079371,28.407148]}},{"properties":{"ptd":13500,"latitude":32.663,"days":20,"spud":"10/10/2009","county":"HARRISON","operator":"BP AMERICA/HOUSTON","rig":"313","rig_drill":"#313 HELMERICH &amp; PAYNE/T","reptref":3,"dist":"6","well":"HIGHLAND LAKE CLUB GAS UNIT #5 H","longitude":-94.3,"driller":"HELMERICH &amp; PAYNE/T","id":"a69k7gkj3wkz","state":"TX"},"type":"Feature","geometry":{"type":"Point","coordinates":[-94.299517,32.663222]}},{"properties":{"ptd":11000,"latitude":28.306,"days":35,"spud":"9/25/2009","county":"MAVERICK","operator":"ANADARKO E &amp; P CO LP","rig":"314","rig_drill":"#314 HELMERICH &amp; PAYNE(A)","reptref":1,"dist":"1","well":"TOVAR -78- #2 H","longitude":-100.156,"driller":"HELMERICH &amp; PAYNE(A)","id":"a69k7gdf7g3y","state":"TX"},"type":"Feature","geometry":{"type":"Point","coordinates":[-100.155624,28.306018]}},{"properties":{"ptd":12280,"latitude":32.25,"days":17,"spud":"10/13/2009","county":"RED RIVER","operator":"QUESTAR E&amp;P/TULSA","rig":"316","rig_drill":"#316 UNIT TEXAS (H)","reptref":10,"dist":"N","well":"CONLY SR -34H- #1 ALT","longitude":-93.375,"driller":"UNIT TEXAS (H)","id":"a69k7gmi6ej9","state":"LA"},"type":"Feature","geometry":{"type":"Point","coordinates":[-93.374902,32.250322]}},{"properties":{"ptd":12500,"latitude":28.743,"days":18,"spud":"10/12/2009","county":"KARNES","operator":"TEXAS CRUDE ENERGY","rig":"3179","rig_drill":"#3179 KEY ENERGY SVCS (A)","reptref":5,"dist":"2","well":"WESTON 118-1 #1","longitude":-97.99,"driller":"KEY ENERGY SVCS (A)","id":"a69k7gd8blrf","state":"TX"},"type":"Feature","geometry":{"type":"Point","coordinates":[-97.989935,28.74327]}},{"properties":{"ptd":8310,"latitude":34.841,"days":18,"spud":"10/12/2009","county":"HUGHES","operator":"NEWFIELD EXP MID-CON","rig":"32","rig_drill":"#32 GOOBER DRILLING LLC","reptref":1,"dist":null,"well":"REEDER #6 H10","longitude":-96.139,"driller":"GOOBER DRILLING LLC","id":"a69k7geks7ds","state":"OK"},"type":"Feature","geometry":{"type":"Point","coordinates":[-96.138858,34.84132]}},{"properties":{"ptd":2044,"latitude":35.611,"days":10,"spud":"10/20/2009","county":"VAN BUREN","operator":"CHESAPEAKE/OKC","rig":"32","rig_drill":"#32 NOMAC DRILLING LLC","reptref":5,"dist":null,"well":"SHERRY BIXLER 11-13 #1-9 H5","longitude":-92.376,"driller":"NOMAC DRILLING LLC","id":"a69k7gkk8noc","state":"AR"},"type":"Feature","geometry":{"type":"Point","coordinates":[-92.375911,35.611184]}},{"properties":{"ptd":11000,"latitude":31.395,"days":13,"spud":"10/17/2009","county":"CONECUH","operator":"MIDROC OPER./DALLAS","rig":"32","rig_drill":"#32 RAPAD DRILLING","reptref":2,"dist":null,"well":"CEDAR CREEK LAND &amp; TIMBER #14-14","longitude":-86.73,"driller":"RAPAD DRILLING","id":"a69k7ghmdeuc","state":"AL"},"type":"Feature","geometry":{"type":"Point","coordinates":[-86.730297,31.394621]}},{"properties":{"ptd":10712,"latitude":30.131,"days":-6,"spud":"11/5/2009","county":"CALCASIEU","operator":"JORDAN OIL CO INC","rig":"325","rig_drill":"#325 UNIT TEXAS (H)","reptref":3,"dist":"S","well":"FONTENOT #1 ALT","longitude":-93.268,"driller":"UNIT TEXAS (H)","id":"a69k7gmyf788","state":"LA"},"type":"Feature","geometry":{"type":"Point","coordinates":[-93.268136,30.130887]}},{"properties":{"ptd":12075,"latitude":32.224,"days":21,"spud":"10/9/2009","county":"RED RIVER","operator":"QUESTAR E&amp;P/TULSA","rig":"327","rig_drill":"#327 UNIT TEXAS (H)","reptref":11,"dist":"N","well":"SAMPLE -2H- #1","longitude":-93.474,"driller":"UNIT TEXAS (H)","id":"a69k7gqxvcnq","state":"LA"},"type":"Feature","geometry":{"type":"Point","coordinates":[-93.473587,32.224435]}},{"properties":{"ptd":9000,"latitude":32.686,"days":14,"spud":"10/16/2009","county":"TARRANT","operator":"QUICKSILVER RES/TX","rig":"328","rig_drill":"#328 HELMERICH &amp; PAYNE/FW","reptref":8,"dist":"5","well":"LAWHON SOUTH UNIT #13 H","longitude":-97.248,"driller":"HELMERICH &amp; PAYNE/FW","id":"a69k7ge0evk1","state":"TX"},"type":"Feature","geometry":{"type":"Point","coordinates":[-97.248086,32.685714]}},{"properties":{"ptd":7347,"latitude":34.794,"days":11,"spud":"10/19/2009","county":"HUGHES","operator":"NEWFIELD EXP MID-CON","rig":"33","rig_drill":"#33 GOOBER DRILLING LLC","reptref":6,"dist":null,"well":"TOLLETT #5 H-22","longitude":-96.241,"driller":"GOOBER DRILLING LLC","id":"a69k7ge4oe04","state":"OK"},"type":"Feature","geometry":{"type":"Point","coordinates":[-96.240993,34.794278]}},{"properties":{"ptd":5117,"latitude":35.301,"days":12,"spud":"10/18/2009","county":"WHITE","operator":"CHESAPEAKE/OKC","rig":"33","rig_drill":"#33 NOMAC DRILLING LLC","reptref":7,"dist":null,"well":"BONNIE EDWARDS 8-9 #3-24 H","longitude":-91.91,"driller":"NOMAC DRILLING LLC","id":"a69k7go0k2q0","state":"AR"},"type":"Feature","geometry":{"type":"Point","coordinates":[-91.910183,35.300726]}},{"properties":{"ptd":11500,"latitude":31.304,"days":12,"spud":"10/18/2009","county":"COVINGTON","operator":"PALMER PETROLEUM","rig":"33","rig_drill":"#33 RAPAD DRILLING","reptref":1,"dist":null,"well":"LONGLEAF LTD 24-3 #1","longitude":-86.611,"driller":"RAPAD DRILLING","id":"a69k7gomg0ra","state":"AL"},"type":"Feature","geometry":{"type":"Point","coordinates":[-86.6107,31.303888]}},{"properties":{"ptd":9000,"latitude":32.716,"days":13,"spud":"10/17/2009","county":"TARRANT","operator":"QUICKSILVER RES/TX","rig":"331","rig_drill":"#331 HELMERICH &amp; PAYNE/FW","reptref":9,"dist":"5","well":"CITY OF ARLINGTON UNIT #8 H","longitude":-97.185,"driller":"HELMERICH &amp; PAYNE/FW","id":"a69k7gmxyvgl","state":"TX"},"type":"Feature","geometry":{"type":"Point","coordinates":[-97.185418,32.715912]}},{"properties":{"ptd":9000,"latitude":32.725,"days":11,"spud":"10/19/2009","county":"TARRANT","operator":"CARRIZO OIL &amp; GAS","rig":"332","rig_drill":"#332 HELMERICH &amp; PAYNE/FW","reptref":10,"dist":"5","well":"UTA -B- UNIT #13 H","longitude":-97.107,"driller":"HELMERICH &amp; PAYNE/FW","id":"a69k7gj2jrle","state":"TX"},"type":"Feature","geometry":{"type":"Point","coordinates":[-97.107155,32.725394]}},{"properties":{"ptd":22500,"latitude":30.648,"days":292,"spud":"1/11/2009","county":"POINTE COUPEE","operator":"PENNINGTON O&amp;G INT","rig":"339","rig_drill":"#339 NABORS DRILLING (L)","reptref":1,"dist":"S","well":"BOMER BLANKS #1","longitude":-91.56,"driller":"NABORS DRILLING (L)","id":"a69k7grdbhl5","state":"LA"},"type":"Feature","geometry":{"type":"Point","coordinates":[-91.559663,30.64784]}},{"properties":{"ptd":4585,"latitude":35.299,"days":15,"spud":"10/15/2009","county":"WHITE","operator":"CHESAPEAKE/OKC","rig":"34","rig_drill":"#34 NOMAC DRILLING LLC","reptref":11,"dist":null,"well":"PENNINGTON 8-6 #5-19 H18","longitude":-91.685,"driller":"NOMAC DRILLING LLC","id":"a69k7gh95863","state":"AR"},"type":"Feature","geometry":{"type":"Point","coordinates":[-91.68457,35.298507]}},{"properties":{"ptd":11000,"latitude":32.825,"days":10,"spud":"10/20/2009","county":"TARRANT","operator":"XTO ENERGY/FT WORTH","rig":"342","rig_drill":"#342 HELMERICH &amp; PAYNE/FW","reptref":5,"dist":"5","well":"MEACHAM #A13 H","longitude":-97.369,"driller":"HELMERICH &amp; PAYNE/FW","id":"a69k7gf2sgjq","state":"TX"},"type":"Feature","geometry":{"type":"Point","coordinates":[-97.369487,32.825499]}},{"properties":{"ptd":5037,"latitude":35.298,"days":3,"spud":"10/27/2009","county":"WHITE","operator":"CHESAPEAKE/OKC","rig":"35","rig_drill":"#35 NOMAC DRILLING LLC","reptref":9,"dist":null,"well":"VIRGINIA COBB 8-7 #1-21 H17","longitude":-91.762,"driller":"NOMAC DRILLING LLC","id":"a69k7gkfndks","state":"AR"},"type":"Feature","geometry":{"type":"Point","coordinates":[-91.76151,35.298497]}},{"properties":{"ptd":12500,"latitude":31.3,"days":12,"spud":"10/18/2009","county":"CONECUH","operator":"FAIRWAYS EXPLORATION","rig":"35","rig_drill":"#35 RAPAD DRILLING","reptref":1,"dist":null,"well":"CEDAR CREEK LAND &amp; TIMBER 23-5 #1","longitude":-86.936,"driller":"RAPAD DRILLING","id":"a69k7gdsek79","state":"AL"},"type":"Feature","geometry":{"type":"Point","coordinates":[-86.936378,31.300182]}},{"properties":{"ptd":13500,"latitude":32.03,"days":40,"spud":"9/20/2009","county":"RUSK","operator":"CABOT O &amp; G/HOUSTON","rig":"35","rig_drill":"#35 ROWAN DRILLING","reptref":2,"dist":"6","well":"TUFCO GAS UNIT -1- #11 H","longitude":-94.723,"driller":"ROWAN DRILLING","id":"a69k7gfywd90","state":"TX"},"type":"Feature","geometry":{"type":"Point","coordinates":[-94.723323,32.029529]}},{"properties":{"ptd":14200,"latitude":27.664,"days":55,"spud":"9/5/2009","county":"NUECES","operator":"WESTERN GULF OIL","rig":"35","rig_drill":"#35 UNIT TEXAS (H)","reptref":1,"dist":"4","well":"SMITH UNIT #1","longitude":-97.485,"driller":"UNIT TEXAS (H)","id":"a69k7gcrkpn3","state":"TX"},"type":"Feature","geometry":{"type":"Point","coordinates":[-97.48545,27.664417]}},{"properties":{"ptd":5100,"latitude":35.345,"days":2,"spud":"10/28/2009","county":"WHITE","operator":"XTO ENERGY/OKC","rig":"36","rig_drill":"#36 GOOBER DRILLING LLC","reptref":8,"dist":null,"well":"HAYES #2-2 H11","longitude":-91.934,"driller":"GOOBER DRILLING LLC","id":"a69k7gsahb73","state":"AR"},"type":"Feature","geometry":{"type":"Point","coordinates":[-91.934496,35.344943]}},{"properties":{"ptd":8184,"latitude":34.823,"days":6,"spud":"10/24/2009","county":"HUGHES","operator":"DEVON ENERGY/OKC","rig":"378","rig_drill":"#378 HELMERICH &amp; PAYNE(O)","reptref":2,"dist":null,"well":"CLIFFT #2-9 H","longitude":-96.153,"driller":"HELMERICH &amp; PAYNE(O)","id":"a69k7gcqq6at","state":"OK"},"type":"Feature","geometry":{"type":"Point","coordinates":[-96.152934,34.823169]}},{"properties":{"ptd":12000,"latitude":32.127,"days":3,"spud":"10/27/2009","county":"RUSK","operator":"SANDRIDGE ONSHORE","rig":"38","rig_drill":"#38 LARIAT SERVICES/ODE","reptref":3,"dist":"6","well":"NANA GAS UNIT -1- #19","longitude":-94.714,"driller":"LARIAT SERVICES/ODE","id":"a69k7gghdk7a","state":"TX"},"type":"Feature","geometry":{"type":"Point","coordinates":[-94.713632,32.127063]}},{"properties":{"ptd":6000,"latitude":30.122,"days":5,"spud":"10/25/2009","county":"EDWARDS","operator":"MARINER ENERGY","rig":"38","rig_drill":"#38 PATTERSON UTI/MIDLND","reptref":1,"dist":"1","well":"NICOSON -68- #1","longitude":-100.015,"driller":"PATTERSON UTI/MIDLND","id":"a69k7gmjkqt9","state":"TX"},"type":"Feature","geometry":{"type":"Point","coordinates":[-100.014515,30.122257]}},{"properties":{"ptd":12800,"latitude":31.693,"days":6,"spud":"10/24/2009","county":"SHELBY","operator":"XTO ENERGY/TYLER","rig":"382","rig_drill":"#382 HELMERICH &amp; PAYNE/T","reptref":11,"dist":"6","well":"ROADRUNNERS -DU- #1 H","longitude":-94.103,"driller":"HELMERICH &amp; PAYNE/T","id":"a69k7gqrm2wg","state":"TX"},"type":"Feature","geometry":{"type":"Point","coordinates":[-94.103118,31.692992]}},{"properties":{"ptd":13000,"latitude":32.528,"days":29,"spud":"10/1/2009","county":"HARRISON","operator":"GMX RESOURCES INC","rig":"383","rig_drill":"#383 HELMERICH &amp; PAYNE/T","reptref":4,"dist":"6","well":"VERHALEN -D- #1 H","longitude":-94.247,"driller":"HELMERICH &amp; PAYNE/T","id":"a69k7gf6g677","state":"TX"},"type":"Feature","geometry":{"type":"Point","coordinates":[-94.246665,32.528122]}},{"properties":{"ptd":20000,"latitude":31.735,"days":39,"spud":"9/21/2009","county":"SHELBY","operator":"PETROHAWK OPERATING","rig":"389","rig_drill":"#389 HELMERICH &amp; PAYNE/T","reptref":1,"dist":"6","well":"PEACE #1 H","longitude":-94.171,"driller":"HELMERICH &amp; PAYNE/T","id":"a69k7gnveqyv","state":"TX"},"type":"Feature","geometry":{"type":"Point","coordinates":[-94.170565,31.734589]}},{"properties":{"ptd":11589,"latitude":32.251,"days":-1,"spud":"10/31/2009","county":"CADDO","operator":"PETROHAWK OPERATING","rig":"391","rig_drill":"#391 HELMERICH &amp; PAYNE/T","reptref":7,"dist":"N","well":"FRANKLIN ET AL -28H- #1","longitude":-93.505,"driller":"HELMERICH &amp; PAYNE/T","id":"a69k7gsmdy6r","state":"LA"},"type":"Feature","geometry":{"type":"Point","coordinates":[-93.505168,32.251261]}},{"properties":{"ptd":12351,"latitude":32.063,"days":14,"spud":"10/16/2009","county":"RED RIVER","operator":"PETROHAWK OPERATING","rig":"394","rig_drill":"#394 HELMERICH &amp; PAYNE/T","reptref":9,"dist":"N","well":"HUCKABAY -31H- #1","longitude":-93.437,"driller":"HELMERICH &amp; PAYNE/T","id":"a69k7gdfijlb","state":"LA"},"type":"Feature","geometry":{"type":"Point","coordinates":[-93.437123,32.063102]}},{"properties":{"ptd":11945,"latitude":32.237,"days":32,"spud":"9/28/2009","county":"RED RIVER","operator":"PETROHAWK OPERATING","rig":"395","rig_drill":"#395 HELMERICH &amp; PAYNE/T","reptref":24,"dist":"N","well":"TIGRE PLANTATION LLC -31H- #1","longitude":-93.534,"driller":"HELMERICH &amp; PAYNE/T","id":"a69k7go5tyx0","state":"LA"},"type":"Feature","geometry":{"type":"Point","coordinates":[-93.534476,32.236917]}},{"properties":{"ptd":18500,"latitude":31.811,"days":10,"spud":"10/20/2009","county":"SHELBY","operator":"DEVON ENERGY/OKC","rig":"396","rig_drill":"#396 HELMERICH &amp; PAYNE/T","reptref":3,"dist":"6","well":"WHITTON #1 H","longitude":-94.341,"driller":"HELMERICH &amp; PAYNE/T","id":"a69k7grlzhu0","state":"TX"},"type":"Feature","geometry":{"type":"Point","coordinates":[-94.341154,31.810935]}},{"properties":{"ptd":12000,"latitude":31.874,"days":18,"spud":"10/12/2009","county":"DE SOTO","operator":"COMSTOCK OIL&amp;GAS LP","rig":"397","rig_drill":"#397 HELMERICH &amp; PAYNE/T","reptref":31,"dist":"N","well":"BSMC LA -11- HZ #1","longitude":-93.869,"driller":"HELMERICH &amp; PAYNE/T","id":"a69k7gdm9rmu","state":"LA"},"type":"Feature","geometry":{"type":"Point","coordinates":[-93.868656,31.874458]}},{"properties":{"ptd":11500,"latitude":31.86,"days":44,"spud":"9/16/2009","county":"DE SOTO","operator":"COMSTOCK OIL&amp;GAS LP","rig":"398","rig_drill":"#398 HELMERICH &amp; PAYNE/T","reptref":53,"dist":"N","well":"BSMC LA -13- HZ #1","longitude":-93.849,"driller":"HELMERICH &amp; PAYNE/T","id":"a69k7gnn5nef","state":"LA"},"type":"Feature","geometry":{"type":"Point","coordinates":[-93.849103,31.859931]}},{"properties":{"ptd":12300,"latitude":30.498,"days":63,"spud":"8/28/2009","county":"ST. LANDRY","operator":"DESTIN OPERATING","rig":"3A","rig_drill":"#3A CROWN DRILLING","reptref":1,"dist":"S","well":"W LALONDE ET AL #1","longitude":-92.043,"driller":"CROWN DRILLING","id":"a69k7gcs7s5x","state":"LA"},"type":"Feature","geometry":{"type":"Point","coordinates":[-92.043235,30.498386]}},{"properties":{"ptd":18000,"latitude":30.18,"days":16,"spud":"10/14/2009","county":"ORANGE","operator":"FAIRWAYS EXPLORATION","rig":"4","rig_drill":"#4 BIG E DRILLING","reptref":1,"dist":"3","well":"STARK #1","longitude":-93.839,"driller":"BIG E DRILLING","id":"a69k7gjeqyhg","state":"TX"},"type":"Feature","geometry":{"type":"Point","coordinates":[-93.839152,30.180163]}},{"properties":{"ptd":3500,"latitude":35.398,"days":11,"spud":"10/19/2009","county":"WHITE","operator":"SEECO INC","rig":"4","rig_drill":"#4 DESOTO DRILLING","reptref":17,"dist":null,"well":"RILEY 09-06 #2-22 H","longitude":-91.625,"driller":"DESOTO DRILLING","id":"a69k7gev7x61","state":"AR"},"type":"Feature","geometry":{"type":"Point","coordinates":[-91.624634,35.398115]}},{"properties":{"ptd":7000,"latitude":28.432,"days":7,"spud":"10/23/2009","county":"BEE","operator":"T-C OIL COMPANY","rig":"4","rig_drill":"#4 EDDE DRILLING","reptref":2,"dist":"2","well":"ROWLING -G- #1","longitude":-97.593,"driller":"EDDE DRILLING","id":"a69k7gpa6ihw","state":"TX"},"type":"Feature","geometry":{"type":"Point","coordinates":[-97.592861,28.431967]}},{"properties":{"ptd":15000,"latitude":28.159,"days":31,"spud":"9/29/2009","county":"LA SALLE","operator":"LEWIS PETRO PROP","rig":"4","rig_drill":"#4 LEWIS PETRO PROP","reptref":4,"dist":"1","well":"APPLING -716H- #1","longitude":-99.262,"driller":"LEWIS PETRO PROP","id":"a69k7gr8hc1l","state":"TX"},"type":"Feature","geometry":{"type":"Point","coordinates":[-99.261695,28.159192]}},{"properties":{"ptd":9000,"latitude":32.59,"days":-1,"spud":"10/31/2009","county":"TARRANT","operator":"CHESAPEAKE/OKC","rig":"4","rig_drill":"#4 MOUNTAIN DRILLING","reptref":11,"dist":"5","well":"LINDAMOOD #1 H","longitude":-97.485,"driller":"MOUNTAIN DRILLING","id":"a69k7gkt5fwk","state":"TX"},"type":"Feature","geometry":{"type":"Point","coordinates":[-97.485096,32.589886]}},{"properties":{"ptd":14500,"latitude":29.997,"days":64,"spud":"8/27/2009","county":"CAMERON","operator":"UNITED WORLD ENERGY","rig":"4","rig_drill":"#4 NABORS DRILLING (L)","reptref":1,"dist":"S","well":"LACASSANE COMPANY -23- #1","longitude":-92.961,"driller":"NABORS DRILLING (L)","id":"a69k7gop1sa1","state":"LA"},"type":"Feature","geometry":{"type":"Point","coordinates":[-92.960554,29.996953]}},{"properties":{"ptd":15730,"latitude":31.098,"days":2,"spud":"10/28/2009","county":"ESCAMBIA","operator":"PRUET PRODUCTION CO","rig":"4","rig_drill":"#4 OILFIELD SERVICE","reptref":1,"dist":null,"well":"A T I C 31-6 #1","longitude":-87.405,"driller":"OILFIELD SERVICE","id":"a69k7gm3bva0","state":"AL"},"type":"Feature","geometry":{"type":"Point","coordinates":[-87.404749,31.0981]}},{"properties":{"ptd":11500,"latitude":29.088,"days":26,"spud":"10/4/2009","county":"LAVACA","operator":"UNION GAS OPERATING","rig":"4","rig_drill":"#4 PATTERSON UTI/VICTOR","reptref":2,"dist":"2","well":"BORCHERS #1","longitude":-96.926,"driller":"PATTERSON UTI/VICTOR","id":"a69k7goprptp","state":"TX"},"type":"Feature","geometry":{"type":"Point","coordinates":[-96.925881,29.087679]}},{"properties":{"ptd":13500,"latitude":28.275,"days":10,"spud":"10/20/2009","county":"MCMULLEN","operator":"COMMON RESOURCES LLC","rig":"4","rig_drill":"#4 UNISON DRILLING","reptref":4,"dist":"1","well":"GILLIAM #2401 H","longitude":-98.668,"driller":"UNISON DRILLING","id":"a69k7gq7zxx6","state":"TX"},"type":"Feature","geometry":{"type":"Point","coordinates":[-98.66848,28.275279]}},{"properties":{"ptd":15000,"latitude":31.522,"days":9,"spud":"10/21/2009","county":"NACOGDOCHES","operator":"PETROHAWK OPERATING","rig":"40","rig_drill":"#40 GOOBER DRILLING LLC","reptref":2,"dist":"6","well":"PETROLEUM CREEK #1 H","longitude":-94.478,"driller":"GOOBER DRILLING LLC","id":"a69k7gmovn78","state":"TX"},"type":"Feature","geometry":{"type":"Point","coordinates":[-94.478473,31.522223]}},{"properties":{"ptd":14000,"latitude":32.109,"days":7,"spud":"10/23/2009","county":"RUSK","operator":"SANDRIDGE ONSHORE","rig":"40","rig_drill":"#40 LARIAT SERVICES/ODE","reptref":1,"dist":"6","well":"POWELL GAS UNIT -1- #28","longitude":-94.736,"driller":"LARIAT SERVICES/ODE","id":"a69k7gow6znc","state":"TX"},"type":"Feature","geometry":{"type":"Point","coordinates":[-94.735693,32.108821]}},{"properties":{"ptd":7500,"latitude":35.209,"days":7,"spud":"10/23/2009","county":"LOGAN","operator":"HANNA OIL &amp; GAS","rig":"40","rig_drill":"#40 UNION DRILLING (T)","reptref":1,"dist":null,"well":"USA 06-25 #1-5","longitude":-93.672,"driller":"UNION DRILLING (T)","id":"a69k7gknaz4u","state":"AR"},"type":"Feature","geometry":{"type":"Point","coordinates":[-93.672367,35.209402]}},{"properties":{"ptd":14500,"latitude":28.884,"days":8,"spud":"10/22/2009","county":"KARNES","operator":"ENDURING RESOURCES","rig":"401","rig_drill":"#401 AQUILA DRILLING","reptref":1,"dist":"2","well":"GUS TIPS GAS UNIT -1- #2","longitude":-97.704,"driller":"AQUILA DRILLING","id":"a69k7gcmchh2","state":"TX"},"type":"Feature","geometry":{"type":"Point","coordinates":[-97.704081,28.884386]}},{"properties":{"ptd":14000,"latitude":28.842,"days":43,"spud":"9/17/2009","county":"KARNES","operator":"ENDURING RESOURCES","rig":"402","rig_drill":"#402 AQUILA DRILLING","reptref":2,"dist":"2","well":"ESCONDIDO CRK RIVER RCH GU -1- #1","longitude":-97.743,"driller":"AQUILA DRILLING","id":"a69k7govwjlj","state":"TX"},"type":"Feature","geometry":{"type":"Point","coordinates":[-97.74262,28.841942]}},{"properties":{"ptd":15500,"latitude":31.762,"days":42,"spud":"9/18/2009","county":"SHELBY","operator":"EOG RESOURCES/TYLER","rig":"409","rig_drill":"#409 NABORS DRILLING (K)","reptref":6,"dist":"6","well":"ELLINGTON-ELLORA #1 H","longitude":-94.073,"driller":"NABORS DRILLING (K)","id":"a69k7gse4eex","state":"TX"},"type":"Feature","geometry":{"type":"Point","coordinates":[-94.072584,31.762326]}},{"properties":{"ptd":5938,"latitude":35.223,"days":10,"spud":"10/20/2009","county":"WHITE","operator":"CHESAPEAKE/OKC","rig":"41","rig_drill":"#41 NOMAC DRILLING LLC","reptref":4,"dist":null,"well":"MATTHEW RANSOM 7-8 #1-20 H17","longitude":-91.879,"driller":"NOMAC DRILLING LLC","id":"a69k7go9zqo6","state":"AR"},"type":"Feature","geometry":{"type":"Point","coordinates":[-91.87904,35.223334]}},{"properties":{"ptd":13000,"latitude":32.465,"days":10,"spud":"10/20/2009","county":"HARRISON","operator":"GMX RESOURCES INC","rig":"420","rig_drill":"#420 HELMERICH &amp; PAYNE/T","reptref":5,"dist":"6","well":"BELL #5 H","longitude":-94.305,"driller":"HELMERICH &amp; PAYNE/T","id":"a69k7gdvmfsn","state":"TX"},"type":"Feature","geometry":{"type":"Point","coordinates":[-94.304622,32.465133]}},{"properties":{"ptd":8168,"latitude":34.839,"days":-1,"spud":"10/31/2009","county":"HUGHES","operator":"CONTINENTAL RESOURCE","rig":"421","rig_drill":"#421 PATTERSON UTI/OKC","reptref":3,"dist":null,"well":"FOSTER #6-6 H","longitude":-96.181,"driller":"PATTERSON UTI/OKC","id":"a69k7gn22oc1","state":"OK"},"type":"Feature","geometry":{"type":"Point","coordinates":[-96.180636,34.839081]}},{"properties":{"ptd":12000,"latitude":31.992,"days":21,"spud":"10/9/2009","county":"RED RIVER","operator":"ENCANA O &amp; G/DALLAS","rig":"425","rig_drill":"#425 PRECISION DRILLING/W","reptref":17,"dist":"N","well":"RALPH WEBB -26H- #2","longitude":-93.371,"driller":"PRECISION DRILLING/W","id":"a69k7gnivhhr","state":"LA"},"type":"Feature","geometry":{"type":"Point","coordinates":[-93.370826,31.991851]}},{"properties":{"ptd":19100,"latitude":32.238,"days":2,"spud":"10/28/2009","county":"PANOLA","operator":"XTO ENERGY/TYLER","rig":"446","rig_drill":"#446 PATTERSON UTI/TYLER","reptref":1,"dist":"6","well":"ELVE TOMPKINS #15 H","longitude":-94.514,"driller":"PATTERSON UTI/TYLER","id":"a69k7ge4qwpj","state":"TX"},"type":"Feature","geometry":{"type":"Point","coordinates":[-94.51415,32.237664]}},{"properties":{"ptd":6450,"latitude":35.109,"days":56,"spud":"9/4/2009","county":"LOGAN","operator":"STEPHENS PRODUCTION","rig":"450","rig_drill":"#450 NABORS DRILLING (O)","reptref":2,"dist":null,"well":"ELLIS HALE #3-17 H8","longitude":-94.105,"driller":"NABORS DRILLING (O)","id":"a69k7gl6y08r","state":"AR"},"type":"Feature","geometry":{"type":"Point","coordinates":[-94.104878,35.108501]}},{"properties":{"ptd":17000,"latitude":28.24,"days":29,"spud":"10/1/2009","county":"LA SALLE","operator":"PETROHAWK OPERATING","rig":"454","rig_drill":"#454 NABORS DRILLING (A)","reptref":1,"dist":"1","well":"CAROLINE PIELOP #3 H","longitude":-99.021,"driller":"NABORS DRILLING (A)","id":"a69k7gjw4ah9","state":"TX"},"type":"Feature","geometry":{"type":"Point","coordinates":[-99.020844,28.240107]}},{"properties":{"ptd":8000,"latitude":27.576,"days":13,"spud":"10/17/2009","county":"WEBB","operator":"KILLAM OIL/LAREDO","rig":"454","rig_drill":"#454 PRECISION DRILLING/A","reptref":13,"dist":"4","well":"PESCADITO STATE -984- #2","longitude":-99.383,"driller":"PRECISION DRILLING/A","id":"a69k7gd8b3nh","state":"TX"},"type":"Feature","geometry":{"type":"Point","coordinates":[-99.383354,27.576167]}},{"properties":{"ptd":11869,"latitude":31.975,"days":23,"spud":"10/7/2009","county":"DE SOTO","operator":"EOG RESOURCES/TYLER","rig":"456","rig_drill":"#456 NABORS DRILLING (K)","reptref":43,"dist":"N","well":"YARBROUGH -1- #1","longitude":-93.651,"driller":"NABORS DRILLING (K)","id":"a69k7gj8tyke","state":"LA"},"type":"Feature","geometry":{"type":"Point","coordinates":[-93.650513,31.974938]}},{"properties":{"ptd":12450,"latitude":32.05,"days":21,"spud":"10/9/2009","county":"DE SOTO","operator":"CHESAPEAKE/OKC","rig":"46","rig_drill":"#46 NOMAC DRLG LLC/MARSH","reptref":16,"dist":"N","well":"NABORS PROPERTIES -1H- #1","longitude":-93.751,"driller":"NOMAC DRLG LLC/MARSH","id":"a69k7gpad1la","state":"LA"},"type":"Feature","geometry":{"type":"Point","coordinates":[-93.751159,32.049773]}},{"properties":{"ptd":11000,"latitude":29.895,"days":3,"spud":"10/27/2009","county":"AUSTIN","operator":"TEMA OIL &amp; GAS CO/H","rig":"4628","rig_drill":"#4628 KEY ENERGY SVCS (A)","reptref":1,"dist":"3","well":"WHITE #1","longitude":-96.428,"driller":"KEY ENERGY SVCS (A)","id":"a69k7genqy73","state":"TX"},"type":"Feature","geometry":{"type":"Point","coordinates":[-96.427775,29.894781]}},{"properties":{"ptd":11700,"latitude":32.268,"days":-2,"spud":"11/1/2009","county":"CADDO","operator":"CHESAPEAKE/OKC","rig":"47","rig_drill":"#47 NOMAC DRLG LLC/MARSH","reptref":2,"dist":"N","well":"JONES 26-15-16H #1","longitude":-93.98,"driller":"NOMAC DRLG LLC/MARSH","id":"a69k7gfyui9h","state":"LA"},"type":"Feature","geometry":{"type":"Point","coordinates":[-93.980229,32.267984]}},{"properties":{"ptd":19000,"latitude":31.393,"days":74,"spud":"8/17/2009","county":"LEON","operator":"XTO ENERGY/TYLER","rig":"47","rig_drill":"#47 PRECISION DRILLING/S","reptref":4,"dist":"5","well":"GAIL KING #31 H","longitude":-96.244,"driller":"PRECISION DRILLING/S","id":"a69k7ge2sy3m","state":"TX"},"type":"Feature","geometry":{"type":"Point","coordinates":[-96.244181,31.393153]}},{"properties":{"ptd":12000,"latitude":31.934,"days":5,"spud":"10/25/2009","county":"DE SOTO","operator":"ENCANA O &amp; G/DALLAS","rig":"47","rig_drill":"#47 TRINIDAD DRLG/SHREVE","reptref":36,"dist":"N","well":"LOLA BOONE -15H- #1","longitude":-93.388,"driller":"TRINIDAD DRLG/SHREVE","id":"a69k7goxg83q","state":"LA"},"type":"Feature","geometry":{"type":"Point","coordinates":[-93.387873,31.934018]}},{"properties":{"ptd":12400,"latitude":32.064,"days":101,"spud":"7/21/2009","county":"DE SOTO","operator":"CHESAPEAKE/OKC","rig":"48","rig_drill":"#48 NOMAC DRLG LLC/MARSH","reptref":17,"dist":"N","well":"QUINN PINE -34H- #1","longitude":-93.581,"driller":"NOMAC DRLG LLC/MARSH","id":"a69k7gfb7m3i","state":"LA"},"type":"Feature","geometry":{"type":"Point","coordinates":[-93.580959,32.063704]}},{"properties":{"ptd":17700,"latitude":31.953,"days":18,"spud":"10/12/2009","county":"SMITH","operator":"TELLUS OPERATING","rig":"48","rig_drill":"#48 PRECISION DRILLING/S","reptref":1,"dist":null,"well":"TELLUS TALLAHALA 4-7 #1","longitude":-89.383,"driller":"PRECISION DRILLING/S","id":"a69k7gnpmdtq","state":"MS"},"type":"Feature","geometry":{"type":"Point","coordinates":[-89.382966,31.95335]}},{"properties":{"ptd":12500,"latitude":32.092,"days":51,"spud":"9/9/2009","county":"DE SOTO","operator":"CHESAPEAKE/OKC","rig":"49","rig_drill":"#49 NOMAC DRLG LLC/MARSH","reptref":12,"dist":"N","well":"LOGAN BERRY -27H- #1","longitude":-93.692,"driller":"NOMAC DRLG LLC/MARSH","id":"a69k7gpjlf2q","state":"LA"},"type":"Feature","geometry":{"type":"Point","coordinates":[-93.69156,32.091563]}},{"properties":{"ptd":12300,"latitude":32.136,"days":-9,"spud":"11/8/2009","county":"DE SOTO","operator":"CHESAPEAKE/OKC","rig":"49","rig_drill":"#49 NOMAC DRLG LLC/MARSH","reptref":19,"dist":"N","well":"SLOAN 9-13-13H #1","longitude":-93.708,"driller":"NOMAC DRLG LLC/MARSH","id":"a69k7gl0t69r","state":"LA"},"type":"Feature","geometry":{"type":"Point","coordinates":[-93.707651,32.135933]}},{"properties":{"ptd":19500,"latitude":30.611,"days":-5,"spud":"11/4/2009","county":"GRIMES","operator":"SOUTHERN BAY","rig":"491","rig_drill":"#491 NABORS DRILLING (K)","reptref":1,"dist":"3","well":"HUTTO UNIT #1 H","longitude":-96.13,"driller":"NABORS DRILLING (K)","id":"a69k7ggo1fhb","state":"TX"},"type":"Feature","geometry":{"type":"Point","coordinates":[-96.13025,30.610803]}},{"properties":{"ptd":9600,"latitude":30.833,"days":14,"spud":"10/16/2009","county":"GRIMES","operator":"DEEP ROCK RESOURCES","rig":"5","rig_drill":"#5 BIG E DRILLING","reptref":2,"dist":"3","well":"ZINGARA #4","longitude":-96.007,"driller":"BIG E DRILLING","id":"a69k7gef28c0","state":"TX"},"type":"Feature","geometry":{"type":"Point","coordinates":[-96.007365,30.833163]}},{"properties":{"ptd":3600,"latitude":35.412,"days":13,"spud":"10/17/2009","county":"WHITE","operator":"SEECO INC","rig":"5","rig_drill":"#5 DESOTO DRILLING","reptref":16,"dist":null,"well":"RICKY HIGHT 09-06 #3-17 H","longitude":-91.662,"driller":"DESOTO DRILLING","id":"a69k7gdygd9b","state":"AR"},"type":"Feature","geometry":{"type":"Point","coordinates":[-91.662203,35.41248]}},{"properties":{"ptd":2242,"latitude":35.209,"days":7,"spud":"10/23/2009","county":"MCINTOSH","operator":"CANAAN RESOURCES LLC","rig":"5","rig_drill":"#5 GOOBER DRILLING LLC","reptref":1,"dist":null,"well":"LAURA #1 H31","longitude":-95.857,"driller":"GOOBER DRILLING LLC","id":"a69k7gk6bfvq","state":"OK"},"type":"Feature","geometry":{"type":"Point","coordinates":[-95.856769,35.209351]}},{"properties":{"ptd":13900,"latitude":31.168,"days":50,"spud":"9/10/2009","county":"ROBERTSON","operator":"XTO ENERGY/TYLER","rig":"5","rig_drill":"#5 LATSHAW DRILLING","reptref":7,"dist":"5","well":"MERRYMAN GAS UNIT -1- #2A","longitude":-96.472,"driller":"LATSHAW DRILLING","id":"a69k7gizyinl","state":"TX"},"type":"Feature","geometry":{"type":"Point","coordinates":[-96.472325,31.167853]}},{"properties":{"ptd":9000,"latitude":32.8,"days":16,"spud":"10/14/2009","county":"TARRANT","operator":"CHESAPEAKE/OKC","rig":"5","rig_drill":"#5 MOUNTAIN DRILLING","reptref":12,"dist":"5","well":"THREE AMIGOS #1 H","longitude":-97.347,"driller":"MOUNTAIN DRILLING","id":"a69k7gl9b5z0","state":"TX"},"type":"Feature","geometry":{"type":"Point","coordinates":[-97.34729,32.800277]}},{"properties":{"ptd":9000,"latitude":32.59,"days":1,"spud":"10/29/2009","county":"TARRANT","operator":"CHESAPEAKE/OKC","rig":"5","rig_drill":"#5 NOMAC DRLG LLC/MARSH","reptref":13,"dist":"5","well":"WINSCOTT NORTHWEST #H3 H","longitude":-97.509,"driller":"NOMAC DRLG LLC/MARSH","id":"a69k7ggcsohn","state":"TX"},"type":"Feature","geometry":{"type":"Point","coordinates":[-97.509186,32.589933]}},{"properties":{"ptd":12000,"latitude":27.226,"days":-1,"spud":"10/31/2009","county":"ZAPATA","operator":"EOG RESOURCES/CORPUS","rig":"5","rig_drill":"#5 ORION DRILLING","reptref":2,"dist":"4","well":"B M BARROCITO #17","longitude":-99.143,"driller":"ORION DRILLING","id":"a69k7gnvekf0","state":"TX"},"type":"Feature","geometry":{"type":"Point","coordinates":[-99.143043,27.225981]}},{"properties":{"ptd":3708,"latitude":28.974,"days":13,"spud":"10/17/2009","county":"MAVERICK","operator":"TXCO RESOURCES INC","rig":"5","rig_drill":"#5 UNISON DRILLING","reptref":2,"dist":"1","well":"BRISCOE-SANER #138 H","longitude":-100.303,"driller":"UNISON DRILLING","id":"a69k7gloqfk3","state":"TX"},"type":"Feature","geometry":{"type":"Point","coordinates":[-100.303241,28.974238]}},{"properties":{"ptd":12350,"latitude":32.035,"days":-3,"spud":"11/2/2009","county":"DE SOTO","operator":"CHESAPEAKE/OKC","rig":"50","rig_drill":"#50 NOMAC DRLG LLC/MARSH","reptref":18,"dist":"N","well":"NABORS PROPERTIES -7H- #1","longitude":-93.745,"driller":"NOMAC DRLG LLC/MARSH","id":"a69k7gcmxn3r","state":"LA"},"type":"Feature","geometry":{"type":"Point","coordinates":[-93.74513,32.035154]}},{"properties":{"ptd":14000,"latitude":32.366,"days":15,"spud":"10/15/2009","county":"HARRISON","operator":"PENN VIRGINIA O&amp;G LP","rig":"50","rig_drill":"#50 PRECISION DRILLING/E","reptref":2,"dist":"6","well":"TIMMINS GAS UNIT #3 H","longitude":-94.244,"driller":"PRECISION DRILLING/E","id":"a69k7ghauduc","state":"TX"},"type":"Feature","geometry":{"type":"Point","coordinates":[-94.24389,32.365572]}},{"properties":{"ptd":11000,"latitude":32.553,"days":11,"spud":"10/19/2009","county":"TARRANT","operator":"XTO ENERGY/FT WORTH","rig":"502","rig_drill":"#502 PATTERSON UTI/SPRING","reptref":7,"dist":"5","well":"MATHIS COAL CAR UNIT #4 H","longitude":-97.098,"driller":"PATTERSON UTI/SPRING","id":"a69k7gk7vsmb","state":"TX"},"type":"Feature","geometry":{"type":"Point","coordinates":[-97.097541,32.553451]}},{"properties":{"ptd":18500,"latitude":31.394,"days":24,"spud":"10/6/2009","county":"LEON","operator":"XTO ENERGY/TYLER","rig":"504","rig_drill":"#504 PRECISION DRILLING/S","reptref":5,"dist":"5","well":"WELDON COX GAS UNIT #2 H","longitude":-96.221,"driller":"PRECISION DRILLING/S","id":"a69k7gdscktt","state":"TX"},"type":"Feature","geometry":{"type":"Point","coordinates":[-96.220907,31.394113]}},{"properties":{"ptd":18000,"latitude":30.079,"days":39,"spud":"9/21/2009","county":"JEFFERSON","operator":"BALLARD EXPLORATION","rig":"506","rig_drill":"#506 PRECISION DRILLING/E","reptref":1,"dist":"3","well":"BUCKLEY #1","longitude":-94.221,"driller":"PRECISION DRILLING/E","id":"a69k7ghbwvq2","state":"TX"},"type":"Feature","geometry":{"type":"Point","coordinates":[-94.220726,30.079006]}},{"properties":{"ptd":8000,"latitude":30.023,"days":47,"spud":"9/13/2009","county":"FAYETTE","operator":"WEBER ENERGY CORP","rig":"509","rig_drill":"#509 PATTERSON UTI/VICTOR","reptref":2,"dist":"3","well":"LORENZ #1 H","longitude":-97.038,"driller":"PATTERSON UTI/VICTOR","id":"a69k7gg44xc1","state":"TX"},"type":"Feature","geometry":{"type":"Point","coordinates":[-97.038136,30.023016]}},{"properties":{"ptd":9000,"latitude":30.841,"days":-5,"spud":"11/4/2009","county":"MADISON","operator":"CML EXPLORATION/HOU","rig":"509","rig_drill":"#509 PATTERSON UTI/VICTOR","reptref":1,"dist":"3","well":"MT UNIT #1 H","longitude":-96.121,"driller":"PATTERSON UTI/VICTOR","id":"a69k7gpfb28e","state":"TX"},"type":"Feature","geometry":{"type":"Point","coordinates":[-96.121158,30.841422]}},{"properties":{"ptd":15400,"latitude":31.176,"days":35,"spud":"9/25/2009","county":"ESCAMBIA","operator":"VENTURE OIL &amp; GAS","rig":"511","rig_drill":"#511 NABORS DRILLING (L)","reptref":2,"dist":null,"well":"MASON 36-14 #1","longitude":-87.422,"driller":"NABORS DRILLING (L)","id":"a69k7gol7fdl","state":"AL"},"type":"Feature","geometry":{"type":"Point","coordinates":[-87.42222,31.175695]}},{"properties":{"ptd":11780,"latitude":32.079,"days":73,"spud":"8/18/2009","county":"DE SOTO","operator":"XTO ENERGY/TYLER","rig":"519","rig_drill":"#519 PRECISION DRILLING/E","reptref":50,"dist":"N","well":"BURFORD -25H- #1","longitude":-93.866,"driller":"PRECISION DRILLING/E","id":"a69k7gmnbsr5","state":"LA"},"type":"Feature","geometry":{"type":"Point","coordinates":[-93.866416,32.078884]}},{"properties":{"ptd":18500,"latitude":32.368,"days":-3,"spud":"11/2/2009","county":"PANOLA","operator":"XTO ENERGY/TYLER","rig":"519","rig_drill":"#519 PRECISION DRILLING/E","reptref":2,"dist":"6","well":"NEW HORIZONS #D1 H","longitude":-94.481,"driller":"PRECISION DRILLING/E","id":"a69k7gg65lqk","state":"TX"},"type":"Feature","geometry":{"type":"Point","coordinates":[-94.481219,32.368175]}},{"properties":{"ptd":8500,"latitude":35.237,"days":6,"spud":"10/24/2009","county":"FAULKNER","operator":"CHESAPEAKE/OKC","rig":"52","rig_drill":"#52 NOMAC DRILLING LLC","reptref":1,"dist":null,"well":"T G WATSON 7-14 #1-13 H","longitude":-92.435,"driller":"NOMAC DRILLING LLC","id":"a69k7gn8n0dt","state":"AR"},"type":"Feature","geometry":{"type":"Point","coordinates":[-92.435408,35.237294]}},{"properties":{"ptd":12000,"latitude":31.785,"days":15,"spud":"10/15/2009","county":"SABINE","operator":"ENCANA O &amp; G/DALLAS","rig":"52","rig_drill":"#52 TRINIDAD DRLG/SHREVE","reptref":5,"dist":"N","well":"JIMMY RAY BROWN -9H- #1","longitude":-93.609,"driller":"TRINIDAD DRLG/SHREVE","id":"a69k7gn2mjnq","state":"LA"},"type":"Feature","geometry":{"type":"Point","coordinates":[-93.608804,31.78541]}},{"properties":{"ptd":16500,"latitude":29.953,"days":12,"spud":"10/18/2009","county":"JEFFERSON","operator":"MILESTONE OPERATING","rig":"520","rig_drill":"#520 PATTERSON UTI/VICTOR","reptref":3,"dist":"3","well":"JEFFERSON LAND COMPANY #64","longitude":-94.133,"driller":"PATTERSON UTI/VICTOR","id":"a69k7gli6nv3","state":"TX"},"type":"Feature","geometry":{"type":"Point","coordinates":[-94.132608,29.953216]}},{"properties":{"ptd":13000,"latitude":30.484,"days":45,"spud":"9/15/2009","county":"BEAUREGARD","operator":"MIDSTATES PETRO LLC","rig":"521","rig_drill":"#521 PRECISION DRILLING/E","reptref":1,"dist":"S","well":"WILLIAMS -4- #1","longitude":-93.49,"driller":"PRECISION DRILLING/E","id":"a69k7gh60mfr","state":"LA"},"type":"Feature","geometry":{"type":"Point","coordinates":[-93.489549,30.484443]}},{"properties":{"ptd":8900,"latitude":28.451,"days":25,"spud":"10/5/2009","county":"CALHOUN","operator":"C &amp; E OPERATING INC","rig":"525","rig_drill":"#525 PATTERSON UTI/VICTOR","reptref":1,"dist":"2","well":"MELCHER #3","longitude":-96.669,"driller":"PATTERSON UTI/VICTOR","id":"a69k7gpehzv8","state":"TX"},"type":"Feature","geometry":{"type":"Point","coordinates":[-96.668978,28.451437]}},{"properties":{"ptd":7267,"latitude":35.215,"days":25,"spud":"10/5/2009","county":"WHITE","operator":"CHESAPEAKE/OKC","rig":"53","rig_drill":"#53 NOMAC DRILLING LLC","reptref":1,"dist":null,"well":"STEWART TRUST 7-9 #1-19 H","longitude":-91.999,"driller":"NOMAC DRILLING LLC","id":"a69k7gs598wa","state":"AR"},"type":"Feature","geometry":{"type":"Point","coordinates":[-91.998958,35.214511]}},{"properties":{"ptd":7186,"latitude":35.228,"days":-6,"spud":"11/5/2009","county":"WHITE","operator":"CHESAPEAKE/OKC","rig":"53","rig_drill":"#53 NOMAC DRILLING LLC","reptref":2,"dist":null,"well":"SAWASKY 7-9 #1-16 H","longitude":-91.964,"driller":"NOMAC DRILLING LLC","id":"a69k7gpjppc6","state":"AR"},"type":"Feature","geometry":{"type":"Point","coordinates":[-91.964296,35.228321]}},{"properties":{"ptd":16000,"latitude":30.678,"days":72,"spud":"8/19/2009","county":"TYLER","operator":"KRESCENT ENERGY CO","rig":"53","rig_drill":"#53 ROWAN DRILLING","reptref":3,"dist":"3","well":"QUINN UNIT #3 H","longitude":-94.126,"driller":"ROWAN DRILLING","id":"a69k7gmw91uv","state":"TX"},"type":"Feature","geometry":{"type":"Point","coordinates":[-94.126147,30.677615]}},{"properties":{"ptd":15000,"latitude":26.588,"days":-7,"spud":"11/6/2009","county":"HIDALGO","operator":"DEWBRE PETROLEUM","rig":"534","rig_drill":"#534 PATTERSON UTI/VICTOR","reptref":3,"dist":"4","well":"E E GUERRA -A- #7","longitude":-98.189,"driller":"PATTERSON UTI/VICTOR","id":"a69k7gcuf81f","state":"TX"},"type":"Feature","geometry":{"type":"Point","coordinates":[-98.189284,26.588335]}},{"properties":{"ptd":15000,"latitude":26.585,"days":26,"spud":"10/4/2009","county":"HIDALGO","operator":"DEWBRE PETROLEUM","rig":"534","rig_drill":"#534 PATTERSON UTI/VICTOR","reptref":2,"dist":"4","well":"E E GUERRA -A- #4","longitude":-98.192,"driller":"PATTERSON UTI/VICTOR","id":"a69k7gq48wkm","state":"TX"},"type":"Feature","geometry":{"type":"Point","coordinates":[-98.19237,26.585194]}},{"properties":{"ptd":11550,"latitude":32.341,"days":43,"spud":"9/17/2009","county":"CADDO","operator":"CHESAPEAKE/OKC","rig":"54","rig_drill":"#54 NOMAC DRLG LLC/MARSH","reptref":10,"dist":"N","well":"SRLT -33H- #1","longitude":-93.914,"driller":"NOMAC DRLG LLC/MARSH","id":"a69k7gqiv8pr","state":"LA"},"type":"Feature","geometry":{"type":"Point","coordinates":[-93.913823,32.340789]}},{"properties":{"ptd":12000,"latitude":32.175,"days":41,"spud":"9/19/2009","county":"RED RIVER","operator":"ENCANA O &amp; G/DALLAS","rig":"54","rig_drill":"#54 TRINIDAD DRLG/SHREVE","reptref":20,"dist":"N","well":"BUNDRICK LAND CORP -25H- #1","longitude":-93.457,"driller":"TRINIDAD DRLG/SHREVE","id":"a69k7gmdbdia","state":"LA"},"type":"Feature","geometry":{"type":"Point","coordinates":[-93.456726,32.17496]}},{"properties":{"ptd":15800,"latitude":31.41,"days":30,"spud":"9/30/2009","county":"PERRY","operator":"SUNDOWN ENERGY","rig":"544","rig_drill":"#544 NABORS DRILLING (L)","reptref":1,"dist":null,"well":"CLARK TRUST 9-11 #1","longitude":-89.005,"driller":"NABORS DRILLING (L)","id":"a69k7gmr9jkn","state":"MS"},"type":"Feature","geometry":{"type":"Point","coordinates":[-89.005111,31.409678]}},{"properties":{"ptd":11605,"latitude":32.341,"days":-1,"spud":"10/31/2009","county":"CADDO","operator":"CHESAPEAKE/OKC","rig":"55","rig_drill":"#55 NOMAC DRLG LLC/MARSH","reptref":4,"dist":"N","well":"DHD 26-16-15H #1","longitude":-93.869,"driller":"NOMAC DRLG LLC/MARSH","id":"a69k7gpg7ee5","state":"LA"},"type":"Feature","geometry":{"type":"Point","coordinates":[-93.869449,32.341288]}},{"properties":{"ptd":11400,"latitude":27.621,"days":19,"spud":"10/11/2009","county":"WEBB","operator":"CONOCOPHILLIPS/HSTN","rig":"550","rig_drill":"#550 PRECISION DRILLING/A","reptref":5,"dist":"4","well":"VAQUILLAS RANCH -A1- #240","longitude":-99.028,"driller":"PRECISION DRILLING/A","id":"a69k7gr7r1my","state":"TX"},"type":"Feature","geometry":{"type":"Point","coordinates":[-99.027921,27.621413]}},{"properties":{"ptd":9600,"latitude":26.874,"days":1,"spud":"10/29/2009","county":"ZAPATA","operator":"CONOCOPHILLIPS/HSTN","rig":"551","rig_drill":"#551 PRECISION DRILLING/A","reptref":3,"dist":"4","well":"DON JOSE LAND &amp; CATTLE CO LTD #21","longitude":-99.185,"driller":"PRECISION DRILLING/A","id":"a69k7gmm3c4t","state":"TX"},"type":"Feature","geometry":{"type":"Point","coordinates":[-99.184514,26.873787]}},{"properties":{"ptd":12700,"latitude":29.378,"days":8,"spud":"10/22/2009","county":"GALVESTON","operator":"NEW CENTURY EXPL","rig":"552","rig_drill":"#552 NABORS WELL SVC/ALIC","reptref":1,"dist":"3","well":"BOFYSIL #1","longitude":-95.025,"driller":"NABORS WELL SVC/ALIC","id":"a69k7gcwcep5","state":"TX"},"type":"Feature","geometry":{"type":"Point","coordinates":[-95.025197,29.378097]}},{"properties":{"ptd":12000,"latitude":32.394,"days":22,"spud":"10/8/2009","county":"HARRISON","operator":"BERRY OIL CO","rig":"554","rig_drill":"#554 PRECISION DRILLING/S","reptref":10,"dist":"6","well":"DOYLE HARRIS GAS UNIT #8","longitude":-94.379,"driller":"PRECISION DRILLING/S","id":"a69k7glutyqg","state":"TX"},"type":"Feature","geometry":{"type":"Point","coordinates":[-94.378713,32.394335]}},{"properties":{"ptd":10400,"latitude":32.404,"days":-3,"spud":"11/2/2009","county":"HARRISON","operator":"BERRY OIL CO","rig":"554","rig_drill":"#554 PRECISION DRILLING/S","reptref":12,"dist":"6","well":"MEEK HAYNES UNIT #9 A","longitude":-94.368,"driller":"PRECISION DRILLING/S","id":"a69k7gfv6do2","state":"TX"},"type":"Feature","geometry":{"type":"Point","coordinates":[-94.368006,32.404241]}},{"properties":{"ptd":11900,"latitude":31.977,"days":39,"spud":"9/21/2009","county":"DE SOTO","operator":"CHESAPEAKE/OKC","rig":"56","rig_drill":"#56 NOMAC DRLG LLC/MARSH","reptref":40,"dist":"N","well":"YARBROUGH -36H- #1","longitude":-93.65,"driller":"NOMAC DRLG LLC/MARSH","id":"a69k7gfq0l7o","state":"LA"},"type":"Feature","geometry":{"type":"Point","coordinates":[-93.649551,31.976916]}},{"properties":{"ptd":17000,"latitude":32.137,"days":12,"spud":"10/18/2009","county":"PANOLA","operator":"CHESAPEAKE/OKC","rig":"57","rig_drill":"#57 NOMAC DRLG LLC/MARSH","reptref":4,"dist":"6","well":"WERNER #1 H","longitude":-94.093,"driller":"NOMAC DRLG LLC/MARSH","id":"a69k7gmfnxmv","state":"TX"},"type":"Feature","geometry":{"type":"Point","coordinates":[-94.093478,32.136979]}},{"properties":{"ptd":11877,"latitude":32.136,"days":4,"spud":"10/26/2009","county":"DE SOTO","operator":"EL PASO E&amp;P COMPANY","rig":"58","rig_drill":"#58 JUSTISS DRILLING","reptref":41,"dist":"N","well":"CHAFFIN HEIRS -9H- #1","longitude":-93.806,"driller":"JUSTISS DRILLING","id":"a69k7gkfnn0z","state":"LA"},"type":"Feature","geometry":{"type":"Point","coordinates":[-93.806361,32.135927]}},{"properties":{"ptd":12150,"latitude":32.181,"days":-3,"spud":"11/2/2009","county":"DE SOTO","operator":"CHESAPEAKE/OKC","rig":"58","rig_drill":"#58 NOMAC DRLG LLC/MARSH","reptref":25,"dist":"N","well":"PANKEY 23-14-15H #1","longitude":-93.88,"driller":"NOMAC DRLG LLC/MARSH","id":"a69k7ghhvag0","state":"LA"},"type":"Feature","geometry":{"type":"Point","coordinates":[-93.879633,32.181179]}},{"properties":{"ptd":12000,"latitude":28.802,"days":8,"spud":"10/22/2009","county":"MATAGORDA","operator":"SANCHEZ OIL &amp; GAS","rig":"58","rig_drill":"#58 PIONEER DRILLING","reptref":1,"dist":"3","well":"PHEASANT BLESSING #1","longitude":-96.22,"driller":"PIONEER DRILLING","id":"a69k7gjj7jr3","state":"TX"},"type":"Feature","geometry":{"type":"Point","coordinates":[-96.219736,28.80205]}},{"properties":{"ptd":11500,"latitude":32.327,"days":28,"spud":"10/2/2009","county":"CADDO","operator":"CHESAPEAKE/OKC","rig":"59","rig_drill":"#59 NOMAC DRLG LLC/MARSH","reptref":11,"dist":"N","well":"BOWLIN 35-16-16 H #1","longitude":-93.977,"driller":"NOMAC DRLG LLC/MARSH","id":"a69k7gevl432","state":"LA"},"type":"Feature","geometry":{"type":"Point","coordinates":[-93.976755,32.327426]}},{"properties":{"ptd":12000,"latitude":32.138,"days":4,"spud":"10/26/2009","county":"RED RIVER","operator":"ENCANA O &amp; G/DALLAS","rig":"59","rig_drill":"#59 ROWAN DRILLING","reptref":18,"dist":"N","well":"GEORGE LORMAND -5H- #1","longitude":-93.513,"driller":"ROWAN DRILLING","id":"a69k7gmd07f4","state":"LA"},"type":"Feature","geometry":{"type":"Point","coordinates":[-93.512777,32.13808]}},{"properties":{"ptd":7300,"latitude":28.79,"days":10,"spud":"10/20/2009","county":"VICTORIA","operator":"SUE-ANN OPERATING LC","rig":"6","rig_drill":"#6 ARROW DRILLING","reptref":1,"dist":"2","well":"KEERAN #17","longitude":-96.725,"driller":"ARROW DRILLING","id":"a69k7gsx8ubd","state":"TX"},"type":"Feature","geometry":{"type":"Point","coordinates":[-96.724653,28.790309]}},{"properties":{"ptd":7200,"latitude":29.157,"days":5,"spud":"10/25/2009","county":"WHARTON","operator":"APACHE CORP/HOUSTON","rig":"6","rig_drill":"#6 BIG 6 DRILLING","reptref":4,"dist":"3","well":"PIERCE ESTATES #C250","longitude":-96.092,"driller":"BIG 6 DRILLING","id":"a69k7gcrb80h","state":"TX"},"type":"Feature","geometry":{"type":"Point","coordinates":[-96.091515,29.156721]}},{"properties":{"ptd":8800,"latitude":32.136,"days":5,"spud":"10/25/2009","county":"CHEROKEE","operator":"VALENCE OPERATING","rig":"6","rig_drill":"#6 BIG E DRILLING","reptref":3,"dist":"6","well":"BURNS #2","longitude":-95.049,"driller":"BIG E DRILLING","id":"a69k7ggwqt77","state":"TX"},"type":"Feature","geometry":{"type":"Point","coordinates":[-95.048743,32.136107]}},{"properties":{"ptd":4600,"latitude":28.477,"days":-2,"spud":"11/1/2009","county":"BEE","operator":"ENCO EXPLORATION","rig":"6","rig_drill":"#6 BUDCO DRILLING","reptref":3,"dist":"2","well":"NOLEN #1","longitude":-97.861,"driller":"BUDCO DRILLING","id":"a69k7gm24v01","state":"TX"},"type":"Feature","geometry":{"type":"Point","coordinates":[-97.860888,28.476991]}},{"properties":{"ptd":3500,"latitude":35.475,"days":10,"spud":"10/20/2009","county":"WHITE","operator":"SEECO INC","rig":"6","rig_drill":"#6 DESOTO DRILLING","reptref":18,"dist":null,"well":"CONDER 10-07 #2-23 H","longitude":-91.724,"driller":"DESOTO DRILLING","id":"a69k7gdj4i47","state":"AR"},"type":"Feature","geometry":{"type":"Point","coordinates":[-91.7237,35.474972]}},{"properties":{"ptd":7490,"latitude":32.903,"days":11,"spud":"10/19/2009","county":"TARRANT","operator":"WILLIAMS PROD/GULF","rig":"6","rig_drill":"#6 J B HUNT GAS &amp; OIL","reptref":25,"dist":"5","well":"FOLEY #5 H","longitude":-97.328,"driller":"J B HUNT GAS &amp; OIL","id":"a69k7giy1zse","state":"TX"},"type":"Feature","geometry":{"type":"Point","coordinates":[-97.328137,32.902508]}},{"properties":{"ptd":9000,"latitude":26.556,"days":11,"spud":"10/19/2009","county":"STARR","operator":"CICO OIL &amp; GAS","rig":"6","rig_drill":"#6 ORION DRILLING","reptref":2,"dist":"4","well":"THOMAS GARCIA #1","longitude":-98.907,"driller":"ORION DRILLING","id":"a69k7giedrwk","state":"TX"},"type":"Feature","geometry":{"type":"Point","coordinates":[-98.907062,26.555533]}},{"properties":{"ptd":6200,"latitude":27.611,"days":2,"spud":"10/28/2009","county":"DUVAL","operator":"MUELLER EXPLORATION","rig":"6","rig_drill":"#6 PREMIUM DRILLING","reptref":1,"dist":"4","well":"SAENZ -A- #2","longitude":-98.79,"driller":"PREMIUM DRILLING","id":"a69k7gncjjgv","state":"TX"},"type":"Feature","geometry":{"type":"Point","coordinates":[-98.789625,27.611196]}},{"properties":{"ptd":17000,"latitude":32.169,"days":-5,"spud":"11/4/2009","county":"PANOLA","operator":"CHESAPEAKE/OKC","rig":"60","rig_drill":"#60 NOMAC DRLG LLC/MARSH","reptref":5,"dist":"6","well":"WIENER #1 H","longitude":-94.068,"driller":"NOMAC DRLG LLC/MARSH","id":"a69k7gq02br1","state":"TX"},"type":"Feature","geometry":{"type":"Point","coordinates":[-94.067549,32.168644]}},{"properties":{"ptd":19000,"latitude":31.766,"days":-10,"spud":"11/9/2009","county":"SHELBY","operator":"CHESAPEAKE/OKC","rig":"61","rig_drill":"#61 NOMAC DRLG LLC/MARSH","reptref":2,"dist":"6","well":"PILOT #1 H","longitude":-94.14,"driller":"NOMAC DRLG LLC/MARSH","id":"a69k7gh1t5kp","state":"TX"},"type":"Feature","geometry":{"type":"Point","coordinates":[-94.140172,31.766148]}},{"properties":{"ptd":12100,"latitude":32.019,"days":27,"spud":"10/3/2009","county":"DE SOTO","operator":"CHESAPEAKE/OKC","rig":"61","rig_drill":"#61 NOMAC DRLG LLC/MARSH","reptref":29,"dist":"N","well":"ROLLERT ET AL -23H- #1","longitude":-93.666,"driller":"NOMAC DRLG LLC/MARSH","id":"a69k7gr70a4y","state":"LA"},"type":"Feature","geometry":{"type":"Point","coordinates":[-93.665579,32.019288]}},{"properties":{"ptd":20000,"latitude":31.073,"days":32,"spud":"9/28/2009","county":"ROBERTSON","operator":"ENCANA O &amp; G/DALLAS","rig":"61","rig_drill":"#61 ROWAN DRILLING","reptref":1,"dist":"5","well":"CAZEY UNIT #1","longitude":-96.422,"driller":"ROWAN DRILLING","id":"a69k7gljnub8","state":"TX"},"type":"Feature","geometry":{"type":"Point","coordinates":[-96.421903,31.072717]}},{"properties":{"ptd":12000,"latitude":31.873,"days":9,"spud":"10/21/2009","county":"DE SOTO","operator":"COMSTOCK OIL&amp;GAS LP","rig":"610","rig_drill":"#610 NABORS DRILLING (K)","reptref":32,"dist":"N","well":"BSMC LA -5- HZ #2","longitude":-93.827,"driller":"NABORS DRILLING (K)","id":"a69k7goa6x1a","state":"LA"},"type":"Feature","geometry":{"type":"Point","coordinates":[-93.826633,31.872811]}},{"properties":{"ptd":11000,"latitude":28.72,"days":8,"spud":"10/22/2009","county":"ATASCOSA","operator":"EOG RESOURCES/CORPUS","rig":"62","rig_drill":"#62 PIONEER DRILLING","reptref":2,"dist":"1","well":"PEELER RANCH #1","longitude":-98.453,"driller":"PIONEER DRILLING","id":"a69k7gsagt60","state":"TX"},"type":"Feature","geometry":{"type":"Point","coordinates":[-98.453267,28.719708]}},{"properties":{"ptd":16000,"latitude":30.095,"days":22,"spud":"10/8/2009","county":"JEFFERSON","operator":"SAMSON LONE STAR LLC","rig":"623","rig_drill":"#623 NABORS DRILLING (K)","reptref":4,"dist":"3","well":"BARTLETT #1","longitude":-94.223,"driller":"NABORS DRILLING (K)","id":"a69k7gn7jm45","state":"TX"},"type":"Feature","geometry":{"type":"Point","coordinates":[-94.223331,30.094553]}},{"properties":{"ptd":12180,"latitude":31.96,"days":49,"spud":"9/11/2009","county":"DE SOTO","operator":"SWEPI LP/UT","rig":"624","rig_drill":"#624 NABORS DRILLING (L)","reptref":24,"dist":"N","well":"BLACKSTONE -9- #1","longitude":-93.698,"driller":"NABORS DRILLING (L)","id":"a69k7gq0anhe","state":"LA"},"type":"Feature","geometry":{"type":"Point","coordinates":[-93.698229,31.960308]}},{"properties":{"ptd":14400,"latitude":31.527,"days":42,"spud":"9/18/2009","county":"HOUSTON","operator":"KATY RESOURCES ETX","rig":"628","rig_drill":"#628 PATTERSON UTI/TYLER","reptref":1,"dist":"6","well":"T B CUTLER #1","longitude":-95.309,"driller":"PATTERSON UTI/TYLER","id":"a69k7gfdn4z5","state":"TX"},"type":"Feature","geometry":{"type":"Point","coordinates":[-95.309211,31.526854]}},{"properties":{"ptd":19500,"latitude":31.018,"days":18,"spud":"10/12/2009","county":"LEON","operator":"ENCANA O &amp; G/DALLAS","rig":"63","rig_drill":"#63 ROWAN DRILLING","reptref":2,"dist":"5","well":"LITTLE -4- RANCH #2","longitude":-96.248,"driller":"ROWAN DRILLING","id":"a69k7gl7c94n","state":"TX"},"type":"Feature","geometry":{"type":"Point","coordinates":[-96.248114,31.01785]}},{"properties":{"ptd":14000,"latitude":31.481,"days":5,"spud":"10/25/2009","county":"CHEROKEE","operator":"CHESAPEAKE/OKC","rig":"646","rig_drill":"#646 SAVANNA DRILLING/LA","reptref":1,"dist":"6","well":"FORESTAR MINERALS #1","longitude":-95.007,"driller":"SAVANNA DRILLING/LA","id":"a69k7gm0xdux","state":"TX"},"type":"Feature","geometry":{"type":"Point","coordinates":[-95.007074,31.480863]}},{"properties":{"ptd":9800,"latitude":27.634,"days":-7,"spud":"11/6/2009","county":"WEBB","operator":"ROSETTA RES OPTG/HOU","rig":"647","rig_drill":"#647 PRECISION DRILLING/A","reptref":7,"dist":"4","well":"SOUTH CALLAGHAN RANCH #345","longitude":-99.21,"driller":"PRECISION DRILLING/A","id":"a69k7ggb5g65","state":"TX"},"type":"Feature","geometry":{"type":"Point","coordinates":[-99.209991,27.634027]}},{"properties":{"ptd":10000,"latitude":27.696,"days":7,"spud":"10/23/2009","county":"WEBB","operator":"ROSETTA RES OPTG/HOU","rig":"647","rig_drill":"#647 PRECISION DRILLING/A","reptref":6,"dist":"4","well":"SOUTH CALLAGHAN RANCH #348","longitude":-99.169,"driller":"PRECISION DRILLING/A","id":"a69k7gglr2s0","state":"TX"},"type":"Feature","geometry":{"type":"Point","coordinates":[-99.169359,27.695661]}},{"properties":{"ptd":8500,"latitude":30.899,"days":12,"spud":"10/18/2009","county":"ROBERTSON","operator":"BURLINGTON RES/HOU","rig":"67","rig_drill":"#67 ROWAN DRILLING","reptref":10,"dist":"5","well":"RAFIKI #1","longitude":-96.461,"driller":"ROWAN DRILLING","id":"a69k7gsps554","state":"TX"},"type":"Feature","geometry":{"type":"Point","coordinates":[-96.461042,30.898752]}},{"properties":{"ptd":8900,"latitude":29.917,"days":7,"spud":"10/23/2009","county":"LIBERTY","operator":"CHOICE EXPLORATION","rig":"7","rig_drill":"#7 BIG 6 DRILLING","reptref":1,"dist":"3","well":"WILDI #1","longitude":-94.49,"driller":"BIG 6 DRILLING","id":"a69k7gr8iwft","state":"TX"},"type":"Feature","geometry":{"type":"Point","coordinates":[-94.48984,29.917276]}},{"properties":{"ptd":3900,"latitude":35.402,"days":7,"spud":"10/23/2009","county":"CONWAY","operator":"SEECO INC","rig":"7","rig_drill":"#7 DESOTO DRILLING","reptref":3,"dist":null,"well":"RICHARD GIFFORD 09-16 #3-24 H","longitude":-92.647,"driller":"DESOTO DRILLING","id":"a69k7ggqibd5","state":"AR"},"type":"Feature","geometry":{"type":"Point","coordinates":[-92.64726,35.402175]}},{"properties":{"ptd":5640,"latitude":32.415,"days":18,"spud":"10/12/2009","county":"OUACHITA","operator":"STOKES &amp; SPEIHLER","rig":"7","rig_drill":"#7 ENERGY DRILLING","reptref":1,"dist":"N","well":"CADEVILLE GAS STORAGE #1","longitude":-92.286,"driller":"ENERGY DRILLING","id":"a69k7ggf9585","state":"LA"},"type":"Feature","geometry":{"type":"Point","coordinates":[-92.286211,32.414995]}},{"properties":{"ptd":0,"latitude":29.918,"days":55,"spud":"9/5/2009","county":"ST. CHARLES","operator":"TERRA DYNAMICS","rig":"7","rig_drill":"#7 NABORS DRILLING (L)","reptref":1,"dist":"S","well":"MONSANTO CO WASTE DISPOSAL #7","longitude":-90.359,"driller":"NABORS DRILLING (L)","id":"a69k7gsd1w5q","state":"LA"},"type":"Feature","geometry":{"type":"Point","coordinates":[-90.35855,29.918379]}},{"properties":{"ptd":15000,"latitude":30.276,"days":21,"spud":"10/9/2009","county":"WASHINGTON","operator":"ENERVEST OPER LLC","rig":"716","rig_drill":"#716 NABORS DRILLING (K)","reptref":1,"dist":"3","well":"B MEYER UNIT #1 RE","longitude":-96.325,"driller":"NABORS DRILLING (K)","id":"a69k7gdt0nzj","state":"TX"},"type":"Feature","geometry":{"type":"Point","coordinates":[-96.324608,30.276008]}},{"properties":{"ptd":13000,"latitude":32.645,"days":-1,"spud":"10/31/2009","county":"YAZOO","operator":"EOG RESOURCES/TYLER","rig":"731","rig_drill":"#731 NABORS DRILLING (L)","reptref":1,"dist":null,"well":"COTE 9-2 #1","longitude":-90.507,"driller":"NABORS DRILLING (L)","id":"a69k7gkfxouv","state":"MS"},"type":"Feature","geometry":{"type":"Point","coordinates":[-90.506543,32.644843]}},{"properties":{"ptd":13850,"latitude":29.115,"days":21,"spud":"10/9/2009","county":"LAVACA","operator":"EL PASO E&amp;P COMPANY","rig":"732","rig_drill":"#732 NABORS DRILLING (A)","reptref":1,"dist":"2","well":"FRANK GAS UNIT #4","longitude":-96.985,"driller":"NABORS DRILLING (A)","id":"a69k7gfurow4","state":"TX"},"type":"Feature","geometry":{"type":"Point","coordinates":[-96.985441,29.114525]}},{"properties":{"ptd":13283,"latitude":32.36,"days":-1,"spud":"10/31/2009","county":"BIENVILLE","operator":"EOG RESOURCES/TYLER","rig":"733","rig_drill":"#733 NABORS DRILLING (K)","reptref":1,"dist":"N","well":"MCCONATHY HEIRS -19- #2 ALT","longitude":-92.815,"driller":"NABORS DRILLING (K)","id":"a69k7gpolbea","state":"LA"},"type":"Feature","geometry":{"type":"Point","coordinates":[-92.815426,32.360091]}},{"properties":{"ptd":13350,"latitude":31.59,"days":-4,"spud":"11/3/2009","county":"FREESTONE","operator":"XTO ENERGY/TYLER","rig":"75","rig_drill":"#75 PRECISION DRILLING/S","reptref":6,"dist":"5","well":"WINFREE GAS UNIT #24","longitude":-96.213,"driller":"PRECISION DRILLING/S","id":"a69k7gmbjjg2","state":"TX"},"type":"Feature","geometry":{"type":"Point","coordinates":[-96.212895,31.590439]}},{"properties":{"ptd":13000,"latitude":31.609,"days":18,"spud":"10/12/2009","county":"FREESTONE","operator":"XTO ENERGY/TYLER","rig":"75","rig_drill":"#75 PRECISION DRILLING/S","reptref":8,"dist":"5","well":"COSSON GAS UNIT #18","longitude":-96.207,"driller":"PRECISION DRILLING/S","id":"a69k7gjj6kv2","state":"TX"},"type":"Feature","geometry":{"type":"Point","coordinates":[-96.207403,31.608903]}},{"properties":{"ptd":11871,"latitude":32.208,"days":1,"spud":"10/29/2009","county":"DE SOTO","operator":"EL PASO E&amp;P COMPANY","rig":"750","rig_drill":"#750 PRECISION DRILLING/E","reptref":42,"dist":"N","well":"BRAZZEL -16H- #1","longitude":-93.711,"driller":"PRECISION DRILLING/E","id":"a69k7gnkmd11","state":"LA"},"type":"Feature","geometry":{"type":"Point","coordinates":[-93.710829,32.208311]}},{"properties":{"ptd":12000,"latitude":32.157,"days":28,"spud":"10/2/2009","county":"RED RIVER","operator":"ENCANA O &amp; G/DALLAS","rig":"76","rig_drill":"#76 ROWAN DRILLING","reptref":19,"dist":"N","well":"EDGAR CASON -31H- #1","longitude":-93.426,"driller":"ROWAN DRILLING","id":"a69k7gd7vjud","state":"LA"},"type":"Feature","geometry":{"type":"Point","coordinates":[-93.425839,32.157453]}},{"properties":{"ptd":15000,"latitude":28.116,"days":35,"spud":"9/25/2009","county":"LIVE OAK","operator":"VENTUM OIL &amp; GAS LP","rig":"768","rig_drill":"#768 NABORS DRILLING (A)","reptref":2,"dist":"2","well":"SJOLANDER #1","longitude":-98.163,"driller":"NABORS DRILLING (A)","id":"a69k7givl7yj","state":"TX"},"type":"Feature","geometry":{"type":"Point","coordinates":[-98.163427,28.115864]}},{"properties":{"ptd":11300,"latitude":30.761,"days":51,"spud":"9/9/2009","county":"EVANGELINE","operator":"MIDSTATES PETRO LLC","rig":"77","rig_drill":"#77 PRECISION DRILLING/E","reptref":1,"dist":"S","well":"CROWELL -27- #1","longitude":-92.457,"driller":"PRECISION DRILLING/E","id":"a69k7ghsu02p","state":"LA"},"type":"Feature","geometry":{"type":"Point","coordinates":[-92.456944,30.760555]}},{"properties":{"ptd":20000,"latitude":31.067,"days":64,"spud":"8/27/2009","county":"ROBERTSON","operator":"ENCANA O &amp; G/DALLAS","rig":"77","rig_drill":"#77 ROWAN DRILLING","reptref":2,"dist":"5","well":"COULTER HOPPESS UNIT #1","longitude":-96.282,"driller":"ROWAN DRILLING","id":"a69k7gevi9ou","state":"TX"},"type":"Feature","geometry":{"type":"Point","coordinates":[-96.282381,31.067264]}},{"properties":{"ptd":11792,"latitude":32.165,"days":6,"spud":"10/24/2009","county":"DE SOTO","operator":"EL PASO E&amp;P COMPANY","rig":"773","rig_drill":"#773 NABORS DRILLING (K)","reptref":48,"dist":"N","well":"LOWERY -34H- #1","longitude":-93.793,"driller":"NABORS DRILLING (K)","id":"a69k7gev7o9o","state":"LA"},"type":"Feature","geometry":{"type":"Point","coordinates":[-93.793095,32.165244]}},{"properties":{"ptd":15200,"latitude":26.675,"days":8,"spud":"10/22/2009","county":"HIDALGO","operator":"SHELL WESTERN/HOUSTN","rig":"776","rig_drill":"#776 NABORS DRILLING (A)","reptref":1,"dist":"4","well":"A A MCALLEN -B- #77","longitude":-98.254,"driller":"NABORS DRILLING (A)","id":"a69k7grxz9vy","state":"TX"},"type":"Feature","geometry":{"type":"Point","coordinates":[-98.253787,26.675132]}},{"properties":{"ptd":14000,"latitude":28.23,"days":73,"spud":"8/18/2009","county":"MCMULLEN","operator":"MURPHY EXPLORATN/OS","rig":"777","rig_drill":"#777 NABORS DRILLING (A)","reptref":2,"dist":"1","well":"GEORGE MILES #1 H","longitude":-98.657,"driller":"NABORS DRILLING (A)","id":"a69k7gqfxsdv","state":"TX"},"type":"Feature","geometry":{"type":"Point","coordinates":[-98.657207,28.229966]}},{"properties":{"ptd":11018,"latitude":32.328,"days":57,"spud":"9/3/2009","county":"CADDO","operator":"ENCORE OPERATING LP","rig":"78","rig_drill":"#78 PRECISION DRILLING/E","reptref":17,"dist":"N","well":"EDGAR -31- #1","longitude":-94.036,"driller":"PRECISION DRILLING/E","id":"a69k7gfsnb7t","state":"LA"},"type":"Feature","geometry":{"type":"Point","coordinates":[-94.036158,32.327746]}},{"properties":{"ptd":3300,"latitude":35.415,"days":12,"spud":"10/18/2009","county":"WHITE","operator":"SEECO INC","rig":"8","rig_drill":"#8 DESOTO DRILLING","reptref":21,"dist":null,"well":"FROUD 09-06 #5-8 H","longitude":-91.673,"driller":"DESOTO DRILLING","id":"a69k7gkipte5","state":"AR"},"type":"Feature","geometry":{"type":"Point","coordinates":[-91.672874,35.415249]}},{"properties":{"ptd":12500,"latitude":32.196,"days":13,"spud":"10/17/2009","county":"DE SOTO","operator":"GOODRICH PETRO CO","rig":"8","rig_drill":"#8 LATSHAW DRILLING","reptref":11,"dist":"N","well":"FALLON -18H- #1","longitude":-93.946,"driller":"LATSHAW DRILLING","id":"a69k7gehqh4r","state":"LA"},"type":"Feature","geometry":{"type":"Point","coordinates":[-93.946184,32.196265]}},{"properties":{"ptd":12000,"latitude":27.958,"days":10,"spud":"10/20/2009","county":"WEBB","operator":"LEWIS PETRO PROP","rig":"8","rig_drill":"#8 LEWIS PETRO PROP","reptref":3,"dist":"4","well":"SAN ROMAN -938 H- #1","longitude":-99.429,"driller":"LEWIS PETRO PROP","id":"a69k7gdhdg9t","state":"TX"},"type":"Feature","geometry":{"type":"Point","coordinates":[-99.429441,27.958032]}},{"properties":{"ptd":16000,"latitude":28.288,"days":37,"spud":"9/23/2009","county":"MCMULLEN","operator":"SWIFT ENERGY OPER","rig":"8","rig_drill":"#8 ORION DRILLING","reptref":1,"dist":"1","well":"R BRACKEN #36 H","longitude":-98.507,"driller":"ORION DRILLING","id":"a69k7grsumvz","state":"TX"},"type":"Feature","geometry":{"type":"Point","coordinates":[-98.506503,28.288341]}},{"properties":{"ptd":12800,"latitude":31.25,"days":55,"spud":"9/5/2009","county":"LIMESTONE","operator":"OBENCO INC","rig":"8","rig_drill":"#8 PIONEER DRILLING/H","reptref":1,"dist":"5","well":"MOREHEAD #1","longitude":-96.547,"driller":"PIONEER DRILLING/H","id":"a69k7gpf3bd4","state":"TX"},"type":"Feature","geometry":{"type":"Point","coordinates":[-96.546972,31.249533]}},{"properties":{"ptd":8999,"latitude":32.517,"days":2,"spud":"10/28/2009","county":"JOHNSON","operator":"EOG RESOURCES/FORT","rig":"822","rig_drill":"#822 PRECISION DRILLING/W","reptref":12,"dist":"5","well":"CORE LAB #8 H","longitude":-97.584,"driller":"PRECISION DRILLING/W","id":"a69k7gs3g6a2","state":"TX"},"type":"Feature","geometry":{"type":"Point","coordinates":[-97.583825,32.517052]}},{"properties":{"ptd":8900,"latitude":32.466,"days":10,"spud":"10/20/2009","county":"JOHNSON","operator":"EOG RESOURCES/FORT","rig":"824","rig_drill":"#824 PRECISION DRILLING/W","reptref":14,"dist":"5","well":"LEDEZMA UNIT #4 H","longitude":-97.213,"driller":"PRECISION DRILLING/W","id":"a69k7gj1vc1l","state":"TX"},"type":"Feature","geometry":{"type":"Point","coordinates":[-97.212893,32.46644]}},{"properties":{"ptd":19000,"latitude":31.065,"days":37,"spud":"9/23/2009","county":"ROBERTSON","operator":"ENCANA O &amp; G/DALLAS","rig":"84","rig_drill":"#84 ROWAN DRILLING","reptref":3,"dist":"5","well":"MCLEAN #E6","longitude":-96.313,"driller":"ROWAN DRILLING","id":"a69k7gr3sjn1","state":"TX"},"type":"Feature","geometry":{"type":"Point","coordinates":[-96.313336,31.064875]}},{"properties":{"ptd":15000,"latitude":29.141,"days":7,"spud":"10/23/2009","county":"WHARTON","operator":"BALLARD EXPLORATION","rig":"840","rig_drill":"#840 PRECISION DRILLING/A","reptref":2,"dist":"3","well":"POPP #1","longitude":-96.179,"driller":"PRECISION DRILLING/A","id":"a69k7gmyfp3w","state":"TX"},"type":"Feature","geometry":{"type":"Point","coordinates":[-96.179412,29.141167]}},{"properties":{"ptd":14000,"latitude":28.219,"days":17,"spud":"10/13/2009","county":"MCMULLEN","operator":"COMMON RESOURCES LLC","rig":"85","rig_drill":"#85 ROWAN DRILLING","reptref":3,"dist":"1","well":"STS -A- #361 H","longitude":-98.796,"driller":"ROWAN DRILLING","id":"a69k7gsjjz5p","state":"TX"},"type":"Feature","geometry":{"type":"Point","coordinates":[-98.795653,28.219385]}},{"properties":{"ptd":19500,"latitude":31.019,"days":52,"spud":"9/8/2009","county":"LEON","operator":"ENCANA O &amp; G/DALLAS","rig":"86","rig_drill":"#86 ROWAN DRILLING","reptref":3,"dist":"5","well":"NAVASOT #2","longitude":-96.229,"driller":"ROWAN DRILLING","id":"a69k7gpg88oc","state":"TX"},"type":"Feature","geometry":{"type":"Point","coordinates":[-96.229131,31.019266]}},{"properties":{"ptd":9200,"latitude":27.743,"days":20,"spud":"10/10/2009","county":"NUECES","operator":"CHAPARRAL ENERGY","rig":"863","rig_drill":"#863 PRECISION DRILLING/A","reptref":3,"dist":"4","well":"ST 431 #1","longitude":-97.156,"driller":"PRECISION DRILLING/A","id":"a69k7gjz9eim","state":"TX"},"type":"Feature","geometry":{"type":"Point","coordinates":[-97.156033,27.743319]}},{"properties":{"ptd":11500,"latitude":28.388,"days":43,"spud":"9/17/2009","county":"LIVE OAK","operator":"HURD ENTERPRISES","rig":"865","rig_drill":"#865 PRECISION DRILLING/A","reptref":3,"dist":"2","well":"HARRIS #1","longitude":-98.096,"driller":"PRECISION DRILLING/A","id":"a69k7gil2isy","state":"TX"},"type":"Feature","geometry":{"type":"Point","coordinates":[-98.095626,28.387988]}},{"properties":{"ptd":7400,"latitude":28.672,"days":11,"spud":"10/19/2009","county":"FRIO","operator":"GULF SOUTH OPERATORS","rig":"866","rig_drill":"#866 PRECISION DRILLING/A","reptref":1,"dist":"1","well":"CONSUELO LEDEZMA #1","longitude":-99.322,"driller":"PRECISION DRILLING/A","id":"a69k7gmhug0z","state":"TX"},"type":"Feature","geometry":{"type":"Point","coordinates":[-99.322176,28.672333]}},{"properties":{"ptd":15000,"latitude":31.619,"days":14,"spud":"10/16/2009","county":"SAN AUGUSTINE","operator":"COMMON RESOURCES LLC","rig":"87","rig_drill":"#87 ROWAN DRILLING","reptref":1,"dist":"6","well":"RED RIVER 257 -2- #1","longitude":-94.337,"driller":"ROWAN DRILLING","id":"a69k7glt4kk4","state":"TX"},"type":"Feature","geometry":{"type":"Point","coordinates":[-94.33656,31.619235]}},{"properties":{"ptd":15000,"latitude":29.612,"days":71,"spud":"8/20/2009","county":"TERREBONNE","operator":"RIMROD CORPORATION","rig":"88","rig_drill":"#88 KEY ENERGY SVC/LAF","reptref":1,"dist":"S","well":"COLE-DAWSON HEIRS #1","longitude":-90.672,"driller":"KEY ENERGY SVC/LAF","id":"a69k7gd4q4nv","state":"LA"},"type":"Feature","geometry":{"type":"Point","coordinates":[-90.671964,29.611605]}},{"properties":{"ptd":5000,"latitude":35.374,"days":5,"spud":"10/25/2009","county":"VAN BUREN","operator":"SEECO INC","rig":"9","rig_drill":"#9 DESOTO DRILLING","reptref":1,"dist":null,"well":"HOLLAND-SMITH 09-13 #1-36 H","longitude":-92.337,"driller":"DESOTO DRILLING","id":"a69k7gngu2kl","state":"AR"},"type":"Feature","geometry":{"type":"Point","coordinates":[-92.33724,35.373587]}},{"properties":{"ptd":11500,"latitude":28.553,"days":21,"spud":"10/9/2009","county":"MCMULLEN","operator":"EOG RESOURCES/CORPUS","rig":"9","rig_drill":"#9 ORION DRILLING","reptref":7,"dist":"1","well":"HUNDLEY #2 H","longitude":-98.706,"driller":"ORION DRILLING","id":"a69k7gfrkj8o","state":"TX"},"type":"Feature","geometry":{"type":"Point","coordinates":[-98.706352,28.552852]}},{"properties":{"ptd":10500,"latitude":26.598,"days":9,"spud":"10/21/2009","county":"STARR","operator":"RAM OPERATING CO","rig":"9","rig_drill":"#9 PATTERSON UTI/VICTOR","reptref":1,"dist":"4","well":"BRANNAN #7","longitude":-98.492,"driller":"PATTERSON UTI/VICTOR","id":"a69k7gk845a0","state":"TX"},"type":"Feature","geometry":{"type":"Point","coordinates":[-98.491961,26.59764]}},{"properties":{"ptd":8000,"latitude":32.961,"days":18,"spud":"10/12/2009","county":"CAMP","operator":"BASA RESOURCES INC","rig":"9","rig_drill":"#9 PIONEER DRILLING/H","reptref":1,"dist":"6","well":"PITTSBURG UNIT #6 H","longitude":-95.076,"driller":"PIONEER DRILLING/H","id":"a69k7gkpfmk1","state":"TX"},"type":"Feature","geometry":{"type":"Point","coordinates":[-95.07602,32.960833]}},{"properties":{"ptd":12900,"latitude":28.597,"days":10,"spud":"10/20/2009","county":"MCMULLEN","operator":"DIRNETT INC","rig":"916","rig_drill":"#916 NABORS WELL SVC/ALIC","reptref":5,"dist":"1","well":"PAN AM M FRANKLIN #1","longitude":-98.665,"driller":"NABORS WELL SVC/ALIC","id":"a69k7gh6ro1q","state":"TX"},"type":"Feature","geometry":{"type":"Point","coordinates":[-98.665223,28.596681]}},{"properties":{"ptd":13330,"latitude":29.68,"days":22,"spud":"10/8/2009","county":"LAFOURCHE","operator":"SAMSON CONTOUR","rig":"99","rig_drill":"#99 PRECISION DRILLING/E","reptref":1,"dist":"S","well":"GHEENS FOUNDATION #3 ALT","longitude":-90.43,"driller":"PRECISION DRILLING/E","id":"a69k7gprrkop","state":"LA"},"type":"Feature","geometry":{"type":"Point","coordinates":[-90.430459,29.679501]}},{"properties":{"ptd":12900,"latitude":31.74,"days":10,"spud":"10/20/2009","county":"FREESTONE","operator":"XTO ENERGY/TYLER","rig":"CROSS","rig_drill":"#CROSS SCANDRILL INC","reptref":9,"dist":"5","well":"MOODY ESTATE #4","longitude":-96.198,"driller":"SCANDRILL INC","id":"a69k7gqusotf","state":"TX"},"type":"Feature","geometry":{"type":"Point","coordinates":[-96.198345,31.739747]}},{"properties":{"ptd":15100,"latitude":30.951,"days":26,"spud":"10/4/2009","county":"ROBERTSON","operator":"XTO ENERGY/TYLER","rig":"DISCOV","rig_drill":"#DISCOV SCANDRILL INC","reptref":4,"dist":"5","well":"HORN GAS UNIT #2","longitude":-96.602,"driller":"SCANDRILL INC","id":"a69k7gcydlkl","state":"TX"},"type":"Feature","geometry":{"type":"Point","coordinates":[-96.602306,30.951019]}},{"properties":{"ptd":13000,"latitude":31.96,"days":41,"spud":"9/19/2009","county":"DE SOTO","operator":"SAMSON CONTOUR","rig":"EAGLE","rig_drill":"#EAGLE SCANDRILL INC","reptref":9,"dist":"N","well":"RUFFIN -7H- #1","longitude":-93.425,"driller":"SCANDRILL INC","id":"a69k7gjtuege","state":"LA"},"type":"Feature","geometry":{"type":"Point","coordinates":[-93.4246,31.960349]}},{"properties":{"ptd":7800,"latitude":32.488,"days":19,"spud":"10/11/2009","county":"SMITH","operator":"GOLDSTON OIL CORP","rig":"ENERGY","rig_drill":"#ENERGY SCANDRILL INC","reptref":2,"dist":"6","well":"MANLEY FAMILY PARTNERSHIP #1","longitude":-95.277,"driller":"SCANDRILL INC","id":"a69k7gjpd4yw","state":"TX"},"type":"Feature","geometry":{"type":"Point","coordinates":[-95.27733,32.487674]}},{"properties":{"ptd":13800,"latitude":31.537,"days":19,"spud":"10/11/2009","county":"FREESTONE","operator":"XTO ENERGY/TYLER","rig":"EXPLOR","rig_drill":"#EXPLOR SCANDRILL INC","reptref":4,"dist":"5","well":"WEBB -A- #21","longitude":-96.148,"driller":"SCANDRILL INC","id":"a69k7gqnjbg5","state":"TX"},"type":"Feature","geometry":{"type":"Point","coordinates":[-96.148358,31.536533]}},{"properties":{"ptd":12660,"latitude":32.209,"days":-2,"spud":"11/1/2009","county":"RED RIVER","operator":"SWEPI LP/UT","rig":"F01","rig_drill":"#F01 NABORS DRILLING (L)","reptref":3,"dist":"N","well":"MCLEMORE ET UX -7- #1","longitude":-93.324,"driller":"NABORS DRILLING (L)","id":"a69k7ghr06k7","state":"LA"},"type":"Feature","geometry":{"type":"Point","coordinates":[-93.32431,32.208731]}},{"properties":{"ptd":12110,"latitude":32.062,"days":42,"spud":"9/18/2009","county":"DE SOTO","operator":"SWEPI LP/UT","rig":"F02","rig_drill":"#F02 NABORS DRILLING (L)","reptref":28,"dist":"N","well":"DON JONES -6- #1","longitude":-93.635,"driller":"NABORS DRILLING (L)","id":"a69k7gs5cq0p","state":"LA"},"type":"Feature","geometry":{"type":"Point","coordinates":[-93.635334,32.062103]}},{"properties":{"ptd":12120,"latitude":32.052,"days":-7,"spud":"11/6/2009","county":"DE SOTO","operator":"SWEPI LP/UT","rig":"F02","rig_drill":"#F02 NABORS DRILLING (L)","reptref":27,"dist":"N","well":"CSJ MINERALS LLC -1- #1","longitude":-93.651,"driller":"NABORS DRILLING (L)","id":"a69k7gip0u7w","state":"LA"},"type":"Feature","geometry":{"type":"Point","coordinates":[-93.651194,32.051681]}},{"properties":{"ptd":16300,"latitude":32.267,"days":6,"spud":"10/24/2009","county":"PANOLA","operator":"XTO ENERGY/TYLER","rig":"F05","rig_drill":"#F05 NABORS DRILLING (K)","reptref":6,"dist":"6","well":"LOUIS WERNER SAWMILL #13 H","longitude":-94.197,"driller":"NABORS DRILLING (K)","id":"a69k7gld8yy0","state":"TX"},"type":"Feature","geometry":{"type":"Point","coordinates":[-94.197192,32.267086]}},{"properties":{"ptd":12478,"latitude":32.105,"days":6,"spud":"10/24/2009","county":"DE SOTO","operator":"SWEPI LP/UT","rig":"F06","rig_drill":"#F06 NABORS DRILLING (L)","reptref":15,"dist":"N","well":"ROBERTSON ET AL -23- #1","longitude":-93.575,"driller":"NABORS DRILLING (L)","id":"a69k7gebm2eu","state":"LA"},"type":"Feature","geometry":{"type":"Point","coordinates":[-93.574715,32.105244]}},{"properties":{"ptd":12500,"latitude":32.145,"days":31,"spud":"9/29/2009","county":"PANOLA","operator":"ANADARKO E &amp; P CO LP","rig":"F07","rig_drill":"#F07 NABORS DRILLING (K)","reptref":7,"dist":"6","well":"BOREN UNIT -1- #9H H","longitude":-94.213,"driller":"NABORS DRILLING (K)","id":"a69k7gfmz2y7","state":"TX"},"type":"Feature","geometry":{"type":"Point","coordinates":[-94.212838,32.145137]}},{"properties":{"ptd":12000,"latitude":32.208,"days":66,"spud":"8/25/2009","county":"RED RIVER","operator":"ENCANA O &amp; G/DALLAS","rig":"F12","rig_drill":"#F12 NABORS DRILLING (L)","reptref":12,"dist":"N","well":"EDGAR CASON -12H- #1","longitude":-93.455,"driller":"NABORS DRILLING (L)","id":"a69k7ggbj7lb","state":"LA"},"type":"Feature","geometry":{"type":"Point","coordinates":[-93.454628,32.208313]}},{"properties":{"ptd":13100,"latitude":31.772,"days":56,"spud":"9/4/2009","county":"SABINE","operator":"ENCANA O &amp; G/DALLAS","rig":"F13","rig_drill":"#F13 NABORS DRILLING (L)","reptref":2,"dist":"N","well":"GUFFY PATTISON -13H- #1","longitude":-93.55,"driller":"NABORS DRILLING (L)","id":"a69k7gqy3sgj","state":"LA"},"type":"Feature","geometry":{"type":"Point","coordinates":[-93.549982,31.771628]}},{"properties":{"ptd":7955,"latitude":26.81,"days":25,"spud":"10/5/2009","county":"ZAPATA","operator":"CONOCOPHILLIPS/HSTN","rig":"F15","rig_drill":"#F15 NABORS DRILLING (A)","reptref":4,"dist":"4","well":"SALVADOR GARCIA -E- #28","longitude":-99.195,"driller":"NABORS DRILLING (A)","id":"a69k7gpomaup","state":"TX"},"type":"Feature","geometry":{"type":"Point","coordinates":[-99.19539,26.810176]}},{"properties":{"ptd":13528,"latitude":31.789,"days":23,"spud":"10/7/2009","county":"SABINE","operator":"ENCANA O &amp; G/DALLAS","rig":"F20","rig_drill":"#F20 NABORS DRILLING (L)","reptref":1,"dist":"N","well":"RSD LLC ET AL -4H- #1","longitude":-93.494,"driller":"NABORS DRILLING (L)","id":"a69k7gmancao","state":"LA"},"type":"Feature","geometry":{"type":"Point","coordinates":[-93.494479,31.789239]}},{"properties":{"ptd":0,"latitude":72.222,"days":-6,"spud":"11/5/2009","county":"COAL","operator":"BP AMERICA/HOUSTON","rig":"F24","rig_drill":"#F24 NABORS DRILLING (O)","reptref":7,"dist":null,"well":"BP PROJECT #2","longitude":72.222,"driller":"NABORS DRILLING (O)","id":"a69k7ggh7uhe","state":"OK"},"type":"Feature","geometry":{"type":"Point","coordinates":[72.222,72.222]}},{"properties":{"ptd":8734,"latitude":34.928,"days":3,"spud":"10/27/2009","county":"PITTSBURG","operator":"BP AMERICA/HOUSTON","rig":"F24","rig_drill":"#F24 NABORS DRILLING (O)","reptref":6,"dist":null,"well":"REYNOLDS #3-7 H","longitude":-95.973,"driller":"NABORS DRILLING (O)","id":"a69k7gk7hmqi","state":"OK"},"type":"Feature","geometry":{"type":"Point","coordinates":[-95.97344,34.928189]}},{"properties":{"ptd":16000,"latitude":30.771,"days":52,"spud":"9/8/2009","county":"TYLER","operator":"ANADARKO E &amp; P CO LP","rig":"F30","rig_drill":"#F30 NABORS DRILLING (L)","reptref":2,"dist":"3","well":"BLACK STONE SOUTH -A7- UNIT #2","longitude":-94.455,"driller":"NABORS DRILLING (L)","id":"a69k7goyeclv","state":"TX"},"type":"Feature","geometry":{"type":"Point","coordinates":[-94.454506,30.771019]}},{"properties":{"ptd":13500,"latitude":26.423,"days":2,"spud":"10/28/2009","county":"HIDALGO","operator":"KERR MCGEE O&amp;G LP","rig":"F35","rig_drill":"#F35 NABORS DRILLING (A)","reptref":4,"dist":"4","well":"PETER VAN SCHERPE #10","longitude":-98.482,"driller":"NABORS DRILLING (A)","id":"a69k7ggu36c0","state":"TX"},"type":"Feature","geometry":{"type":"Point","coordinates":[-98.481782,26.423075]}},{"properties":{"ptd":13300,"latitude":26.601,"days":22,"spud":"10/8/2009","county":"HIDALGO","operator":"SHELL WESTERN/HOUSTN","rig":"F37","rig_drill":"#F37 NABORS DRILLING (A)","reptref":5,"dist":"4","well":"A A MCALLEN #138","longitude":-98.287,"driller":"NABORS DRILLING (A)","id":"a69k7gq9wh77","state":"TX"},"type":"Feature","geometry":{"type":"Point","coordinates":[-98.287045,26.600639]}},{"properties":{"ptd":11248,"latitude":31.964,"days":5,"spud":"10/25/2009","county":"DE SOTO","operator":"SWEPI LP/UT","rig":"F38","rig_drill":"#F38 NABORS DRILLING (K)","reptref":57,"dist":"N","well":"BLACKSTONE -4- #1","longitude":-93.698,"driller":"NABORS DRILLING (K)","id":"a69k7grn555x","state":"LA"},"type":"Feature","geometry":{"type":"Point","coordinates":[-93.69806,31.963897]}},{"properties":{"ptd":13700,"latitude":30.944,"days":3,"spud":"10/27/2009","county":"ROBERTSON","operator":"XTO ENERGY/TYLER","rig":"FREDOM","rig_drill":"#FREDOM SCANDRILL INC","reptref":9,"dist":"5","well":"CALLAWAY PARTNERSHIP GAS UNIT #1","longitude":-96.65,"driller":"SCANDRILL INC","id":"a69k7gi2276h","state":"TX"},"type":"Feature","geometry":{"type":"Point","coordinates":[-96.650483,30.943972]}},{"properties":{"ptd":14900,"latitude":30.908,"days":10,"spud":"10/20/2009","county":"ROBERTSON","operator":"XTO ENERGY/TYLER","rig":"GOLD","rig_drill":"#GOLD SCANDRILL INC","reptref":5,"dist":"5","well":"SKILES GAS UNIT -3- #1","longitude":-96.653,"driller":"SCANDRILL INC","id":"a69k7gnr22us","state":"TX"},"type":"Feature","geometry":{"type":"Point","coordinates":[-96.652582,30.907532]}},{"properties":{"ptd":13700,"latitude":32.148,"days":31,"spud":"9/29/2009","county":"RED RIVER","operator":"SAMSON CONTOUR","rig":"LIBERT","rig_drill":"#LIBERT SCANDRILL INC","reptref":1,"dist":"N","well":"DELOACHE -35H- #1","longitude":-93.262,"driller":"SCANDRILL INC","id":"a69k7gpdnzep","state":"LA"},"type":"Feature","geometry":{"type":"Point","coordinates":[-93.262032,32.147621]}},{"properties":{"ptd":11788,"latitude":31.962,"days":31,"spud":"9/29/2009","county":"DE SOTO","operator":"EOG RESOURCES/TYLER","rig":"M08","rig_drill":"#M08 NABORS DRILLING (K)","reptref":49,"dist":"N","well":"BLACK STONE -3- #1","longitude":-93.695,"driller":"NABORS DRILLING (K)","id":"a69k7gnu96eo","state":"LA"},"type":"Feature","geometry":{"type":"Point","coordinates":[-93.69461,31.962367]}},{"properties":{"ptd":7500,"latitude":32.758,"days":4,"spud":"10/26/2009","county":"TARRANT","operator":"FINLEY RESOURCES INC","rig":"M09","rig_drill":"#M09 NABORS DRILLING (K)","reptref":24,"dist":"5","well":"EAST SIDE UNIT #3 H","longitude":-97.291,"driller":"NABORS DRILLING (K)","id":"a69k7gker3ip","state":"TX"},"type":"Feature","geometry":{"type":"Point","coordinates":[-97.290911,32.757999]}},{"properties":{"ptd":12000,"latitude":32.674,"days":-1,"spud":"10/31/2009","county":"HARRISON","operator":"NFR ENERGY LLC","rig":"M17","rig_drill":"#M17 NABORS DRILLING (K)","reptref":9,"dist":"6","well":"PILOT #8 H","longitude":-94.251,"driller":"NABORS DRILLING (K)","id":"a69k7gpwhdvk","state":"TX"},"type":"Feature","geometry":{"type":"Point","coordinates":[-94.251328,32.674481]}},{"properties":{"ptd":5200,"latitude":35.313,"days":3,"spud":"10/27/2009","county":"FAULKNER","operator":"SEECO INC","rig":"M18","rig_drill":"#M18 NABORS DRILLING (O)","reptref":3,"dist":null,"well":"HARRIS 08-13 #2-19 H18","longitude":-92.414,"driller":"NABORS DRILLING (O)","id":"a69k7glbtcwq","state":"AR"},"type":"Feature","geometry":{"type":"Point","coordinates":[-92.414339,35.312922]}},{"properties":{"ptd":12500,"latitude":29.904,"days":16,"spud":"10/14/2009","county":"FAYETTE","operator":"ENERVEST OPER LLC","rig":"M19","rig_drill":"#M19 NABORS DRILLING (K)","reptref":1,"dist":"3","well":"CEDAR CREEK -B- AMARADO UNIT #2RE","longitude":-96.848,"driller":"NABORS DRILLING (K)","id":"a69k7gexeepo","state":"TX"},"type":"Feature","geometry":{"type":"Point","coordinates":[-96.847589,29.904361]}},{"properties":{"ptd":11866,"latitude":32.136,"days":-5,"spud":"11/4/2009","county":"DE SOTO","operator":"EL PASO E&amp;P COMPANY","rig":"M20","rig_drill":"#M20 NABORS DRILLING (K)","reptref":44,"dist":"N","well":"BRUMMETT -8H- #1","longitude":-93.822,"driller":"NABORS DRILLING (K)","id":"a69k7gk8eyhm","state":"LA"},"type":"Feature","geometry":{"type":"Point","coordinates":[-93.821819,32.13623]}},{"properties":{"ptd":12000,"latitude":32.211,"days":4,"spud":"10/26/2009","county":"PANOLA","operator":"ANADARKO E &amp; P CO LP","rig":"M24","rig_drill":"#M24 NABORS DRILLING (K)","reptref":8,"dist":"6","well":"CARTHAGE GAS UNIT -16- #18","longitude":-94.395,"driller":"NABORS DRILLING (K)","id":"a69k7grczxto","state":"TX"},"type":"Feature","geometry":{"type":"Point","coordinates":[-94.394751,32.210736]}},{"properties":{"ptd":11664,"latitude":32.337,"days":33,"spud":"9/27/2009","county":"BOSSIER","operator":"PETROHAWK OPERATING","rig":"M25","rig_drill":"#M25 NABORS DRILLING (K)","reptref":1,"dist":"N","well":"WILLIS ET AL -36H- #1","longitude":-93.444,"driller":"NABORS DRILLING (K)","id":"a69k7gcw4pdx","state":"LA"},"type":"Feature","geometry":{"type":"Point","coordinates":[-93.443847,32.337178]}},{"properties":{"ptd":0,"latitude":72.222,"days":-6,"spud":"11/5/2009","county":"COAL","operator":"BP AMERICA/HOUSTON","rig":"M26","rig_drill":"#M26 NABORS DRILLING (O)","reptref":8,"dist":null,"well":"BP PROJECT #1","longitude":72.222,"driller":"NABORS DRILLING (O)","id":"a69k7gl8agi9","state":"OK"},"type":"Feature","geometry":{"type":"Point","coordinates":[72.222,72.222]}},{"properties":{"ptd":8900,"latitude":34.695,"days":25,"spud":"10/5/2009","county":"COAL","operator":"BP AMERICA/HOUSTON","rig":"M26","rig_drill":"#M26 NABORS DRILLING (O)","reptref":4,"dist":null,"well":"WALKUP #2-27 H","longitude":-96.141,"driller":"NABORS DRILLING (O)","id":"a69k7gs15zki","state":"OK"},"type":"Feature","geometry":{"type":"Point","coordinates":[-96.14112,34.695237]}},{"properties":{"ptd":12000,"latitude":32.254,"days":-1,"spud":"10/31/2009","county":"DE SOTO","operator":"ENCANA O &amp; G/DALLAS","rig":"M27","rig_drill":"#M27 NABORS DRILLING (K)","reptref":33,"dist":"N","well":"JACKSON DAVIS -27H- #1","longitude":-93.782,"driller":"NABORS DRILLING (K)","id":"a69k7gnq97r3","state":"LA"},"type":"Feature","geometry":{"type":"Point","coordinates":[-93.782321,32.253989]}},{"properties":{"ptd":8999,"latitude":32.425,"days":2,"spud":"10/28/2009","county":"JOHNSON","operator":"EOG RESOURCES/FORT","rig":"M28","rig_drill":"#M28 NABORS DRILLING (K)","reptref":11,"dist":"5","well":"FALLS CREEK UNIT #3 H","longitude":-97.613,"driller":"NABORS DRILLING (K)","id":"a69k7gfaiv7k","state":"TX"},"type":"Feature","geometry":{"type":"Point","coordinates":[-97.61304,32.425435]}},{"properties":{"ptd":8500,"latitude":34.999,"days":17,"spud":"10/13/2009","county":"PITTSBURG","operator":"BP AMERICA/HOUSTON","rig":"M30","rig_drill":"#M30 NABORS DRILLING (O)","reptref":8,"dist":null,"well":"DANNY CATHY #2-14 H","longitude":-95.912,"driller":"NABORS DRILLING (O)","id":"a69k7gk676pe","state":"OK"},"type":"Feature","geometry":{"type":"Point","coordinates":[-95.91167,34.999002]}},{"properties":{"ptd":11000,"latitude":32.103,"days":16,"spud":"10/14/2009","county":"PANOLA","operator":"ANADARKO E &amp; P CO LP","rig":"M33","rig_drill":"#M33 NABORS DRILLING (K)","reptref":11,"dist":"6","well":"COTTLE-REEVES UNIT #3 H","longitude":-94.205,"driller":"NABORS DRILLING (K)","id":"a69k7gk3rbj3","state":"TX"},"type":"Feature","geometry":{"type":"Point","coordinates":[-94.204684,32.103247]}},{"properties":{"ptd":11000,"latitude":30.16,"days":1,"spud":"10/29/2009","county":"WASHINGTON","operator":"WCS OIL &amp; GAS CORP.","rig":"M34","rig_drill":"#M34 NABORS DRILLING (K)","reptref":2,"dist":"3","well":"SAGER #1 H","longitude":-96.762,"driller":"NABORS DRILLING (K)","id":"a69k7gg0ituo","state":"TX"},"type":"Feature","geometry":{"type":"Point","coordinates":[-96.761542,30.160021]}},{"properties":{"ptd":12300,"latitude":32.483,"days":16,"spud":"10/14/2009","county":"HARRISON","operator":"NFR ENERGY LLC","rig":"M44","rig_drill":"#M44 NABORS DRILLING (K)","reptref":8,"dist":"6","well":"WHITTAKER #6 H","longitude":-94.451,"driller":"NABORS DRILLING (K)","id":"a69k7glvjbi3","state":"TX"},"type":"Feature","geometry":{"type":"Point","coordinates":[-94.450898,32.482989]}},{"properties":{"ptd":11494,"latitude":32.353,"days":10,"spud":"10/20/2009","county":"BOSSIER","operator":"PETROHAWK OPERATING","rig":"M45","rig_drill":"#M45 NABORS DRILLING (K)","reptref":2,"dist":"N","well":"MOON -27H- #1","longitude":-93.483,"driller":"NABORS DRILLING (K)","id":"a69k7gqp2qn6","state":"LA"},"type":"Feature","geometry":{"type":"Point","coordinates":[-93.483453,32.352624]}},{"properties":{"ptd":12449,"latitude":32.122,"days":15,"spud":"10/15/2009","county":"RED RIVER","operator":"PETROHAWK OPERATING","rig":"M47","rig_drill":"#M47 NABORS DRILLING (K)","reptref":6,"dist":"N","well":"ALLBRITTON CATTLE CO ET AL-10- #1","longitude":-93.488,"driller":"NABORS DRILLING (K)","id":"a69k7gjjkg4h","state":"LA"},"type":"Feature","geometry":{"type":"Point","coordinates":[-93.488396,32.122179]}},{"properties":{"ptd":12504,"latitude":32.107,"days":7,"spud":"10/23/2009","county":"RED RIVER","operator":"PETROHAWK OPERATING","rig":"M48","rig_drill":"#M48 NABORS DRILLING (K)","reptref":5,"dist":"N","well":"MATTHEWS ET AL -19H- #1","longitude":-93.533,"driller":"NABORS DRILLING (K)","id":"a69k7gilw27q","state":"LA"},"type":"Feature","geometry":{"type":"Point","coordinates":[-93.533225,32.107489]}},{"properties":{"ptd":12427,"latitude":32.09,"days":33,"spud":"9/27/2009","county":"RED RIVER","operator":"PETROHAWK OPERATING","rig":"M49","rig_drill":"#M49 NABORS DRILLING (K)","reptref":7,"dist":"N","well":"DUPREE LAND -20H- #1","longitude":-93.409,"driller":"NABORS DRILLING (K)","id":"a69k7gor2uy1","state":"LA"},"type":"Feature","geometry":{"type":"Point","coordinates":[-93.409029,32.090332]}},{"properties":{"ptd":17000,"latitude":28.319,"days":15,"spud":"10/15/2009","county":"LA SALLE","operator":"LEWIS PETRO PROP","rig":"M50","rig_drill":"#M50 NABORS DRILLING (A)","reptref":2,"dist":"1","well":"STOREY -151- #2 H","longitude":-98.998,"driller":"NABORS DRILLING (A)","id":"a69k7gs0w1c8","state":"TX"},"type":"Feature","geometry":{"type":"Point","coordinates":[-98.997623,28.319118]}},{"properties":{"ptd":17000,"latitude":28.263,"days":-1,"spud":"10/31/2009","county":"LA SALLE","operator":"PETROHAWK OPERATING","rig":"M51","rig_drill":"#M51 NABORS DRILLING (A)","reptref":3,"dist":"1","well":"CAROLINE PIELOP #2 H","longitude":-99.072,"driller":"NABORS DRILLING (A)","id":"a69k7grw39zu","state":"TX"},"type":"Feature","geometry":{"type":"Point","coordinates":[-99.071561,28.262791]}},{"properties":{"ptd":10950,"latitude":28.291,"days":-3,"spud":"11/2/2009","county":"LIVE OAK","operator":"S LAVON EVANS JR","rig":"MUSTNG","rig_drill":"#MUSTNG MUSTANG DRILLING LLC","reptref":4,"dist":"2","well":"EVANS ENERGY LLC -S- BRASLAU #1","longitude":-98.153,"driller":"MUSTANG DRILLING LLC","id":"a69k7gk39e3z","state":"TX"},"type":"Feature","geometry":{"type":"Point","coordinates":[-98.153477,28.29053]}},{"properties":{"ptd":13200,"latitude":31.626,"days":61,"spud":"8/30/2009","county":"SHELBY","operator":"ST MARY LAND &amp; EXPL","rig":"PATROT","rig_drill":"#PATROT SCANDRILL INC","reptref":10,"dist":"6","well":"BLACKSTONE -PB- #1","longitude":-94.067,"driller":"SCANDRILL INC","id":"a69k7grf04cd","state":"TX"},"type":"Feature","geometry":{"type":"Point","coordinates":[-94.067175,31.626344]}},{"properties":{"ptd":6700,"latitude":35.146,"days":10,"spud":"10/20/2009","county":"SEBASTIAN","operator":"STEPHENS PRODUCTION","rig":"RES19","rig_drill":"#RES19 REDLAND ENERGY SVC","reptref":2,"dist":null,"well":"BASHAM #16","longitude":-94.177,"driller":"REDLAND ENERGY SVC","id":"a69k7gniu3b5","state":"AR"},"type":"Feature","geometry":{"type":"Point","coordinates":[-94.17719,35.146377]}},{"properties":{"ptd":10480,"latitude":32.282,"days":21,"spud":"10/9/2009","county":"BIENVILLE","operator":"QUESTAR E&amp;P/TULSA","rig":"RR1","rig_drill":"#RR1 RELIANCE WELL","reptref":5,"dist":"N","well":"CONLY ET AL -17- #2 ALT","longitude":-93.317,"driller":"RELIANCE WELL","id":"a69k7gcghudi","state":"LA"},"type":"Feature","geometry":{"type":"Point","coordinates":[-93.316971,32.281808]}},{"properties":{"ptd":8800,"latitude":33.18,"days":9,"spud":"10/21/2009","county":"COLUMBIA","operator":"BONANZA CREEK ENERGY","rig":"RR4","rig_drill":"#RR4 RELIANCE WELL","reptref":1,"dist":null,"well":"DORCHEAT UNIT #38","longitude":-93.354,"driller":"RELIANCE WELL","id":"a69k7gro2kwu","state":"AR"},"type":"Feature","geometry":{"type":"Point","coordinates":[-93.354493,33.17969]}},{"properties":{"ptd":13200,"latitude":31.593,"days":14,"spud":"10/16/2009","county":"FREESTONE","operator":"XTO ENERGY/TYLER","rig":"SCOUT","rig_drill":"#SCOUT SCANDRILL INC","reptref":7,"dist":"5","well":"W A KEILS GAS UNIT #5","longitude":-96.292,"driller":"SCANDRILL INC","id":"a69k7gmgnirr","state":"TX"},"type":"Feature","geometry":{"type":"Point","coordinates":[-96.292142,31.593131]}},{"properties":{"ptd":10500,"latitude":32.41,"days":2,"spud":"10/28/2009","county":"HARRISON","operator":"SAMSON LONE STAR LLC","rig":"STAR","rig_drill":"#STAR SCANDRILL INC","reptref":11,"dist":"6","well":"WOODLEY GAS UNIT -1- #3 H","longitude":-94.229,"driller":"SCANDRILL INC","id":"a69k7glk5vxs","state":"TX"},"type":"Feature","geometry":{"type":"Point","coordinates":[-94.228753,32.410493]}},{"properties":{"ptd":13900,"latitude":30.99,"days":2,"spud":"10/28/2009","county":"ROBERTSON","operator":"XTO ENERGY/TYLER","rig":"VICTRY","rig_drill":"#VICTRY SCANDRILL INC","reptref":8,"dist":"5","well":"WALSTON GAS UNIT #2","longitude":-96.606,"driller":"SCANDRILL INC","id":"a69k7grhry57","state":"TX"},"type":"Feature","geometry":{"type":"Point","coordinates":[-96.606085,30.989812]}}],"is_temporal":false,"author":{"url":"","metadata":"","contact_name":"","contact_address":"","source":"","contact_phone":""},"source":"","pagination":{"sort":null,"start":0,"total":458,"limit":1000000},"state":"complete","tags":"","published":"2014-08-10T22:53:32-04:00","id":17605}