{"type":"FeatureCollection","data_type":"Dataset","url_type":null,"permissions":[{"permissions":{"download":true,"view":true},"group_id":"everyone"}],"classification":null,"title":"Meals on Wheels, Toronto 2009","count":25,"stream_id":17655,"contributor":{"url":"http://geocommons.com/users/2943","name":"Margot"},"data_attributes":null,"calculation_params":null,"icon_link":null,"link":"http://geocommons.com/overlays/17655.json","extent":[-79.5164,43.6495,-79.1966,43.8041],"geometry_types":["point"],"unique_name":null,"name":"Meals on Wheels, Toronto 2009","feature_count":25,"description":"This is a shapefile of meals on wheels in Toronto. Data shows Agencies that provide meals, food, nutritious breakfasts for a variety of clients. Agencies included are Daily Bread, Foodshare, Meals on Wheels, North York Harvest, Salvation Army, Second Harvest.\n\nThe data comes from toronto.ca/open and was uploaded into Geocommons as shp, dbf, and shx files. ","next_feature":null,"is_raster":false,"short_classification":"Y","stats":{"Score":{"max":100,"mean":96.44,"variance":109.923333333333,"stdev":10.4844329047085,"min":53,"median":100},"Rotation":{"max":-17.5,"mean":-17.5,"variance":0.0,"stdev":0.0,"min":-17.5,"median":-17.5}},"features":[{"properties":{"NAME":"West Hill MOW","Match_addr":"4100 LAWRENCE AVE E","Status":"M","Side":"L","PHONE":"416 - 284 - 5931","STREET":"4100 Lawerence Avenue East","Score":76,"Rotation":-17.5,"id":"a64b0gah83th","ARC_Street":"4100 Lawerence Avenue East"},"type":"Feature","geometry":{"type":"Point","coordinates":[-79.196593769652,43.7661040629524]}},{"properties":{"NAME":"Scarborough Support Servi","Match_addr":"1045 MCNICOLL AVE","Status":"M","Side":"R","PHONE":"416 - 750 - 9885","STREET":"1045 McNicoll Avenue","Score":100,"Rotation":-17.5,"id":"a64b0g4e3x24","ARC_Street":"1045 McNicoll Avenue"},"type":"Feature","geometry":{"type":"Point","coordinates":[-79.3337257258875,43.80406111748]}},{"properties":{"NAME":"St. Paul's L'Amoreaux MOW","Match_addr":"3333 FINCH AVE E","Status":"M","Side":"R","PHONE":"416 - 493 - 3333","STREET":"3333 Finch Avenue East","Score":100,"Rotation":-17.5,"id":"a64b0g6wz3cc","ARC_Street":"3333 Finch Avenue East"},"type":"Feature","geometry":{"type":"Point","coordinates":[-79.3194047647887,43.7958221414647]}},{"properties":{"NAME":"Wardens Woods MOW","Match_addr":"74 FIRVALLEY CT","Status":"M","Side":"L","PHONE":"416 - 694 - 1138","STREET":"74 Fir Valley Court","Score":93,"Rotation":-17.5,"id":"a64b0gei2xxb","ARC_Street":"74 Fir Valley Court"},"type":"Feature","geometry":{"type":"Point","coordinates":[-79.277916813609,43.7035677714681]}},{"properties":{"NAME":"Meals Here And There Inc.","Match_addr":"310 DANFORTH AVE","Status":"M","Side":"L","PHONE":"416 - 466 - 0587","STREET":"310 Danforth Avenue","Score":100,"Rotation":-17.5,"id":"a64b0gc02wa3","ARC_Street":"310 Danforth Avenue"},"type":"Feature","geometry":{"type":"Point","coordinates":[-79.3534815977106,43.6772434948318]}},{"properties":{"NAME":"True Davidson MOW","Match_addr":"2723 SAINT CLAIR AVE E","Status":"M","Side":"R","PHONE":"416 - 752 - 9667","STREET":"2723 St. Clair Avenue East","Score":100,"Rotation":-17.5,"id":"a64b0gdel2g0","ARC_Street":"2723 St. Clair Avenue East"},"type":"Feature","geometry":{"type":"Point","coordinates":[-79.3102640107589,43.7059589082355]}},{"properties":{"NAME":"MOW and More","Match_addr":"80 SHEPPARD AVE W","Status":"M","Side":"R","PHONE":"416 - 492 - 5811","STREET":"80 Sheppard Avenue West","Score":100,"Rotation":-17.5,"id":"a64b0g2vgyr8","ARC_Street":"80 Sheppard Avenue West"},"type":"Feature","geometry":{"type":"Point","coordinates":[-79.4153631993531,43.7605360399942]}},{"properties":{"NAME":"Taylor Place MOW","Match_addr":"875 DON MILLS RD","Status":"M","Side":"R","PHONE":"416 - 447 - 7244","STREET":"875 Don Mills Road","Score":100,"Rotation":-17.5,"id":"a64b0g4sf648","ARC_Street":"875 Don Mills Road"},"type":"Feature","geometry":{"type":"Point","coordinates":[-79.3402166811903,43.7244926543115]}},{"properties":{"NAME":"Woodgreen MOW","Match_addr":"1080 QUEEN ST E","Status":"M","Side":"L","PHONE":"416 - 469 - 5211","STREET":"1080 Queen Street East","Score":100,"Rotation":-17.5,"id":"a64b0ghmbvhd","ARC_Street":"1080 Queen Street East"},"type":"Feature","geometry":{"type":"Point","coordinates":[-79.3365581594119,43.6618462603676]}},{"properties":{"NAME":"East York MOW","Match_addr":"2 THORNCLIFFE PARK DR","Status":"M","Side":"L","PHONE":"416 - 424 - 3322","STREET":"2 Thorncliffe Park Drive","Score":100,"Rotation":-17.5,"id":"a64b0g4rjwjg","ARC_Street":"2 Thorncliffe Park Drive"},"type":"Feature","geometry":{"type":"Point","coordinates":[-79.3516440134944,43.7058343959338]}},{"properties":{"NAME":"Mid Toronto MOW","Match_addr":"192 CARLTON ST","Status":"M","Side":"L","PHONE":"416 - 962 - 9449","STREET":"192 Carlton Street","Score":100,"Rotation":-17.5,"id":"a64b0gbmblvu","ARC_Street":"192 Carlton Street"},"type":"Feature","geometry":{"type":"Point","coordinates":[-79.3716875356652,43.6634637390495]}},{"properties":{"NAME":"Sprint MOW","Match_addr":"140 MERTON ST","Status":"M","Side":"L","PHONE":"416 - 481 - 0669","STREET":"140 Mreton Street","Score":89,"Rotation":-17.5,"id":"a64b0g3b04x5","ARC_Street":"140 Mreton Street"},"type":"Feature","geometry":{"type":"Point","coordinates":[-79.3919821051711,43.697004799066]}},{"properties":{"NAME":"St. Chistopher House MOW","Match_addr":"248 OSSINGTON AVE","Status":"M","Side":"L","PHONE":"416 - 532 - 4828","STREET":"248 Ossington Avenue","Score":100,"Rotation":-17.5,"id":"a64b0g5swolr","ARC_Street":"248 Ossington Avenue"},"type":"Feature","geometry":{"type":"Point","coordinates":[-79.4210525302957,43.6494784658848]}},{"properties":{"NAME":"Scott Mission MOW","Match_addr":"502 SPADINA AVE","Status":"M","Side":"L","PHONE":"416 - 923 - 8872","STREET":"502 Spadina Avenue","Score":100,"Rotation":-17.5,"id":"a64b0gcz3ew6","ARC_Street":"502 Spadina Avenue"},"type":"Feature","geometry":{"type":"Point","coordinates":[-79.4005880913811,43.6587210000994]}},{"properties":{"NAME":"Yorkminister MOW","Match_addr":"1580 YONGE ST","Status":"M","Side":"L","PHONE":"416 - 482 - 0549","STREET":"1582 Yonge Street","Score":53,"Rotation":-17.5,"id":"a64b0gchcvak","ARC_Street":"1582 YONGE STREET"},"type":"Feature","geometry":{"type":"Point","coordinates":[-79.3952572559813,43.6907115451443]}},{"properties":{"NAME":"St. Clair West MOW","Match_addr":"1669 EGLINTON AVE W","Status":"M","Side":"L","PHONE":"416 - 787 - 2114","STREET":"1669 Eglinton Avenue West","Score":100,"Rotation":-17.5,"id":"a64b0gg8dvo8","ARC_Street":"1669 Eglinton Avenue West"},"type":"Feature","geometry":{"type":"Point","coordinates":[-79.4457176107889,43.6966685676787]}},{"properties":{"NAME":"West Toronto Mow","Match_addr":"80 WARD ST","Status":"M","Side":"L","PHONE":"416 - 653 - 3535","STREET":"80 Ward Street","Score":100,"Rotation":-17.5,"id":"a64b0g9czgnq","ARC_Street":"80 Ward Street"},"type":"Feature","geometry":{"type":"Point","coordinates":[-79.4469085552042,43.6641464929991]}},{"properties":{"NAME":"Humber Community Services","Match_addr":"1167 WESTON RD","Status":"M","Side":"R","PHONE":"416 - 249 - 7946","STREET":"1167 Weston Road","Score":100,"Rotation":-17.5,"id":"a64b0g3ue31m","ARC_Street":"1167 Weston Road"},"type":"Feature","geometry":{"type":"Point","coordinates":[-79.4904191530991,43.6872294675233]}},{"properties":{"NAME":"Downsview Services to Sen","Match_addr":"497 WILSON AVE","Status":"M","Side":"L","PHONE":"416 - 398 - 5510","STREET":"497 Wilson Avenue","Score":100,"Rotation":-17.5,"id":"a64b0g7emxds","ARC_Street":"497 Wilson Avenue"},"type":"Feature","geometry":{"type":"Point","coordinates":[-79.445082162158,43.7350341851846]}},{"properties":{"NAME":"Etobicoke Red Cross MOW","Match_addr":"4210 DUNDAS ST W","Status":"M","Side":"R","PHONE":"416 - 236 - 3180","STREET":"4210 Dundas Street West","Score":100,"Rotation":-17.5,"id":"a64b0g53ig9j","ARC_Street":"4210 Dundas Street West"},"type":"Feature","geometry":{"type":"Point","coordinates":[-79.5118205686105,43.6601367512964]}},{"properties":{"NAME":"Loyola Arrupe Centre For","Match_addr":"1709 BLOOR ST W","Status":"M","Side":"L","PHONE":"416 - 766 - 7977","STREET":"1709 Bloor Street West","Score":100,"Rotation":-17.5,"id":"a64b0g45fzb7","ARC_Street":"1709 Bloor Street West"},"type":"Feature","geometry":{"type":"Point","coordinates":[-79.4592140544163,43.6548896457333]}},{"properties":{"NAME":"Momiji Seniors Centre","Match_addr":"351 CHRISTIE ST","Status":"M","Side":"R","PHONE":"416 - 531 - 7574","STREET":"351 Christie Street","Score":100,"Rotation":-17.5,"id":"a64b0g8saqk1","ARC_Street":"351 Christie Street"},"type":"Feature","geometry":{"type":"Point","coordinates":[-79.4223390489846,43.6731196417839]}},{"properties":{"NAME":"Sunshine Centres for Seni","Match_addr":"117 BLOOR ST E","Status":"M","Side":"R","PHONE":"416 - 924 - 3979","STREET":"117 Bloor Street East","Score":100,"Rotation":-17.5,"id":"a64b0gc8swh8","ARC_Street":"117 Bloor Street East"},"type":"Feature","geometry":{"type":"Point","coordinates":[-79.383734039642,43.6709046189457]}},{"properties":{"NAME":"SYME Senior Centre","Match_addr":"33 PRITCHARD AVE","Status":"M","Side":"L","PHONE":"416 - 766 - 0388","STREET":"33 Pritchard Avenue","Score":100,"Rotation":-17.5,"id":"a64b0g5pyhw1","ARC_Street":"33 Pritchard Avenue"},"type":"Feature","geometry":{"type":"Point","coordinates":[-79.4892632635873,43.6703217646579]}},{"properties":{"NAME":"York-West Senior Citizen","Match_addr":"1901 WESTON RD","Status":"M","Side":"R","PHONE":"416 - 245 - 4395","STREET":"1901 Weston Road","Score":100,"Rotation":-17.5,"id":"a64b0gf25fu1","ARC_Street":"1901 Weston Road"},"type":"Feature","geometry":{"type":"Point","coordinates":[-79.5164449043487,43.700118046853]}}],"is_temporal":false,"author":{"url":"http://www.toronto.ca/open/datasets/foodbanks/","metadata":"http://www.toronto.ca/open/datasets/foodbanks/","contact_name":"","contact_address":"","source":"Toronto.ca/open","contact_phone":""},"source":"http://www.toronto.ca/open/datasets/foodbanks/","pagination":{"sort":null,"start":0,"total":25,"limit":1000000},"state":"complete","tags":"canada,foodbanks,homeless,toronto","published":"2009-10-16T12:00:00Z","id":17655}