{"type":"FeatureCollection","data_type":"Dataset","url_type":null,"permissions":[{"permissions":{"download":true,"view":true},"group_id":"everyone"}],"classification":null,"title":"City Couple Data","count":641,"stream_id":17684,"contributor":{"url":"http://geocommons.com/users/4048","name":"cskelton"},"data_attributes":null,"calculation_params":null,"icon_link":null,"link":"http://geocommons.com/overlays/17684.json","extent":[-135.053,40.2592,-60.253,63.7515],"geometry_types":["point"],"unique_name":null,"name":"City Couple Data","feature_count":641,"description":"","next_feature":null,"is_raster":false,"short_classification":"Y","stats":{"percent in couples":{"max":73.5,"mean":62.4839313572543,"variance":28.1517570202808,"stdev":5.30582293525527,"min":42.1,"median":63.1},"lat":{"max":63.751469,"mean":47.2870281203124,"variance":11.5007474216099,"stdev":3.39127519107635,"min":40.259209,"median":46.30663},"long":{"max":-60.252956,"mean":-89.4585897828125,"variance":340.724483179962,"stdev":18.4587237689923,"min":-135.053177,"median":-80.450696}},"features":[{"properties":{"city":"Abbotsford","percent in couples":61.3,"prov":"B.C.","id":"a64ial5q2vfy","lat":49.051575,"long":-122.328849},"type":"Feature","geometry":{"type":"Point","coordinates":[-122.328849,49.051575]}},{"properties":{"city":"Acton Vale","percent in couples":58.7,"prov":"Que.","id":"a64ial2clkhs","lat":45.646992,"long":-72.565849},"type":"Feature","geometry":{"type":"Point","coordinates":[-72.565849,45.646992]}},{"properties":{"city":"Adjala-Tosorontio","percent in couples":67.9,"prov":"Ont.","id":"a64ial7gzxv0","lat":44.132907,"long":-79.903567},"type":"Feature","geometry":{"type":"Point","coordinates":[-79.903567,44.132907]}},{"properties":{"city":"Airdrie","percent in couples":66.1,"prov":"Alta.","id":"a64ialabjopc","lat":51.918775,"long":-110.162504},"type":"Feature","geometry":{"type":"Point","coordinates":[-110.162504,51.918775]}},{"properties":{"city":"Ajax","percent in couples":61.4,"prov":"Ont.","id":"a64ial2l3pe4","lat":43.85075,"long":-79.021088},"type":"Feature","geometry":{"type":"Point","coordinates":[-79.021088,43.85075]}},{"properties":{"city":"Alfred and Plantagenet","percent in couples":63.7,"prov":"Ont.","id":"a64ial1ppdy6","lat":45.540365,"long":-74.989839},"type":"Feature","geometry":{"type":"Point","coordinates":[-74.989839,45.540365]}},{"properties":{"city":"Algoma Unorganized North Part","percent in couples":68.1,"prov":"Ont.","id":"a64iakx8mkci","lat":47.853512,"long":-84.63208},"type":"Feature","geometry":{"type":"Point","coordinates":[-84.63208,47.853512]}},{"properties":{"city":"Alma","percent in couples":60.7,"prov":"Que.","id":"a64ialae67xl","lat":48.549721,"long":-71.652618},"type":"Feature","geometry":{"type":"Point","coordinates":[-71.652618,48.549721]}},{"properties":{"city":"Alnwick","percent in couples":57.2,"prov":"N.B.","id":"a64ial45ey3k","lat":46.30663,"long":-79.459929},"type":"Feature","geometry":{"type":"Point","coordinates":[-79.459929,46.30663]}},{"properties":{"city":"Alnwick/Haldimand","percent in couples":68.6,"prov":"Ont.","id":"a64ial71jz9v","lat":43.99211,"long":-78.025679},"type":"Feature","geometry":{"type":"Point","coordinates":[-78.025679,43.99211]}},{"properties":{"city":"Amherst","percent in couples":54.0,"prov":"N.S.","id":"a64ial5u3vi4","lat":50.94041,"long":-104.496044},"type":"Feature","geometry":{"type":"Point","coordinates":[-104.496044,50.94041]}},{"properties":{"city":"Amherstburg","percent in couples":64.5,"prov":"Ont.","id":"a64ial5pjczz","lat":42.101871,"long":-83.108917},"type":"Feature","geometry":{"type":"Point","coordinates":[-83.108917,42.101871]}},{"properties":{"city":"Amos","percent in couples":56.6,"prov":"Que.","id":"a64iakxx32eb","lat":46.438256,"long":-63.277205},"type":"Feature","geometry":{"type":"Point","coordinates":[-63.277205,46.438256]}},{"properties":{"city":"Amqui","percent in couples":60.0,"prov":"Que.","id":"a64ial8swr6h","lat":48.46468,"long":-67.425873},"type":"Feature","geometry":{"type":"Point","coordinates":[-67.425873,48.46468]}},{"properties":{"city":"Annapolis Subd. A","percent in couples":65.8,"prov":"N.S.","id":"a64ial669wrc","lat":43.06478,"long":-82.527599},"type":"Feature","geometry":{"type":"Point","coordinates":[-82.527599,43.06478]}},{"properties":{"city":"Annapolis Subd. C","percent in couples":66.2,"prov":"N.S.","id":"a64ialb7ed4a","lat":43.06478,"long":-82.527599},"type":"Feature","geometry":{"type":"Point","coordinates":[-82.527599,43.06478]}},{"properties":{"city":"Antigonish Subd. A","percent in couples":60.0,"prov":"N.S.","id":"a64ialconlwr","lat":50.94041,"long":-104.496044},"type":"Feature","geometry":{"type":"Point","coordinates":[-104.496044,50.94041]}},{"properties":{"city":"Antigonish Subd. B","percent in couples":62.0,"prov":"N.S.","id":"a64iakyf9p2a","lat":50.94041,"long":-104.496044},"type":"Feature","geometry":{"type":"Point","coordinates":[-104.496044,50.94041]}},{"properties":{"city":"Argyle","percent in couples":66.1,"prov":"N.S.","id":"a64ial0qdmkh","lat":42.71538,"long":-81.309658},"type":"Feature","geometry":{"type":"Point","coordinates":[-81.309658,42.71538]}},{"properties":{"city":"Arnprior","percent in couples":56.5,"prov":"Ont.","id":"a64iala15gdv","lat":45.435631,"long":-76.358368},"type":"Feature","geometry":{"type":"Point","coordinates":[-76.358368,45.435631]}},{"properties":{"city":"Arran-Elderslie","percent in couples":64.6,"prov":"Ont.","id":"a64ial4mj4mg","lat":44.401136,"long":-81.124806},"type":"Feature","geometry":{"type":"Point","coordinates":[-81.124806,44.401136]}},{"properties":{"city":"Asbestos","percent in couples":58.0,"prov":"Que.","id":"a64ialar0h9k","lat":45.743729,"long":-71.784721},"type":"Feature","geometry":{"type":"Point","coordinates":[-71.784721,45.743729]}},{"properties":{"city":"Ashfield-Colborne-Wawanosh","percent in couples":69.3,"prov":"Ont.","id":"a64ial6z72ko","lat":43.723561,"long":-81.627541},"type":"Feature","geometry":{"type":"Point","coordinates":[-81.627541,43.723561]}},{"properties":{"city":"Athabasca County No. 12","percent in couples":68.8,"prov":"Alta.","id":"a64ial8tli5n","lat":51.918775,"long":-110.162504},"type":"Feature","geometry":{"type":"Point","coordinates":[-110.162504,51.918775]}},{"properties":{"city":"Augusta","percent in couples":70.9,"prov":"Ont.","id":"a64iakyhnz8c","lat":44.722801,"long":-75.577667},"type":"Feature","geometry":{"type":"Point","coordinates":[-75.577667,44.722801]}},{"properties":{"city":"Aurora","percent in couples":62.6,"prov":"Ont.","id":"a64ial1o6bu0","lat":44.007038,"long":-79.451202},"type":"Feature","geometry":{"type":"Point","coordinates":[-79.451202,44.007038]}},{"properties":{"city":"Aylmer","percent in couples":61.9,"prov":"Ont.","id":"a64ial4laxck","lat":42.772999,"long":-80.98362},"type":"Feature","geometry":{"type":"Point","coordinates":[-80.98362,42.772999]}},{"properties":{"city":"Baie-Comeau","percent in couples":60.1,"prov":"Que.","id":"a64iakyxbfh0","lat":49.221039,"long":-68.152473},"type":"Feature","geometry":{"type":"Point","coordinates":[-68.152473,49.221039]}},{"properties":{"city":"Baie-Saint-Paul","percent in couples":54.6,"prov":"Que.","id":"a64iakzelefr","lat":47.447529,"long":-70.517502},"type":"Feature","geometry":{"type":"Point","coordinates":[-70.517502,47.447529]}},{"properties":{"city":"Banff","percent in couples":45.5,"prov":"Alta.","id":"a64ial0t946p","lat":51.918775,"long":-110.162504},"type":"Feature","geometry":{"type":"Point","coordinates":[-110.162504,51.918775]}},{"properties":{"city":"Barrhead County No. 11","percent in couples":70.2,"prov":"Alta.","id":"a64ial0b8cz2","lat":51.918775,"long":-110.162504},"type":"Feature","geometry":{"type":"Point","coordinates":[-110.162504,51.918775]}},{"properties":{"city":"Barrie","percent in couples":59.2,"prov":"Ont.","id":"a64iakxltzyr","lat":44.389301,"long":-79.686317},"type":"Feature","geometry":{"type":"Point","coordinates":[-79.686317,44.389301]}},{"properties":{"city":"Barrington","percent in couples":63.8,"prov":"N.S.","id":"a64ial3lykrc","lat":50.94041,"long":-104.496044},"type":"Feature","geometry":{"type":"Point","coordinates":[-104.496044,50.94041]}},{"properties":{"city":"Bathurst","percent in couples":57.5,"prov":"N.B.","id":"a64ial62e5iw","lat":46.30663,"long":-79.459929},"type":"Feature","geometry":{"type":"Point","coordinates":[-79.459929,46.30663]}},{"properties":{"city":"Bathurst","percent in couples":70.5,"prov":"N.B.","id":"a64ial7ks1tg","lat":46.30663,"long":-79.459929},"type":"Feature","geometry":{"type":"Point","coordinates":[-79.459929,46.30663]}},{"properties":{"city":"Bay Roberts","percent in couples":65.0,"prov":"N.L.","id":"a64iakxrgdru","lat":45.847815,"long":-67.689213},"type":"Feature","geometry":{"type":"Point","coordinates":[-67.689213,45.847815]}},{"properties":{"city":"Bayham","percent in couples":66.2,"prov":"Ont.","id":"a64ial63d80o","lat":42.750561,"long":-80.776314},"type":"Feature","geometry":{"type":"Point","coordinates":[-80.776314,42.750561]}},{"properties":{"city":"Beaconsfield","percent in couples":66.1,"prov":"Que.","id":"a64ialaikcjz","lat":45.424759,"long":-73.864616},"type":"Feature","geometry":{"type":"Point","coordinates":[-73.864616,45.424759]}},{"properties":{"city":"Beaubassin East / Beaubassin-est","percent in couples":66.9,"prov":"N.B.","id":"a64iakwvclpf","lat":46.30663,"long":-79.459929},"type":"Feature","geometry":{"type":"Point","coordinates":[-79.459929,46.30663]}},{"properties":{"city":"Beauceville","percent in couples":57.7,"prov":"Que.","id":"a64ial9gus2z","lat":46.211102,"long":-70.77459},"type":"Feature","geometry":{"type":"Point","coordinates":[-70.77459,46.211102]}},{"properties":{"city":"Beauharnois","percent in couples":59.0,"prov":"Que.","id":"a64ial79uzyp","lat":46.806942,"long":-71.25441},"type":"Feature","geometry":{"type":"Point","coordinates":[-71.25441,46.806942]}},{"properties":{"city":"Beaumont","percent in couples":69.7,"prov":"Alta.","id":"a64ial5irl5e","lat":51.918775,"long":-110.162504},"type":"Feature","geometry":{"type":"Point","coordinates":[-110.162504,51.918775]}},{"properties":{"city":"Beaver County","percent in couples":70.5,"prov":"Alta.","id":"a64ial6ehf2e","lat":51.918775,"long":-110.162504},"type":"Feature","geometry":{"type":"Point","coordinates":[-110.162504,51.918775]}},{"properties":{"city":"Beckwith","percent in couples":70.9,"prov":"Ont.","id":"a64iakwz3m96","lat":45.107208,"long":-76.105247},"type":"Feature","geometry":{"type":"Point","coordinates":[-76.105247,45.107208]}},{"properties":{"city":"Belleville","percent in couples":57.2,"prov":"Ont.","id":"a64iala6p6k8","lat":44.161041,"long":-77.381897},"type":"Feature","geometry":{"type":"Point","coordinates":[-77.381897,44.161041]}},{"properties":{"city":"Beloeil","percent in couples":61.3,"prov":"Que.","id":"a64iakwdjvzp","lat":46.913049,"long":-71.37778},"type":"Feature","geometry":{"type":"Point","coordinates":[-71.37778,46.913049]}},{"properties":{"city":"Beresford","percent in couples":67.9,"prov":"N.B.","id":"a64ial5c6cna","lat":46.30663,"long":-79.459929},"type":"Feature","geometry":{"type":"Point","coordinates":[-79.459929,46.30663]}},{"properties":{"city":"Big Lakes","percent in couples":59.7,"prov":"Alta.","id":"a64ial0fguzq","lat":51.918775,"long":-110.162504},"type":"Feature","geometry":{"type":"Point","coordinates":[-110.162504,51.918775]}},{"properties":{"city":"Blainville","percent in couples":68.6,"prov":"Que.","id":"a64ial7qncio","lat":45.681,"long":-73.873009},"type":"Feature","geometry":{"type":"Point","coordinates":[-73.873009,45.681]}},{"properties":{"city":"Blandford-Blenheim","percent in couples":67.5,"prov":"Ont.","id":"a64iakx8ih8w","lat":43.23451,"long":-80.551199},"type":"Feature","geometry":{"type":"Point","coordinates":[-80.551199,43.23451]}},{"properties":{"city":"Blue Mountains","percent in couples":64.8,"prov":"Ont.","id":"a64ial2moykl","lat":44.561565,"long":-80.450696},"type":"Feature","geometry":{"type":"Point","coordinates":[-80.450696,44.561565]}},{"properties":{"city":"Bluewater","percent in couples":66.6,"prov":"Ont.","id":"a64ial58ru5k","lat":43.415211,"long":-81.681107},"type":"Feature","geometry":{"type":"Point","coordinates":[-81.681107,43.415211]}},{"properties":{"city":"Bois-des-Filion","percent in couples":60.0,"prov":"Que.","id":"a64ial08cdj4","lat":45.666755,"long":-73.756234},"type":"Feature","geometry":{"type":"Point","coordinates":[-73.756234,45.666755]}},{"properties":{"city":"Boisbriand","percent in couples":61.7,"prov":"Que.","id":"a64ial4jlmf4","lat":45.612041,"long":-73.838882},"type":"Feature","geometry":{"type":"Point","coordinates":[-73.838882,45.612041]}},{"properties":{"city":"Boischatel","percent in couples":69.7,"prov":"Que.","id":"a64ial1eu0n8","lat":46.896858,"long":-71.136009},"type":"Feature","geometry":{"type":"Point","coordinates":[-71.136009,46.896858]}},{"properties":{"city":"Bonnyville","percent in couples":58.3,"prov":"Alta.","id":"a64ial2uaz8c","lat":51.918775,"long":-110.162504},"type":"Feature","geometry":{"type":"Point","coordinates":[-110.162504,51.918775]}},{"properties":{"city":"Bonnyville No. 87","percent in couples":69.6,"prov":"Alta.","id":"a64iakxh7j6y","lat":51.918775,"long":-110.162504},"type":"Feature","geometry":{"type":"Point","coordinates":[-110.162504,51.918775]}},{"properties":{"city":"Boucherville","percent in couples":65.6,"prov":"Que.","id":"a64ial8zeyco","lat":46.760966,"long":-71.311047},"type":"Feature","geometry":{"type":"Point","coordinates":[-71.311047,46.760966]}},{"properties":{"city":"Bracebridge","percent in couples":62.4,"prov":"Ont.","id":"a64ialbocau4","lat":45.05558,"long":-79.288628},"type":"Feature","geometry":{"type":"Point","coordinates":[-79.288628,45.05558]}},{"properties":{"city":"Bradford West Gwillimbury","percent in couples":64.3,"prov":"Ont.","id":"a64iakwqd2sb","lat":44.14791,"long":-79.645717},"type":"Feature","geometry":{"type":"Point","coordinates":[-79.645717,44.14791]}},{"properties":{"city":"Brampton","percent in couples":62.1,"prov":"Ont.","id":"a64ial2e6q4h","lat":43.684299,"long":-79.758728},"type":"Feature","geometry":{"type":"Point","coordinates":[-79.758728,43.684299]}},{"properties":{"city":"Brandon","percent in couples":55.2,"prov":"Man.","id":"a64ial85cu1u","lat":49.610045,"long":-102.084689},"type":"Feature","geometry":{"type":"Point","coordinates":[-102.084689,49.610045]}},{"properties":{"city":"Brant","percent in couples":65.8,"prov":"Ont.","id":"a64ial6zz7s4","lat":43.13961,"long":-80.296532},"type":"Feature","geometry":{"type":"Point","coordinates":[-80.296532,43.13961]}},{"properties":{"city":"Brantford","percent in couples":57.2,"prov":"Ont.","id":"a64ial2k00vg","lat":43.141361,"long":-80.261742},"type":"Feature","geometry":{"type":"Point","coordinates":[-80.261742,43.141361]}},{"properties":{"city":"Brazeau County","percent in couples":70.8,"prov":"Alta.","id":"a64ial8hwjgk","lat":51.918775,"long":-110.162504},"type":"Feature","geometry":{"type":"Point","coordinates":[-110.162504,51.918775]}},{"properties":{"city":"Bridgewater","percent in couples":58.1,"prov":"N.S.","id":"a64ialcpl12h","lat":50.94041,"long":-104.496044},"type":"Feature","geometry":{"type":"Point","coordinates":[-104.496044,50.94041]}},{"properties":{"city":"Brighton","percent in couples":64.4,"prov":"Ont.","id":"a64iakyuf5iy","lat":44.042469,"long":-77.735619},"type":"Feature","geometry":{"type":"Point","coordinates":[-77.735619,44.042469]}},{"properties":{"city":"Brock","percent in couples":63.2,"prov":"Ont.","id":"a64iala1w04d","lat":44.350368,"long":-79.037903},"type":"Feature","geometry":{"type":"Point","coordinates":[-79.037903,44.350368]}},{"properties":{"city":"Brockton","percent in couples":62.4,"prov":"Ont.","id":"a64iakyliv3z","lat":44.19025,"long":-81.220947},"type":"Feature","geometry":{"type":"Point","coordinates":[-81.220947,44.19025]}},{"properties":{"city":"Brockville","percent in couples":55.4,"prov":"Ont.","id":"a64ialbf1byy","lat":44.590389,"long":-75.683006},"type":"Feature","geometry":{"type":"Point","coordinates":[-75.683006,44.590389]}},{"properties":{"city":"Bromont","percent in couples":65.4,"prov":"Que.","id":"a64ialba725c","lat":46.87747,"long":-71.216909},"type":"Feature","geometry":{"type":"Point","coordinates":[-71.216909,46.87747]}},{"properties":{"city":"Brooks","percent in couples":59.6,"prov":"Alta.","id":"a64ial8j416y","lat":51.918775,"long":-110.162504},"type":"Feature","geometry":{"type":"Point","coordinates":[-110.162504,51.918775]}},{"properties":{"city":"Brossard","percent in couples":60.0,"prov":"Que.","id":"a64ial8i14mp","lat":45.45573,"long":-73.466911},"type":"Feature","geometry":{"type":"Point","coordinates":[-73.466911,45.45573]}},{"properties":{"city":"Brownsburg-Chatham","percent in couples":63.0,"prov":"Que.","id":"a64iakybj1v7","lat":45.676335,"long":-74.403789},"type":"Feature","geometry":{"type":"Point","coordinates":[-74.403789,45.676335]}},{"properties":{"city":"Bulkley-Nechako A","percent in couples":66.3,"prov":"B.C.","id":"a64iakxqhmzt","lat":54.496201,"long":-125.882248},"type":"Feature","geometry":{"type":"Point","coordinates":[-125.882248,54.496201]}},{"properties":{"city":"Burlington","percent in couples":62.4,"prov":"Ont.","id":"a64ial23lq8p","lat":43.32618,"long":-79.798538},"type":"Feature","geometry":{"type":"Point","coordinates":[-79.798538,43.32618]}},{"properties":{"city":"Burnaby","percent in couples":55.7,"prov":"B.C.","id":"a64ial9owcvv","lat":49.244535,"long":-122.972989},"type":"Feature","geometry":{"type":"Point","coordinates":[-122.972989,49.244535]}},{"properties":{"city":"Burton","percent in couples":65.4,"prov":"N.B.","id":"a64ial09womy","lat":46.30663,"long":-79.459929},"type":"Feature","geometry":{"type":"Point","coordinates":[-79.459929,46.30663]}},{"properties":{"city":"Caledon","percent in couples":67.1,"prov":"Ont.","id":"a64ial4aq9in","lat":43.875259,"long":-79.85994},"type":"Feature","geometry":{"type":"Point","coordinates":[-79.85994,43.875259]}},{"properties":{"city":"Calgary","percent in couples":57.4,"prov":"Alta.","id":"a64ial92fbkb","lat":51.918775,"long":-110.162504},"type":"Feature","geometry":{"type":"Point","coordinates":[-110.162504,51.918775]}},{"properties":{"city":"Cambridge","percent in couples":61.3,"prov":"Ont.","id":"a64ial4b6k3w","lat":45.065802,"long":-64.641288},"type":"Feature","geometry":{"type":"Point","coordinates":[-64.641288,45.065802]}},{"properties":{"city":"Campbell River","percent in couples":60.3,"prov":"B.C.","id":"a64ial089m0p","lat":50.02461,"long":-125.24817},"type":"Feature","geometry":{"type":"Point","coordinates":[-125.24817,50.02461]}},{"properties":{"city":"Campbellton","percent in couples":49.4,"prov":"N.B.","id":"a64ial9ic96o","lat":46.30663,"long":-79.459929},"type":"Feature","geometry":{"type":"Point","coordinates":[-79.459929,46.30663]}},{"properties":{"city":"Camrose","percent in couples":56.8,"prov":"Alta.","id":"a64ial0mg5gn","lat":51.918775,"long":-110.162504},"type":"Feature","geometry":{"type":"Point","coordinates":[-110.162504,51.918775]}},{"properties":{"city":"Camrose County No. 22","percent in couples":69.7,"prov":"Alta.","id":"a64ial4elv7e","lat":51.918775,"long":-110.162504},"type":"Feature","geometry":{"type":"Point","coordinates":[-110.162504,51.918775]}},{"properties":{"city":"Candiac","percent in couples":66.8,"prov":"Que.","id":"a64ial3ctp2o","lat":46.805095,"long":-71.229494},"type":"Feature","geometry":{"type":"Point","coordinates":[-71.229494,46.805095]}},{"properties":{"city":"Canmore","percent in couples":61.1,"prov":"Alta.","id":"a64ial12cqi4","lat":51.918775,"long":-110.162504},"type":"Feature","geometry":{"type":"Point","coordinates":[-110.162504,51.918775]}},{"properties":{"city":"Cantley","percent in couples":70.9,"prov":"Que.","id":"a64ialcr02ad","lat":45.549839,"long":-75.783478},"type":"Feature","geometry":{"type":"Point","coordinates":[-75.783478,45.549839]}},{"properties":{"city":"Cape Breton","percent in couples":53.0,"prov":"N.S.","id":"a64ial71vr1y","lat":50.94041,"long":-104.496044},"type":"Feature","geometry":{"type":"Point","coordinates":[-104.496044,50.94041]}},{"properties":{"city":"Capital F","percent in couples":60.1,"prov":"B.C.","id":"a64ial1a8x25","lat":54.485668,"long":-126.555511},"type":"Feature","geometry":{"type":"Point","coordinates":[-126.555511,54.485668]}},{"properties":{"city":"Capital G","percent in couples":65.1,"prov":"B.C.","id":"a64iakzrl9yy","lat":54.485668,"long":-126.555511},"type":"Feature","geometry":{"type":"Point","coordinates":[-126.555511,54.485668]}},{"properties":{"city":"Cariboo A","percent in couples":66.7,"prov":"B.C.","id":"a64ialayxyzs","lat":52.20409,"long":-123.394112},"type":"Feature","geometry":{"type":"Point","coordinates":[-123.394112,52.20409]}},{"properties":{"city":"Carignan","percent in couples":69.5,"prov":"Que.","id":"a64iala4hhsc","lat":46.763479,"long":-71.365992},"type":"Feature","geometry":{"type":"Point","coordinates":[-71.365992,46.763479]}},{"properties":{"city":"Carleton Place","percent in couples":59.8,"prov":"Ont.","id":"a64ialbtdlpm","lat":45.14045,"long":-76.146809},"type":"Feature","geometry":{"type":"Point","coordinates":[-76.146809,45.14045]}},{"properties":{"city":"Castlegar","percent in couples":59.7,"prov":"B.C.","id":"a64ialcjk6dr","lat":49.296255,"long":-117.654184},"type":"Feature","geometry":{"type":"Point","coordinates":[-117.654184,49.296255]}},{"properties":{"city":"Cavan-Millbrook-North Monaghan","percent in couples":66.2,"prov":"Ont.","id":"a64iakz2399s","lat":44.196898,"long":-78.467678},"type":"Feature","geometry":{"type":"Point","coordinates":[-78.467678,44.196898]}},{"properties":{"city":"Central Elgin","percent in couples":68.3,"prov":"Ont.","id":"a64iakz2d14w","lat":42.736559,"long":-81.192318},"type":"Feature","geometry":{"type":"Point","coordinates":[-81.192318,42.736559]}},{"properties":{"city":"Central Huron","percent in couples":65.3,"prov":"Ont.","id":"a64iakwz9qxn","lat":43.646207,"long":-81.602119},"type":"Feature","geometry":{"type":"Point","coordinates":[-81.602119,43.646207]}},{"properties":{"city":"Central Okanagan J","percent in couples":68.6,"prov":"B.C.","id":"a64ial41douu","lat":49.954971,"long":-119.429031},"type":"Feature","geometry":{"type":"Point","coordinates":[-119.429031,49.954971]}},{"properties":{"city":"Central Saanich","percent in couples":64.8,"prov":"B.C.","id":"a64iakwxp0dg","lat":48.594149,"long":-123.414219},"type":"Feature","geometry":{"type":"Point","coordinates":[-123.414219,48.594149]}},{"properties":{"city":"Centre Wellington","percent in couples":65.8,"prov":"Ont.","id":"a64ial6yusxt","lat":43.68314,"long":-80.430679},"type":"Feature","geometry":{"type":"Point","coordinates":[-80.430679,43.68314]}},{"properties":{"city":"Chambly","percent in couples":63.1,"prov":"Que.","id":"a64ial9zl0hz","lat":46.762212,"long":-71.288264},"type":"Feature","geometry":{"type":"Point","coordinates":[-71.288264,46.762212]}},{"properties":{"city":"Champlain","percent in couples":65.3,"prov":"Ont.","id":"a64ialaa420l","lat":45.545292,"long":-74.612541},"type":"Feature","geometry":{"type":"Point","coordinates":[-74.612541,45.545292]}},{"properties":{"city":"Chandler","percent in couples":55.5,"prov":"Que.","id":"a64ial7i8zvx","lat":44.016908,"long":-64.664623},"type":"Feature","geometry":{"type":"Point","coordinates":[-64.664623,44.016908]}},{"properties":{"city":"Charlemagne","percent in couples":56.7,"prov":"Que.","id":"a64ialckzogo","lat":46.84017,"long":-71.425565},"type":"Feature","geometry":{"type":"Point","coordinates":[-71.425565,46.84017]}},{"properties":{"city":"Charlottetown","percent in couples":49.3,"prov":"P.E.I.","id":"a64ial3gxhki","lat":46.236591,"long":-63.12817},"type":"Feature","geometry":{"type":"Point","coordinates":[-63.12817,46.236591]}},{"properties":{"city":"Chatham-Kent","percent in couples":60.4,"prov":"Ont.","id":"a64ial3qw16e","lat":42.351231,"long":-82.071503},"type":"Feature","geometry":{"type":"Point","coordinates":[-82.071503,42.351231]}},{"properties":{"city":"Chatsworth","percent in couples":66.9,"prov":"Ont.","id":"a64ial758rr6","lat":44.453651,"long":-80.897408},"type":"Feature","geometry":{"type":"Point","coordinates":[-80.897408,44.453651]}},{"properties":{"city":"Chelsea","percent in couples":68.6,"prov":"Que.","id":"a64ial0l4h4z","lat":45.52697,"long":-75.804382},"type":"Feature","geometry":{"type":"Point","coordinates":[-75.804382,45.52697]}},{"properties":{"city":"Chertsey","percent in couples":62.5,"prov":"Que.","id":"a64iakyq6jtn","lat":46.073071,"long":-73.892227},"type":"Feature","geometry":{"type":"Point","coordinates":[-73.892227,46.073071]}},{"properties":{"city":"Chester","percent in couples":64.2,"prov":"N.S.","id":"a64ial5qhkc2","lat":50.94041,"long":-104.496044},"type":"Feature","geometry":{"type":"Point","coordinates":[-104.496044,50.94041]}},{"properties":{"city":"Chestermere","percent in couples":71.3,"prov":"Alta.","id":"a64ialcl6vcw","lat":51.918775,"long":-110.162504},"type":"Feature","geometry":{"type":"Point","coordinates":[-110.162504,51.918775]}},{"properties":{"city":"Chibougamau","percent in couples":64.2,"prov":"Que.","id":"a64iakx5ndbd","lat":49.913639,"long":-74.368782},"type":"Feature","geometry":{"type":"Point","coordinates":[-74.368782,49.913639]}},{"properties":{"city":"Chilliwack","percent in couples":61.2,"prov":"B.C.","id":"a64ial0krxnl","lat":49.156318,"long":-121.951498},"type":"Feature","geometry":{"type":"Point","coordinates":[-121.951498,49.156318]}},{"properties":{"city":"Clare","percent in couples":61.6,"prov":"N.S.","id":"a64ialbx7k5y","lat":50.94041,"long":-104.496044},"type":"Feature","geometry":{"type":"Point","coordinates":[-104.496044,50.94041]}},{"properties":{"city":"Clarence-Rockland","percent in couples":66.3,"prov":"Ont.","id":"a64ialbbt683","lat":45.551689,"long":-75.28779},"type":"Feature","geometry":{"type":"Point","coordinates":[-75.28779,45.551689]}},{"properties":{"city":"Clarenville","percent in couples":66.4,"prov":"N.L.","id":"a64ial3qw9xy","lat":45.847815,"long":-67.689213},"type":"Feature","geometry":{"type":"Point","coordinates":[-67.689213,45.847815]}},{"properties":{"city":"Clarington","percent in couples":65.2,"prov":"Ont.","id":"a64ial8ajije","lat":43.912811,"long":-78.68898},"type":"Feature","geometry":{"type":"Point","coordinates":[-78.68898,43.912811]}},{"properties":{"city":"Clearview","percent in couples":65.7,"prov":"Ont.","id":"a64ial7hytac","lat":44.41906,"long":-80.088341},"type":"Feature","geometry":{"type":"Point","coordinates":[-80.088341,44.41906]}},{"properties":{"city":"Clearwater County","percent in couples":70.3,"prov":"Alta.","id":"a64iakx6g3wi","lat":51.918775,"long":-110.162504},"type":"Feature","geometry":{"type":"Point","coordinates":[-110.162504,51.918775]}},{"properties":{"city":"Coaldale","percent in couples":65.1,"prov":"Alta.","id":"a64ial4k4r0o","lat":51.918775,"long":-110.162504},"type":"Feature","geometry":{"type":"Point","coordinates":[-110.162504,51.918775]}},{"properties":{"city":"Coaticook","percent in couples":59.7,"prov":"Que.","id":"a64ial25ioo5","lat":45.156471,"long":-71.747658},"type":"Feature","geometry":{"type":"Point","coordinates":[-71.747658,45.156471]}},{"properties":{"city":"Cobourg","percent in couples":57.2,"prov":"Ont.","id":"a64ialc3607o","lat":43.959599,"long":-78.167778},"type":"Feature","geometry":{"type":"Point","coordinates":[-78.167778,43.959599]}},{"properties":{"city":"Cochrane","percent in couples":62.8,"prov":"Ont.","id":"a64ial6u0zau","lat":50.280811,"long":-83.026154},"type":"Feature","geometry":{"type":"Point","coordinates":[-83.026154,50.280811]}},{"properties":{"city":"Cochrane","percent in couples":67.4,"prov":"Alta.","id":"a64ial7ne9d1","lat":51.918775,"long":-110.162504},"type":"Feature","geometry":{"type":"Point","coordinates":[-110.162504,51.918775]}},{"properties":{"city":"Colchester Subd. B","percent in couples":63.9,"prov":"N.S.","id":"a64ial45m8pz","lat":43.06478,"long":-82.527599},"type":"Feature","geometry":{"type":"Point","coordinates":[-82.527599,43.06478]}},{"properties":{"city":"Colchester Subd. C","percent in couples":64.7,"prov":"N.S.","id":"a64iakyhzmew","lat":43.06478,"long":-82.527599},"type":"Feature","geometry":{"type":"Point","coordinates":[-82.527599,43.06478]}},{"properties":{"city":"Cold Lake","percent in couples":65.1,"prov":"Alta.","id":"a64ial094xly","lat":51.918775,"long":-110.162504},"type":"Feature","geometry":{"type":"Point","coordinates":[-110.162504,51.918775]}},{"properties":{"city":"Coldstream","percent in couples":68.2,"prov":"B.C.","id":"a64ialccaupm","lat":50.244037,"long":-119.235945},"type":"Feature","geometry":{"type":"Point","coordinates":[-119.235945,50.244037]}},{"properties":{"city":"Collingwood","percent in couples":57.2,"prov":"Ont.","id":"a64ialcj2sof","lat":44.499889,"long":-80.21682},"type":"Feature","geometry":{"type":"Point","coordinates":[-80.21682,44.499889]}},{"properties":{"city":"Columbia-Shuswap C","percent in couples":73.4,"prov":"B.C.","id":"a64iakxrwafo","lat":51.450489,"long":-117.977913},"type":"Feature","geometry":{"type":"Point","coordinates":[-117.977913,51.450489]}},{"properties":{"city":"Colwood","percent in couples":65.7,"prov":"B.C.","id":"a64ialbgyedb","lat":48.42361,"long":-123.492089},"type":"Feature","geometry":{"type":"Point","coordinates":[-123.492089,48.42361]}},{"properties":{"city":"Comox","percent in couples":64.2,"prov":"B.C.","id":"a64ial9v0ve0","lat":49.67354,"long":-124.926819},"type":"Feature","geometry":{"type":"Point","coordinates":[-124.926819,49.67354]}},{"properties":{"city":"Comox-Strathcona B","percent in couples":68.2,"prov":"B.C.","id":"a64ial9250h3","lat":49.67824,"long":-124.959814},"type":"Feature","geometry":{"type":"Point","coordinates":[-124.959814,49.67824]}},{"properties":{"city":"Comox-Strathcona C","percent in couples":66.9,"prov":"B.C.","id":"a64iala6efr4","lat":49.67824,"long":-124.959814},"type":"Feature","geometry":{"type":"Point","coordinates":[-124.959814,49.67824]}},{"properties":{"city":"Conception Bay South","percent in couples":65.2,"prov":"N.L.","id":"a64ial1pgj0q","lat":45.847815,"long":-67.689213},"type":"Feature","geometry":{"type":"Point","coordinates":[-67.689213,45.847815]}},{"properties":{"city":"Contrecoeur","percent in couples":62.8,"prov":"Que.","id":"a64ial30gf1p","lat":46.7722,"long":-71.314959},"type":"Feature","geometry":{"type":"Point","coordinates":[-71.314959,46.7722]}},{"properties":{"city":"Cookshire-Eaton","percent in couples":64.3,"prov":"Que.","id":"a64ialbicx6o","lat":45.425705,"long":-71.659846},"type":"Feature","geometry":{"type":"Point","coordinates":[-71.659846,45.425705]}},{"properties":{"city":"Coquitlam","percent in couples":59.0,"prov":"B.C.","id":"a64ial3gisd2","lat":49.284895,"long":-122.793954},"type":"Feature","geometry":{"type":"Point","coordinates":[-122.793954,49.284895]}},{"properties":{"city":"Corman Park No. 344","percent in couples":70.3,"prov":"Sask.","id":"a64ial2s8hgy","lat":52.01392,"long":-106.670441},"type":"Feature","geometry":{"type":"Point","coordinates":[-106.670441,52.01392]}},{"properties":{"city":"Corner Brook","percent in couples":59.5,"prov":"N.L.","id":"a64ial72u8qd","lat":45.847815,"long":-67.689213},"type":"Feature","geometry":{"type":"Point","coordinates":[-67.689213,45.847815]}},{"properties":{"city":"Cornwall","percent in couples":56.2,"prov":"Ont.","id":"a64ialbn6sud","lat":45.028431,"long":-74.735687},"type":"Feature","geometry":{"type":"Point","coordinates":[-74.735687,45.028431]}},{"properties":{"city":"Coteau-du-Lac","percent in couples":67.5,"prov":"Que.","id":"a64ial9yp97x","lat":45.296982,"long":-74.17701},"type":"Feature","geometry":{"type":"Point","coordinates":[-74.17701,45.296982]}},{"properties":{"city":"Courtenay","percent in couples":57.0,"prov":"B.C.","id":"a64ial18u2ig","lat":49.68672,"long":-124.993141},"type":"Feature","geometry":{"type":"Point","coordinates":[-124.993141,49.68672]}},{"properties":{"city":"Cowansville","percent in couples":54.8,"prov":"Que.","id":"a64ial9a3uf8","lat":45.207802,"long":-72.745972},"type":"Feature","geometry":{"type":"Point","coordinates":[-72.745972,45.207802]}},{"properties":{"city":"Cowichan Valley B","percent in couples":65.3,"prov":"B.C.","id":"a64ial4u3z9f","lat":48.790661,"long":-124.086662},"type":"Feature","geometry":{"type":"Point","coordinates":[-124.086662,48.790661]}},{"properties":{"city":"Cramahe","percent in couples":66.2,"prov":"Ont.","id":"a64ial96q2dq","lat":44.005379,"long":-77.888809},"type":"Feature","geometry":{"type":"Point","coordinates":[-77.888809,44.005379]}},{"properties":{"city":"Cranbrook","percent in couples":60.3,"prov":"B.C.","id":"a64ial6pam2e","lat":49.513502,"long":-115.768701},"type":"Feature","geometry":{"type":"Point","coordinates":[-115.768701,49.513502]}},{"properties":{"city":"Crowsnest Pass","percent in couples":61.2,"prov":"Alta.","id":"a64ialbfpzkf","lat":51.918775,"long":-110.162504},"type":"Feature","geometry":{"type":"Point","coordinates":[-110.162504,51.918775]}},{"properties":{"city":"Cumberland Subd. C","percent in couples":68.3,"prov":"N.S.","id":"a64iala2wuhs","lat":43.06478,"long":-82.527599},"type":"Feature","geometry":{"type":"Point","coordinates":[-82.527599,43.06478]}},{"properties":{"city":"Cypress County","percent in couples":71.8,"prov":"Alta.","id":"a64ial7pqvkr","lat":51.918775,"long":-110.162504},"type":"Feature","geometry":{"type":"Point","coordinates":[-110.162504,51.918775]}},{"properties":{"city":"Dauphin","percent in couples":54.3,"prov":"Man.","id":"a64ial6irncc","lat":49.610045,"long":-102.084689},"type":"Feature","geometry":{"type":"Point","coordinates":[-102.084689,49.610045]}},{"properties":{"city":"Dawson Creek","percent in couples":55.8,"prov":"B.C.","id":"a64ial2mzi0v","lat":55.761725,"long":-120.237059},"type":"Feature","geometry":{"type":"Point","coordinates":[-120.237059,55.761725]}},{"properties":{"city":"Delson","percent in couples":65.3,"prov":"Que.","id":"a64ial28qsmx","lat":45.375439,"long":-73.542236},"type":"Feature","geometry":{"type":"Point","coordinates":[-73.542236,45.375439]}},{"properties":{"city":"Delta","percent in couples":63.3,"prov":"B.C.","id":"a64ial74i6fz","lat":49.0848,"long":-123.059619},"type":"Feature","geometry":{"type":"Point","coordinates":[-123.059619,49.0848]}},{"properties":{"city":"Deux-Montagnes","percent in couples":60.4,"prov":"Que.","id":"a64iakz8rur4","lat":45.541494,"long":-73.892867},"type":"Feature","geometry":{"type":"Point","coordinates":[-73.892867,45.541494]}},{"properties":{"city":"Devon","percent in couples":67.7,"prov":"Alta.","id":"a64ial6ps177","lat":51.918775,"long":-110.162504},"type":"Feature","geometry":{"type":"Point","coordinates":[-110.162504,51.918775]}},{"properties":{"city":"Dieppe","percent in couples":65.0,"prov":"N.B.","id":"a64ial7s3fxz","lat":46.30663,"long":-79.459929},"type":"Feature","geometry":{"type":"Point","coordinates":[-79.459929,46.30663]}},{"properties":{"city":"Digby","percent in couples":63.6,"prov":"N.S.","id":"a64ial7si544","lat":50.94041,"long":-104.496044},"type":"Feature","geometry":{"type":"Point","coordinates":[-104.496044,50.94041]}},{"properties":{"city":"Dolbeau-Mistassini","percent in couples":59.8,"prov":"Que.","id":"a64iakxrattl","lat":48.881957,"long":-72.231567},"type":"Feature","geometry":{"type":"Point","coordinates":[-72.231567,48.881957]}},{"properties":{"city":"Dollard-Des Ormeaux","percent in couples":59.1,"prov":"Que.","id":"a64ial7s4qwu","lat":45.483308,"long":-73.807993},"type":"Feature","geometry":{"type":"Point","coordinates":[-73.807993,45.483308]}},{"properties":{"city":"Donnacona","percent in couples":56.3,"prov":"Que.","id":"a64ial93on4p","lat":46.812042,"long":-71.20783},"type":"Feature","geometry":{"type":"Point","coordinates":[-71.20783,46.812042]}},{"properties":{"city":"Dorval","percent in couples":55.1,"prov":"Que.","id":"a64ial7de9t7","lat":46.900558,"long":-71.32474},"type":"Feature","geometry":{"type":"Point","coordinates":[-71.32474,46.900558]}},{"properties":{"city":"Douglas","percent in couples":69.0,"prov":"N.B.","id":"a64ial142z8u","lat":46.32825,"long":-79.463014},"type":"Feature","geometry":{"type":"Point","coordinates":[-79.463014,46.32825]}},{"properties":{"city":"Douro-Dummer","percent in couples":67.7,"prov":"Ont.","id":"a64iakxcqxui","lat":44.381111,"long":-78.181183},"type":"Feature","geometry":{"type":"Point","coordinates":[-78.181183,44.381111]}},{"properties":{"city":"Drayton Valley","percent in couples":61.5,"prov":"Alta.","id":"a64ial98g00v","lat":51.918775,"long":-110.162504},"type":"Feature","geometry":{"type":"Point","coordinates":[-110.162504,51.918775]}},{"properties":{"city":"Drumheller","percent in couples":54.0,"prov":"Alta.","id":"a64iakx7cuz0","lat":51.918775,"long":-110.162504},"type":"Feature","geometry":{"type":"Point","coordinates":[-110.162504,51.918775]}},{"properties":{"city":"Drummond/North Elmsley","percent in couples":69.9,"prov":"Ont.","id":"a64ial11ryhr","lat":44.885964,"long":-76.135244},"type":"Feature","geometry":{"type":"Point","coordinates":[-76.135244,44.885964]}},{"properties":{"city":"Drummondville","percent in couples":56.1,"prov":"Que.","id":"a64ial00vfsn","lat":45.880821,"long":-72.484108},"type":"Feature","geometry":{"type":"Point","coordinates":[-72.484108,45.880821]}},{"properties":{"city":"Dryden","percent in couples":61.7,"prov":"Ont.","id":"a64ial74sv45","lat":49.782051,"long":-92.837593},"type":"Feature","geometry":{"type":"Point","coordinates":[-92.837593,49.782051]}},{"properties":{"city":"Dundas","percent in couples":67.1,"prov":"N.B.","id":"a64ialap8elh","lat":46.30663,"long":-79.459929},"type":"Feature","geometry":{"type":"Point","coordinates":[-79.459929,46.30663]}},{"properties":{"city":"Dysart and Others","percent in couples":65.1,"prov":"Ont.","id":"a64ial0bp4cg","lat":49.37706,"long":-84.749336},"type":"Feature","geometry":{"type":"Point","coordinates":[-84.749336,49.37706]}},{"properties":{"city":"East Gwillimbury","percent in couples":65.1,"prov":"Ont.","id":"a64ial5wwhf5","lat":44.104183,"long":-79.441688},"type":"Feature","geometry":{"type":"Point","coordinates":[-79.441688,44.104183]}},{"properties":{"city":"East Hants","percent in couples":66.7,"prov":"N.S.","id":"a64ialauei3h","lat":50.94041,"long":-104.496044},"type":"Feature","geometry":{"type":"Point","coordinates":[-104.496044,50.94041]}},{"properties":{"city":"East Kootenay C","percent in couples":70.6,"prov":"B.C.","id":"a64ial3vmgyg","lat":49.678,"long":-116.870939},"type":"Feature","geometry":{"type":"Point","coordinates":[-116.870939,49.678]}},{"properties":{"city":"East St. Paul","percent in couples":70.4,"prov":"Man.","id":"a64iakyusya1","lat":49.610045,"long":-102.084689},"type":"Feature","geometry":{"type":"Point","coordinates":[-102.084689,49.610045]}},{"properties":{"city":"East Zorra-Tavistock","percent in couples":65.2,"prov":"Ont.","id":"a64ial2ak0t7","lat":43.237674,"long":-80.80778},"type":"Feature","geometry":{"type":"Point","coordinates":[-80.80778,43.237674]}},{"properties":{"city":"Edmonton","percent in couples":53.4,"prov":"Alta.","id":"a64iakz79wqn","lat":51.918775,"long":-110.162504},"type":"Feature","geometry":{"type":"Point","coordinates":[-110.162504,51.918775]}},{"properties":{"city":"Edmundston","percent in couples":59.9,"prov":"N.B.","id":"a64ialalq6le","lat":46.30663,"long":-79.459929},"type":"Feature","geometry":{"type":"Point","coordinates":[-79.459929,46.30663]}},{"properties":{"city":"Edson","percent in couples":60.8,"prov":"Alta.","id":"a64ial8lo4pv","lat":51.918775,"long":-110.162504},"type":"Feature","geometry":{"type":"Point","coordinates":[-110.162504,51.918775]}},{"properties":{"city":"Edwardsburgh/Cardinal","percent in couples":68.6,"prov":"Ont.","id":"a64ial0tz20l","lat":44.842515,"long":-75.547494},"type":"Feature","geometry":{"type":"Point","coordinates":[-75.547494,44.842515]}},{"properties":{"city":"Elizabethtown-Kitley","percent in couples":66.1,"prov":"Ont.","id":"a64ial5y2yxc","lat":44.657164,"long":-75.798198},"type":"Feature","geometry":{"type":"Point","coordinates":[-75.798198,44.657164]}},{"properties":{"city":"Elliot Lake","percent in couples":61.9,"prov":"Ont.","id":"a64ial39hn62","lat":46.37986,"long":-82.65197},"type":"Feature","geometry":{"type":"Point","coordinates":[-82.65197,46.37986]}},{"properties":{"city":"Erin","percent in couples":67.2,"prov":"Ont.","id":"a64ial2q7dmd","lat":43.770481,"long":-80.064201},"type":"Feature","geometry":{"type":"Point","coordinates":[-80.064201,43.770481]}},{"properties":{"city":"Espanola","percent in couples":61.3,"prov":"Ont.","id":"a64iakxomkyn","lat":46.256771,"long":-81.764229},"type":"Feature","geometry":{"type":"Point","coordinates":[-81.764229,46.256771]}},{"properties":{"city":"Esquimalt","percent in couples":49.5,"prov":"B.C.","id":"a64ial3q5d8h","lat":48.430095,"long":-123.414639},"type":"Feature","geometry":{"type":"Point","coordinates":[-123.414639,48.430095]}},{"properties":{"city":"Essa","percent in couples":63.9,"prov":"Ont.","id":"a64ial01w254","lat":44.25238,"long":-79.808472},"type":"Feature","geometry":{"type":"Point","coordinates":[-79.808472,44.25238]}},{"properties":{"city":"Essex","percent in couples":62.6,"prov":"Ont.","id":"a64ial8ma3nk","lat":42.036251,"long":-82.789833},"type":"Feature","geometry":{"type":"Point","coordinates":[-82.789833,42.036251]}},{"properties":{"city":"Estevan","percent in couples":60.2,"prov":"Sask.","id":"a64ial9ifn49","lat":49.140049,"long":-102.993896},"type":"Feature","geometry":{"type":"Point","coordinates":[-102.993896,49.140049]}},{"properties":{"city":"Farnham","percent in couples":57.3,"prov":"Que.","id":"a64ial54r174","lat":45.283352,"long":-72.975258},"type":"Feature","geometry":{"type":"Point","coordinates":[-72.975258,45.283352]}},{"properties":{"city":"Flin Flon (Part)","percent in couples":59.5,"prov":"Man.","id":"a64ial58rlsb","lat":49.610045,"long":-102.084689},"type":"Feature","geometry":{"type":"Point","coordinates":[-102.084689,49.610045]}},{"properties":{"city":"Foothills No. 31","percent in couples":71.0,"prov":"Alta.","id":"a64ial0kur1f","lat":51.918775,"long":-110.162504},"type":"Feature","geometry":{"type":"Point","coordinates":[-110.162504,51.918775]}},{"properties":{"city":"Fort Erie","percent in couples":59.2,"prov":"Ont.","id":"a64ial8b6tgv","lat":42.90197,"long":-78.974197},"type":"Feature","geometry":{"type":"Point","coordinates":[-78.974197,42.90197]}},{"properties":{"city":"Fort Frances","percent in couples":58.2,"prov":"Ont.","id":"a64ial5rane3","lat":48.610008,"long":-93.391113},"type":"Feature","geometry":{"type":"Point","coordinates":[-93.391113,48.610008]}},{"properties":{"city":"Fort Saskatchewan","percent in couples":62.8,"prov":"Alta.","id":"a64ialaocc6f","lat":51.918775,"long":-110.162504},"type":"Feature","geometry":{"type":"Point","coordinates":[-110.162504,51.918775]}},{"properties":{"city":"Fort St. John","percent in couples":58.7,"prov":"B.C.","id":"a64ial5xb0kh","lat":56.252465,"long":-120.847459},"type":"Feature","geometry":{"type":"Point","coordinates":[-120.847459,56.252465]}},{"properties":{"city":"Fredericton","percent in couples":54.6,"prov":"N.B.","id":"a64ial6m2rmr","lat":46.30663,"long":-79.459929},"type":"Feature","geometry":{"type":"Point","coordinates":[-79.459929,46.30663]}},{"properties":{"city":"Galway-Cavendish and Harvey","percent in couples":72.5,"prov":"Ont.","id":"a64ial2estaz","lat":44.557317,"long":-78.349118},"type":"Feature","geometry":{"type":"Point","coordinates":[-78.349118,44.557317]}},{"properties":{"city":"Gananoque","percent in couples":56.3,"prov":"Ont.","id":"a64ial3cogw1","lat":44.328468,"long":-76.164261},"type":"Feature","geometry":{"type":"Point","coordinates":[-76.164261,44.328468]}},{"properties":{"city":"Gander","percent in couples":65.1,"prov":"N.L.","id":"a64ial8g0dab","lat":45.847815,"long":-67.689213},"type":"Feature","geometry":{"type":"Point","coordinates":[-67.689213,45.847815]}},{"properties":{"city":"Gatineau","percent in couples":56.8,"prov":"Que.","id":"a64iala3ey6t","lat":46.778454,"long":-71.289604},"type":"Feature","geometry":{"type":"Point","coordinates":[-71.289604,46.778454]}},{"properties":{"city":"Georgian Bluffs","percent in couples":70.4,"prov":"Ont.","id":"a64ial98dak4","lat":44.545125,"long":-80.98784},"type":"Feature","geometry":{"type":"Point","coordinates":[-80.98784,44.545125]}},{"properties":{"city":"Georgina","percent in couples":62.2,"prov":"Ont.","id":"a64ialb3vgmz","lat":44.301128,"long":-79.43959},"type":"Feature","geometry":{"type":"Point","coordinates":[-79.43959,44.301128]}},{"properties":{"city":"Gimli","percent in couples":68.3,"prov":"Man.","id":"a64ial6rjth2","lat":49.610045,"long":-102.084689},"type":"Feature","geometry":{"type":"Point","coordinates":[-102.084689,49.610045]}},{"properties":{"city":"Goderich","percent in couples":59.5,"prov":"Ont.","id":"a64ial63ryaf","lat":43.742641,"long":-81.707764},"type":"Feature","geometry":{"type":"Point","coordinates":[-81.707764,43.742641]}},{"properties":{"city":"Granby","percent in couples":69.9,"prov":"Que.","id":"a64ial3m8kfn","lat":45.397991,"long":-72.721771},"type":"Feature","geometry":{"type":"Point","coordinates":[-72.721771,45.397991]}},{"properties":{"city":"Granby","percent in couples":54.0,"prov":"Que.","id":"a64ial7c5scc","lat":45.397991,"long":-72.721771},"type":"Feature","geometry":{"type":"Point","coordinates":[-72.721771,45.397991]}},{"properties":{"city":"Grand Falls / Grand-Sault","percent in couples":60.0,"prov":"N.B.","id":"a64ial3d6d3r","lat":46.30663,"long":-79.459929},"type":"Feature","geometry":{"type":"Point","coordinates":[-79.459929,46.30663]}},{"properties":{"city":"Grand Falls-Windsor","percent in couples":63.6,"prov":"N.L.","id":"a64iakyvzsgg","lat":45.847815,"long":-67.689213},"type":"Feature","geometry":{"type":"Point","coordinates":[-67.689213,45.847815]}},{"properties":{"city":"Grande Prairie","percent in couples":58.8,"prov":"Alta.","id":"a64ial2ounn3","lat":51.918775,"long":-110.162504},"type":"Feature","geometry":{"type":"Point","coordinates":[-110.162504,51.918775]}},{"properties":{"city":"Grande Prairie County No. 1","percent in couples":70.6,"prov":"Alta.","id":"a64ial4x05g1","lat":51.918775,"long":-110.162504},"type":"Feature","geometry":{"type":"Point","coordinates":[-110.162504,51.918775]}},{"properties":{"city":"Gravenhurst","percent in couples":59.9,"prov":"Ont.","id":"a64ial345yuw","lat":44.920841,"long":-79.373703},"type":"Feature","geometry":{"type":"Point","coordinates":[-79.373703,44.920841]}},{"properties":{"city":"Greater Napanee","percent in couples":63.5,"prov":"Ont.","id":"a64ialcilv77","lat":44.301704,"long":-76.985516},"type":"Feature","geometry":{"type":"Point","coordinates":[-76.985516,44.301704]}},{"properties":{"city":"Greater Sudbury / Grand Sudbury","percent in couples":59.4,"prov":"Ont.","id":"a64iakxdcwhz","lat":46.48959,"long":-80.989662},"type":"Feature","geometry":{"type":"Point","coordinates":[-80.989662,46.48959]}},{"properties":{"city":"Greater Vancouver A","percent in couples":57.4,"prov":"B.C.","id":"a64ialbj8dlg","lat":49.26044,"long":-123.114034},"type":"Feature","geometry":{"type":"Point","coordinates":[-123.114034,49.26044]}},{"properties":{"city":"Greenview No. 16","percent in couples":69.4,"prov":"Alta.","id":"a64ialaxrdzf","lat":51.918775,"long":-110.162504},"type":"Feature","geometry":{"type":"Point","coordinates":[-110.162504,51.918775]}},{"properties":{"city":"Grey Highlands","percent in couples":65.1,"prov":"Ont.","id":"a64ial2h6cf5","lat":44.315255,"long":-80.642419},"type":"Feature","geometry":{"type":"Point","coordinates":[-80.642419,44.315255]}},{"properties":{"city":"Grimsby","percent in couples":65.3,"prov":"Ont.","id":"a64iakwdr69f","lat":43.19902,"long":-79.585518},"type":"Feature","geometry":{"type":"Point","coordinates":[-79.585518,43.19902]}},{"properties":{"city":"Guelph","percent in couples":58.6,"prov":"Ont.","id":"a64iakznrcvp","lat":43.544559,"long":-80.247871},"type":"Feature","geometry":{"type":"Point","coordinates":[-80.247871,43.544559]}},{"properties":{"city":"Guelph/Eramosa","percent in couples":67.9,"prov":"Ont.","id":"a64ial3u6uwd","lat":43.643634,"long":-80.191448},"type":"Feature","geometry":{"type":"Point","coordinates":[-80.191448,43.643634]}},{"properties":{"city":"Haldimand County","percent in couples":64.8,"prov":"Ont.","id":"a64ial349fgf","lat":42.95472,"long":-79.85775},"type":"Feature","geometry":{"type":"Point","coordinates":[-79.85775,42.95472]}},{"properties":{"city":"Halifax","percent in couples":56.7,"prov":"N.S.","id":"a64iakzirkje","lat":50.94041,"long":-104.496044},"type":"Feature","geometry":{"type":"Point","coordinates":[-104.496044,50.94041]}},{"properties":{"city":"Halton Hills","percent in couples":66.2,"prov":"Ont.","id":"a64ial1qguqy","lat":43.63929,"long":-79.931366},"type":"Feature","geometry":{"type":"Point","coordinates":[-79.931366,43.63929]}},{"properties":{"city":"Hamilton","percent in couples":56.6,"prov":"Ont.","id":"a64ialc0tr2d","lat":44.02544,"long":-78.211358},"type":"Feature","geometry":{"type":"Point","coordinates":[-78.211358,44.02544]}},{"properties":{"city":"Hamilton","percent in couples":69.1,"prov":"Ont.","id":"a64ial8ae8tv","lat":44.02544,"long":-78.211358},"type":"Feature","geometry":{"type":"Point","coordinates":[-78.211358,44.02544]}},{"properties":{"city":"Hampstead","percent in couples":62.6,"prov":"Que.","id":"a64ial1odyy0","lat":45.478729,"long":-73.633636},"type":"Feature","geometry":{"type":"Point","coordinates":[-73.633636,45.478729]}},{"properties":{"city":"Hanover","percent in couples":58.5,"prov":"Ont.","id":"a64iakwyacce","lat":44.15237,"long":-81.025818},"type":"Feature","geometry":{"type":"Point","coordinates":[-81.025818,44.15237]}},{"properties":{"city":"Hanover","percent in couples":70.5,"prov":"Man.","id":"a64ial3pl0y4","lat":49.610045,"long":-102.084689},"type":"Feature","geometry":{"type":"Point","coordinates":[-102.084689,49.610045]}},{"properties":{"city":"Happy Valley-Goose Bay","percent in couples":63.6,"prov":"N.L.","id":"a64iakwkjaw8","lat":45.847815,"long":-67.689213},"type":"Feature","geometry":{"type":"Point","coordinates":[-67.689213,45.847815]}},{"properties":{"city":"Hawkesbury","percent in couples":54.6,"prov":"Ont.","id":"a64ial0ryfiz","lat":45.491356,"long":-74.478607},"type":"Feature","geometry":{"type":"Point","coordinates":[-74.478607,45.491356]}},{"properties":{"city":"Hearst","percent in couples":62.0,"prov":"Ont.","id":"a64ial5j8oji","lat":49.689308,"long":-83.664948},"type":"Feature","geometry":{"type":"Point","coordinates":[-83.664948,49.689308]}},{"properties":{"city":"High River","percent in couples":65.0,"prov":"Alta.","id":"a64ialbm8sit","lat":51.918775,"long":-110.162504},"type":"Feature","geometry":{"type":"Point","coordinates":[-110.162504,51.918775]}},{"properties":{"city":"Hinton","percent in couples":64.7,"prov":"Alta.","id":"a64ial18mdb6","lat":51.918775,"long":-110.162504},"type":"Feature","geometry":{"type":"Point","coordinates":[-110.162504,51.918775]}},{"properties":{"city":"Hope","percent in couples":58.9,"prov":"B.C.","id":"a64ial2yjjym","lat":49.378935,"long":-121.444524},"type":"Feature","geometry":{"type":"Point","coordinates":[-121.444524,49.378935]}},{"properties":{"city":"Hudson","percent in couples":66.4,"prov":"Que.","id":"a64ial19uig9","lat":45.459122,"long":-74.142563},"type":"Feature","geometry":{"type":"Point","coordinates":[-74.142563,45.459122]}},{"properties":{"city":"Huntsville","percent in couples":64.3,"prov":"Ont.","id":"a64ialamsmeb","lat":45.326561,"long":-79.218002},"type":"Feature","geometry":{"type":"Point","coordinates":[-79.218002,45.326561]}},{"properties":{"city":"Huron East","percent in couples":63.3,"prov":"Ont.","id":"a64iakwwf0la","lat":43.616829,"long":-81.34198},"type":"Feature","geometry":{"type":"Point","coordinates":[-81.34198,43.616829]}},{"properties":{"city":"Huron-Kinloss","percent in couples":66.0,"prov":"Ont.","id":"a64ial6tjhi1","lat":44.04898,"long":-81.522609},"type":"Feature","geometry":{"type":"Point","coordinates":[-81.522609,44.04898]}},{"properties":{"city":"Ingersoll","percent in couples":62.3,"prov":"Ont.","id":"a64ial84jric","lat":43.038109,"long":-80.88385},"type":"Feature","geometry":{"type":"Point","coordinates":[-80.88385,43.038109]}},{"properties":{"city":"Innisfail","percent in couples":61.4,"prov":"Alta.","id":"a64ial7qlw0m","lat":51.918775,"long":-110.162504},"type":"Feature","geometry":{"type":"Point","coordinates":[-110.162504,51.918775]}},{"properties":{"city":"Innisfil","percent in couples":65.0,"prov":"Ont.","id":"a64ial7yza02","lat":44.304008,"long":-79.595703},"type":"Feature","geometry":{"type":"Point","coordinates":[-79.595703,44.304008]}},{"properties":{"city":"Inverness Subd. A","percent in couples":61.6,"prov":"N.S.","id":"a64ial34ki6k","lat":43.06478,"long":-82.527599},"type":"Feature","geometry":{"type":"Point","coordinates":[-82.527599,43.06478]}},{"properties":{"city":"Inverness Subd. B","percent in couples":54.2,"prov":"N.S.","id":"a64ial3otncf","lat":43.06478,"long":-82.527599},"type":"Feature","geometry":{"type":"Point","coordinates":[-82.527599,43.06478]}},{"properties":{"city":"Iqaluit","percent in couples":52.6,"prov":"Nvt.","id":"a64ial2l8xfk","lat":63.751469,"long":-68.51902},"type":"Feature","geometry":{"type":"Point","coordinates":[-68.51902,63.751469]}},{"properties":{"city":"Joliette","percent in couples":45.4,"prov":"Que.","id":"a64iakwi5zb0","lat":46.023571,"long":-73.441948},"type":"Feature","geometry":{"type":"Point","coordinates":[-73.441948,46.023571]}},{"properties":{"city":"Kamloops","percent in couples":58.2,"prov":"B.C.","id":"a64ial5lid3w","lat":50.676125,"long":-120.337889},"type":"Feature","geometry":{"type":"Point","coordinates":[-120.337889,50.676125]}},{"properties":{"city":"Kapuskasing","percent in couples":62.6,"prov":"Ont.","id":"a64iakzn0xw5","lat":49.417801,"long":-82.425194},"type":"Feature","geometry":{"type":"Point","coordinates":[-82.425194,49.417801]}},{"properties":{"city":"Kawartha Lakes","percent in couples":64.0,"prov":"Ont.","id":"a64ialc04ol8","lat":44.354285,"long":-78.740069},"type":"Feature","geometry":{"type":"Point","coordinates":[-78.740069,44.354285]}},{"properties":{"city":"Kelowna","percent in couples":57.7,"prov":"B.C.","id":"a64ial2btfda","lat":49.886815,"long":-119.496599},"type":"Feature","geometry":{"type":"Point","coordinates":[-119.496599,49.886815]}},{"properties":{"city":"Kenora","percent in couples":58.3,"prov":"Ont.","id":"a64iakzloydy","lat":49.770641,"long":-94.489304},"type":"Feature","geometry":{"type":"Point","coordinates":[-94.489304,49.770641]}},{"properties":{"city":"Kenora Unorganized","percent in couples":69.8,"prov":"Ont.","id":"a64iakzb2xym","lat":49.770641,"long":-94.489304},"type":"Feature","geometry":{"type":"Point","coordinates":[-94.489304,49.770641]}},{"properties":{"city":"Kentville","percent in couples":56.8,"prov":"N.S.","id":"a64ial1b954e","lat":50.94041,"long":-104.496044},"type":"Feature","geometry":{"type":"Point","coordinates":[-104.496044,50.94041]}},{"properties":{"city":"Kimberley","percent in couples":61.7,"prov":"B.C.","id":"a64iakzhz495","lat":49.67003,"long":-115.978099},"type":"Feature","geometry":{"type":"Point","coordinates":[-115.978099,49.67003]}},{"properties":{"city":"Kincardine","percent in couples":64.8,"prov":"Ont.","id":"a64ial14rps2","lat":44.18161,"long":-81.631729},"type":"Feature","geometry":{"type":"Point","coordinates":[-81.631729,44.18161]}},{"properties":{"city":"King","percent in couples":64.6,"prov":"Ont.","id":"a64ial43juh4","lat":43.930389,"long":-79.5205},"type":"Feature","geometry":{"type":"Point","coordinates":[-79.5205,43.930389]}},{"properties":{"city":"Kings Subd. A","percent in couples":65.1,"prov":"N.S.","id":"a64ial5ufcu2","lat":50.94041,"long":-104.496044},"type":"Feature","geometry":{"type":"Point","coordinates":[-104.496044,50.94041]}},{"properties":{"city":"Kings Subd. B","percent in couples":62.6,"prov":"N.S.","id":"a64ial4457o3","lat":50.94041,"long":-104.496044},"type":"Feature","geometry":{"type":"Point","coordinates":[-104.496044,50.94041]}},{"properties":{"city":"Kings Subd. C","percent in couples":61.2,"prov":"N.S.","id":"a64iakygkb5k","lat":50.94041,"long":-104.496044},"type":"Feature","geometry":{"type":"Point","coordinates":[-104.496044,50.94041]}},{"properties":{"city":"Kings Subd. D","percent in couples":63.8,"prov":"N.S.","id":"a64ial2i5t9u","lat":50.94041,"long":-104.496044},"type":"Feature","geometry":{"type":"Point","coordinates":[-104.496044,50.94041]}},{"properties":{"city":"Kingsclear","percent in couples":71.3,"prov":"N.B.","id":"a64ial9xh2js","lat":46.30663,"long":-79.459929},"type":"Feature","geometry":{"type":"Point","coordinates":[-79.459929,46.30663]}},{"properties":{"city":"Kingston","percent in couples":55.0,"prov":"Ont.","id":"a64iakwk8sn0","lat":44.231529,"long":-76.479332},"type":"Feature","geometry":{"type":"Point","coordinates":[-76.479332,44.231529]}},{"properties":{"city":"Kingsville","percent in couples":65.2,"prov":"Ont.","id":"a64ial644yyw","lat":42.03788,"long":-82.740311},"type":"Feature","geometry":{"type":"Point","coordinates":[-82.740311,42.03788]}},{"properties":{"city":"Kirkland","percent in couples":64.4,"prov":"Que.","id":"a64ial79vea9","lat":45.4487,"long":-73.857391},"type":"Feature","geometry":{"type":"Point","coordinates":[-73.857391,45.4487]}},{"properties":{"city":"Kirkland Lake","percent in couples":53.5,"prov":"Ont.","id":"a64ial9pb7rd","lat":48.15028,"long":-80.035393},"type":"Feature","geometry":{"type":"Point","coordinates":[-80.035393,48.15028]}},{"properties":{"city":"Kitchener","percent in couples":58.2,"prov":"Ont.","id":"a64ialaydnjc","lat":43.451229,"long":-80.49305},"type":"Feature","geometry":{"type":"Point","coordinates":[-80.49305,43.451229]}},{"properties":{"city":"Kitimat","percent in couples":64.6,"prov":"B.C.","id":"a64ialco8e5l","lat":54.05515,"long":-128.655066},"type":"Feature","geometry":{"type":"Point","coordinates":[-128.655066,54.05515]}},{"properties":{"city":"Kneehill County","percent in couples":70.1,"prov":"Alta.","id":"a64iakzia0w5","lat":51.918775,"long":-110.162504},"type":"Feature","geometry":{"type":"Point","coordinates":[-110.162504,51.918775]}},{"properties":{"city":"L'Ancienne-Lorette","percent in couples":62.8,"prov":"Que.","id":"a64ial42yez5","lat":46.798969,"long":-71.361526},"type":"Feature","geometry":{"type":"Point","coordinates":[-71.361526,46.798969]}},{"properties":{"city":"L'Assomption","percent in couples":61.8,"prov":"Que.","id":"a64ial46ujj1","lat":45.831211,"long":-73.423531},"type":"Feature","geometry":{"type":"Point","coordinates":[-73.423531,45.831211]}},{"properties":{"city":"La Malbaie","percent in couples":60.0,"prov":"Que.","id":"a64ialbyvn6g","lat":47.658371,"long":-70.154518},"type":"Feature","geometry":{"type":"Point","coordinates":[-70.154518,47.658371]}},{"properties":{"city":"La Prairie","percent in couples":62.7,"prov":"Que.","id":"a64iakz867sd","lat":46.814215,"long":-71.219529},"type":"Feature","geometry":{"type":"Point","coordinates":[-71.219529,46.814215]}},{"properties":{"city":"La Sarre","percent in couples":59.8,"prov":"Que.","id":"a64ialc1pqxw","lat":46.82594,"long":-71.234839},"type":"Feature","geometry":{"type":"Point","coordinates":[-71.234839,46.82594]}},{"properties":{"city":"La Tuque","percent in couples":59.7,"prov":"Que.","id":"a64ial0g6t1o","lat":47.437771,"long":-72.784409},"type":"Feature","geometry":{"type":"Point","coordinates":[-72.784409,47.437771]}},{"properties":{"city":"LaSalle","percent in couples":66.3,"prov":"Ont.","id":"a64ial1c4bn7","lat":42.245548,"long":-83.060867},"type":"Feature","geometry":{"type":"Point","coordinates":[-83.060867,42.245548]}},{"properties":{"city":"Labrador City","percent in couples":67.9,"prov":"N.L.","id":"a64ial36f1ry","lat":45.847815,"long":-67.689213},"type":"Feature","geometry":{"type":"Point","coordinates":[-67.689213,45.847815]}},{"properties":{"city":"Lac Ste. Anne County","percent in couples":67.8,"prov":"Alta.","id":"a64ial9xhp38","lat":51.918775,"long":-110.162504},"type":"Feature","geometry":{"type":"Point","coordinates":[-110.162504,51.918775]}},{"properties":{"city":"Lac-Beauport","percent in couples":72.4,"prov":"Que.","id":"a64ial5j4bci","lat":46.854275,"long":-71.206619},"type":"Feature","geometry":{"type":"Point","coordinates":[-71.206619,46.854275]}},{"properties":{"city":"Lac-Brome","percent in couples":61.4,"prov":"Que.","id":"a64ial109oyz","lat":45.21244,"long":-72.538712},"type":"Feature","geometry":{"type":"Point","coordinates":[-72.538712,45.21244]}},{"properties":{"city":"Lachute","percent in couples":54.3,"prov":"Que.","id":"a64ial9yxmr5","lat":45.655842,"long":-74.340553},"type":"Feature","geometry":{"type":"Point","coordinates":[-74.340553,45.655842]}},{"properties":{"city":"Lacombe","percent in couples":63.3,"prov":"Alta.","id":"a64iakzfmek6","lat":51.918775,"long":-110.162504},"type":"Feature","geometry":{"type":"Point","coordinates":[-110.162504,51.918775]}},{"properties":{"city":"Lacombe County","percent in couples":69.7,"prov":"Alta.","id":"a64ial4c799m","lat":51.918775,"long":-110.162504},"type":"Feature","geometry":{"type":"Point","coordinates":[-110.162504,51.918775]}},{"properties":{"city":"Ladysmith","percent in couples":63.7,"prov":"B.C.","id":"a64ialc27agi","lat":48.997356,"long":-123.820544},"type":"Feature","geometry":{"type":"Point","coordinates":[-123.820544,48.997356]}},{"properties":{"city":"Lake Country","percent in couples":66.1,"prov":"B.C.","id":"a64ialb2axyh","lat":50.050716,"long":-119.411731},"type":"Feature","geometry":{"type":"Point","coordinates":[-119.411731,50.050716]}},{"properties":{"city":"Lakeland County","percent in couples":65.2,"prov":"Alta.","id":"a64ial9zuhjx","lat":51.918775,"long":-110.162504},"type":"Feature","geometry":{"type":"Point","coordinates":[-110.162504,51.918775]}},{"properties":{"city":"Lakeshore","percent in couples":68.0,"prov":"Ont.","id":"a64ial1lhtf6","lat":42.292938,"long":-82.70282},"type":"Feature","geometry":{"type":"Point","coordinates":[-82.70282,42.292938]}},{"properties":{"city":"Lambton Shores","percent in couples":66.5,"prov":"Ont.","id":"a64ial4j8mgz","lat":43.097555,"long":-82.003474},"type":"Feature","geometry":{"type":"Point","coordinates":[-82.003474,43.097555]}},{"properties":{"city":"Lanark Highlands","percent in couples":66.2,"prov":"Ont.","id":"a64iakyh9rox","lat":45.01737,"long":-76.364319},"type":"Feature","geometry":{"type":"Point","coordinates":[-76.364319,45.01737]}},{"properties":{"city":"Langford","percent in couples":60.7,"prov":"B.C.","id":"a64ial0if75x","lat":48.448701,"long":-123.513511},"type":"Feature","geometry":{"type":"Point","coordinates":[-123.513511,48.448701]}},{"properties":{"city":"Langley","percent in couples":52.3,"prov":"B.C.","id":"a64iakyi7cmr","lat":49.104114,"long":-122.656549},"type":"Feature","geometry":{"type":"Point","coordinates":[-122.656549,49.104114]}},{"properties":{"city":"Langley","percent in couples":63.1,"prov":"B.C.","id":"a64ial6w3piv","lat":49.104114,"long":-122.656549},"type":"Feature","geometry":{"type":"Point","coordinates":[-122.656549,49.104114]}},{"properties":{"city":"Laurentian Valley","percent in couples":68.8,"prov":"Ont.","id":"a64iakx7wwh6","lat":45.781465,"long":-77.232294},"type":"Feature","geometry":{"type":"Point","coordinates":[-77.232294,45.781465]}},{"properties":{"city":"Laval","percent in couples":59.0,"prov":"Que.","id":"a64ial7umbr8","lat":46.815715,"long":-71.205659},"type":"Feature","geometry":{"type":"Point","coordinates":[-71.205659,46.815715]}},{"properties":{"city":"Lavaltrie","percent in couples":66.0,"prov":"Que.","id":"a64iakyocldz","lat":45.885201,"long":-73.277451},"type":"Feature","geometry":{"type":"Point","coordinates":[-73.277451,45.885201]}},{"properties":{"city":"Leamington","percent in couples":62.7,"prov":"Ont.","id":"a64ialaklswp","lat":42.05415,"long":-82.599709},"type":"Feature","geometry":{"type":"Point","coordinates":[-82.599709,42.05415]}},{"properties":{"city":"Leduc","percent in couples":62.2,"prov":"Alta.","id":"a64ial0nbpo3","lat":51.918775,"long":-110.162504},"type":"Feature","geometry":{"type":"Point","coordinates":[-110.162504,51.918775]}},{"properties":{"city":"Leduc County","percent in couples":68.4,"prov":"Alta.","id":"a64ial7qwsn1","lat":51.918775,"long":-110.162504},"type":"Feature","geometry":{"type":"Point","coordinates":[-110.162504,51.918775]}},{"properties":{"city":"Leeds and the Thousand Islands","percent in couples":69.0,"prov":"Ont.","id":"a64ialc81spn","lat":44.407305,"long":-76.022144},"type":"Feature","geometry":{"type":"Point","coordinates":[-76.022144,44.407305]}},{"properties":{"city":"Lethbridge","percent in couples":56.6,"prov":"Alta.","id":"a64ial6yn6nk","lat":51.918775,"long":-110.162504},"type":"Feature","geometry":{"type":"Point","coordinates":[-110.162504,51.918775]}},{"properties":{"city":"Lethbridge County","percent in couples":64.8,"prov":"Alta.","id":"a64ial43nqg6","lat":51.918775,"long":-110.162504},"type":"Feature","geometry":{"type":"Point","coordinates":[-110.162504,51.918775]}},{"properties":{"city":"Lincoln","percent in couples":63.6,"prov":"Ont.","id":"a64iakx6pte8","lat":43.188549,"long":-79.472603},"type":"Feature","geometry":{"type":"Point","coordinates":[-79.472603,43.188549]}},{"properties":{"city":"Lincoln","percent in couples":65.5,"prov":"N.B.","id":"a64ial3u33a9","lat":46.30663,"long":-79.459929},"type":"Feature","geometry":{"type":"Point","coordinates":[-79.459929,46.30663]}},{"properties":{"city":"Lloydminster (Part)","percent in couples":62.6,"prov":"Alta.","id":"a64iakxrdq79","lat":51.918775,"long":-110.162504},"type":"Feature","geometry":{"type":"Point","coordinates":[-110.162504,51.918775]}},{"properties":{"city":"Lloydminster (Part)","percent in couples":54.9,"prov":"Sask.","id":"a64ialb63aij","lat":54.499401,"long":-105.684319},"type":"Feature","geometry":{"type":"Point","coordinates":[-105.684319,54.499401]}},{"properties":{"city":"London","percent in couples":55.2,"prov":"Ont.","id":"a64ial3knpky","lat":42.986889,"long":-81.246208},"type":"Feature","geometry":{"type":"Point","coordinates":[-81.246208,42.986889]}},{"properties":{"city":"Longueuil","percent in couples":54.0,"prov":"Que.","id":"a64iakymrkw9","lat":46.79303,"long":-71.252709},"type":"Feature","geometry":{"type":"Point","coordinates":[-71.252709,46.79303]}},{"properties":{"city":"Lorraine","percent in couples":67.5,"prov":"Que.","id":"a64ial80bpks","lat":46.837753,"long":-71.232395},"type":"Feature","geometry":{"type":"Point","coordinates":[-71.232395,46.837753]}},{"properties":{"city":"Louiseville","percent in couples":52.0,"prov":"Que.","id":"a64iakz6ml8e","lat":46.773095,"long":-71.306804},"type":"Feature","geometry":{"type":"Point","coordinates":[-71.306804,46.773095]}},{"properties":{"city":"Loyalist","percent in couples":64.4,"prov":"Ont.","id":"a64ial8hjf91","lat":44.276951,"long":-76.710182},"type":"Feature","geometry":{"type":"Point","coordinates":[-76.710182,44.276951]}},{"properties":{"city":"Lunenburg","percent in couples":67.8,"prov":"N.S.","id":"a64ialctmsf4","lat":50.94041,"long":-104.496044},"type":"Feature","geometry":{"type":"Point","coordinates":[-104.496044,50.94041]}},{"properties":{"city":"Macdonald","percent in couples":72.0,"prov":"Man.","id":"a64ial8d9x3d","lat":49.610045,"long":-102.084689},"type":"Feature","geometry":{"type":"Point","coordinates":[-102.084689,49.610045]}},{"properties":{"city":"Mackenzie No. 23","percent in couples":67.9,"prov":"Alta.","id":"a64iakxd8ke8","lat":51.918775,"long":-110.162504},"type":"Feature","geometry":{"type":"Point","coordinates":[-110.162504,51.918775]}},{"properties":{"city":"Magog","percent in couples":59.3,"prov":"Que.","id":"a64iala0yadn","lat":45.264858,"long":-72.147697},"type":"Feature","geometry":{"type":"Point","coordinates":[-72.147697,45.264858]}},{"properties":{"city":"Malahide","percent in couples":65.9,"prov":"Ont.","id":"a64iaky0xfhw","lat":42.752258,"long":-80.98365},"type":"Feature","geometry":{"type":"Point","coordinates":[-80.98365,42.752258]}},{"properties":{"city":"Maple Ridge","percent in couples":61.2,"prov":"B.C.","id":"a64ial3nfrcr","lat":49.216845,"long":-122.605829},"type":"Feature","geometry":{"type":"Point","coordinates":[-122.605829,49.216845]}},{"properties":{"city":"Mapleton","percent in couples":68.7,"prov":"Ont.","id":"a64ialbhb6di","lat":43.757408,"long":-80.64296},"type":"Feature","geometry":{"type":"Point","coordinates":[-80.64296,43.757408]}},{"properties":{"city":"Marieville","percent in couples":60.5,"prov":"Que.","id":"a64ial2d2efw","lat":45.431179,"long":-73.159447},"type":"Feature","geometry":{"type":"Point","coordinates":[-73.159447,45.431179]}},{"properties":{"city":"Markham","percent in couples":62.5,"prov":"Ont.","id":"a64ial2xu3ob","lat":43.85603,"long":-79.339943},"type":"Feature","geometry":{"type":"Point","coordinates":[-79.339943,43.85603]}},{"properties":{"city":"Marystown","percent in couples":63.2,"prov":"N.L.","id":"a64ialayx11f","lat":45.847815,"long":-67.689213},"type":"Feature","geometry":{"type":"Point","coordinates":[-67.689213,45.847815]}},{"properties":{"city":"Mascouche","percent in couples":65.1,"prov":"Que.","id":"a64ialc524gi","lat":45.746269,"long":-73.601097},"type":"Feature","geometry":{"type":"Point","coordinates":[-73.601097,45.746269]}},{"properties":{"city":"Matane","percent in couples":57.6,"prov":"Que.","id":"a64iakwfq9v5","lat":48.84502,"long":-67.529419},"type":"Feature","geometry":{"type":"Point","coordinates":[-67.529419,48.84502]}},{"properties":{"city":"McMasterville","percent in couples":61.2,"prov":"Que.","id":"a64iakwk9xvx","lat":45.54977,"long":-73.22892},"type":"Feature","geometry":{"type":"Point","coordinates":[-73.22892,45.54977]}},{"properties":{"city":"McNab/Braeside","percent in couples":69.1,"prov":"Ont.","id":"a64ial98r8e5","lat":45.43973,"long":-76.506869},"type":"Feature","geometry":{"type":"Point","coordinates":[-76.506869,45.43973]}},{"properties":{"city":"Meaford","percent in couples":65.4,"prov":"Ont.","id":"a64ial59o2qy","lat":44.606651,"long":-80.59285},"type":"Feature","geometry":{"type":"Point","coordinates":[-80.59285,44.606651]}},{"properties":{"city":"Medicine Hat","percent in couples":60.0,"prov":"Alta.","id":"a64iakz5dp0k","lat":51.918775,"long":-110.162504},"type":"Feature","geometry":{"type":"Point","coordinates":[-110.162504,51.918775]}},{"properties":{"city":"Melfort","percent in couples":58.4,"prov":"Sask.","id":"a64ial8p3ada","lat":52.861359,"long":-104.61795},"type":"Feature","geometry":{"type":"Point","coordinates":[-104.61795,52.861359]}},{"properties":{"city":"Mercier","percent in couples":66.2,"prov":"Que.","id":"a64ial1qj6uq","lat":46.88735,"long":-71.162294},"type":"Feature","geometry":{"type":"Point","coordinates":[-71.162294,46.88735]}},{"properties":{"city":"Merritt","percent in couples":58.4,"prov":"B.C.","id":"a64iakwsk4l9","lat":50.111565,"long":-120.787364},"type":"Feature","geometry":{"type":"Point","coordinates":[-120.787364,50.111565]}},{"properties":{"city":"Middlesex Centre","percent in couples":68.2,"prov":"Ont.","id":"a64ial03kqje","lat":43.014687,"long":-81.50239},"type":"Feature","geometry":{"type":"Point","coordinates":[-81.50239,43.014687]}},{"properties":{"city":"Midland","percent in couples":54.9,"prov":"Ont.","id":"a64ial1hf9fo","lat":44.749901,"long":-79.888512},"type":"Feature","geometry":{"type":"Point","coordinates":[-79.888512,44.749901]}},{"properties":{"city":"Milton","percent in couples":68.0,"prov":"Ont.","id":"a64iakzgi8vo","lat":43.511028,"long":-79.883888},"type":"Feature","geometry":{"type":"Point","coordinates":[-79.883888,43.511028]}},{"properties":{"city":"Minden Hills","percent in couples":65.8,"prov":"Ont.","id":"a64iakzgj4y5","lat":44.938049,"long":-78.712029},"type":"Feature","geometry":{"type":"Point","coordinates":[-78.712029,44.938049]}},{"properties":{"city":"Minto","percent in couples":63.5,"prov":"Ont.","id":"a64iala3pmxg","lat":43.93515,"long":-80.86618},"type":"Feature","geometry":{"type":"Point","coordinates":[-80.86618,43.93515]}},{"properties":{"city":"Mirabel","percent in couples":67.0,"prov":"Que.","id":"a64ial5movh5","lat":45.66349,"long":-74.01046},"type":"Feature","geometry":{"type":"Point","coordinates":[-74.01046,45.66349]}},{"properties":{"city":"Miramichi","percent in couples":58.4,"prov":"N.B.","id":"a64ial2uso9q","lat":46.30663,"long":-79.459929},"type":"Feature","geometry":{"type":"Point","coordinates":[-79.459929,46.30663]}},{"properties":{"city":"Mission","percent in couples":58.9,"prov":"B.C.","id":"a64ial8ncw51","lat":49.159995,"long":-122.282804},"type":"Feature","geometry":{"type":"Point","coordinates":[-122.282804,49.159995]}},{"properties":{"city":"Mississauga","percent in couples":60.3,"prov":"Ont.","id":"a64ial9cq8ic","lat":43.58828,"long":-79.643723},"type":"Feature","geometry":{"type":"Point","coordinates":[-79.643723,43.58828]}},{"properties":{"city":"Mississippi Mills","percent in couples":63.6,"prov":"Ont.","id":"a64ial0proj1","lat":45.21203,"long":-76.20593},"type":"Feature","geometry":{"type":"Point","coordinates":[-76.20593,45.21203]}},{"properties":{"city":"Moncton","percent in couples":54.6,"prov":"N.B.","id":"a64ialbuj8q2","lat":46.30663,"long":-79.459929},"type":"Feature","geometry":{"type":"Point","coordinates":[-79.459929,46.30663]}},{"properties":{"city":"Moncton","percent in couples":67.6,"prov":"N.B.","id":"a64ial0e31qh","lat":46.30663,"long":-79.459929},"type":"Feature","geometry":{"type":"Point","coordinates":[-79.459929,46.30663]}},{"properties":{"city":"Mono","percent in couples":67.7,"prov":"Ont.","id":"a64ial5wn6nx","lat":44.008221,"long":-80.076622},"type":"Feature","geometry":{"type":"Point","coordinates":[-80.076622,44.008221]}},{"properties":{"city":"Mont-Joli","percent in couples":53.0,"prov":"Que.","id":"a64iakzlcas3","lat":46.785517,"long":-71.297903},"type":"Feature","geometry":{"type":"Point","coordinates":[-71.297903,46.785517]}},{"properties":{"city":"Mont-Laurier","percent in couples":59.5,"prov":"Que.","id":"a64ial84ztwj","lat":46.552151,"long":-75.496483},"type":"Feature","geometry":{"type":"Point","coordinates":[-75.496483,46.552151]}},{"properties":{"city":"Mont-Royal","percent in couples":60.8,"prov":"Que.","id":"a64ial2b83uh","lat":46.85457,"long":-71.274783},"type":"Feature","geometry":{"type":"Point","coordinates":[-71.274783,46.85457]}},{"properties":{"city":"Mont-Saint-Hilaire","percent in couples":64.0,"prov":"Que.","id":"a64ialbfclnp","lat":45.56432,"long":-73.191109},"type":"Feature","geometry":{"type":"Point","coordinates":[-73.191109,45.56432]}},{"properties":{"city":"Mont-Tremblant","percent in couples":56.9,"prov":"Que.","id":"a64ial2tbrtl","lat":46.118338,"long":-74.601684},"type":"Feature","geometry":{"type":"Point","coordinates":[-74.601684,46.118338]}},{"properties":{"city":"Montmagny","percent in couples":56.6,"prov":"Que.","id":"a64ial4yzx9l","lat":46.81026,"long":-71.245689},"type":"Feature","geometry":{"type":"Point","coordinates":[-71.245689,46.81026]}},{"properties":{"city":"Moose Jaw","percent in couples":55.0,"prov":"Sask.","id":"a64ialbkfyj4","lat":50.396881,"long":-105.536079},"type":"Feature","geometry":{"type":"Point","coordinates":[-105.536079,50.396881]}},{"properties":{"city":"Morden","percent in couples":63.8,"prov":"Man.","id":"a64ial7vgmf1","lat":49.610045,"long":-102.084689},"type":"Feature","geometry":{"type":"Point","coordinates":[-102.084689,49.610045]}},{"properties":{"city":"Morinville","percent in couples":64.8,"prov":"Alta.","id":"a64ial55llhb","lat":51.918775,"long":-110.162504},"type":"Feature","geometry":{"type":"Point","coordinates":[-110.162504,51.918775]}},{"properties":{"city":"Mount Pearl","percent in couples":58.9,"prov":"N.L.","id":"a64ialc0tej7","lat":45.847815,"long":-67.689213},"type":"Feature","geometry":{"type":"Point","coordinates":[-67.689213,45.847815]}},{"properties":{"city":"Mountain View County","percent in couples":71.1,"prov":"Alta.","id":"a64ialafrumd","lat":51.918775,"long":-110.162504},"type":"Feature","geometry":{"type":"Point","coordinates":[-110.162504,51.918775]}},{"properties":{"city":"North Grenville","percent in couples":67.1,"prov":"Ont.","id":"a64iala3rr5p","lat":45.023435,"long":-75.654849},"type":"Feature","geometry":{"type":"Point","coordinates":[-75.654849,45.023435]}},{"properties":{"city":"North Huron","percent in couples":62.6,"prov":"Ont.","id":"a64ial6sn4vw","lat":43.722265,"long":-81.136374},"type":"Feature","geometry":{"type":"Point","coordinates":[-81.136374,43.722265]}},{"properties":{"city":"North Middlesex","percent in couples":64.4,"prov":"Ont.","id":"a64ial5dla4r","lat":43.16289,"long":-81.683989},"type":"Feature","geometry":{"type":"Point","coordinates":[-81.683989,43.16289]}},{"properties":{"city":"North Perth","percent in couples":63.2,"prov":"Ont.","id":"a64ial6i36yt","lat":43.733952,"long":-80.951271},"type":"Feature","geometry":{"type":"Point","coordinates":[-80.951271,43.733952]}},{"properties":{"city":"North Saanich","percent in couples":70.8,"prov":"B.C.","id":"a64ial3ogqc8","lat":48.6554,"long":-123.433089},"type":"Feature","geometry":{"type":"Point","coordinates":[-123.433089,48.6554]}},{"properties":{"city":"North Stormont","percent in couples":65.5,"prov":"Ont.","id":"a64ial4zdykp","lat":45.17544,"long":-75.109614},"type":"Feature","geometry":{"type":"Point","coordinates":[-75.109614,45.17544]}},{"properties":{"city":"North Vancouver","percent in couples":51.6,"prov":"B.C.","id":"a64iakwo0w7i","lat":49.321065,"long":-123.074159},"type":"Feature","geometry":{"type":"Point","coordinates":[-123.074159,49.321065]}},{"properties":{"city":"North Vancouver","percent in couples":62.1,"prov":"B.C.","id":"a64ial2zlycb","lat":49.321065,"long":-123.074159},"type":"Feature","geometry":{"type":"Point","coordinates":[-123.074159,49.321065]}},{"properties":{"city":"Norwich","percent in couples":66.9,"prov":"Ont.","id":"a64ial1dnhro","lat":42.987679,"long":-80.596939},"type":"Feature","geometry":{"type":"Point","coordinates":[-80.596939,42.987679]}},{"properties":{"city":"Notre-Dame-des-Prairies","percent in couples":60.4,"prov":"Que.","id":"a64ial451tvd","lat":46.050815,"long":-73.430309},"type":"Feature","geometry":{"type":"Point","coordinates":[-73.430309,46.050815]}},{"properties":{"city":"Notre-Dame-du-Mont-Carmel","percent in couples":65.4,"prov":"Que.","id":"a64iakxv3dse","lat":46.47325,"long":-72.672809},"type":"Feature","geometry":{"type":"Point","coordinates":[-72.672809,46.47325]}},{"properties":{"city":"Oak Bay","percent in couples":59.6,"prov":"B.C.","id":"a64ial4tio6f","lat":48.426475,"long":-123.317429},"type":"Feature","geometry":{"type":"Point","coordinates":[-123.317429,48.426475]}},{"properties":{"city":"Oakville","percent in couples":63.8,"prov":"Ont.","id":"a64ial2042k7","lat":43.466171,"long":-79.689583},"type":"Feature","geometry":{"type":"Point","coordinates":[-79.689583,43.466171]}},{"properties":{"city":"Okanagan-Similkameen D","percent in couples":71.8,"prov":"B.C.","id":"a64ial22cl5g","lat":49.455841,"long":-120.138779},"type":"Feature","geometry":{"type":"Point","coordinates":[-120.138779,49.455841]}},{"properties":{"city":"Okotoks","percent in couples":66.1,"prov":"Alta.","id":"a64ial2h9wv3","lat":51.918775,"long":-110.162504},"type":"Feature","geometry":{"type":"Point","coordinates":[-110.162504,51.918775]}},{"properties":{"city":"Olds","percent in couples":63.3,"prov":"Alta.","id":"a64ial9ys1po","lat":51.918775,"long":-110.162504},"type":"Feature","geometry":{"type":"Point","coordinates":[-110.162504,51.918775]}},{"properties":{"city":"Oliver Paipoonge","percent in couples":67.3,"prov":"Ont.","id":"a64iakzygjjv","lat":48.398925,"long":-89.519424},"type":"Feature","geometry":{"type":"Point","coordinates":[-89.519424,48.398925]}},{"properties":{"city":"Orangeville","percent in couples":60.6,"prov":"Ont.","id":"a64ial9yjo00","lat":43.920109,"long":-80.093491},"type":"Feature","geometry":{"type":"Point","coordinates":[-80.093491,43.920109]}},{"properties":{"city":"Orillia","percent in couples":53.7,"prov":"Ont.","id":"a64ial4nkx8k","lat":44.60659,"long":-79.418228},"type":"Feature","geometry":{"type":"Point","coordinates":[-79.418228,44.60659]}},{"properties":{"city":"Oro-Medonte","percent in couples":69.2,"prov":"Ont.","id":"a64ial98zr2n","lat":44.469118,"long":-79.525993},"type":"Feature","geometry":{"type":"Point","coordinates":[-79.525993,44.469118]}},{"properties":{"city":"Oromocto","percent in couples":65.5,"prov":"N.B.","id":"a64ial6wsmuq","lat":46.30663,"long":-79.459929},"type":"Feature","geometry":{"type":"Point","coordinates":[-79.459929,46.30663]}},{"properties":{"city":"Oshawa","percent in couples":55.9,"prov":"Ont.","id":"a64ial1ri69d","lat":43.88868,"long":-78.859497},"type":"Feature","geometry":{"type":"Point","coordinates":[-78.859497,43.88868]}},{"properties":{"city":"Otonabee-South Monaghan","percent in couples":67.3,"prov":"Ont.","id":"a64ial8avz1k","lat":44.238823,"long":-78.161118},"type":"Feature","geometry":{"type":"Point","coordinates":[-78.161118,44.238823]}},{"properties":{"city":"Ottawa","percent in couples":56.6,"prov":"Ont.","id":"a64ial10ta2e","lat":45.421501,"long":-75.691887},"type":"Feature","geometry":{"type":"Point","coordinates":[-75.691887,45.421501]}},{"properties":{"city":"Otterburn Park","percent in couples":66.8,"prov":"Que.","id":"a64ialaf420u","lat":45.54226,"long":-73.216039},"type":"Feature","geometry":{"type":"Point","coordinates":[-73.216039,45.54226]}},{"properties":{"city":"Owen Sound","percent in couples":54.5,"prov":"Ont.","id":"a64ial9z5obg","lat":44.564869,"long":-80.942596},"type":"Feature","geometry":{"type":"Point","coordinates":[-80.942596,44.564869]}},{"properties":{"city":"Paradise","percent in couples":69.4,"prov":"N.L.","id":"a64ial6jw8dx","lat":45.847815,"long":-67.689213},"type":"Feature","geometry":{"type":"Point","coordinates":[-67.689213,45.847815]}},{"properties":{"city":"Parkland County","percent in couples":70.1,"prov":"Alta.","id":"a64iakyqu0hn","lat":51.918775,"long":-110.162504},"type":"Feature","geometry":{"type":"Point","coordinates":[-110.162504,51.918775]}},{"properties":{"city":"Parksville","percent in couples":62.2,"prov":"B.C.","id":"a64ialcb27or","lat":49.31969,"long":-124.313644},"type":"Feature","geometry":{"type":"Point","coordinates":[-124.313644,49.31969]}},{"properties":{"city":"Parry Sound","percent in couples":53.3,"prov":"Ont.","id":"a64ialcg37rs","lat":45.607658,"long":-80.038528},"type":"Feature","geometry":{"type":"Point","coordinates":[-80.038528,45.607658]}},{"properties":{"city":"Peace River","percent in couples":58.9,"prov":"Alta.","id":"a64ial0v9b9v","lat":51.918775,"long":-110.162504},"type":"Feature","geometry":{"type":"Point","coordinates":[-110.162504,51.918775]}},{"properties":{"city":"Peace River B","percent in couples":69.7,"prov":"B.C.","id":"a64ial9ukn8g","lat":55.90995,"long":-121.833992},"type":"Feature","geometry":{"type":"Point","coordinates":[-121.833992,55.90995]}},{"properties":{"city":"Peace River C","percent in couples":70.1,"prov":"B.C.","id":"a64ial0bvsgb","lat":55.90995,"long":-121.833992},"type":"Feature","geometry":{"type":"Point","coordinates":[-121.833992,55.90995]}},{"properties":{"city":"Peace River D","percent in couples":67.6,"prov":"B.C.","id":"a64ialb60dvc","lat":55.90995,"long":-121.833992},"type":"Feature","geometry":{"type":"Point","coordinates":[-121.833992,55.90995]}},{"properties":{"city":"Pelham","percent in couples":67.1,"prov":"Ont.","id":"a64iakwwu34v","lat":43.04409,"long":-79.281822},"type":"Feature","geometry":{"type":"Point","coordinates":[-79.281822,43.04409]}},{"properties":{"city":"Pembroke","percent in couples":53.2,"prov":"Ont.","id":"a64ialcivpvd","lat":45.826481,"long":-77.112213},"type":"Feature","geometry":{"type":"Point","coordinates":[-77.112213,45.826481]}},{"properties":{"city":"Penetanguishene","percent in couples":55.9,"prov":"Ont.","id":"a64ial33jc5c","lat":44.76812,"long":-79.935359},"type":"Feature","geometry":{"type":"Point","coordinates":[-79.935359,44.76812]}},{"properties":{"city":"Penticton","percent in couples":55.7,"prov":"B.C.","id":"a64ial4qnhbv","lat":49.50023,"long":-119.593859},"type":"Feature","geometry":{"type":"Point","coordinates":[-119.593859,49.50023]}},{"properties":{"city":"Perth","percent in couples":54.3,"prov":"Ont.","id":"a64iakyxi0aq","lat":44.898941,"long":-76.248329},"type":"Feature","geometry":{"type":"Point","coordinates":[-76.248329,44.898941]}},{"properties":{"city":"Perth East","percent in couples":66.1,"prov":"Ont.","id":"a64iakynd8xv","lat":43.445122,"long":-80.922493},"type":"Feature","geometry":{"type":"Point","coordinates":[-80.922493,43.445122]}},{"properties":{"city":"Petawawa","percent in couples":66.4,"prov":"Ont.","id":"a64ialbmapdb","lat":45.899231,"long":-77.283211},"type":"Feature","geometry":{"type":"Point","coordinates":[-77.283211,45.899231]}},{"properties":{"city":"Peterborough","percent in couples":54.2,"prov":"Ont.","id":"a64ialashiaa","lat":44.300732,"long":-78.321312},"type":"Feature","geometry":{"type":"Point","coordinates":[-78.321312,44.300732]}},{"properties":{"city":"Petrolia","percent in couples":61.6,"prov":"Ont.","id":"a64iakwmzcxt","lat":42.881401,"long":-82.1464},"type":"Feature","geometry":{"type":"Point","coordinates":[-82.1464,42.881401]}},{"properties":{"city":"Pickering","percent in couples":59.3,"prov":"Ont.","id":"a64ial3fsp9m","lat":43.83765,"long":-79.082314},"type":"Feature","geometry":{"type":"Point","coordinates":[-79.082314,43.83765]}},{"properties":{"city":"Pictou Subd. A","percent in couples":65.6,"prov":"N.S.","id":"a64ial4uznjc","lat":43.06478,"long":-82.527599},"type":"Feature","geometry":{"type":"Point","coordinates":[-82.527599,43.06478]}},{"properties":{"city":"Pictou Subd. B","percent in couples":62.7,"prov":"N.S.","id":"a64ial5h5c6k","lat":43.06478,"long":-82.527599},"type":"Feature","geometry":{"type":"Point","coordinates":[-82.527599,43.06478]}},{"properties":{"city":"Pictou Subd. C","percent in couples":64.9,"prov":"N.S.","id":"a64ial1kba40","lat":43.06478,"long":-82.527599},"type":"Feature","geometry":{"type":"Point","coordinates":[-82.527599,43.06478]}},{"properties":{"city":"Pincourt","percent in couples":64.2,"prov":"Que.","id":"a64ialbkjvva","lat":46.840905,"long":-71.343554},"type":"Feature","geometry":{"type":"Point","coordinates":[-71.343554,46.840905]}},{"properties":{"city":"Pitt Meadows","percent in couples":62.9,"prov":"B.C.","id":"a64ial5c14sl","lat":49.22072,"long":-122.689584},"type":"Feature","geometry":{"type":"Point","coordinates":[-122.689584,49.22072]}},{"properties":{"city":"Plessisville","percent in couples":57.0,"prov":"Que.","id":"a64ial43ave2","lat":46.21489,"long":-71.765442},"type":"Feature","geometry":{"type":"Point","coordinates":[-71.765442,46.21489]}},{"properties":{"city":"Plympton-Wyoming","percent in couples":67.9,"prov":"Ont.","id":"a64ial3z9qm9","lat":42.949785,"long":-82.119689},"type":"Feature","geometry":{"type":"Point","coordinates":[-82.119689,42.949785]}},{"properties":{"city":"Pointe-Calumet","percent in couples":61.9,"prov":"Que.","id":"a64iakyj2vow","lat":46.845429,"long":-71.330001},"type":"Feature","geometry":{"type":"Point","coordinates":[-71.330001,46.845429]}},{"properties":{"city":"Pointe-Claire","percent in couples":57.8,"prov":"Que.","id":"a64ial0hb922","lat":46.89987,"long":-71.204439},"type":"Feature","geometry":{"type":"Point","coordinates":[-71.204439,46.89987]}},{"properties":{"city":"Ponoka","percent in couples":55.5,"prov":"Alta.","id":"a64ial5oajbi","lat":51.918775,"long":-110.162504},"type":"Feature","geometry":{"type":"Point","coordinates":[-110.162504,51.918775]}},{"properties":{"city":"Ponoka County","percent in couples":68.1,"prov":"Alta.","id":"a64ial8umf2q","lat":51.918775,"long":-110.162504},"type":"Feature","geometry":{"type":"Point","coordinates":[-110.162504,51.918775]}},{"properties":{"city":"Pont-Rouge","percent in couples":64.0,"prov":"Que.","id":"a64ial7wtxis","lat":46.75568,"long":-71.693901},"type":"Feature","geometry":{"type":"Point","coordinates":[-71.693901,46.75568]}},{"properties":{"city":"Pontiac","percent in couples":64.2,"prov":"Que.","id":"a64ial5i3m79","lat":46.771865,"long":-71.306034},"type":"Feature","geometry":{"type":"Point","coordinates":[-71.306034,46.771865]}},{"properties":{"city":"Port Alberni","percent in couples":58.3,"prov":"B.C.","id":"a64ial3ve9z7","lat":49.233985,"long":-124.807574},"type":"Feature","geometry":{"type":"Point","coordinates":[-124.807574,49.233985]}},{"properties":{"city":"Port Colborne","percent in couples":58.6,"prov":"Ont.","id":"a64ial7z43th","lat":42.88509,"long":-79.251984},"type":"Feature","geometry":{"type":"Point","coordinates":[-79.251984,42.88509]}},{"properties":{"city":"Port Coquitlam","percent in couples":60.0,"prov":"B.C.","id":"a64iakztez41","lat":49.262435,"long":-122.781529},"type":"Feature","geometry":{"type":"Point","coordinates":[-122.781529,49.262435]}},{"properties":{"city":"Port Hope","percent in couples":61.9,"prov":"Ont.","id":"a64iakz3towk","lat":43.950119,"long":-78.291611},"type":"Feature","geometry":{"type":"Point","coordinates":[-78.291611,43.950119]}},{"properties":{"city":"Port Moody","percent in couples":64.2,"prov":"B.C.","id":"a64ial847lwa","lat":49.28242,"long":-122.829343},"type":"Feature","geometry":{"type":"Point","coordinates":[-122.829343,49.28242]}},{"properties":{"city":"Port-Cartier","percent in couples":63.1,"prov":"Que.","id":"a64ialafvob5","lat":50.02713,"long":-66.889542},"type":"Feature","geometry":{"type":"Point","coordinates":[-66.889542,50.02713]}},{"properties":{"city":"Portage la Prairie","percent in couples":52.8,"prov":"Man.","id":"a64iakwfy7s7","lat":49.972967,"long":-98.251233},"type":"Feature","geometry":{"type":"Point","coordinates":[-98.251233,49.972967]}},{"properties":{"city":"Portage la Prairie","percent in couples":65.8,"prov":"Man.","id":"a64iakzy7dfj","lat":49.972967,"long":-98.251233},"type":"Feature","geometry":{"type":"Point","coordinates":[-98.251233,49.972967]}},{"properties":{"city":"Portugal Cove-St. Philip's","percent in couples":67.9,"prov":"N.L.","id":"a64ial1i3gc4","lat":45.847815,"long":-67.689213},"type":"Feature","geometry":{"type":"Point","coordinates":[-67.689213,45.847815]}},{"properties":{"city":"Powell River","percent in couples":61.1,"prov":"B.C.","id":"a64ial3d2vzq","lat":49.83589,"long":-124.523809},"type":"Feature","geometry":{"type":"Point","coordinates":[-124.523809,49.83589]}},{"properties":{"city":"Prince Albert","percent in couples":52.5,"prov":"Sask.","id":"a64ial5klk3d","lat":53.199451,"long":-105.745819},"type":"Feature","geometry":{"type":"Point","coordinates":[-105.745819,53.199451]}},{"properties":{"city":"Prince Edward","percent in couples":66.3,"prov":"Ont.","id":"a64iakwe5uoy","lat":43.89999,"long":-77.106979},"type":"Feature","geometry":{"type":"Point","coordinates":[-77.106979,43.89999]}},{"properties":{"city":"Prince George","percent in couples":56.9,"prov":"B.C.","id":"a64ial204r2s","lat":53.91235,"long":-122.745089},"type":"Feature","geometry":{"type":"Point","coordinates":[-122.745089,53.91235]}},{"properties":{"city":"Prince Rupert","percent in couples":55.6,"prov":"B.C.","id":"a64ial61nefo","lat":54.31304,"long":-130.326244},"type":"Feature","geometry":{"type":"Point","coordinates":[-130.326244,54.31304]}},{"properties":{"city":"Princeville","percent in couples":62.0,"prov":"Que.","id":"a64ialbz8clo","lat":46.169109,"long":-71.870232},"type":"Feature","geometry":{"type":"Point","coordinates":[-71.870232,46.169109]}},{"properties":{"city":"Puslinch","percent in couples":68.7,"prov":"Ont.","id":"a64ial36p5pd","lat":43.46727,"long":-80.162613},"type":"Feature","geometry":{"type":"Point","coordinates":[-80.162613,43.46727]}},{"properties":{"city":"Qualicum Beach","percent in couples":70.8,"prov":"B.C.","id":"a64ial4oo6i1","lat":49.346705,"long":-124.441704},"type":"Feature","geometry":{"type":"Point","coordinates":[-124.441704,49.346705]}},{"properties":{"city":"Queens","percent in couples":64.1,"prov":"N.S.","id":"a64ial1qlop6","lat":46.205711,"long":-60.252956},"type":"Feature","geometry":{"type":"Point","coordinates":[-60.252956,46.205711]}},{"properties":{"city":"Quesnel","percent in couples":57.9,"prov":"B.C.","id":"a64iakxbymgk","lat":52.97812,"long":-122.498244},"type":"Feature","geometry":{"type":"Point","coordinates":[-122.498244,52.97812]}},{"properties":{"city":"Quinte West","percent in couples":64.1,"prov":"Ont.","id":"a64iakxhlmcb","lat":44.068729,"long":-77.601517},"type":"Feature","geometry":{"type":"Point","coordinates":[-77.601517,44.068729]}},{"properties":{"city":"Quispamsis","percent in couples":69.8,"prov":"N.B.","id":"a64ial0f0zu6","lat":46.30663,"long":-79.459929},"type":"Feature","geometry":{"type":"Point","coordinates":[-79.459929,46.30663]}},{"properties":{"city":"Ramara","percent in couples":67.8,"prov":"Ont.","id":"a64ialaz7mjx","lat":44.547562,"long":-79.176773},"type":"Feature","geometry":{"type":"Point","coordinates":[-79.176773,44.547562]}},{"properties":{"city":"Rawdon","percent in couples":58.7,"prov":"Que.","id":"a64iakwzh1f6","lat":46.04261,"long":-73.707367},"type":"Feature","geometry":{"type":"Point","coordinates":[-73.707367,46.04261]}},{"properties":{"city":"Red Deer","percent in couples":55.4,"prov":"Alta.","id":"a64ial8132jl","lat":51.918775,"long":-110.162504},"type":"Feature","geometry":{"type":"Point","coordinates":[-110.162504,51.918775]}},{"properties":{"city":"Red Deer County","percent in couples":67.9,"prov":"Alta.","id":"a64ial6put5b","lat":51.918775,"long":-110.162504},"type":"Feature","geometry":{"type":"Point","coordinates":[-110.162504,51.918775]}},{"properties":{"city":"Redcliff","percent in couples":66.1,"prov":"Alta.","id":"a64iakzoi8ai","lat":51.918775,"long":-110.162504},"type":"Feature","geometry":{"type":"Point","coordinates":[-110.162504,51.918775]}},{"properties":{"city":"Regina","percent in couples":53.8,"prov":"Sask.","id":"a64ialc2pl77","lat":50.448009,"long":-104.595177},"type":"Feature","geometry":{"type":"Point","coordinates":[-104.595177,50.448009]}},{"properties":{"city":"Renfrew","percent in couples":53.1,"prov":"Ont.","id":"a64ialaibxxz","lat":45.696079,"long":-77.354973},"type":"Feature","geometry":{"type":"Point","coordinates":[-77.354973,45.696079]}},{"properties":{"city":"Repentigny","percent in couples":63.1,"prov":"Que.","id":"a64ialc4nri4","lat":46.79274,"long":-71.248639},"type":"Feature","geometry":{"type":"Point","coordinates":[-71.248639,46.79274]}},{"properties":{"city":"Revelstoke","percent in couples":60.3,"prov":"B.C.","id":"a64ial9ij82g","lat":51.010146,"long":-118.214476},"type":"Feature","geometry":{"type":"Point","coordinates":[-118.214476,51.010146]}},{"properties":{"city":"Richelieu","percent in couples":56.4,"prov":"Que.","id":"a64ialajy1dj","lat":46.809613,"long":-71.223597},"type":"Feature","geometry":{"type":"Point","coordinates":[-71.223597,46.809613]}},{"properties":{"city":"Richmond","percent in couples":59.6,"prov":"B.C.","id":"a64ial45a5ku","lat":49.16337,"long":-123.136624},"type":"Feature","geometry":{"type":"Point","coordinates":[-123.136624,49.16337]}},{"properties":{"city":"Richmond Hill","percent in couples":62.3,"prov":"Ont.","id":"a64ial5opufd","lat":43.847274,"long":-79.378563},"type":"Feature","geometry":{"type":"Point","coordinates":[-79.378563,43.847274]}},{"properties":{"city":"Rideau Lakes","percent in couples":68.4,"prov":"Ont.","id":"a64iakz47c0h","lat":44.67231,"long":-76.107071},"type":"Feature","geometry":{"type":"Point","coordinates":[-76.107071,44.67231]}},{"properties":{"city":"Rigaud","percent in couples":60.9,"prov":"Que.","id":"a64ial7sms06","lat":46.862734,"long":-71.34634},"type":"Feature","geometry":{"type":"Point","coordinates":[-71.34634,46.862734]}},{"properties":{"city":"Rimouski","percent in couples":55.9,"prov":"Que.","id":"a64ial4xs79w","lat":48.449291,"long":-68.524673},"type":"Feature","geometry":{"type":"Point","coordinates":[-68.524673,48.449291]}},{"properties":{"city":"Ritchot","percent in couples":68.2,"prov":"Man.","id":"a64ial2tzgnm","lat":49.610045,"long":-102.084689},"type":"Feature","geometry":{"type":"Point","coordinates":[-102.084689,49.610045]}},{"properties":{"city":"Riverview","percent in couples":63.7,"prov":"N.B.","id":"a64ial4guv3h","lat":46.30663,"long":-79.459929},"type":"Feature","geometry":{"type":"Point","coordinates":[-79.459929,46.30663]}},{"properties":{"city":"Roberval","percent in couples":56.2,"prov":"Que.","id":"a64ial1lt4qs","lat":46.82943,"long":-71.238269},"type":"Feature","geometry":{"type":"Point","coordinates":[-71.238269,46.82943]}},{"properties":{"city":"Rockwood","percent in couples":61.5,"prov":"Man.","id":"a64ialao8pcx","lat":49.610045,"long":-102.084689},"type":"Feature","geometry":{"type":"Point","coordinates":[-102.084689,49.610045]}},{"properties":{"city":"Rocky Mountain House","percent in couples":59.3,"prov":"Alta.","id":"a64ial7efq46","lat":51.918775,"long":-110.162504},"type":"Feature","geometry":{"type":"Point","coordinates":[-110.162504,51.918775]}},{"properties":{"city":"Rocky View No. 44","percent in couples":71.3,"prov":"Alta.","id":"a64ial7c65cx","lat":51.918775,"long":-110.162504},"type":"Feature","geometry":{"type":"Point","coordinates":[-110.162504,51.918775]}},{"properties":{"city":"Rothesay","percent in couples":65.6,"prov":"N.B.","id":"a64ial0t46yt","lat":46.30663,"long":-79.459929},"type":"Feature","geometry":{"type":"Point","coordinates":[-79.459929,46.30663]}},{"properties":{"city":"Rouyn-Noranda","percent in couples":58.8,"prov":"Que.","id":"a64ial99nsmh","lat":48.237068,"long":-79.014511},"type":"Feature","geometry":{"type":"Point","coordinates":[-79.014511,48.237068]}},{"properties":{"city":"Russell","percent in couples":67.4,"prov":"Ont.","id":"a64ialao4x5o","lat":45.25811,"long":-75.358788},"type":"Feature","geometry":{"type":"Point","coordinates":[-75.358788,45.25811]}},{"properties":{"city":"Saanich","percent in couples":58.1,"prov":"B.C.","id":"a64ial2o5bp2","lat":48.458885,"long":-123.376629},"type":"Feature","geometry":{"type":"Point","coordinates":[-123.376629,48.458885]}},{"properties":{"city":"Sackville","percent in couples":60.5,"prov":"N.B.","id":"a64ial4w55ed","lat":46.30663,"long":-79.459929},"type":"Feature","geometry":{"type":"Point","coordinates":[-79.459929,46.30663]}},{"properties":{"city":"Saguenay","percent in couples":59.3,"prov":"Que.","id":"a64ial2umqm5","lat":46.7751,"long":-71.328319},"type":"Feature","geometry":{"type":"Point","coordinates":[-71.328319,46.7751]}},{"properties":{"city":"Saint John","percent in couples":50.7,"prov":"N.B.","id":"a64ial83dsfb","lat":46.30663,"long":-79.459929},"type":"Feature","geometry":{"type":"Point","coordinates":[-79.459929,46.30663]}},{"properties":{"city":"Saint-Amable","percent in couples":67.7,"prov":"Que.","id":"a64ial01ky4a","lat":45.655861,"long":-73.300179},"type":"Feature","geometry":{"type":"Point","coordinates":[-73.300179,45.655861]}},{"properties":{"city":"Saint-Augustin-de-Desmaures","percent in couples":65.9,"prov":"Que.","id":"a64ialblargi","lat":46.749175,"long":-71.384724},"type":"Feature","geometry":{"type":"Point","coordinates":[-71.384724,46.749175]}},{"properties":{"city":"Saint-Basile-le-Grand","percent in couples":68.6,"prov":"Que.","id":"a64iakxay7r8","lat":45.52664,"long":-73.287374},"type":"Feature","geometry":{"type":"Point","coordinates":[-73.287374,45.52664]}},{"properties":{"city":"Saint-Bruno-de-Montarville","percent in couples":65.7,"prov":"Que.","id":"a64ial5593ea","lat":45.52615,"long":-73.340299},"type":"Feature","geometry":{"type":"Point","coordinates":[-73.340299,45.52615]}},{"properties":{"city":"Saint-Calixte","percent in couples":58.7,"prov":"Que.","id":"a64ial1r1xor","lat":45.952251,"long":-73.849243},"type":"Feature","geometry":{"type":"Point","coordinates":[-73.849243,45.952251]}},{"properties":{"city":"Saint-Colomban","percent in couples":70.6,"prov":"Que.","id":"a64ial6lob91","lat":45.738972,"long":-74.136818},"type":"Feature","geometry":{"type":"Point","coordinates":[-74.136818,45.738972]}},{"properties":{"city":"Saint-Constant","percent in couples":66.9,"prov":"Que.","id":"a64iakz2qv3s","lat":45.371029,"long":-73.570992},"type":"Feature","geometry":{"type":"Point","coordinates":[-73.570992,45.371029]}},{"properties":{"city":"Saint-Eustache","percent in couples":60.2,"prov":"Que.","id":"a64iakwvdcom","lat":45.558048,"long":-73.888901},"type":"Feature","geometry":{"type":"Point","coordinates":[-73.888901,45.558048]}},{"properties":{"city":"Saint-Georges","percent in couples":56.5,"prov":"Que.","id":"a64ial5e0gtx","lat":46.12381,"long":-70.671852},"type":"Feature","geometry":{"type":"Point","coordinates":[-70.671852,46.12381]}},{"properties":{"city":"Saint-Hippolyte","percent in couples":64.0,"prov":"Que.","id":"a64iakznyjyq","lat":45.930641,"long":-74.025093},"type":"Feature","geometry":{"type":"Point","coordinates":[-74.025093,45.930641]}},{"properties":{"city":"Saint-Hyacinthe","percent in couples":54.0,"prov":"Que.","id":"a64ial6afje7","lat":45.62664,"long":-72.947159},"type":"Feature","geometry":{"type":"Point","coordinates":[-72.947159,45.62664]}},{"properties":{"city":"Saint-Jean-sur-Richelieu","percent in couples":58.1,"prov":"Que.","id":"a64ialcblw5q","lat":45.30611,"long":-73.250319},"type":"Feature","geometry":{"type":"Point","coordinates":[-73.250319,45.30611]}},{"properties":{"city":"Saint-Lambert","percent in couples":55.2,"prov":"Que.","id":"a64ial7vs96m","lat":45.501781,"long":-73.513451},"type":"Feature","geometry":{"type":"Point","coordinates":[-73.513451,45.501781]}},{"properties":{"city":"Saint-Lambert-de-Lauzon","percent in couples":69.5,"prov":"Que.","id":"a64iakz5rbjn","lat":46.587686,"long":-71.211158},"type":"Feature","geometry":{"type":"Point","coordinates":[-71.211158,46.587686]}},{"properties":{"city":"Saint-Lazare","percent in couples":73.5,"prov":"Que.","id":"a64ialc14864","lat":45.400349,"long":-74.142151},"type":"Feature","geometry":{"type":"Point","coordinates":[-74.142151,45.400349]}},{"properties":{"city":"Saint-Lin--Laurentides","percent in couples":62.5,"prov":"Que.","id":"a64iakz6ioae","lat":45.852276,"long":-73.755979},"type":"Feature","geometry":{"type":"Point","coordinates":[-73.755979,45.852276]}},{"properties":{"city":"Saint-Philippe","percent in couples":68.1,"prov":"Que.","id":"a64ial5nlwiw","lat":45.361889,"long":-73.481583},"type":"Feature","geometry":{"type":"Point","coordinates":[-73.481583,45.361889]}},{"properties":{"city":"Saint-Pie","percent in couples":64.1,"prov":"Que.","id":"a64ial4gudt2","lat":45.504662,"long":-72.906731},"type":"Feature","geometry":{"type":"Point","coordinates":[-72.906731,45.504662]}},{"properties":{"city":"Saint-Raymond","percent in couples":60.9,"prov":"Que.","id":"a64ial1fbipn","lat":46.893421,"long":-71.8283},"type":"Feature","geometry":{"type":"Point","coordinates":[-71.8283,46.893421]}},{"properties":{"city":"Saint-Sauveur","percent in couples":61.4,"prov":"Que.","id":"a64ial6ar5j7","lat":45.895329,"long":-74.157021},"type":"Feature","geometry":{"type":"Point","coordinates":[-74.157021,45.895329]}},{"properties":{"city":"Saint-Zotique","percent in couples":68.9,"prov":"Que.","id":"a64ial3gnfkw","lat":45.241421,"long":-74.248871},"type":"Feature","geometry":{"type":"Point","coordinates":[-74.248871,45.241421]}},{"properties":{"city":"Sainte-Agathe-des-Monts","percent in couples":55.6,"prov":"Que.","id":"a64ial92qzsj","lat":46.04741,"long":-74.283459},"type":"Feature","geometry":{"type":"Point","coordinates":[-74.283459,46.04741]}},{"properties":{"city":"Sainte-Anne-de-Bellevue","percent in couples":56.5,"prov":"Que.","id":"a64iaky15ggy","lat":40.259209,"long":-78.505767},"type":"Feature","geometry":{"type":"Point","coordinates":[-78.505767,40.259209]}},{"properties":{"city":"Sainte-Anne-des-Monts","percent in couples":56.0,"prov":"Que.","id":"a64ialbbk822","lat":49.129214,"long":-66.486393},"type":"Feature","geometry":{"type":"Point","coordinates":[-66.486393,49.129214]}},{"properties":{"city":"Sainte-Anne-des-Plaines","percent in couples":62.4,"prov":"Que.","id":"a64ialb1srep","lat":45.760205,"long":-73.814449},"type":"Feature","geometry":{"type":"Point","coordinates":[-73.814449,45.760205]}},{"properties":{"city":"Sainte-Catherine","percent in couples":62.8,"prov":"Que.","id":"a64ial3v18tb","lat":45.405762,"long":-73.571922},"type":"Feature","geometry":{"type":"Point","coordinates":[-73.571922,45.405762]}},{"properties":{"city":"Sainte-Catherine-de-la-Jacques-Cartier","percent in couples":71.1,"prov":"Que.","id":"a64ialboqe9m","lat":46.671555,"long":-71.759484},"type":"Feature","geometry":{"type":"Point","coordinates":[-71.759484,46.671555]}},{"properties":{"city":"Sainte-Julie","percent in couples":68.7,"prov":"Que.","id":"a64ial6oolc8","lat":45.587811,"long":-73.32692},"type":"Feature","geometry":{"type":"Point","coordinates":[-73.32692,45.587811]}},{"properties":{"city":"Sainte-Julienne","percent in couples":61.1,"prov":"Que.","id":"a64ial29w36b","lat":45.9627,"long":-73.707916},"type":"Feature","geometry":{"type":"Point","coordinates":[-73.707916,45.9627]}},{"properties":{"city":"Sainte-Marie","percent in couples":61.7,"prov":"Que.","id":"a64ialahaj40","lat":46.469021,"long":-71.037651},"type":"Feature","geometry":{"type":"Point","coordinates":[-71.037651,46.469021]}},{"properties":{"city":"Sainte-Marthe-sur-le-Lac","percent in couples":66.0,"prov":"Que.","id":"a64ial8k2f9m","lat":45.529251,"long":-73.932358},"type":"Feature","geometry":{"type":"Point","coordinates":[-73.932358,45.529251]}},{"properties":{"city":"Sainte-Sophie","percent in couples":63.8,"prov":"Que.","id":"a64iakzpihce","lat":45.819359,"long":-73.896599},"type":"Feature","geometry":{"type":"Point","coordinates":[-73.896599,45.819359]}},{"properties":{"city":"Salaberry-de-Valleyfield","percent in couples":55.3,"prov":"Que.","id":"a64ial68cw0x","lat":45.256415,"long":-74.132459},"type":"Feature","geometry":{"type":"Point","coordinates":[-74.132459,45.256415]}},{"properties":{"city":"Salmon Arm","percent in couples":61.4,"prov":"B.C.","id":"a64ial25d0c2","lat":50.702228,"long":-119.271885},"type":"Feature","geometry":{"type":"Point","coordinates":[-119.271885,50.702228]}},{"properties":{"city":"Sarnia","percent in couples":58.3,"prov":"Ont.","id":"a64ial5nsxcf","lat":42.978771,"long":-82.403358},"type":"Feature","geometry":{"type":"Point","coordinates":[-82.403358,42.978771]}},{"properties":{"city":"Saskatoon","percent in couples":52.8,"prov":"Sask.","id":"a64ial9w2ghh","lat":52.130501,"long":-106.659309},"type":"Feature","geometry":{"type":"Point","coordinates":[-106.659309,52.130501]}},{"properties":{"city":"Saugeen Shores","percent in couples":63.9,"prov":"Ont.","id":"a64ial6la530","lat":44.428771,"long":-81.372318},"type":"Feature","geometry":{"type":"Point","coordinates":[-81.372318,44.428771]}},{"properties":{"city":"Sault Ste. Marie","percent in couples":57.1,"prov":"Ont.","id":"a64iakygz259","lat":46.51828,"long":-84.347904},"type":"Feature","geometry":{"type":"Point","coordinates":[-84.347904,46.51828]}},{"properties":{"city":"Saumarez","percent in couples":58.8,"prov":"N.B.","id":"a64ial7hxzsh","lat":46.30663,"long":-79.459929},"type":"Feature","geometry":{"type":"Point","coordinates":[-79.459929,46.30663]}},{"properties":{"city":"Scugog","percent in couples":65.3,"prov":"Ont.","id":"a64ial2y8qzl","lat":44.10503,"long":-78.944901},"type":"Feature","geometry":{"type":"Point","coordinates":[-78.944901,44.10503]}},{"properties":{"city":"Sechelt","percent in couples":61.3,"prov":"B.C.","id":"a64ial2s6lxa","lat":49.47346,"long":-123.754609},"type":"Feature","geometry":{"type":"Point","coordinates":[-123.754609,49.47346]}},{"properties":{"city":"Selkirk","percent in couples":50.3,"prov":"Man.","id":"a64ial660n1z","lat":49.610045,"long":-102.084689},"type":"Feature","geometry":{"type":"Point","coordinates":[-102.084689,49.610045]}},{"properties":{"city":"Severn","percent in couples":66.5,"prov":"Ont.","id":"a64ial7s006m","lat":44.777908,"long":-79.334518},"type":"Feature","geometry":{"type":"Point","coordinates":[-79.334518,44.777908]}},{"properties":{"city":"Shawinigan","percent in couples":52.8,"prov":"Que.","id":"a64iakwvc6zb","lat":46.51898,"long":-72.752199},"type":"Feature","geometry":{"type":"Point","coordinates":[-72.752199,46.51898]}},{"properties":{"city":"Shediac","percent in couples":56.1,"prov":"N.B.","id":"a64ial0h0b1v","lat":46.30663,"long":-79.459929},"type":"Feature","geometry":{"type":"Point","coordinates":[-79.459929,46.30663]}},{"properties":{"city":"Shefford","percent in couples":72.7,"prov":"Que.","id":"a64ial003tv3","lat":45.33213,"long":-72.47403},"type":"Feature","geometry":{"type":"Point","coordinates":[-72.47403,45.33213]}},{"properties":{"city":"Shelburne","percent in couples":61.5,"prov":"Ont.","id":"a64ialbstto4","lat":44.078781,"long":-80.20208},"type":"Feature","geometry":{"type":"Point","coordinates":[-80.20208,44.078781]}},{"properties":{"city":"Sherbrooke","percent in couples":53.9,"prov":"Que.","id":"a64ial3jnand","lat":46.80581,"long":-71.229754},"type":"Feature","geometry":{"type":"Point","coordinates":[-71.229754,46.80581]}},{"properties":{"city":"Shippagan","percent in couples":53.6,"prov":"N.B.","id":"a64ial3yha40","lat":46.30663,"long":-79.459929},"type":"Feature","geometry":{"type":"Point","coordinates":[-79.459929,46.30663]}},{"properties":{"city":"Sidney","percent in couples":58.4,"prov":"B.C.","id":"a64ial2d3ecl","lat":48.650215,"long":-123.398424},"type":"Feature","geometry":{"type":"Point","coordinates":[-123.398424,48.650215]}},{"properties":{"city":"Sioux Lookout","percent in couples":60.3,"prov":"Ont.","id":"a64iala9rgdk","lat":50.098091,"long":-91.915031},"type":"Feature","geometry":{"type":"Point","coordinates":[-91.915031,50.098091]}},{"properties":{"city":"Slave Lake","percent in couples":59.4,"prov":"Alta.","id":"a64ial0d5v66","lat":51.918775,"long":-110.162504},"type":"Feature","geometry":{"type":"Point","coordinates":[-110.162504,51.918775]}},{"properties":{"city":"Smith-Ennismore-Lakefield","percent in couples":67.7,"prov":"Ont.","id":"a64iala43pck","lat":44.394171,"long":-78.375261},"type":"Feature","geometry":{"type":"Point","coordinates":[-78.375261,44.394171]}},{"properties":{"city":"Smithers","percent in couples":57.8,"prov":"B.C.","id":"a64ial0bpisa","lat":54.782803,"long":-127.168129},"type":"Feature","geometry":{"type":"Point","coordinates":[-127.168129,54.782803]}},{"properties":{"city":"Smiths Falls","percent in couples":52.4,"prov":"Ont.","id":"a64ial1pgqux","lat":44.902585,"long":-76.021514},"type":"Feature","geometry":{"type":"Point","coordinates":[-76.021514,44.902585]}},{"properties":{"city":"Sooke","percent in couples":64.0,"prov":"B.C.","id":"a64iakyw3eir","lat":48.381913,"long":-123.731237},"type":"Feature","geometry":{"type":"Point","coordinates":[-123.731237,48.381913]}},{"properties":{"city":"Sorel-Tracy","percent in couples":57.8,"prov":"Que.","id":"a64ial2hcyc6","lat":46.042389,"long":-73.112633},"type":"Feature","geometry":{"type":"Point","coordinates":[-73.112633,46.042389]}},{"properties":{"city":"South Bruce","percent in couples":65.0,"prov":"Ont.","id":"a64ial79tthu","lat":44.022141,"long":-81.202171},"type":"Feature","geometry":{"type":"Point","coordinates":[-81.202171,44.022141]}},{"properties":{"city":"South Bruce Peninsula","percent in couples":65.6,"prov":"Ont.","id":"a64ial9kmymw","lat":44.785782,"long":-81.19338},"type":"Feature","geometry":{"type":"Point","coordinates":[-81.19338,44.785782]}},{"properties":{"city":"South Dundas","percent in couples":66.1,"prov":"Ont.","id":"a64iakzg1s7l","lat":45.099714,"long":-75.22406},"type":"Feature","geometry":{"type":"Point","coordinates":[-75.22406,45.099714]}},{"properties":{"city":"South Frontenac","percent in couples":69.7,"prov":"Ont.","id":"a64ial1x7vfz","lat":44.412907,"long":-76.594872},"type":"Feature","geometry":{"type":"Point","coordinates":[-76.594872,44.412907]}},{"properties":{"city":"South Glengarry","percent in couples":67.2,"prov":"Ont.","id":"a64ial563qpb","lat":45.13988,"long":-74.503924},"type":"Feature","geometry":{"type":"Point","coordinates":[-74.503924,45.13988]}},{"properties":{"city":"South Huron","percent in couples":63.2,"prov":"Ont.","id":"a64ial566nxe","lat":43.316151,"long":-81.474297},"type":"Feature","geometry":{"type":"Point","coordinates":[-81.474297,43.316151]}},{"properties":{"city":"South Stormont","percent in couples":68.8,"prov":"Ont.","id":"a64ial7ayowe","lat":45.025243,"long":-74.999183},"type":"Feature","geometry":{"type":"Point","coordinates":[-74.999183,45.025243]}},{"properties":{"city":"South-West Oxford","percent in couples":68.7,"prov":"Ont.","id":"a64iaky104l8","lat":42.932696,"long":-80.81313},"type":"Feature","geometry":{"type":"Point","coordinates":[-80.81313,42.932696]}},{"properties":{"city":"Southgate","percent in couples":65.9,"prov":"Ont.","id":"a64ial7ttihn","lat":44.119598,"long":-80.536201},"type":"Feature","geometry":{"type":"Point","coordinates":[-80.536201,44.119598]}},{"properties":{"city":"Southwest Middlesex","percent in couples":64.4,"prov":"Ont.","id":"a64ial4mzeew","lat":42.74798,"long":-81.711609},"type":"Feature","geometry":{"type":"Point","coordinates":[-81.711609,42.74798]}},{"properties":{"city":"Springfield","percent in couples":68.6,"prov":"Man.","id":"a64ial3e3qzp","lat":49.610045,"long":-102.084689},"type":"Feature","geometry":{"type":"Point","coordinates":[-102.084689,49.610045]}},{"properties":{"city":"Springwater","percent in couples":67.7,"prov":"Ont.","id":"a64ial4ac10e","lat":44.431419,"long":-79.726624},"type":"Feature","geometry":{"type":"Point","coordinates":[-79.726624,44.431419]}},{"properties":{"city":"Spruce Grove","percent in couples":65.3,"prov":"Alta.","id":"a64ialcjviw3","lat":51.918775,"long":-110.162504},"type":"Feature","geometry":{"type":"Point","coordinates":[-110.162504,51.918775]}},{"properties":{"city":"Squamish","percent in couples":62.2,"prov":"B.C.","id":"a64ialamu2rf","lat":49.697985,"long":-123.155454},"type":"Feature","geometry":{"type":"Point","coordinates":[-123.155454,49.697985]}},{"properties":{"city":"St. Albert","percent in couples":64.1,"prov":"Alta.","id":"a64ial90lea5","lat":51.918775,"long":-110.162504},"type":"Feature","geometry":{"type":"Point","coordinates":[-110.162504,51.918775]}},{"properties":{"city":"St. Andrews","percent in couples":68.9,"prov":"Man.","id":"a64ialagqves","lat":49.610045,"long":-102.084689},"type":"Feature","geometry":{"type":"Point","coordinates":[-102.084689,49.610045]}},{"properties":{"city":"St. Catharines","percent in couples":55.9,"prov":"Ont.","id":"a64iakxunscc","lat":43.15633,"long":-79.248672},"type":"Feature","geometry":{"type":"Point","coordinates":[-79.248672,43.15633]}},{"properties":{"city":"St. Clair","percent in couples":68.4,"prov":"Ont.","id":"a64ial6rnlrs","lat":42.844639,"long":-82.463043},"type":"Feature","geometry":{"type":"Point","coordinates":[-82.463043,42.844639]}},{"properties":{"city":"St. Clements","percent in couples":68.6,"prov":"Man.","id":"a64ialbx3jlr","lat":49.610045,"long":-102.084689},"type":"Feature","geometry":{"type":"Point","coordinates":[-102.084689,49.610045]}},{"properties":{"city":"St. John's","percent in couples":51.3,"prov":"N.L.","id":"a64ial5g4mux","lat":40.958305,"long":-80.659579},"type":"Feature","geometry":{"type":"Point","coordinates":[-80.659579,40.958305]}},{"properties":{"city":"St. Marys","percent in couples":63.3,"prov":"Ont.","id":"a64iakxvdqfv","lat":43.259491,"long":-81.141418},"type":"Feature","geometry":{"type":"Point","coordinates":[-81.141418,43.259491]}},{"properties":{"city":"St. Paul","percent in couples":57.1,"prov":"Alta.","id":"a64ial48mgr3","lat":51.918775,"long":-110.162504},"type":"Feature","geometry":{"type":"Point","coordinates":[-110.162504,51.918775]}},{"properties":{"city":"St. Paul County No. 19","percent in couples":69.1,"prov":"Alta.","id":"a64ial0ncqfi","lat":51.918775,"long":-110.162504},"type":"Feature","geometry":{"type":"Point","coordinates":[-110.162504,51.918775]}},{"properties":{"city":"St. Thomas","percent in couples":58.8,"prov":"Ont.","id":"a64ialauu0ov","lat":42.778938,"long":-81.193153},"type":"Feature","geometry":{"type":"Point","coordinates":[-81.193153,42.778938]}},{"properties":{"city":"Stanley","percent in couples":71.1,"prov":"Man.","id":"a64ial4s72kt","lat":49.610045,"long":-102.084689},"type":"Feature","geometry":{"type":"Point","coordinates":[-102.084689,49.610045]}},{"properties":{"city":"Steinbach","percent in couples":63.1,"prov":"Man.","id":"a64ialboipdg","lat":49.610045,"long":-102.084689},"type":"Feature","geometry":{"type":"Point","coordinates":[-102.084689,49.610045]}},{"properties":{"city":"Stephenville","percent in couples":54.4,"prov":"N.L.","id":"a64ial739c58","lat":45.847815,"long":-67.689213},"type":"Feature","geometry":{"type":"Point","coordinates":[-67.689213,45.847815]}},{"properties":{"city":"Stettler","percent in couples":60.8,"prov":"Alta.","id":"a64ial4251o8","lat":51.918775,"long":-110.162504},"type":"Feature","geometry":{"type":"Point","coordinates":[-110.162504,51.918775]}},{"properties":{"city":"Stettler County No. 6","percent in couples":69.2,"prov":"Alta.","id":"a64ial9mgjjj","lat":51.918775,"long":-110.162504},"type":"Feature","geometry":{"type":"Point","coordinates":[-110.162504,51.918775]}},{"properties":{"city":"Stone Mills","percent in couples":69.4,"prov":"Ont.","id":"a64ial473hec","lat":44.312019,"long":-76.885559},"type":"Feature","geometry":{"type":"Point","coordinates":[-76.885559,44.312019]}},{"properties":{"city":"Stoneham-et-Tewkesbury","percent in couples":68.0,"prov":"Que.","id":"a64ial7nakf8","lat":46.98312,"long":-71.365194},"type":"Feature","geometry":{"type":"Point","coordinates":[-71.365194,46.98312]}},{"properties":{"city":"Stony Plain","percent in couples":62.2,"prov":"Alta.","id":"a64iakze9dfa","lat":51.918775,"long":-110.162504},"type":"Feature","geometry":{"type":"Point","coordinates":[-110.162504,51.918775]}},{"properties":{"city":"Stratford","percent in couples":65.6,"prov":"P.E.I.","id":"a64ial7x008a","lat":46.218449,"long":-63.079411},"type":"Feature","geometry":{"type":"Point","coordinates":[-63.079411,46.218449]}},{"properties":{"city":"Stratford","percent in couples":57.5,"prov":"Ont.","id":"a64iaky9eb62","lat":43.370129,"long":-80.981934},"type":"Feature","geometry":{"type":"Point","coordinates":[-80.981934,43.370129]}},{"properties":{"city":"Strathcona County","percent in couples":67.5,"prov":"Alta.","id":"a64ial0jydby","lat":51.918775,"long":-110.162504},"type":"Feature","geometry":{"type":"Point","coordinates":[-110.162504,51.918775]}},{"properties":{"city":"Strathmore","percent in couples":63.7,"prov":"Alta.","id":"a64ial5m91mu","lat":51.918775,"long":-110.162504},"type":"Feature","geometry":{"type":"Point","coordinates":[-110.162504,51.918775]}},{"properties":{"city":"Strathroy-Caradoc","percent in couples":64.5,"prov":"Ont.","id":"a64ialc3iv8m","lat":42.955774,"long":-81.622299},"type":"Feature","geometry":{"type":"Point","coordinates":[-81.622299,42.955774]}},{"properties":{"city":"Sturgeon County","percent in couples":69.7,"prov":"Alta.","id":"a64ial10x5ii","lat":51.918775,"long":-110.162504},"type":"Feature","geometry":{"type":"Point","coordinates":[-110.162504,51.918775]}},{"properties":{"city":"Summerland","percent in couples":64.7,"prov":"B.C.","id":"a64ial1uukfa","lat":49.6023,"long":-119.682174},"type":"Feature","geometry":{"type":"Point","coordinates":[-119.682174,49.6023]}},{"properties":{"city":"Summerside","percent in couples":57.3,"prov":"P.E.I.","id":"a64ial9empcx","lat":46.394081,"long":-63.791939},"type":"Feature","geometry":{"type":"Point","coordinates":[-63.791939,46.394081]}},{"properties":{"city":"Surrey","percent in couples":61.9,"prov":"B.C.","id":"a64ial4of0un","lat":49.10522,"long":-122.831374},"type":"Feature","geometry":{"type":"Point","coordinates":[-122.831374,49.10522]}},{"properties":{"city":"Swift Current","percent in couples":61.0,"prov":"Sask.","id":"a64ialaw0im8","lat":50.292759,"long":-107.800552},"type":"Feature","geometry":{"type":"Point","coordinates":[-107.800552,50.292759]}},{"properties":{"city":"Sylvan Lake","percent in couples":63.6,"prov":"Alta.","id":"a64ial10te2f","lat":51.918775,"long":-110.162504},"type":"Feature","geometry":{"type":"Point","coordinates":[-110.162504,51.918775]}},{"properties":{"city":"Taber","percent in couples":62.6,"prov":"Alta.","id":"a64iakzoy3nw","lat":51.918775,"long":-110.162504},"type":"Feature","geometry":{"type":"Point","coordinates":[-110.162504,51.918775]}},{"properties":{"city":"Taber","percent in couples":70.3,"prov":"Alta.","id":"a64iakybiyyv","lat":51.918775,"long":-110.162504},"type":"Feature","geometry":{"type":"Point","coordinates":[-110.162504,51.918775]}},{"properties":{"city":"Tay","percent in couples":64.0,"prov":"Ont.","id":"a64ial09qo6t","lat":44.747379,"long":-79.761414},"type":"Feature","geometry":{"type":"Point","coordinates":[-79.761414,44.747379]}},{"properties":{"city":"Tay Valley","percent in couples":68.6,"prov":"Ont.","id":"a64ialarkfum","lat":44.890148,"long":-76.318291},"type":"Feature","geometry":{"type":"Point","coordinates":[-76.318291,44.890148]}},{"properties":{"city":"Tecumseh","percent in couples":63.5,"prov":"Ont.","id":"a64ial7uh4um","lat":42.315159,"long":-82.887123},"type":"Feature","geometry":{"type":"Point","coordinates":[-82.887123,42.315159]}},{"properties":{"city":"Temiskaming Shores","percent in couples":62.3,"prov":"Ont.","id":"a64ial7go41v","lat":47.539885,"long":-79.674493},"type":"Feature","geometry":{"type":"Point","coordinates":[-79.674493,47.539885]}},{"properties":{"city":"Terrace","percent in couples":60.4,"prov":"B.C.","id":"a64iakyp1zif","lat":54.515857,"long":-128.602175},"type":"Feature","geometry":{"type":"Point","coordinates":[-128.602175,54.515857]}},{"properties":{"city":"Terrebonne","percent in couples":64.2,"prov":"Que.","id":"a64ial2uf6mm","lat":46.781403,"long":-71.31658},"type":"Feature","geometry":{"type":"Point","coordinates":[-71.31658,46.781403]}},{"properties":{"city":"Thames Centre","percent in couples":68.8,"prov":"Ont.","id":"a64iakzytif2","lat":42.986115,"long":-81.049944},"type":"Feature","geometry":{"type":"Point","coordinates":[-81.049944,42.986115]}},{"properties":{"city":"The Nation / La Nation","percent in couples":66.9,"prov":"Ont.","id":"a64ial2377gp","lat":45.319679,"long":-75.115273},"type":"Feature","geometry":{"type":"Point","coordinates":[-75.115273,45.319679]}},{"properties":{"city":"The Pas","percent in couples":55.0,"prov":"Man.","id":"a64ialachc7i","lat":49.610045,"long":-102.084689},"type":"Feature","geometry":{"type":"Point","coordinates":[-102.084689,49.610045]}},{"properties":{"city":"Thetford Mines","percent in couples":57.9,"prov":"Que.","id":"a64ial8b8jq6","lat":46.090575,"long":-71.299264},"type":"Feature","geometry":{"type":"Point","coordinates":[-71.299264,46.090575]}},{"properties":{"city":"Thompson","percent in couples":58.2,"prov":"Man.","id":"a64ial0ya6eb","lat":49.610045,"long":-102.084689},"type":"Feature","geometry":{"type":"Point","coordinates":[-102.084689,49.610045]}},{"properties":{"city":"Thorold","percent in couples":59.2,"prov":"Ont.","id":"a64ial7jp4ft","lat":43.124279,"long":-79.197723},"type":"Feature","geometry":{"type":"Point","coordinates":[-79.197723,43.124279]}},{"properties":{"city":"Thunder Bay","percent in couples":55.0,"prov":"Ont.","id":"a64iakz3p55h","lat":48.381699,"long":-89.245483},"type":"Feature","geometry":{"type":"Point","coordinates":[-89.245483,48.381699]}},{"properties":{"city":"Thunder Bay Unorganized","percent in couples":67.0,"prov":"Ont.","id":"a64ial4l851w","lat":48.381699,"long":-89.245483},"type":"Feature","geometry":{"type":"Point","coordinates":[-89.245483,48.381699]}},{"properties":{"city":"Tillsonburg","percent in couples":61.6,"prov":"Ont.","id":"a64iala61ksp","lat":42.860668,"long":-80.727867},"type":"Feature","geometry":{"type":"Point","coordinates":[-80.727867,42.860668]}},{"properties":{"city":"Timmins","percent in couples":60.6,"prov":"Ont.","id":"a64ial0e2u7s","lat":48.47607,"long":-81.328949},"type":"Feature","geometry":{"type":"Point","coordinates":[-81.328949,48.47607]}},{"properties":{"city":"Tiny","percent in couples":67.9,"prov":"Ont.","id":"a64ialc0cpxw","lat":44.701721,"long":-79.982849},"type":"Feature","geometry":{"type":"Point","coordinates":[-79.982849,44.701721]}},{"properties":{"city":"Torbay","percent in couples":63.9,"prov":"N.L.","id":"a64ialbi6a4k","lat":45.847815,"long":-67.689213},"type":"Feature","geometry":{"type":"Point","coordinates":[-67.689213,45.847815]}},{"properties":{"city":"Toronto","percent in couples":52.6,"prov":"Ont.","id":"a64ial73dqk4","lat":43.64856,"long":-79.38533},"type":"Feature","geometry":{"type":"Point","coordinates":[-79.38533,43.64856]}},{"properties":{"city":"Trail","percent in couples":54.9,"prov":"B.C.","id":"a64ial2mx5ln","lat":49.096452,"long":-117.71221},"type":"Feature","geometry":{"type":"Point","coordinates":[-117.71221,49.096452]}},{"properties":{"city":"Trent Hills","percent in couples":64.4,"prov":"Ont.","id":"a64ial33kknm","lat":44.305729,"long":-77.798477},"type":"Feature","geometry":{"type":"Point","coordinates":[-77.798477,44.305729]}},{"properties":{"city":"Truro","percent in couples":50.0,"prov":"N.S.","id":"a64ial1gqtd5","lat":50.94041,"long":-104.496044},"type":"Feature","geometry":{"type":"Point","coordinates":[-104.496044,50.94041]}},{"properties":{"city":"Tsinstikeptum  9","percent in couples":61.4,"prov":"B.C.","id":"a64ial85aejn","lat":54.485668,"long":-126.555511},"type":"Feature","geometry":{"type":"Point","coordinates":[-126.555511,54.485668]}},{"properties":{"city":"Tweed","percent in couples":65.7,"prov":"Ont.","id":"a64ial5xqr6z","lat":44.475491,"long":-77.31102},"type":"Feature","geometry":{"type":"Point","coordinates":[-77.31102,44.475491]}},{"properties":{"city":"Uxbridge","percent in couples":64.9,"prov":"Ont.","id":"a64ial79w1qu","lat":44.106159,"long":-79.123863},"type":"Feature","geometry":{"type":"Point","coordinates":[-79.123863,44.106159]}},{"properties":{"city":"Val-d'Or","percent in couples":59.6,"prov":"Que.","id":"a64ial3id4i5","lat":40.259209,"long":-78.505767},"type":"Feature","geometry":{"type":"Point","coordinates":[-78.505767,40.259209]}},{"properties":{"city":"Val-des-Monts","percent in couples":67.3,"prov":"Que.","id":"a64ialch2t34","lat":45.66453,"long":-75.732724},"type":"Feature","geometry":{"type":"Point","coordinates":[-75.732724,45.66453]}},{"properties":{"city":"Vancouver","percent in couples":49.9,"prov":"B.C.","id":"a64ial34jmgs","lat":49.26044,"long":-123.114034},"type":"Feature","geometry":{"type":"Point","coordinates":[-123.114034,49.26044]}},{"properties":{"city":"Varennes","percent in couples":64.4,"prov":"Que.","id":"a64ial9zafiw","lat":46.861057,"long":-71.328792},"type":"Feature","geometry":{"type":"Point","coordinates":[-71.328792,46.861057]}},{"properties":{"city":"Vaudreuil-Dorion","percent in couples":62.6,"prov":"Que.","id":"a64ialadihe8","lat":45.404929,"long":-74.035403},"type":"Feature","geometry":{"type":"Point","coordinates":[-74.035403,45.404929]}},{"properties":{"city":"Vaughan","percent in couples":64.5,"prov":"Ont.","id":"a64ial2ndg01","lat":43.856419,"long":-79.508102},"type":"Feature","geometry":{"type":"Point","coordinates":[-79.508102,43.856419]}},{"properties":{"city":"Vegreville","percent in couples":56.6,"prov":"Alta.","id":"a64iakyhr72i","lat":51.918775,"long":-110.162504},"type":"Feature","geometry":{"type":"Point","coordinates":[-110.162504,51.918775]}},{"properties":{"city":"Vermilion River County No. 24","percent in couples":70.2,"prov":"Alta.","id":"a64ialalkfi1","lat":51.918775,"long":-110.162504},"type":"Feature","geometry":{"type":"Point","coordinates":[-110.162504,51.918775]}},{"properties":{"city":"Vernon","percent in couples":56.0,"prov":"B.C.","id":"a64ial2mtz6m","lat":50.265685,"long":-119.273804},"type":"Feature","geometry":{"type":"Point","coordinates":[-119.273804,50.265685]}},{"properties":{"city":"Victoria","percent in couples":42.1,"prov":"B.C.","id":"a64iaky9lhey","lat":48.428315,"long":-123.364514},"type":"Feature","geometry":{"type":"Point","coordinates":[-123.364514,48.428315]}},{"properties":{"city":"Victoriaville","percent in couples":56.5,"prov":"Que.","id":"a64iakyrvopm","lat":46.055649,"long":-71.959473},"type":"Feature","geometry":{"type":"Point","coordinates":[-71.959473,46.055649]}},{"properties":{"city":"View Royal","percent in couples":62.6,"prov":"B.C.","id":"a64ialctaaeh","lat":48.452268,"long":-123.43478},"type":"Feature","geometry":{"type":"Point","coordinates":[-123.43478,48.452268]}},{"properties":{"city":"Wainfleet","percent in couples":67.6,"prov":"Ont.","id":"a64iakyd2q8j","lat":42.92136,"long":-79.370621},"type":"Feature","geometry":{"type":"Point","coordinates":[-79.370621,42.92136]}},{"properties":{"city":"Wainwright","percent in couples":59.0,"prov":"Alta.","id":"a64ialauhot7","lat":51.918775,"long":-110.162504},"type":"Feature","geometry":{"type":"Point","coordinates":[-110.162504,51.918775]}},{"properties":{"city":"Wasaga Beach","percent in couples":68.3,"prov":"Ont.","id":"a64ial5bk6hf","lat":44.520802,"long":-80.015793},"type":"Feature","geometry":{"type":"Point","coordinates":[-80.015793,44.520802]}},{"properties":{"city":"Waterloo","percent in couples":58.9,"prov":"Ont.","id":"a64ial6crkb6","lat":43.463131,"long":-80.520691},"type":"Feature","geometry":{"type":"Point","coordinates":[-80.520691,43.463131]}},{"properties":{"city":"Welland","percent in couples":58.6,"prov":"Ont.","id":"a64ial9li4ge","lat":42.993481,"long":-79.239243},"type":"Feature","geometry":{"type":"Point","coordinates":[-79.239243,42.993481]}},{"properties":{"city":"Wellesley","percent in couples":66.9,"prov":"Ont.","id":"a64iakxghtwu","lat":43.476639,"long":-80.764542},"type":"Feature","geometry":{"type":"Point","coordinates":[-80.764542,43.476639]}},{"properties":{"city":"Wellington North","percent in couples":62.8,"prov":"Ont.","id":"a64ial0amvws","lat":43.892444,"long":-80.638749},"type":"Feature","geometry":{"type":"Point","coordinates":[-80.638749,43.892444]}},{"properties":{"city":"West Elgin","percent in couples":63.6,"prov":"Ont.","id":"a64iakyxxjzn","lat":42.570042,"long":-81.717209},"type":"Feature","geometry":{"type":"Point","coordinates":[-81.717209,42.570042]}},{"properties":{"city":"West Grey","percent in couples":66.5,"prov":"Ont.","id":"a64ial7it6db","lat":44.179981,"long":-80.840851},"type":"Feature","geometry":{"type":"Point","coordinates":[-80.840851,44.179981]}},{"properties":{"city":"West Hants","percent in couples":66.9,"prov":"N.S.","id":"a64iakwjkjot","lat":50.94041,"long":-104.496044},"type":"Feature","geometry":{"type":"Point","coordinates":[-104.496044,50.94041]}},{"properties":{"city":"West Lincoln","percent in couples":66.3,"prov":"Ont.","id":"a64ial1zd1zq","lat":43.168625,"long":-79.481484},"type":"Feature","geometry":{"type":"Point","coordinates":[-79.481484,43.168625]}},{"properties":{"city":"West Nipissing / Nipissing Ouest","percent in couples":63.1,"prov":"Ont.","id":"a64ial7q1o3h","lat":46.374798,"long":-79.924933},"type":"Feature","geometry":{"type":"Point","coordinates":[-79.924933,46.374798]}},{"properties":{"city":"West Perth","percent in couples":64.4,"prov":"Ont.","id":"a64iakziexoc","lat":43.469311,"long":-81.191597},"type":"Feature","geometry":{"type":"Point","coordinates":[-81.191597,43.469311]}},{"properties":{"city":"West Vancouver","percent in couples":60.7,"prov":"B.C.","id":"a64iakyamxne","lat":49.33115,"long":-123.160234},"type":"Feature","geometry":{"type":"Point","coordinates":[-123.160234,49.33115]}},{"properties":{"city":"Westlock","percent in couples":55.6,"prov":"Alta.","id":"a64iala8qkfw","lat":51.918775,"long":-110.162504},"type":"Feature","geometry":{"type":"Point","coordinates":[-110.162504,51.918775]}},{"properties":{"city":"Westlock County","percent in couples":70.6,"prov":"Alta.","id":"a64ial4ogu12","lat":51.918775,"long":-110.162504},"type":"Feature","geometry":{"type":"Point","coordinates":[-110.162504,51.918775]}},{"properties":{"city":"Westmount","percent in couples":54.3,"prov":"Que.","id":"a64ial3r3kr5","lat":45.484959,"long":-73.596558},"type":"Feature","geometry":{"type":"Point","coordinates":[-73.596558,45.484959]}},{"properties":{"city":"Wetaskiwin","percent in couples":56.8,"prov":"Alta.","id":"a64ial5qco3t","lat":51.918775,"long":-110.162504},"type":"Feature","geometry":{"type":"Point","coordinates":[-110.162504,51.918775]}},{"properties":{"city":"Wetaskiwin County No. 10","percent in couples":71.0,"prov":"Alta.","id":"a64ial8tfjxd","lat":51.918775,"long":-110.162504},"type":"Feature","geometry":{"type":"Point","coordinates":[-110.162504,51.918775]}},{"properties":{"city":"Weyburn","percent in couples":58.7,"prov":"Sask.","id":"a64ialam1ntw","lat":49.66803,"long":-103.858192},"type":"Feature","geometry":{"type":"Point","coordinates":[-103.858192,49.66803]}},{"properties":{"city":"Wheatland County","percent in couples":68.2,"prov":"Alta.","id":"a64ial3g9182","lat":51.918775,"long":-110.162504},"type":"Feature","geometry":{"type":"Point","coordinates":[-110.162504,51.918775]}},{"properties":{"city":"Whistler","percent in couples":48.0,"prov":"B.C.","id":"a64ialbsbq88","lat":50.119571,"long":-122.954084},"type":"Feature","geometry":{"type":"Point","coordinates":[-122.954084,50.119571]}},{"properties":{"city":"Whitby","percent in couples":63.3,"prov":"Ont.","id":"a64ialbb4xwt","lat":43.899261,"long":-78.942543},"type":"Feature","geometry":{"type":"Point","coordinates":[-78.942543,43.899261]}},{"properties":{"city":"Whitchurch-Stouffville","percent in couples":64.8,"prov":"Ont.","id":"a64ialbzhqg1","lat":43.964465,"long":-79.270021},"type":"Feature","geometry":{"type":"Point","coordinates":[-79.270021,43.964465]}},{"properties":{"city":"White Rock","percent in couples":52.3,"prov":"B.C.","id":"a64iakzfbnab","lat":49.02392,"long":-122.796789},"type":"Feature","geometry":{"type":"Point","coordinates":[-122.796789,49.02392]}},{"properties":{"city":"Whitecourt","percent in couples":61.6,"prov":"Alta.","id":"a64iakxx0z7u","lat":51.918775,"long":-110.162504},"type":"Feature","geometry":{"type":"Point","coordinates":[-110.162504,51.918775]}},{"properties":{"city":"Whitehorse","percent in couples":54.3,"prov":"Y.T.","id":"a64iakxskoc8","lat":60.720871,"long":-135.053177},"type":"Feature","geometry":{"type":"Point","coordinates":[-135.053177,60.720871]}},{"properties":{"city":"Whitewater Region","percent in couples":65.3,"prov":"Ont.","id":"a64ial210m0q","lat":45.667425,"long":-76.809194},"type":"Feature","geometry":{"type":"Point","coordinates":[-76.809194,45.667425]}},{"properties":{"city":"Williams Lake","percent in couples":57.0,"prov":"B.C.","id":"a64ialc0z87m","lat":52.128652,"long":-122.141085},"type":"Feature","geometry":{"type":"Point","coordinates":[-122.141085,52.128652]}},{"properties":{"city":"Willow Creek No. 26","percent in couples":68.5,"prov":"Alta.","id":"a64ial95qak1","lat":51.918775,"long":-110.162504},"type":"Feature","geometry":{"type":"Point","coordinates":[-110.162504,51.918775]}},{"properties":{"city":"Wilmot","percent in couples":68.4,"prov":"Ont.","id":"a64ial45y6v7","lat":43.40332,"long":-80.671677},"type":"Feature","geometry":{"type":"Point","coordinates":[-80.671677,43.40332]}},{"properties":{"city":"Windsor","percent in couples":53.9,"prov":"Ont.","id":"a64ial1bt4ye","lat":42.317822,"long":-83.033913},"type":"Feature","geometry":{"type":"Point","coordinates":[-83.033913,42.317822]}},{"properties":{"city":"Windsor","percent in couples":57.0,"prov":"Que.","id":"a64iakzla1zp","lat":46.764149,"long":-71.320553},"type":"Feature","geometry":{"type":"Point","coordinates":[-71.320553,46.764149]}},{"properties":{"city":"Winkler","percent in couples":64.9,"prov":"Man.","id":"a64ial3loya7","lat":49.610045,"long":-102.084689},"type":"Feature","geometry":{"type":"Point","coordinates":[-102.084689,49.610045]}},{"properties":{"city":"Winnipeg","percent in couples":53.8,"prov":"Man.","id":"a64ialbqn0gl","lat":49.610045,"long":-102.084689},"type":"Feature","geometry":{"type":"Point","coordinates":[-102.084689,49.610045]}},{"properties":{"city":"Wood Buffalo","percent in couples":62.0,"prov":"Alta.","id":"a64ialaipd7y","lat":51.918775,"long":-110.162504},"type":"Feature","geometry":{"type":"Point","coordinates":[-110.162504,51.918775]}},{"properties":{"city":"Woodstock","percent in couples":59.4,"prov":"Ont.","id":"a64ial5p70dp","lat":46.110488,"long":-67.570793},"type":"Feature","geometry":{"type":"Point","coordinates":[-67.570793,46.110488]}},{"properties":{"city":"Woodstock","percent in couples":54.3,"prov":"N.B.","id":"a64iakznwxvj","lat":46.30663,"long":-79.459929},"type":"Feature","geometry":{"type":"Point","coordinates":[-79.459929,46.30663]}},{"properties":{"city":"Woolwich","percent in couples":65.4,"prov":"Ont.","id":"a64ial40t245","lat":43.597549,"long":-80.559532},"type":"Feature","geometry":{"type":"Point","coordinates":[-80.559532,43.597549]}},{"properties":{"city":"Yarmouth","percent in couples":48.8,"prov":"N.S.","id":"a64iakwzmlyr","lat":50.94041,"long":-104.496044},"type":"Feature","geometry":{"type":"Point","coordinates":[-104.496044,50.94041]}},{"properties":{"city":"Yarmouth","percent in couples":65.3,"prov":"N.S.","id":"a64ial2vsonn","lat":50.94041,"long":-104.496044},"type":"Feature","geometry":{"type":"Point","coordinates":[-104.496044,50.94041]}},{"properties":{"city":"Yellowhead County","percent in couples":67.3,"prov":"Alta.","id":"a64ialajdfda","lat":51.918775,"long":-110.162504},"type":"Feature","geometry":{"type":"Point","coordinates":[-110.162504,51.918775]}},{"properties":{"city":"Yellowknife","percent in couples":58.3,"prov":"N.W.T.","id":"a64ial55aj1r","lat":62.454319,"long":-114.371246},"type":"Feature","geometry":{"type":"Point","coordinates":[-114.371246,62.454319]}},{"properties":{"city":"Yorkton","percent in couples":57.1,"prov":"Sask.","id":"a64ialawncz4","lat":51.204048,"long":-102.449867},"type":"Feature","geometry":{"type":"Point","coordinates":[-102.449867,51.204048]}},{"properties":{"city":"Zorra","percent in couples":67.3,"prov":"Ont.","id":"a64ialblr8iz","lat":null,"long":null},"type":"Feature","geometry":null}],"is_temporal":false,"author":{"url":"","metadata":"","contact_name":"","contact_address":"","source":"","contact_phone":""},"source":"","pagination":{"sort":null,"start":0,"total":641,"limit":1000000},"state":"complete","tags":"","published":"2014-08-10T22:59:40-04:00","id":17684}