{"type":"FeatureCollection","data_type":"Dataset","url_type":null,"permissions":[{"permissions":{"download":true,"view":true},"group_id":"everyone"}],"classification":null,"title":"Big Smart Grid Announcement","count":44,"stream_id":17699,"contributor":{"url":"http://geocommons.com/users/330","name":"brian"},"data_attributes":null,"calculation_params":null,"icon_link":null,"link":"http://geocommons.com/overlays/17699.json","extent":[-157.721,21.345,-67.8592,46.9848],"geometry_types":["point"],"unique_name":null,"name":"Big Smart Grid Announcement","feature_count":44,"description":"Smart Grid stimulus allocation announced on Oct 27,2009","next_feature":null,"is_raster":false,"short_classification":"Y","stats":{"geo_score":{"max":0.857,"mean":0.776386363636363,"variance":0.0216138705073996,"stdev":0.147016565418321,"min":0.0,"median":0.857},"amount":{"max":403927899.0,"mean":77936170.9318182,"variance":8.26384226001524e+15,"stdev":90905677.8205588,"min":1527641.0,"median":36755747.0}},"features":[{"properties":{"city":"Albany","geo_score":0.857,"amount":173553807.0,"id":"a62gr6nsdmu1","geo_precision":"city","state":"New York"},"type":"Feature","geometry":{"type":"Point","coordinates":[-73.970812,42.614852]}},{"properties":{"city":"Analpolis","geo_score":0.756,"amount":200000000.0,"id":"a62gr6pcic5a","geo_precision":"city","state":"Maryland"},"type":"Feature","geometry":{"type":"Point","coordinates":[-76.659492,39.711379]}},{"properties":{"city":"Atlanta","geo_score":0.857,"amount":36755747.0,"id":"a62gr6t91mvl","geo_precision":"city","state":"Georgia"},"type":"Feature","geometry":{"type":"Point","coordinates":[-84.47405,33.844371]}},{"properties":{"city":"Augusta","geo_score":0.743,"amount":95900000.0,"id":"a62gr6ojh5s7","geo_precision":"city","state":"Maine"},"type":"Feature","geometry":{"type":"Point","coordinates":[-67.859167,44.507856]}},{"properties":{"city":"Austin","geo_score":0.732,"amount":258209258.0,"id":"a62gr6mwbe93","geo_precision":"city","state":"Texas"},"type":"Feature","geometry":{"type":"Point","coordinates":[-95.63856,31.185738]}},{"properties":{"city":"Baton Rouge","geo_score":0.73,"amount":45572851.0,"id":"a62gr6s7xknn","geo_precision":"city","state":"Louisiana"},"type":"Feature","geometry":{"type":"Point","coordinates":[-92.176237,30.159092]}},{"properties":{"city":"Boise","geo_score":0.857,"amount":49171710.0,"id":"a62gr6qikg0h","geo_precision":"city","state":"Idaho"},"type":"Feature","geometry":{"type":"Point","coordinates":[-116.272921,43.603768]}},{"properties":{"city":"Boston","geo_score":0.857,"amount":35778357.0,"id":"a62gr70d8hnf","geo_precision":"city","state":"Massachusetts"},"type":"Feature","geometry":{"type":"Point","coordinates":[-71.026964,42.370567]}},{"properties":{"city":"Carson City","geo_score":0.714,"amount":138000000.0,"id":"a62gr6ra7nr7","geo_precision":"city","state":"Nevada"},"type":"Feature","geometry":{"type":"Point","coordinates":[-119.73074,39.154485]}},{"properties":{"city":"Cheyene","geo_score":0.711,"amount":7588248.0,"id":"a62gr6rsogel","geo_precision":"street","state":"Wyoming"},"type":"Feature","geometry":{"type":"Point","coordinates":[-104.77078,41.147521]}},{"properties":{"city":"Chicago","geo_score":0.857,"amount":10994000.0,"id":"a62gr72a5587","geo_precision":"city","state":"Illinois"},"type":"Feature","geometry":{"type":"Point","coordinates":[-87.68732,41.811929]}},{"properties":{"city":"Columbus","geo_score":0.743,"amount":67201906.0,"id":"a62gr6wrl7rc","geo_precision":"city","state":"Ohio"},"type":"Feature","geometry":{"type":"Point","coordinates":[-81.949111,41.3056]}},{"properties":{"city":"Concord","geo_score":0.857,"amount":15815225.0,"id":"a62gr70x6ixb","geo_precision":"city","state":"New Hampshire"},"type":"Feature","geometry":{"type":"Point","coordinates":[-71.536101,43.230314]}},{"properties":{"city":"Denver","geo_score":0.857,"amount":24244117.0,"id":"a62gr737yhfx","geo_precision":"city","state":"Colorado"},"type":"Feature","geometry":{"type":"Point","coordinates":[-104.856808,39.726303]}},{"properties":{"city":"Des Moines","geo_score":0.786,"amount":5000000.0,"id":"a62gr70jwn44","geo_precision":"city","state":"Iowa"},"type":"Feature","geometry":{"type":"Point","coordinates":[-93.582732,42.651566]}},{"properties":{"city":"Frankfort","geo_score":0.73,"amount":9538234.0,"id":"a62gr6szzty4","geo_precision":"city","state":"Kentucky"},"type":"Feature","geometry":{"type":"Point","coordinates":[-84.869708,38.228115]}},{"properties":{"city":"Guam","geo_score":0.0,"amount":16603507.0,"id":"a62gr6x5ziou","geo_precision":"unmatched","state":"Guam"},"type":"Feature","geometry":null},{"properties":{"city":"Harrisburg","geo_score":0.857,"amount":233184232.0,"id":"a62gr6p4s08e","geo_precision":"city","state":"Pennsylvania"},"type":"Feature","geometry":{"type":"Point","coordinates":[-76.869644,40.264589]}},{"properties":{"city":"Hartford","geo_score":0.857,"amount":9188050.0,"id":"a62gr6ty2a9u","geo_precision":"city","state":"Connecticut"},"type":"Feature","geometry":{"type":"Point","coordinates":[-72.677099,41.78007]}},{"properties":{"city":"Honululu","geo_score":0.4,"amount":5347598.0,"id":"a62gr6n9496x","geo_precision":"street","state":"Hawaii"},"type":"Feature","geometry":{"type":"Point","coordinates":[-157.720647,21.345034]}},{"properties":{"city":"Indianapolis","geo_score":0.798,"amount":39346818.0,"id":"a62gr6qidsez","geo_precision":"city","state":"Indiana"},"type":"Feature","geometry":{"type":"Point","coordinates":[-86.13216,39.775092]}},{"properties":{"city":"Jackson","geo_score":0.857,"amount":30563967.0,"id":"a62gr72elbz8","geo_precision":"city","state":"Mississippi"},"type":"Feature","geometry":{"type":"Point","coordinates":[-90.192687,32.291095]}},{"properties":{"city":"Jefferson City","geo_score":0.747,"amount":1527641.0,"id":"a62gr6s1g75y","geo_precision":"city","state":"Missouri"},"type":"Feature","geometry":{"type":"Point","coordinates":[-92.165194,38.494029]}},{"properties":{"city":"Lansing","geo_score":0.857,"amount":103158878.0,"id":"a62gr72tcm23","geo_precision":"city","state":"Michigan"},"type":"Feature","geometry":{"type":"Point","coordinates":[-84.555535,42.732535]}},{"properties":{"city":"Licoln","geo_score":0.755,"amount":2271994.0,"id":"a62gr6spf68p","geo_precision":"city","state":"Nebraska"},"type":"Feature","geometry":{"type":"Point","coordinates":[-95.907718,40.707742]}},{"properties":{"city":"Little Rock","geo_score":0.81,"amount":2357520.0,"id":"a62gr6sjlwiu","geo_precision":"city","state":"Arkansas"},"type":"Feature","geometry":{"type":"Point","coordinates":[-91.207356,33.608922]}},{"properties":{"city":"Madison","geo_score":0.857,"amount":21525946.0,"id":"a62gr6vxf1kz","geo_precision":"city","state":"Wisconsin"},"type":"Feature","geometry":{"type":"Point","coordinates":[-89.423861,43.06956]}},{"properties":{"city":"Montgomery","geo_score":0.729,"amount":164527160.0,"id":"a62gr6qsom11","geo_precision":"city","state":"Alabama"},"type":"Feature","geometry":{"type":"Point","coordinates":[-86.257817,32.356988]}},{"properties":{"city":"Montpelier","geo_score":0.746,"amount":68928650.0,"id":"a62gr70m4o89","geo_precision":"city","state":"Vermont"},"type":"Feature","geometry":{"type":"Point","coordinates":[-72.607888,44.257004]}},{"properties":{"city":"Nashville","geo_score":0.857,"amount":120216097.0,"id":"a62gr6zg2m25","geo_precision":"city","state":"Tennessee"},"type":"Feature","geometry":{"type":"Point","coordinates":[-86.778098,36.165688]}},{"properties":{"city":"Oklahoma City","geo_score":0.81,"amount":130000000.0,"id":"a62gr6vtiqju","geo_precision":"city","state":"Oklahoma"},"type":"Feature","geometry":{"type":"Point","coordinates":[-97.562817,35.491608]}},{"properties":{"city":"Olympia","geo_score":0.857,"amount":35825817.0,"id":"a62gr72w22k5","geo_precision":"city","state":"Washington"},"type":"Feature","geometry":{"type":"Point","coordinates":[-122.869079,46.984767]}},{"properties":{"city":"Phoenix","geo_score":0.857,"amount":94095594.0,"id":"a62gr6vr9ol9","geo_precision":"city","state":"Arizona"},"type":"Feature","geometry":{"type":"Point","coordinates":[-112.351835,33.703967]}},{"properties":{"city":"Pierre","geo_score":0.857,"amount":9608970.0,"id":"a62gr6wgv2tz","geo_precision":"city","state":"South Dakota"},"type":"Feature","geometry":{"type":"Point","coordinates":[-100.094195,44.334073]}},{"properties":{"city":"Raleigh","geo_score":0.857,"amount":403927899.0,"id":"a62gr6pk31hv","geo_precision":"city","state":"North Carolina"},"type":"Feature","geometry":{"type":"Point","coordinates":[-78.604175,35.773755]}},{"properties":{"city":"Richmond","geo_score":0.857,"amount":20694097.0,"id":"a62gr6uzkdi8","geo_precision":"city","state":"Virginia"},"type":"Feature","geometry":{"type":"Point","coordinates":[-77.460262,37.553758]}},{"properties":{"city":"Sacramento","geo_score":0.857,"amount":203010487.0,"id":"a62gr6v6jgwg","geo_precision":"city","state":"California"},"type":"Feature","geometry":{"type":"Point","coordinates":[-121.555406,38.380456]}},{"properties":{"city":"Salem","geo_score":0.857,"amount":29471776.0,"id":"a62gr6vk80lx","geo_precision":"city","state":"Oregon"},"type":"Feature","geometry":{"type":"Point","coordinates":[-122.921721,44.90472]}},{"properties":{"city":"Salt Lake City","geo_score":0.738,"amount":53890000.0,"id":"a62gr6sx6j8c","geo_precision":"city","state":"Utah"},"type":"Feature","geometry":{"type":"Point","coordinates":[-111.900719,40.756095]}},{"properties":{"city":"St. Paul","geo_score":0.667,"amount":1544004.0,"id":"a62gr6xzv112","geo_precision":"street","state":"Minnesota"},"type":"Feature","geometry":{"type":"Point","coordinates":[-93.184939,44.912532]}},{"properties":{"city":"Tallahassee","geo_score":0.727,"amount":267197537.0,"id":"a62gr6tphhkf","geo_precision":"city","state":"Florida"},"type":"Feature","geometry":{"type":"Point","coordinates":[-84.203379,30.418514]}},{"properties":{"city":"Topeka","geo_score":0.857,"amount":19753822.0,"id":"a62gr6r11ctg","geo_precision":"city","state":"Kansas"},"type":"Feature","geometry":{"type":"Point","coordinates":[-95.780662,38.988075]}},{"properties":{"city":"Trenton","geo_score":0.857,"amount":18700000.0,"id":"a62gr6npueri","geo_precision":"city","state":"New Jersey"},"type":"Feature","geometry":{"type":"Point","coordinates":[-74.712018,40.280531]}},{"properties":{"city":"Washington DC","geo_score":0.735,"amount":149400000.0,"id":"a62gr6pcxgin","geo_precision":"street","state":"Washington DC"},"type":"Feature","geometry":{"type":"Point","coordinates":[-77.016145,38.844767]}}],"is_temporal":false,"author":{"url":"","metadata":"","contact_name":"","contact_address":"","source":"DOE website","contact_phone":""},"source":"","pagination":{"sort":null,"start":0,"total":44,"limit":1000000},"state":"complete","tags":"energy,smart-grid,stimulus","published":"2014-08-10T23:00:05-04:00","id":17699}