{"type":"FeatureCollection","data_type":"Dataset","url_type":null,"permissions":[{"permissions":{"download":true,"view":true},"group_id":"everyone"}],"classification":null,"title":"Fatalities from the Iraq War, Virginia by City, 2003-2009","count":70,"stream_id":17761,"contributor":{"url":"http://geocommons.com/users/185","name":"emily"},"data_attributes":null,"calculation_params":null,"icon_link":null,"link":"http://geocommons.com/overlays/17761.json","extent":[-82.4629,36.586,-75.9386,39.184],"geometry_types":["point"],"unique_name":null,"name":"Fatalities from the Iraq War, Virginia by City, 2003-2009","feature_count":70,"description":"This dataset contains the Iraq war fatalities of Americans from the state of Virginia. Each point contains the number of fatalities from that city.","next_feature":null,"is_raster":false,"short_classification":"Y","stats":{"casulities":{"max":12.0,"mean":1.81428571428571,"variance":2.67515527950311,"stdev":1.63559019301997,"min":1.0,"median":1.0},"bg_long":{"max":-75.938584,"mean":-78.3609398142857,"variance":2.9197457785103,"stdev":1.70872636150739,"min":-82.46292,"median":-77.471119},"bg_lat":{"max":39.184005,"mean":37.8375532142857,"variance":0.622016043371214,"stdev":0.78867993721865,"min":36.585983,"median":37.79354}},"features":[{"properties":{"casulities":2.0,"city":"Alexandria","bg_long":-77.043079,"bg_lat":38.804565,"id":"a625gwkvcnqn","state":"Virginia"},"type":"Feature","geometry":{"type":"Point","coordinates":[-77.043079,38.804565]}},{"properties":{"casulities":1.0,"city":"Amelia","bg_long":-81.29567,"bg_lat":38.289852,"id":"a625gwmwn0y6","state":"Virginia"},"type":"Feature","geometry":{"type":"Point","coordinates":[-81.29567,38.289852]}},{"properties":{"casulities":1.0,"city":"Arlington","bg_long":-77.086294,"bg_lat":38.89051,"id":"a625gwhc2o4z","state":"Virginia"},"type":"Feature","geometry":{"type":"Point","coordinates":[-77.086294,38.89051]}},{"properties":{"casulities":1.0,"city":"Bealeton","bg_long":-77.764514,"bg_lat":38.57547,"id":"a625gwonsoav","state":"Virginia"},"type":"Feature","geometry":{"type":"Point","coordinates":[-77.764514,38.57547]}},{"properties":{"casulities":1.0,"city":"Bedford","bg_long":-79.522899,"bg_lat":37.334285,"id":"a625gwuk8bto","state":"Virginia"},"type":"Feature","geometry":{"type":"Point","coordinates":[-79.522899,37.334285]}},{"properties":{"casulities":2.0,"city":"Bristow","bg_long":-77.545764,"bg_lat":38.732605,"id":"a625gwhmeljw","state":"Virginia"},"type":"Feature","geometry":{"type":"Point","coordinates":[-77.545764,38.732605]}},{"properties":{"casulities":2.0,"city":"Burke","bg_long":-77.272279,"bg_lat":38.793234,"id":"a625gwu8mwxe","state":"Virginia"},"type":"Feature","geometry":{"type":"Point","coordinates":[-77.272279,38.793234]}},{"properties":{"casulities":1.0,"city":"Burkeville","bg_long":-78.198139,"bg_lat":37.189194,"id":"a625gwpm33a1","state":"Virginia"},"type":"Feature","geometry":{"type":"Point","coordinates":[-78.198139,37.189194]}},{"properties":{"casulities":1.0,"city":"Cedar Bluff","bg_long":-81.760217,"bg_lat":37.08626,"id":"a625gwtclzmw","state":"Virginia"},"type":"Feature","geometry":{"type":"Point","coordinates":[-81.760217,37.08626]}},{"properties":{"casulities":1.0,"city":"Charlottesville","bg_long":-78.477529,"bg_lat":38.03213,"id":"a625gwqiatf7","state":"Virginia"},"type":"Feature","geometry":{"type":"Point","coordinates":[-78.477529,38.03213]}},{"properties":{"casulities":3.0,"city":"Chesapeake","bg_long":-76.247847,"bg_lat":36.714295,"id":"a625gwq72biz","state":"Virginia"},"type":"Feature","geometry":{"type":"Point","coordinates":[-76.247847,36.714295]}},{"properties":{"casulities":2.0,"city":"Chesterfield","bg_long":-77.508252,"bg_lat":37.376844,"id":"a625gwqefrar","state":"Virginia"},"type":"Feature","geometry":{"type":"Point","coordinates":[-77.508252,37.376844]}},{"properties":{"casulities":1.0,"city":"Christiansburg","bg_long":-80.408409,"bg_lat":37.130145,"id":"a625gwocp2hi","state":"Virginia"},"type":"Feature","geometry":{"type":"Point","coordinates":[-80.408409,37.130145]}},{"properties":{"casulities":1.0,"city":"Clifton","bg_long":-77.384726,"bg_lat":38.781154,"id":"a625gwu3qd2e","state":"Virginia"},"type":"Feature","geometry":{"type":"Point","coordinates":[-77.384726,38.781154]}},{"properties":{"casulities":1.0,"city":"Coeburn","bg_long":-82.46292,"bg_lat":36.943183,"id":"a625gwgpnht5","state":"Virginia"},"type":"Feature","geometry":{"type":"Point","coordinates":[-82.46292,36.943183]}},{"properties":{"casulities":1.0,"city":"Covington","bg_long":-79.995891,"bg_lat":37.79354,"id":"a625gwkgqie5","state":"Virginia"},"type":"Feature","geometry":{"type":"Point","coordinates":[-79.995891,37.79354]}},{"properties":{"casulities":1.0,"city":"Crimora","bg_long":-78.842452,"bg_lat":38.153715,"id":"a625gwucrbm9","state":"Virginia"},"type":"Feature","geometry":{"type":"Point","coordinates":[-78.842452,38.153715]}},{"properties":{"casulities":2.0,"city":"Culpeper","bg_long":-77.996139,"bg_lat":38.47333,"id":"a625gwp3dm8r","state":"Virginia"},"type":"Feature","geometry":{"type":"Point","coordinates":[-77.996139,38.47333]}},{"properties":{"casulities":1.0,"city":"Dale City","bg_long":-77.332709,"bg_lat":38.647755,"id":"a625gwsyijjr","state":"Virginia"},"type":"Feature","geometry":{"type":"Point","coordinates":[-77.332709,38.647755]}},{"properties":{"casulities":1.0,"city":"Danville","bg_long":-79.417209,"bg_lat":36.585983,"id":"a625gwim9jwu","state":"Virginia"},"type":"Feature","geometry":{"type":"Point","coordinates":[-79.417209,36.585983]}},{"properties":{"casulities":1.0,"city":"Dublin","bg_long":-80.686732,"bg_lat":37.105118,"id":"a625gwu041nl","state":"Virginia"},"type":"Feature","geometry":{"type":"Point","coordinates":[-80.686732,37.105118]}},{"properties":{"casulities":1.0,"city":"Eastville","bg_long":-75.938584,"bg_lat":37.350255,"id":"a625gwogxyzh","state":"Virginia"},"type":"Feature","geometry":{"type":"Point","coordinates":[-75.938584,37.350255]}},{"properties":{"casulities":2.0,"city":"Fairfax","bg_long":-77.308132,"bg_lat":38.841574,"id":"a625gwqkr0vj","state":"Virginia"},"type":"Feature","geometry":{"type":"Point","coordinates":[-77.308132,38.841574]}},{"properties":{"casulities":1.0,"city":"Fairfax Station","bg_long":-77.325692,"bg_lat":38.802817,"id":"a625gwpfkbzc","state":"Virginia"},"type":"Feature","geometry":{"type":"Point","coordinates":[-77.325692,38.802817]}},{"properties":{"casulities":4.0,"city":"Falls Church","bg_long":-77.173624,"bg_lat":38.88549,"id":"a625gwrkf44l","state":"Virginia"},"type":"Feature","geometry":{"type":"Point","coordinates":[-77.173624,38.88549]}},{"properties":{"casulities":3.0,"city":"Fredericksburg","bg_long":-77.459144,"bg_lat":38.30089,"id":"a625gww0vl01","state":"Virginia"},"type":"Feature","geometry":{"type":"Point","coordinates":[-77.459144,38.30089]}},{"properties":{"casulities":1.0,"city":"Glade Spring","bg_long":-81.768199,"bg_lat":36.791345,"id":"a625gwhxrryl","state":"Virginia"},"type":"Feature","geometry":{"type":"Point","coordinates":[-81.768199,36.791345]}},{"properties":{"casulities":1.0,"city":"Gloucester","bg_long":-76.526325,"bg_lat":37.413967,"id":"a625gwwl0ivl","state":"Virginia"},"type":"Feature","geometry":{"type":"Point","coordinates":[-76.526325,37.413967]}},{"properties":{"casulities":1.0,"city":"Grottoes","bg_long":-78.825938,"bg_lat":38.267751,"id":"a625gws367wa","state":"Virginia"},"type":"Feature","geometry":{"type":"Point","coordinates":[-78.825938,38.267751]}},{"properties":{"casulities":4.0,"city":"Hampton","bg_long":-76.345119,"bg_lat":37.027795,"id":"a625gwtu80wm","state":"Virginia"},"type":"Feature","geometry":{"type":"Point","coordinates":[-76.345119,37.027795]}},{"properties":{"casulities":1.0,"city":"Harrisonburg","bg_long":-78.869047,"bg_lat":38.451534,"id":"a625gwrjfcr6","state":"Virginia"},"type":"Feature","geometry":{"type":"Point","coordinates":[-78.869047,38.451534]}},{"properties":{"casulities":1.0,"city":"King George","bg_long":-77.183484,"bg_lat":38.268027,"id":"a625gwkf3rw2","state":"Virginia"},"type":"Feature","geometry":{"type":"Point","coordinates":[-77.183484,38.268027]}},{"properties":{"casulities":1.0,"city":"Lebanon","bg_long":-82.078734,"bg_lat":36.901055,"id":"a625gwwq0yq8","state":"Virginia"},"type":"Feature","geometry":{"type":"Point","coordinates":[-82.078734,36.901055]}},{"properties":{"casulities":1.0,"city":"Lorton","bg_long":-77.206854,"bg_lat":38.70428,"id":"a625gwsj49vm","state":"Virginia"},"type":"Feature","geometry":{"type":"Point","coordinates":[-77.206854,38.70428]}},{"properties":{"casulities":3.0,"city":"Lynchburg","bg_long":-79.142839,"bg_lat":37.41402,"id":"a625gwtvwhcr","state":"Virginia"},"type":"Feature","geometry":{"type":"Point","coordinates":[-79.142839,37.41402]}},{"properties":{"casulities":2.0,"city":"Manassas","bg_long":-77.471119,"bg_lat":38.751195,"id":"a625gwjmk2ah","state":"Virginia"},"type":"Feature","geometry":{"type":"Point","coordinates":[-77.471119,38.751195]}},{"properties":{"casulities":2.0,"city":"Martinsville","bg_long":-79.868739,"bg_lat":36.68997,"id":"a625gwmrvugv","state":"Virginia"},"type":"Feature","geometry":{"type":"Point","coordinates":[-79.868739,36.68997]}},{"properties":{"casulities":3.0,"city":"Mechanicsville","bg_long":-77.378419,"bg_lat":37.612655,"id":"a625gwgxzb62","state":"Virginia"},"type":"Feature","geometry":{"type":"Point","coordinates":[-77.378419,37.612655]}},{"properties":{"casulities":4.0,"city":"Midlothian","bg_long":-77.651274,"bg_lat":37.50359,"id":"a625gwnh6qc6","state":"Virginia"},"type":"Feature","geometry":{"type":"Point","coordinates":[-77.651274,37.50359]}},{"properties":{"casulities":1.0,"city":"New Castle","bg_long":-80.112761,"bg_lat":37.502867,"id":"a625gwm60hf6","state":"Virginia"},"type":"Feature","geometry":{"type":"Point","coordinates":[-80.112761,37.502867]}},{"properties":{"casulities":3.0,"city":"Newport News","bg_long":-76.480229,"bg_lat":37.082885,"id":"a625gwnk55cv","state":"Virginia"},"type":"Feature","geometry":{"type":"Point","coordinates":[-76.480229,37.082885]}},{"properties":{"casulities":4.0,"city":"Norfolk","bg_long":-76.285069,"bg_lat":36.846825,"id":"a625gwsoqmua","state":"Virginia"},"type":"Feature","geometry":{"type":"Point","coordinates":[-76.285069,36.846825]}},{"properties":{"casulities":1.0,"city":"North Stafford","bg_long":-77.428615,"bg_lat":38.461078,"id":"a625gwvsigzj","state":"Virginia"},"type":"Feature","geometry":{"type":"Point","coordinates":[-77.428615,38.461078]}},{"properties":{"casulities":1.0,"city":"Oakton","bg_long":-77.301381,"bg_lat":38.880787,"id":"a625gwti2b5s","state":"Virginia"},"type":"Feature","geometry":{"type":"Point","coordinates":[-77.301381,38.880787]}},{"properties":{"casulities":1.0,"city":"Patrick","bg_long":-80.333672,"bg_lat":36.707218,"id":"a625gwvbp8t4","state":"Virginia"},"type":"Feature","geometry":{"type":"Point","coordinates":[-80.333672,36.707218]}},{"properties":{"casulities":1.0,"city":"Portsmouth","bg_long":-76.297715,"bg_lat":36.832642,"id":"a625gwpfa86w","state":"Virginia"},"type":"Feature","geometry":{"type":"Point","coordinates":[-76.297715,36.832642]}},{"properties":{"casulities":1.0,"city":"Prince George","bg_long":-77.287617,"bg_lat":37.220415,"id":"a625gwvro4lj","state":"Virginia"},"type":"Feature","geometry":{"type":"Point","coordinates":[-77.287617,37.220415]}},{"properties":{"casulities":1.0,"city":"Prince William County","bg_long":-77.466766,"bg_lat":38.721779,"id":"a625gwi081s9","state":"Virginia"},"type":"Feature","geometry":{"type":"Point","coordinates":[-77.466766,38.721779]}},{"properties":{"casulities":1.0,"city":"Pulaski","bg_long":-80.77987,"bg_lat":37.049395,"id":"a625gwkb1uz8","state":"Virginia"},"type":"Feature","geometry":{"type":"Point","coordinates":[-80.77987,37.049395]}},{"properties":{"casulities":3.0,"city":"Reston","bg_long":-77.354571,"bg_lat":38.959374,"id":"a625gwtulbyc","state":"Virginia"},"type":"Feature","geometry":{"type":"Point","coordinates":[-77.354571,38.959374]}},{"properties":{"casulities":6.0,"city":"Richmond","bg_long":-77.433654,"bg_lat":37.5407,"id":"a625gwp5vh3l","state":"Virginia"},"type":"Feature","geometry":{"type":"Point","coordinates":[-77.433654,37.5407]}},{"properties":{"casulities":1.0,"city":"Roanoke","bg_long":-79.940534,"bg_lat":37.271525,"id":"a625gwj54ywb","state":"Virginia"},"type":"Feature","geometry":{"type":"Point","coordinates":[-79.940534,37.271525]}},{"properties":{"casulities":1.0,"city":"Rocky Mount","bg_long":-79.88929,"bg_lat":36.99503,"id":"a625gwoxeqqi","state":"Virginia"},"type":"Feature","geometry":{"type":"Point","coordinates":[-79.88929,36.99503]}},{"properties":{"casulities":1.0,"city":"Ruckersville","bg_long":-78.368309,"bg_lat":38.233177,"id":"a625gwqydxef","state":"Virginia"},"type":"Feature","geometry":{"type":"Point","coordinates":[-78.368309,38.233177]}},{"properties":{"casulities":1.0,"city":"Saltville","bg_long":-81.760169,"bg_lat":36.88262,"id":"a625gwgh9lz1","state":"Virginia"},"type":"Feature","geometry":{"type":"Point","coordinates":[-81.760169,36.88262]}},{"properties":{"casulities":1.0,"city":"Sandston","bg_long":-77.312979,"bg_lat":37.52291,"id":"a625gwvtzoxm","state":"Virginia"},"type":"Feature","geometry":{"type":"Point","coordinates":[-77.312979,37.52291]}},{"properties":{"casulities":1.0,"city":"Shelton","bg_long":-81.19478,"bg_lat":38.431474,"id":"a625gwkw9ou9","state":"Virginia"},"type":"Feature","geometry":{"type":"Point","coordinates":[-81.19478,38.431474]}},{"properties":{"casulities":2.0,"city":"Spotsylvania","bg_long":-77.588854,"bg_lat":38.201545,"id":"a625gwl86bq5","state":"Virginia"},"type":"Feature","geometry":{"type":"Point","coordinates":[-77.588854,38.201545]}},{"properties":{"casulities":3.0,"city":"Springfield","bg_long":-77.191655,"bg_lat":38.779044,"id":"a625gwuxv2b9","state":"Virginia"},"type":"Feature","geometry":{"type":"Point","coordinates":[-77.191655,38.779044]}},{"properties":{"casulities":2.0,"city":"Stafford","bg_long":-77.408174,"bg_lat":38.422885,"id":"a625gwszbany","state":"Virginia"},"type":"Feature","geometry":{"type":"Point","coordinates":[-77.408174,38.422885]}},{"properties":{"casulities":1.0,"city":"Stuarts Draft","bg_long":-79.034185,"bg_lat":38.030655,"id":"a625gwr5r5oq","state":"Virginia"},"type":"Feature","geometry":{"type":"Point","coordinates":[-79.034185,38.030655]}},{"properties":{"casulities":1.0,"city":"Tazewell","bg_long":-81.518678,"bg_lat":37.116177,"id":"a625gwu5ap7a","state":"Virginia"},"type":"Feature","geometry":{"type":"Point","coordinates":[-81.518678,37.116177]}},{"properties":{"casulities":1.0,"city":"Triangle","bg_long":-77.336429,"bg_lat":38.5461,"id":"a625gwl0kvjr","state":"Virginia"},"type":"Feature","geometry":{"type":"Point","coordinates":[-77.336429,38.5461]}},{"properties":{"casulities":1.0,"city":"Troutville","bg_long":-79.879631,"bg_lat":37.414082,"id":"a625gwkvm5oo","state":"Virginia"},"type":"Feature","geometry":{"type":"Point","coordinates":[-79.879631,37.414082]}},{"properties":{"casulities":2.0,"city":"Vienna","bg_long":-77.263654,"bg_lat":38.900375,"id":"a625gwgk2ave","state":"Virginia"},"type":"Feature","geometry":{"type":"Point","coordinates":[-77.263654,38.900375]}},{"properties":{"casulities":12.0,"city":"Virginia Beach","bg_long":-76.059204,"bg_lat":36.75502,"id":"a625gwr2udkk","state":"Virginia"},"type":"Feature","geometry":{"type":"Point","coordinates":[-76.059204,36.75502]}},{"properties":{"casulities":1.0,"city":"Wakefield/Sedley","bg_long":-77.064758,"bg_lat":36.788555,"id":"a625gwioqus0","state":"Virginia"},"type":"Feature","geometry":{"type":"Point","coordinates":[-77.064758,36.788555]}},{"properties":{"casulities":1.0,"city":"Williamsburg","bg_long":-76.709724,"bg_lat":37.275609,"id":"a625gwj0xt02","state":"Virginia"},"type":"Feature","geometry":{"type":"Point","coordinates":[-76.709724,37.275609]}},{"properties":{"casulities":2.0,"city":"Winchester","bg_long":-78.164049,"bg_lat":39.184005,"id":"a625gwo23juc","state":"Virginia"},"type":"Feature","geometry":{"type":"Point","coordinates":[-78.164049,39.184005]}},{"properties":{"casulities":4.0,"city":"Woodbridge","bg_long":-77.247875,"bg_lat":38.660595,"id":"a625gwhfaqf4","state":"Virginia"},"type":"Feature","geometry":{"type":"Point","coordinates":[-77.247875,38.660595]}}],"is_temporal":false,"author":{"url":"http://icasualties.org/Iraq/Fatalities.aspx","metadata":"","contact_name":"","contact_address":"","source":"icasualties oif","contact_phone":""},"source":"http://icasualties.org/Iraq/Fatalities.aspx","pagination":{"sort":null,"start":0,"total":70,"limit":1000000},"state":"complete","tags":"deaths,fatalities,iraq,virginia,war","published":"2009-11-05T20:43:41Z","id":17761}