{"type":"FeatureCollection","data_type":"Dataset","url_type":null,"permissions":[{"permissions":{"download":true,"view":true},"group_id":"everyone"}],"classification":null,"title":"Candidate Cities","count":24,"stream_id":17812,"contributor":{"url":"http://geocommons.com/users/9563","name":"sasha218"},"data_attributes":null,"calculation_params":null,"icon_link":null,"link":"http://geocommons.com/overlays/17812.json","extent":[-1.25778,-6.26667,139.767,59.9494],"geometry_types":["point"],"unique_name":null,"name":"Candidate Cities","feature_count":24,"description":"","next_feature":null,"is_raster":false,"short_classification":"Y","stats":{"latitude":{"max":59.949444,"mean":32.2672026666667,"variance":325.465574393522,"stdev":18.040664466519,"min":-6.266667,"median":35.683333},"longitude":{"max":139.766667,"mean":60.6293366666667,"variance":1810.09891377945,"stdev":42.5452572419001,"min":-1.257778,"median":54.366667}},"features":[{"properties":{"city":"Moscow","latitude":55.751667,"text":"Franchise Agreement: Master of Business Administration (MBA)","region":"Russia","url":"http://www.ane.ru/about-the-academy.html","project_name":"Academy of National Economy","longitude":37.617778,"id":"a6m8ma8z8rz9"},"type":"Feature","geometry":{"type":"Point","coordinates":[37.617778,55.751667]}},{"properties":{"city":null,"latitude":1.233333,"text":"Franchise of FdEng Aircraft Engineering and Foundation Year (Level 3) Aircraft Engineering","region":"Singapore","url":"http://www.attc.edu.sg/index.html","project_name":"Air Transport Training College","longitude":103.916667,"id":"a6m8mak3idjq"},"type":"Feature","geometry":{"type":"Point","coordinates":[103.916667,1.233333]}},{"properties":{"city":"Colombo","latitude":6.934444,"text":"Franchise of the HND Engineering, BEng Aerospace Engineering Design, BEng Automotive Engineering Design, BEng Mechanical Engineering Design, FdEng Aircraft Engineering, FdEng Aviation Studies for Commercial Pilot Training","region":"Sri Lanka","url":"http://www.aac.lk/","project_name":"Asian Aviation Centre","longitude":79.842778,"id":"a6m8mae5wtxr"},"type":"Feature","geometry":{"type":"Point","coordinates":[79.842778,6.934444]}},{"properties":{"city":"Oslo","latitude":59.949444,"text":"Progression Agreement for 3rd year entry into BSc Nutrition","region":"Norway","url":"http://www.amh.no/","project_name":"Atlantis Medical College","longitude":10.756389,"id":"a6m8ma42n7ye"},"type":"Feature","geometry":{"type":"Point","coordinates":[10.756389,59.949444]}},{"properties":{"city":"Oxford","latitude":51.751944,"text":"Franchise of first year in CISM delivered in Oxford with students locked into +2 Progression at Kingston.  Provides pathway for students moving into research at KU.","region":"UK","url":"http://auo.ac/","project_name":"Azad University Oxford","longitude":-1.257778,"id":"a6m8maal1hg4"},"type":"Feature","geometry":{"type":"Point","coordinates":[-1.257778,51.751944]}},{"properties":{"city":"Riyadh","latitude":24.633333,"text":"Franchise of the Foundation Degree in Aircraft Engineering to BAe Systems and Saudi Development &amp; Training (SDT)","region":"Saudi Arabia","url":null,"project_name":"BAE Systems","longitude":46.716667,"id":"a6m8mad92d5m"},"type":"Feature","geometry":{"type":"Point","coordinates":[46.716667,24.633333]}},{"properties":{"city":"Beijing","latitude":39.9,"text":"Progression Agreement for entry onto BA Accounting and Finance","region":"China","url":"http://www.bnu.edu.cn/eng/","project_name":"Beijing Normal University","longitude":116.4,"id":"a6m8ma7gdlk2"},"type":"Feature","geometry":{"type":"Point","coordinates":[116.4,39.9]}},{"properties":{"city":"Oslo","latitude":59.949444,"text":"Progression Agreement for 2nd year entry into BA Journalism, Creative Writing, Human Rights, Film Studies","region":"Norway","url":"http://www.bjorknes.no/hoyskole/default.asp?fkAKId=258&amp;SiId=203&amp;emne=sider","project_name":"Bjorkness College","longitude":10.756389,"id":"a6m8mabe8lu9"},"type":"Feature","geometry":{"type":"Point","coordinates":[10.756389,59.949444]}},{"properties":{"city":"Tokyo","latitude":35.683333,"text":"Progression into Foundation Programmes with Business, FASS and FADA","region":"Japan","url":"http://www.jcfl.ac.jp/eng/nihon_e.htm","project_name":"Bunsai Art and Design College/JCFL College","longitude":139.766667,"id":"a6m8mad1ur1x"},"type":"Feature","geometry":{"type":"Point","coordinates":[139.766667,35.683333]}},{"properties":{"city":null,"latitude":22.3,"text":"Progression Agreement for entry into Years 2/3 in FBL and FASS","region":"Hong Kong","url":"http://www.cityu.edu.hk/","project_name":"City University","longitude":114.2,"id":"a6m8mab98y5p"},"type":"Feature","geometry":{"type":"Point","coordinates":[114.2,22.3]}},{"properties":{"city":null,"latitude":22.3,"text":"Progression Agreement for entry into Year 2 in FBL and FASS","region":"Hong Kong","url":"http://hkuspace.hku.hk/cc/eng/index.htm","project_name":"Hong Kong SPACE Community College","longitude":114.2,"id":"a6m8mae7947q"},"type":"Feature","geometry":{"type":"Point","coordinates":[114.2,22.3]}},{"properties":{"city":"Athens","latitude":37.966667,"text":"Franchise of  courses within the Faculty of Business and Law","region":"Greece","url":"http://www.icbs.gr/default.aspx?catID=170","project_name":"ICBS Business College","longitude":23.716667,"id":"a6m8maiuscb1"},"type":"Feature","geometry":{"type":"Point","coordinates":[23.716667,37.966667]}},{"properties":{"city":"Thessaloniki","latitude":40.633333,"text":"Franchise of  courses within the Faculty of Business and Law","region":"Greece","url":"http://www.icbs.gr/default.aspx?catID=170","project_name":"ICBS Business College","longitude":22.95,"id":"a6m8mag50m93"},"type":"Feature","geometry":{"type":"Point","coordinates":[22.95,40.633333]}},{"properties":{"city":"Larissa","latitude":39.641667,"text":"Franchise of  courses within the Faculty of Business and Law","region":"Greece","url":"http://www.icbs.gr/default.aspx?catID=170","project_name":"ICBS Business College","longitude":22.416667,"id":"a6m8majds66q"},"type":"Feature","geometry":{"type":"Point","coordinates":[22.416667,39.641667]}},{"properties":{"city":"Abu Dhabi","latitude":24.466667,"text":"Franchise of FdEng Aircraft Engineering and Foundation Year (Level 3) Aircraft Engineering","region":"UAE","url":"http://www.iat.ac.ae/","project_name":"Institute of Applied Technology","longitude":54.366667,"id":"a6m8mag43bsi"},"type":"Feature","geometry":{"type":"Point","coordinates":[54.366667,24.466667]}},{"properties":{"city":"Nicosia","latitude":35.166667,"text":"Franchise of the Master of Business Administration, Diploma in Management Studies and MA in Management Studies","region":"Cyprus","url":"http://www.ibscyprus.com.cy/en/index.asp","project_name":"Institute of Banking Studies, Cyprus","longitude":33.366667,"id":"a6m8mafdikxh"},"type":"Feature","geometry":{"type":"Point","coordinates":[33.366667,35.166667]}},{"properties":{"city":"Tehran","latitude":35.6962,"text":"Progression Agreement for entry onto MSc Automotive Engineering. (Three months in Iran and nine months at KU.)","region":"Iran","url":"http://www.kntu.ac.ir/","project_name":"KN Toosi","longitude":51.423,"id":"a6m8mai6wpxf"},"type":"Feature","geometry":{"type":"Point","coordinates":[51.423,35.6962]}},{"properties":{"city":null,"latitude":30.663611,"text":"Multi-Faculty Agreement for Progression from ten Chinese centres","region":"China","url":"http://www.ncuk.ac.uk/ncuk/","project_name":"NCUK","longitude":104.066667,"id":"a6m8macnhqg1"},"type":"Feature","geometry":{"type":"Point","coordinates":[104.066667,30.663611]}},{"properties":{"city":"Mumbai","latitude":18.975,"text":"Franchise of the Business Administration (BBA) and Master of Business Administration (MBA)","region":"India","url":"http://www.svkm-kingston.com/","project_name":"SVKM","longitude":72.8258,"id":"a6m8maev5jgy"},"type":"Feature","geometry":{"type":"Point","coordinates":[72.8258,18.975]}},{"properties":{"city":"Sharjah","latitude":25.433333,"text":"3+1 Progression Agreement for Business Administration (BBA)  and 2+2 Progression Agreement with Accounting and Finance","region":"UAE","url":"http://skylineuniversity.com/","project_name":"Skyline University College","longitude":55.383333,"id":"a6m8mahwoaxm"},"type":"Feature","geometry":{"type":"Point","coordinates":[55.383333,25.433333]}},{"properties":{"city":"Oslo","latitude":59.949444,"text":"Progression Agreement for 2nd year entry to FASS","region":"Norway","url":"http://www.strykejernet.no/","project_name":"Strykejernet","longitude":10.756389,"id":"a6m8maibsr6c"},"type":"Feature","geometry":{"type":"Point","coordinates":[10.756389,59.949444]}},{"properties":{"city":"Piraeus","latitude":37.95,"text":"Franchise of four MSc courses, two in CISM and two in Engineering; MSc Management in Construction, MSc in Advanced Industrial &amp; Manufacturing Systems,  MSc E-Commerce and MSc Networking and Data Communications","region":"Greece","url":"http://3w.teipir.gr/tp/TEIeng/","project_name":"TEI Piraeus","longitude":23.633333,"id":"a6m8ma4vwfho"},"type":"Feature","geometry":{"type":"Point","coordinates":[23.633333,37.95]}},{"properties":{"city":"Jakarta","latitude":-6.266667,"text":"Articulation Agreement into UG and PG Motorcycle courses","region":"Indonesia","url":"http://www.ums.ac.id/","project_name":"University Muhammadiyah Surakarta","longitude":106.8,"id":"a6m8maewvcql"},"type":"Feature","geometry":{"type":"Point","coordinates":[106.8,-6.266667]}},{"properties":{"city":"Bangkok","latitude":13.75,"text":"Progression Agreement into 2nd or 3rd year of UG and PG Business courses","region":"Thailand","url":"http://utcc2.utcc.ac.th/localuser/interoffice/","project_name":"University of the Thai Chamber of Commerce","longitude":100.483333,"id":"a6m8mado4yd5"},"type":"Feature","geometry":{"type":"Point","coordinates":[100.483333,13.75]}}],"is_temporal":false,"author":{"url":"","metadata":"","contact_name":"","contact_address":"","source":"","contact_phone":""},"source":"","pagination":{"sort":null,"start":0,"total":24,"limit":1000000},"state":"complete","tags":"yes","published":"2014-08-10T23:04:31-04:00","id":17812}