{"type":"FeatureCollection","data_type":"Dataset","url_type":null,"permissions":[{"permissions":{"download":true,"view":true},"group_id":"everyone"}],"classification":null,"title":"Green Certified Businesses in Oakland","count":135,"stream_id":178371,"contributor":{"url":"http://geocommons.com/users/32547","name":"bs9749a"},"data_attributes":null,"calculation_params":null,"icon_link":null,"link":"http://geocommons.com/overlays/178371.json","extent":[-122.299,37.7425,-122.157,37.8431],"geometry_types":["point"],"unique_name":null,"name":"Green Certified Businesses in Oakland","feature_count":135,"description":"A map of green certified businesses in Oakland, based on information from the Bay Area Green Business Program as of November 17, 2011.","next_feature":null,"is_raster":false,"short_classification":"Y","stats":{},"features":[{"properties":{"city":"Oakland","name":"ACC Environmental Consultants, Inc.","zip":"94621","number":"7977","geo_score":1.0,"website":"www.accenv.com","street":"Capwell Drive","id":"a63bhk7wx758","geo_precision":"zip","state":"CA"},"type":"Feature","geometry":{"type":"Point","coordinates":[-122.196689,37.742529]}},{"properties":{"city":"Oakland","name":"Acorn Wellness Center","zip":"94609","number":"2929","geo_score":1.0,"website":"http://www.acornwellness.com","street":"Summit Street","id":"a63bhk4213dj","geo_precision":"zip","state":"CA"},"type":"Feature","geometry":{"type":"Point","coordinates":[-122.26328,37.834776]}},{"properties":{"city":"Oakland","name":"Actual Cafe","zip":"94608","number":"6334","geo_score":0.857,"website":"www.actualcafe.com","street":"San Pablo Avenue","id":"a63bhk57qeiz","geo_precision":"zip","state":"CA"},"type":"Feature","geometry":{"type":"Point","coordinates":[-122.29548,37.833876]}},{"properties":{"city":"Oakland","name":"AHA Oak Street Terrace","zip":"94607","number":"1109","geo_score":1.0,"website":null,"street":"Oak Street Terrace","id":"a63bhkbnqdyr","geo_precision":"zip","state":"CA"},"type":"Feature","geometry":{"type":"Point","coordinates":[-122.29878,37.807967]}},{"properties":{"city":"Oakland","name":"Alameda County Supervisor Scott Haggerty's Office","zip":"94612","number":"1221","geo_score":1.0,"website":null,"street":"Oak Street","id":"a63bhk9ji6c9","geo_precision":"zip","state":"CA"},"type":"Feature","geometry":{"type":"Point","coordinates":[-122.27018,37.809435]}},{"properties":{"city":"Oakland","name":"Aramark Uniform Services","zip":"94607","number":"330","geo_score":1.0,"website":null,"street":"Chestnut Street","id":"a63bhk7jpdvw","geo_precision":"zip","state":"CA"},"type":"Feature","geometry":{"type":"Point","coordinates":[-122.29878,37.807967]}},{"properties":{"city":"Oakland","name":"Audio Visual Consultants","zip":"94610","number":"3738","geo_score":1.0,"website":"www.avconsultants.com","street":"Grand Avenue","id":"a63bhki5mkde","geo_precision":"zip","state":"CA"},"type":"Feature","geometry":{"type":"Point","coordinates":[-122.238779,37.811277]}},{"properties":{"city":"Oakland","name":"Avail Insurance Solutions, LLC","zip":"94618","number":"5733","geo_score":1.0,"website":"www.askavail.com","street":"Ross Street","id":"a63bhk9283rp","geo_precision":"zip","state":"CA"},"type":"Feature","geometry":{"type":"Point","coordinates":[-122.240179,37.843126]}},{"properties":{"city":"Oakland","name":"Baja Taqueria","zip":"94611","number":"4070","geo_score":0.875,"website":"www.bajaonpiedmont.com","street":"Piedmont Avenue","id":"a63bhk7tgdxb","geo_precision":"zip","state":"CA"},"type":"Feature","geometry":{"type":"Point","coordinates":[-122.231635,37.824372]}},{"properties":{"city":"Oakland","name":"Be Well Integral Healing Space","zip":"94609","number":"401","geo_score":1.0,"website":"www.bewellnatural.com","street":"29th Street","id":"a63bhk8gb6of","geo_precision":"zip","state":"CA"},"type":"Feature","geometry":{"type":"Point","coordinates":[-122.26328,37.834776]}},{"properties":{"city":"Oakland","name":"Beyond Compliance","zip":"94612","number":"1904","geo_score":1.0,"website":"www.beyondcompliance.net","street":"Franklin Street","id":"a63bhk6ohzst","geo_precision":"zip","state":"CA"},"type":"Feature","geometry":{"type":"Point","coordinates":[-122.27018,37.809435]}},{"properties":{"city":"Oakland","name":"BioDiesel Hauling","zip":"94619","number":"3521","geo_score":1.0,"website":null,"street":"High Street","id":"a63bhk5sjrzp","geo_precision":"zip","state":"CA"},"type":"Feature","geometry":{"type":"Point","coordinates":[-122.167126,37.783877]}},{"properties":{"city":"Oakland","name":"Blue Heron Catering","zip":"94619","number":"3100","geo_score":1.0,"website":null,"street":"35th Avenue","id":"a63bhk779l3v","geo_precision":"zip","state":"CA"},"type":"Feature","geometry":{"type":"Point","coordinates":[-122.167126,37.783877]}},{"properties":{"city":"Oakland","name":"Body Mind &amp; Spirit Massage Therapy Center","zip":"94618","number":"6206","geo_score":1.0,"website":"www.bodymindandspirit.us","street":"Claremont Avenue","id":"a63bhk79l8kd","geo_precision":"zip","state":"CA"},"type":"Feature","geometry":{"type":"Point","coordinates":[-122.240179,37.843126]}},{"properties":{"city":"Oakland","name":"BP Wind Energy","zip":"94612","number":"360","geo_score":1.0,"website":"www.bpalternativeenergy.com","street":"22nd Street","id":"a63bhk86vphw","geo_precision":"zip","state":"CA"},"type":"Feature","geometry":{"type":"Point","coordinates":[-122.27018,37.809435]}},{"properties":{"city":"Oakland","name":"Breathing Room Consulting","zip":"94609","number":"397","geo_score":1.0,"website":null,"street":"51st Street","id":"a63bhkcpkvgz","geo_precision":"zip","state":"CA"},"type":"Feature","geometry":{"type":"Point","coordinates":[-122.26328,37.834776]}},{"properties":{"city":"Oakland","name":"Burns Employee Benefits","zip":"94618","number":"5653","geo_score":1.0,"website":"http://burnsemployeebenefits.com/","street":"Maxwelton Road","id":"a63bhkepykme","geo_precision":"zip","state":"CA"},"type":"Feature","geometry":{"type":"Point","coordinates":[-122.240179,37.843126]}},{"properties":{"city":"Oakland","name":"California State University East Bay/The Oakland Center","zip":"94607","number":"1000","geo_score":1.0,"website":"www.theoaklandcenter.com","street":"Broadway","id":"a63bhkhx9v42","geo_precision":"zip","state":"CA"},"type":"Feature","geometry":{"type":"Point","coordinates":[-122.29878,37.807967]}},{"properties":{"city":"Oakland","name":"CH2M HILL","zip":"94612","number":"155","geo_score":1.0,"website":null,"street":"Grand Avenue","id":"a63bhkfz527f","geo_precision":"zip","state":"CA"},"type":"Feature","geometry":{"type":"Point","coordinates":[-122.27018,37.809435]}},{"properties":{"city":"Oakland","name":"Chabot Space &amp; Science Center","zip":"94619","number":"10000","geo_score":1.0,"website":"www.chabotspace.org","street":"Skyline Boulevard","id":"a63bhkgdnkye","geo_precision":"zip","state":"CA"},"type":"Feature","geometry":{"type":"Point","coordinates":[-122.167126,37.783877]}},{"properties":{"city":"Oakland","name":"City of Oakland - City Center Complex","zip":"94612","number":"1","geo_score":1.0,"website":"www.oaklandnet.com","street":"Frank Ogawa Plaza","id":"a63bhk4q1tex","geo_precision":"zip","state":"CA"},"type":"Feature","geometry":{"type":"Point","coordinates":[-122.27018,37.809435]}},{"properties":{"city":"Oakland","name":"City of Oakland Studio One Arts Center","zip":"94609","number":"365","geo_score":1.0,"website":null,"street":"45th Street","id":"a63bhkfe50sg","geo_precision":"zip","state":"CA"},"type":"Feature","geometry":{"type":"Point","coordinates":[-122.26328,37.834776]}},{"properties":{"city":"Oakland","name":"Climate Coaching","zip":"94609","number":"6475","geo_score":1.0,"website":"www.climate-coaching.com","street":"Colby Street","id":"a63bhkf92bm6","geo_precision":"zip","state":"CA"},"type":"Feature","geometry":{"type":"Point","coordinates":[-122.26328,37.834776]}},{"properties":{"city":"Oakland","name":"Community Design + Architecture","zip":"94612","number":"350","geo_score":1.0,"website":null,"street":"Frank Ogawa Plaza","id":"a63bhk926wyo","geo_precision":"zip","state":"CA"},"type":"Feature","geometry":{"type":"Point","coordinates":[-122.27018,37.809435]}},{"properties":{"city":"Oakland","name":"Computer Techs Personnel Staffing","zip":"94603","number":"9308","geo_score":1.0,"website":null,"street":"International Boulevard","id":"a63bhk3ena2m","geo_precision":"zip","state":"CA"},"type":"Feature","geometry":{"type":"Point","coordinates":[-122.198428,37.761778]}},{"properties":{"city":"Oakland","name":"Cook!","zip":"94608","number":"3310","geo_score":0.857,"website":"https://www.cooksf.com/","street":"Peralta Street","id":"a63bhker75p4","geo_precision":"zip","state":"CA"},"type":"Feature","geometry":{"type":"Point","coordinates":[-122.29548,37.833876]}},{"properties":{"city":"Oakland","name":"Cowgirl Creative","zip":"94602","number":"3056","geo_score":1.0,"website":"www.cowgirlcreative.co/home","street":"Champion Street","id":"a63bhkdpnc87","geo_precision":"zip","state":"CA"},"type":"Feature","geometry":{"type":"Point","coordinates":[-122.204578,37.802777]}},{"properties":{"city":"Oakland","name":"Cutting Edge Capital","zip":"94612","number":"436","geo_score":1.0,"website":null,"street":"14th Street","id":"a63bhk52depw","geo_precision":"zip","state":"CA"},"type":"Feature","geometry":{"type":"Point","coordinates":[-122.27018,37.809435]}},{"properties":{"city":"Oakland","name":"David Thorne Landscape Architect","zip":"94610","number":"3315","geo_score":1.0,"website":"www.thornela.com","street":"Grand Avenue","id":"a63bhkbk6ilc","geo_precision":"zip","state":"CA"},"type":"Feature","geometry":{"type":"Point","coordinates":[-122.238779,37.811277]}},{"properties":{"city":"Oakland","name":"Donahue Gallagher Woods LLP","zip":"94612","number":"1999","geo_score":1.0,"website":"www.donahue.com","street":"Harrison Street","id":"a63bhkdxvvse","geo_precision":"zip","state":"CA"},"type":"Feature","geometry":{"type":"Point","coordinates":[-122.27018,37.809435]}},{"properties":{"city":"Oakland","name":"Drafting Cafe","zip":"94606","number":"2701","geo_score":1.0,"website":"www.draftingcafe.com","street":"13th Avenue","id":"a63bhk8nkno0","geo_precision":"zip","state":"CA"},"type":"Feature","geometry":{"type":"Point","coordinates":[-122.243979,37.789927]}},{"properties":{"city":"Oakland","name":"DRAGA Designs","zip":"94603","number":"2128","geo_score":1.0,"website":"http://www.barenose.com","street":"108th Avenue","id":"a63bhkb8ot5v","geo_precision":"zip","state":"CA"},"type":"Feature","geometry":{"type":"Point","coordinates":[-122.198428,37.761778]}},{"properties":{"city":"Oakland","name":"Earthjustice","zip":"94612","number":"426","geo_score":1.0,"website":"www.earthjustice.org","street":"17th Street","id":"a63bhkf79vcz","geo_precision":"zip","state":"CA"},"type":"Feature","geometry":{"type":"Point","coordinates":[-122.27018,37.809435]}},{"properties":{"city":"Oakland","name":"EarthSource Forest Products","zip":"94608","number":"1618","geo_score":0.857,"website":"www.earthsourcewood.com","street":"28th Street","id":"a63bhkbtkevr","geo_precision":"zip","state":"CA"},"type":"Feature","geometry":{"type":"Point","coordinates":[-122.29548,37.833876]}},{"properties":{"city":"Oakland","name":"East Bay Community Foundation","zip":"94612","number":"200","geo_score":1.0,"website":"www.eastbaycf.org","street":"Frank Ogawa Plaza","id":"a63bhk8sq3uw","geo_precision":"zip","state":"CA"},"type":"Feature","geometry":{"type":"Point","coordinates":[-122.27018,37.809435]}},{"properties":{"city":"Oakland","name":"East Bay Municipal Utilities District Fleet Maintenance","zip":"94607","number":"1199","geo_score":1.0,"website":null,"street":"21st Street","id":"a63bhkerc22q","geo_precision":"zip","state":"CA"},"type":"Feature","geometry":{"type":"Point","coordinates":[-122.29878,37.807967]}},{"properties":{"city":"Oakland","name":"East Bay Municipal Utility District Reprographics","zip":"94607","number":"1200","geo_score":1.0,"website":"www.ebmud.com","street":"21st Street","id":"a63bhkalx2qm","geo_precision":"zip","state":"CA"},"type":"Feature","geometry":{"type":"Point","coordinates":[-122.29878,37.807967]}},{"properties":{"city":"Oakland","name":"Electrocompaniet Inc.","zip":"94607","number":"97","geo_score":1.0,"website":"www.electrocompaniet.com","street":"Linden Street","id":"a63bhkhovdga","geo_precision":"zip","state":"CA"},"type":"Feature","geometry":{"type":"Point","coordinates":[-122.29878,37.807967]}},{"properties":{"city":"Oakland","name":"EnviroSystems Group","zip":"94612","number":"1904","geo_score":1.0,"website":"www.esgcon.com","street":"Franklin Street","id":"a63bhk273zr7","geo_precision":"zip","state":"CA"},"type":"Feature","geometry":{"type":"Point","coordinates":[-122.27018,37.809435]}},{"properties":{"city":"Oakland","name":"ESA","zip":"94612","number":"350","geo_score":1.0,"website":"www.esassoc.com","street":"Frank Ogawa Plaza","id":"a63bhkb2ctm3","geo_precision":"zip","state":"CA"},"type":"Feature","geometry":{"type":"Point","coordinates":[-122.27018,37.809435]}},{"properties":{"city":"Oakland","name":"Escuela Bilingue Internacional","zip":"94609","number":"410","geo_score":1.0,"website":"www.ebinternacional.org","street":"Alcatraz Avenue","id":"a63bhk2l36dm","geo_precision":"zip","state":"CA"},"type":"Feature","geometry":{"type":"Point","coordinates":[-122.26328,37.834776]}},{"properties":{"city":"Oakland","name":"Everett Graphics","zip":"94621","number":"7300","geo_score":1.0,"website":"www.everettgraphics.com","street":"Edgewater Drive","id":"a63bhkecfatw","geo_precision":"zip","state":"CA"},"type":"Feature","geometry":{"type":"Point","coordinates":[-122.196689,37.742529]}},{"properties":{"city":"Oakland","name":"Evergreen Printing","zip":"94612","number":"2335","geo_score":1.0,"website":null,"street":"Valley Street","id":"a63bhkaz92i4","geo_precision":"zip","state":"CA"},"type":"Feature","geometry":{"type":"Point","coordinates":[-122.27018,37.809435]}},{"properties":{"city":"Oakland","name":"Faboo Cafe","zip":"94609","number":"411","geo_score":1.0,"website":"www.faboocafe.com","street":"Hathorne Avenue","id":"a63bhk3j90nv","geo_precision":"zip","state":"CA"},"type":"Feature","geometry":{"type":"Point","coordinates":[-122.26328,37.834776]}},{"properties":{"city":"Oakland","name":"Fair Trade USA","zip":"94612","number":"1500","geo_score":1.0,"website":null,"street":"Broadway","id":"a63bhkagjfq4","geo_precision":"zip","state":"CA"},"type":"Feature","geometry":{"type":"Point","coordinates":[-122.27018,37.809435]}},{"properties":{"city":"Oakland","name":"Ferrier &amp; Savage, DDS","zip":"94611","number":"2080","geo_score":0.875,"website":"www.ferrierandsavagedds.com","street":"Mountain Boulevard","id":"a63bhk72vkas","geo_precision":"zip","state":"CA"},"type":"Feature","geometry":{"type":"Point","coordinates":[-122.231635,37.824372]}},{"properties":{"city":"Oakland","name":"Fitzgerald Abbott &amp; Beardsley, LLP","zip":"94612","number":"1221","geo_score":1.0,"website":"www.fablaw.com","street":"Broadway","id":"a63bhkh41arl","geo_precision":"zip","state":"CA"},"type":"Feature","geometry":{"type":"Point","coordinates":[-122.27018,37.809435]}},{"properties":{"city":"Oakland","name":"Flowers &amp; Errands","zip":"94612","number":"Kiosk A","geo_score":1.0,"website":null,"street":"Frank Ogawa Plaza","id":"a63bhkdnun80","geo_precision":"zip","state":"CA"},"type":"Feature","geometry":{"type":"Point","coordinates":[-122.27018,37.809435]}},{"properties":{"city":"Oakland","name":"Flowing River Clinic","zip":"94609","number":"2929","geo_score":1.0,"website":"www.flowingriver.com","street":"Summit Street","id":"a63bhkdz6dvy","geo_precision":"zip","state":"CA"},"type":"Feature","geometry":{"type":"Point","coordinates":[-122.26328,37.834776]}},{"properties":{"city":"Oakland","name":"French Dry Cleaners","zip":"94619","number":"4155","geo_score":1.0,"website":"www.frenchdrycleaners.com","street":"Piedmont Avenue","id":"a63bhkik91vs","geo_precision":"zip","state":"CA"},"type":"Feature","geometry":{"type":"Point","coordinates":[-122.167126,37.783877]}},{"properties":{"city":"Oakland","name":"Geekosystems","zip":"94612","number":"1511","geo_score":1.0,"website":null,"street":"Jefferson Street","id":"a63bhkdb52bp","geo_precision":"zip","state":"CA"},"type":"Feature","geometry":{"type":"Point","coordinates":[-122.27018,37.809435]}},{"properties":{"city":"Oakland","name":"Geoffrey Holton &amp; Associates","zip":"94612","number":"339","geo_score":1.0,"website":"www.ghadesign.net","street":"15th Street","id":"a63bhkb1shtc","geo_precision":"zip","state":"CA"},"type":"Feature","geometry":{"type":"Point","coordinates":[-122.27018,37.809435]}},{"properties":{"city":"Oakland","name":"Gerard Lee Architects","zip":"94607","number":"311","geo_score":1.0,"website":"www.gleearchitects.com","street":"Oak Street","id":"a63bhk2v9kt5","geo_precision":"zip","state":"CA"},"type":"Feature","geometry":{"type":"Point","coordinates":[-122.29878,37.807967]}},{"properties":{"city":"Oakland","name":"Gerlind Institute for Cultural Studies","zip":"94603","number":"2128","geo_score":1.0,"website":"www.gerlindinstitute.org","street":"108th Avenue","id":"a63bhkcfx3k0","geo_precision":"zip","state":"CA"},"type":"Feature","geometry":{"type":"Point","coordinates":[-122.198428,37.761778]}},{"properties":{"city":"Oakland","name":"Gingerleaf Floral","zip":"94609","number":"397","geo_score":1.0,"website":"www.gingerleaffloral.com","street":"43rd Street","id":"a63bhkc3r4k1","geo_precision":"zip","state":"CA"},"type":"Feature","geometry":{"type":"Point","coordinates":[-122.26328,37.834776]}},{"properties":{"city":"Oakland","name":"Give Something Back Office Supplies","zip":"94621","number":"7730","geo_score":1.0,"website":"www.givesomethingback.com","street":"Pardee Lane","id":"a63bhkcvysdu","geo_precision":"zip","state":"CA"},"type":"Feature","geometry":{"type":"Point","coordinates":[-122.196689,37.742529]}},{"properties":{"city":"Oakland","name":"Golden Gate Litho","zip":"94605","number":"11144","geo_score":1.0,"website":null,"street":"Golf Links Road","id":"a63bhkavex14","geo_precision":"zip","state":"CA"},"type":"Feature","geometry":{"type":"Point","coordinates":[-122.156626,37.759322]}},{"properties":{"city":"Oakland","name":"Grace Street Catering","zip":"94609","number":"4629","geo_score":1.0,"website":"www.gracestreetcatering.com","street":"Martin Luther King Jr. Way","id":"a63bhkgj6ihs","geo_precision":"zip","state":"CA"},"type":"Feature","geometry":{"type":"Point","coordinates":[-122.26328,37.834776]}},{"properties":{"city":"Oakland","name":"Green Retirement Plans, Inc.","zip":"94621","number":"8080","geo_score":1.0,"website":null,"street":"Capwell Drive","id":"a63bhk5kl40x","geo_precision":"zip","state":"CA"},"type":"Feature","geometry":{"type":"Point","coordinates":[-122.196689,37.742529]}},{"properties":{"city":"Oakland","name":"Green Translations","zip":"94607","number":"288","geo_score":1.0,"website":"www.green-translations.com","street":"3rd Street","id":"a63bhk2anq13","geo_precision":"zip","state":"CA"},"type":"Feature","geometry":{"type":"Point","coordinates":[-122.29878,37.807967]}},{"properties":{"city":"Oakland","name":"Halbright Photography","zip":"94618","number":"4949","geo_score":1.0,"website":"www.halbright.com","street":"Coronado Avenue","id":"a63bhk3bb7tw","geo_precision":"zip","state":"CA"},"type":"Feature","geometry":{"type":"Point","coordinates":[-122.240179,37.843126]}},{"properties":{"city":"Oakland","name":"Henn, Etzel &amp; Moore","zip":"94612","number":"1970","geo_score":1.0,"website":null,"street":"Broadway","id":"a63bhk3a81xy","geo_precision":"zip","state":"CA"},"type":"Feature","geometry":{"type":"Point","coordinates":[-122.27018,37.809435]}},{"properties":{"city":"Oakland","name":"Holmgren and Associates","zip":"94611","number":"1900","geo_score":0.875,"website":"www.mortgageholmgren.com","street":"Mountain Boulevard","id":"a63bhka6431r","geo_precision":"zip","state":"CA"},"type":"Feature","geometry":{"type":"Point","coordinates":[-122.231635,37.824372]}},{"properties":{"city":"Oakland","name":"In Motion Center","zip":"94606","number":"1091","geo_score":1.0,"website":"www.stillnessinmotion.com","street":"Calcot Place","id":"a63bhk8pjm5f","geo_precision":"zip","state":"CA"},"type":"Feature","geometry":{"type":"Point","coordinates":[-122.243979,37.789927]}},{"properties":{"city":"Oakland","name":"Integral Group, Inc.","zip":"94612","number":"427","geo_score":1.0,"website":null,"street":"13th Street","id":"a63bhkgtcpr2","geo_precision":"zip","state":"CA"},"type":"Feature","geometry":{"type":"Point","coordinates":[-122.27018,37.809435]}},{"properties":{"city":"Oakland","name":"Just Business Cards","zip":"94603-1404","number":"9308","geo_score":1.0,"website":null,"street":"International Boulevard","id":"a63bhk8xoar8","geo_precision":"zip","state":"CA"},"type":"Feature","geometry":{"type":"Point","coordinates":[-122.198428,37.761778]}},{"properties":{"city":"Oakland","name":"Katovich Law Group","zip":"94612","number":"436","geo_score":1.0,"website":null,"street":"14th Street","id":"a63bhkcpsbyd","geo_precision":"zip","state":"CA"},"type":"Feature","geometry":{"type":"Point","coordinates":[-122.27018,37.809435]}},{"properties":{"city":"Oakland","name":"KEMA Incorporated","zip":"94607","number":"492","geo_score":1.0,"website":"www.kema.com","street":"9th Street","id":"a63bhk88bhoq","geo_precision":"zip","state":"CA"},"type":"Feature","geometry":{"type":"Point","coordinates":[-122.29878,37.807967]}},{"properties":{"city":"Oakland","name":"Kilalo","zip":"94611","number":"2067","geo_score":0.875,"website":"www.kilalo.com","street":"Mountain Boulevard","id":"a63bhk5t0wqy","geo_precision":"zip","state":"CA"},"type":"Feature","geometry":{"type":"Point","coordinates":[-122.231635,37.824372]}},{"properties":{"city":"Oakland","name":"kW Engineering","zip":"94612","number":"287","geo_score":1.0,"website":"http://kw-engineering.com/","street":"17th Street","id":"a63bhk5x8u3z","geo_precision":"zip","state":"CA"},"type":"Feature","geometry":{"type":"Point","coordinates":[-122.27018,37.809435]}},{"properties":{"city":"Oakland","name":"Labrys Health Care Circle","zip":"94609","number":"6536","geo_score":1.0,"website":"www.labryshealthcarecircle.com","street":"Telegraph Avenue","id":"a63bhkc0b5bl","geo_precision":"zip","state":"CA"},"type":"Feature","geometry":{"type":"Point","coordinates":[-122.26328,37.834776]}},{"properties":{"city":"Oakland","name":"La Estrellita Cafe","zip":"94606","number":"446","geo_score":1.0,"website":"www.laestrellitacafe.com","street":"East 12th Street","id":"a63bhke239ge","geo_precision":"zip","state":"CA"},"type":"Feature","geometry":{"type":"Point","coordinates":[-122.243979,37.789927]}},{"properties":{"city":"Oakland","name":"LAmyx Tea Bar","zip":"94611","number":"4179","geo_score":0.875,"website":"www.lamyx.com","street":"Piedmont Avenue","id":"a63bhk7bc6cg","geo_precision":"zip","state":"CA"},"type":"Feature","geometry":{"type":"Point","coordinates":[-122.231635,37.824372]}},{"properties":{"city":"Oakland","name":"Law Offices of Gary Lucks","zip":"94612","number":"1904","geo_score":1.0,"website":"www.beyondcompliance.net","street":"Franklin Street","id":"a63bhkguppcq","geo_precision":"zip","state":"CA"},"type":"Feature","geometry":{"type":"Point","coordinates":[-122.27018,37.809435]}},{"properties":{"city":"Oakland","name":"LegalShield","zip":"94603","number":"2128","geo_score":1.0,"website":null,"street":"108th Avenue","id":"a63bhkgg50z0","geo_precision":"zip","state":"CA"},"type":"Feature","geometry":{"type":"Point","coordinates":[-122.198428,37.761778]}},{"properties":{"city":"Oakland","name":"Lim &amp; Yabu, DDS, Inc.","zip":"94602","number":"4174","geo_score":1.0,"website":"www.oaklandlaserdentist.com","street":"Park Boulevard","id":"a63bhki10szc","geo_precision":"zip","state":"CA"},"type":"Feature","geometry":{"type":"Point","coordinates":[-122.204578,37.802777]}},{"properties":{"city":"Oakland","name":"Lotus Cleaning Services","zip":"94606","number":"452","geo_score":1.0,"website":"www.lotuscleaningservices.com","street":"Hanover Avenue","id":"a63bhkhnw0yt","geo_precision":"zip","state":"CA"},"type":"Feature","geometry":{"type":"Point","coordinates":[-122.243979,37.789927]}},{"properties":{"city":"Oakland","name":"Magnolias West","zip":"94608","number":"1430","geo_score":0.857,"website":"www.MagnoliasWest.com","street":"32nd Street","id":"a63bhk7whuax","geo_precision":"zip","state":"CA"},"type":"Feature","geometry":{"type":"Point","coordinates":[-122.29548,37.833876]}},{"properties":{"city":"Oakland","name":"Mannequin Madness","zip":"94606","number":"2020","geo_score":1.0,"website":"www.mannequinmadness.com","street":"Dennison Street","id":"a63bhkg4sj4i","geo_precision":"zip","state":"CA"},"type":"Feature","geometry":{"type":"Point","coordinates":[-122.243979,37.789927]}},{"properties":{"city":"Oakland","name":"Mariposa Baking Co.","zip":"94609","number":"5427","geo_score":1.0,"website":"www.mariposabaking.com","street":"Telegraph Avenue","id":"a63bhk2t0r6e","geo_precision":"zip","state":"CA"},"type":"Feature","geometry":{"type":"Point","coordinates":[-122.26328,37.834776]}},{"properties":{"city":"Oakland","name":"Master Builders","zip":"94608","number":"5521","geo_score":0.857,"website":null,"street":"Marshall Street","id":"a63bhk3ht6hy","geo_precision":"zip","state":"CA"},"type":"Feature","geometry":{"type":"Point","coordinates":[-122.29548,37.833876]}},{"properties":{"city":"Oakland","name":"Mayway Corporation","zip":"94607","number":"1338","geo_score":1.0,"website":null,"street":"Mandela Parkway","id":"a63bhk7q6c6y","geo_precision":"zip","state":"CA"},"type":"Feature","geometry":{"type":"Point","coordinates":[-122.29878,37.807967]}},{"properties":{"city":"Oakland","name":"McKinnon Body Therapy Center","zip":"94609","number":"2940","geo_score":1.0,"website":"www.mckinnonmassage.com","street":"Webster Street","id":"a63bhk50odpa","geo_precision":"zip","state":"CA"},"type":"Feature","geometry":{"type":"Point","coordinates":[-122.26328,37.834776]}},{"properties":{"city":"Oakland","name":"Mechanics Bank - Oakland","zip":"94612","number":"1999","geo_score":1.0,"website":"www.mechbank.com","street":"Harrison Street","id":"a63bhkeiygpn","geo_precision":"zip","state":"CA"},"type":"Feature","geometry":{"type":"Point","coordinates":[-122.27018,37.809435]}},{"properties":{"city":"Oakland","name":"Mercurius","zip":"94602","number":"3224","geo_score":1.0,"website":"themercurius.com","street":"Brookdale Avenue","id":"a63bhkd1ezb8","geo_precision":"zip","state":"CA"},"type":"Feature","geometry":{"type":"Point","coordinates":[-122.204578,37.802777]}},{"properties":{"city":"Oakland","name":"Mr. Sparkle Window Washers","zip":"94602","number":"1849","geo_score":1.0,"website":"www.mrsparkle.biz","street":"Carter Street","id":"a63bhkigxvfn","geo_precision":"zip","state":"CA"},"type":"Feature","geometry":{"type":"Point","coordinates":[-122.204578,37.802777]}},{"properties":{"city":"Oakland","name":"Murakami/Nelson Architectural Corp.","zip":"94607","number":"100","geo_score":1.0,"website":"www.murakaminelson.com","street":"Filbert Street","id":"a63bhki7q82w","geo_precision":"zip","state":"CA"},"type":"Feature","geometry":{"type":"Point","coordinates":[-122.29878,37.807967]}},{"properties":{"city":"Oakland","name":"Nancy Rothstein Photography","zip":"94606","number":"535","geo_score":1.0,"website":"www.nancyrothstein.com","street":"Athol Avenue","id":"a63bhk6z1bkl","geo_precision":"zip","state":"CA"},"type":"Feature","geometry":{"type":"Point","coordinates":[-122.243979,37.789927]}},{"properties":{"city":"Oakland","name":"Natural Home Cleaning Professionals","zip":"94602","number":"3228","geo_score":1.0,"website":"www.naturalhomecleaning.com","street":"Fruitvale Avenue","id":"a63bhkhlpmq4","geo_precision":"zip","state":"CA"},"type":"Feature","geometry":{"type":"Point","coordinates":[-122.204578,37.802777]}},{"properties":{"city":"Oakland","name":"Neo Autoworks","zip":"94606","number":"1220","geo_score":1.0,"website":null,"street":"East 12th Street","id":"a63bhk351u6z","geo_precision":"zip","state":"CA"},"type":"Feature","geometry":{"type":"Point","coordinates":[-122.243979,37.789927]}},{"properties":{"city":"Oakland","name":"New Growth Landscape","zip":"94612","number":"1824","geo_score":1.0,"website":"www.newgrowthlandscape.net","street":"57th Avenue","id":"a63bhkfucau8","geo_precision":"zip","state":"CA"},"type":"Feature","geometry":{"type":"Point","coordinates":[-122.27018,37.809435]}},{"properties":{"city":"Oakland","name":"Northgate Environmental Management Inc.","zip":"94612","number":"300","geo_score":1.0,"website":"www.ngem.com","street":"Frank Ogawa Plaza","id":"a63bhkbvtl93","geo_precision":"zip","state":"CA"},"type":"Feature","geometry":{"type":"Point","coordinates":[-122.27018,37.809435]}},{"properties":{"city":"Oakland","name":"Oakland-Alameda Endodontics","zip":"94609","number":"2930","geo_score":1.0,"website":"www.oaklandalamedaendo.com","street":"Summit Street","id":"a63bhk4ux9y5","geo_precision":"zip","state":"CA"},"type":"Feature","geometry":{"type":"Point","coordinates":[-122.26328,37.834776]}},{"properties":{"city":"Oakland","name":"Oakland Auto Works","zip":"94611","number":"240","geo_score":0.875,"website":"www.oaklandautoworks.com","street":"West MacArthur Boulevard","id":"a63bhkb3bgqs","geo_precision":"zip","state":"CA"},"type":"Feature","geometry":{"type":"Point","coordinates":[-122.231635,37.824372]}},{"properties":{"city":"Oakland","name":"One California Foundaton","zip":"94612","number":"1438","geo_score":1.0,"website":"www.onecalfoundation.org","street":"Webster Street","id":"a63bhkd41nez","geo_precision":"zip","state":"CA"},"type":"Feature","geometry":{"type":"Point","coordinates":[-122.27018,37.809435]}},{"properties":{"city":"Oakland","name":"One PacificCoast Bank","zip":"94612","number":"1438","geo_score":1.0,"website":"www.onecalbank.com","street":"Webster Street","id":"a63bhk8u9d0e","geo_precision":"zip","state":"CA"},"type":"Feature","geometry":{"type":"Point","coordinates":[-122.27018,37.809435]}},{"properties":{"city":"Oakland","name":"Orion Energy Group LLC","zip":"94612","number":"360","geo_score":1.0,"website":null,"street":"22nd Street","id":"a63bhkazz06s","geo_precision":"zip","state":"CA"},"type":"Feature","geometry":{"type":"Point","coordinates":[-122.27018,37.809435]}},{"properties":{"city":"Oakland","name":"Orion Renewable Energy Group LLC","zip":"94612","number":"360","geo_score":1.0,"website":null,"street":"22nd Street","id":"a63bhkfg8t0s","geo_precision":"zip","state":"CA"},"type":"Feature","geometry":{"type":"Point","coordinates":[-122.27018,37.809435]}},{"properties":{"city":"Oakland","name":"Park Day School","zip":"94609","number":"360","geo_score":1.0,"website":"www.parkdayschool.org","street":"42nd Street","id":"a63bhk2jivhb","geo_precision":"zip","state":"CA"},"type":"Feature","geometry":{"type":"Point","coordinates":[-122.26328,37.834776]}},{"properties":{"city":"Oakland","name":"Peerless Coffee","zip":"94607","number":"260","geo_score":1.0,"website":"www.peerlesscoffee.com","street":"Oak Street","id":"a63bhk4zzzir","geo_precision":"zip","state":"CA"},"type":"Feature","geometry":{"type":"Point","coordinates":[-122.29878,37.807967]}},{"properties":{"city":"Oakland","name":"Peralta Service Corporation","zip":"94601","number":"3411","geo_score":1.0,"website":"www.peraltaservice.com","street":"East 12th Street","id":"a63bhkhgvo9b","geo_precision":"zip","state":"CA"},"type":"Feature","geometry":{"type":"Point","coordinates":[-122.223779,37.786027]}},{"properties":{"city":"Oakland","name":"Peridot Productions","zip":"94610","number":"1453","geo_score":1.0,"website":"www.peridotprod.com","street":"Barrows Road","id":"a63bhk3u776d","geo_precision":"zip","state":"CA"},"type":"Feature","geometry":{"type":"Point","coordinates":[-122.238779,37.811277]}},{"properties":{"city":"Oakland","name":"PGAdesign","zip":"94612","number":"444","geo_score":1.0,"website":"www.PGAdesign.com","street":"17th Street","id":"a63bhkhihwya","geo_precision":"zip","state":"CA"},"type":"Feature","geometry":{"type":"Point","coordinates":[-122.27018,37.809435]}},{"properties":{"city":"Oakland","name":"Pyatok Architects","zip":"94612","number":"1611","geo_score":1.0,"website":"www.pyatok.com","street":"Telegraph Avenue","id":"a63bhk333tc1","geo_precision":"zip","state":"CA"},"type":"Feature","geometry":{"type":"Point","coordinates":[-122.27018,37.809435]}},{"properties":{"city":"Oakland","name":"Rebecca Wilkowski Photography","zip":"94610","number":"800","geo_score":1.0,"website":"www.RebeccaWilkowski.com","street":"York Street","id":"a63bhkc1jhvu","geo_precision":"zip","state":"CA"},"type":"Feature","geometry":{"type":"Point","coordinates":[-122.238779,37.811277]}},{"properties":{"city":"Oakland","name":"Red Oak Realty","zip":"94619","number":"2099","geo_score":1.0,"website":"www.redoakrealty.com","street":"Pleasant Valley Avenue","id":"a63bhkd308gk","geo_precision":"zip","state":"CA"},"type":"Feature","geometry":{"type":"Point","coordinates":[-122.167126,37.783877]}},{"properties":{"city":"Oakland","name":"Revolution Foods","zip":"94621","number":"8383","geo_score":1.0,"website":null,"street":"Capwell Drive","id":"a63bhk40451l","geo_precision":"zip","state":"CA"},"type":"Feature","geometry":{"type":"Point","coordinates":[-122.196689,37.742529]}},{"properties":{"city":"Oakland","name":"RINA accountancy corporation","zip":"94612","number":"475","geo_score":1.0,"website":null,"street":"14th Street","id":"a63bhk3poil9","geo_precision":"zip","state":"CA"},"type":"Feature","geometry":{"type":"Point","coordinates":[-122.27018,37.809435]}},{"properties":{"city":"Oakland","name":"Rockridge Home","zip":"94618","number":"5418","geo_score":1.0,"website":"www.rockridgehome.com","street":"College Avenue","id":"a63bhka0h0ai","geo_precision":"zip","state":"CA"},"type":"Feature","geometry":{"type":"Point","coordinates":[-122.240179,37.843126]}},{"properties":{"city":"Oakland","name":"Royal Raspberry Catering","zip":"94619","number":"3100","geo_score":1.0,"website":"www.royalraspberry.com","street":"35th Avenue","id":"a63bhkdxe1xl","geo_precision":"zip","state":"CA"},"type":"Feature","geometry":{"type":"Point","coordinates":[-122.167126,37.783877]}},{"properties":{"city":"Oakland","name":"Sage Financial Network","zip":"94611","number":"4883","geo_score":0.875,"website":"www.sagefinancialnetwork.com","street":"Piedmont Avenue","id":"a63bhk9095xz","geo_precision":"zip","state":"CA"},"type":"Feature","geometry":{"type":"Point","coordinates":[-122.231635,37.824372]}},{"properties":{"city":"Oakland","name":"Savoy Events","zip":"94619","number":"3110","geo_score":1.0,"website":"www.savoyevents.com","street":"35th Avenue","id":"a63bhk95xpg4","geo_precision":"zip","state":"CA"},"type":"Feature","geometry":{"type":"Point","coordinates":[-122.167126,37.783877]}},{"properties":{"city":"Oakland","name":"Sayre Building Performance","zip":"94605","number":"10700","geo_score":1.0,"website":"http://www.sayrebuildingperformance.com/","street":"Lochard Street","id":"a63bhkg2xv1v","geo_precision":"zip","state":"CA"},"type":"Feature","geometry":{"type":"Point","coordinates":[-122.156626,37.759322]}},{"properties":{"city":"Oakland","name":"Scott Cole &amp; Associates","zip":"94612","number":"1970","geo_score":1.0,"website":"www.scalaw.com","street":"Broadway","id":"a63bhkarn5s2","geo_precision":"zip","state":"CA"},"type":"Feature","geometry":{"type":"Point","coordinates":[-122.27018,37.809435]}},{"properties":{"city":"Oakland","name":"Shaya Hamid, DDS","zip":"94609","number":"3300","geo_score":1.0,"website":null,"street":"Webster Street","id":"a63bhk42zyfj","geo_precision":"zip","state":"CA"},"type":"Feature","geometry":{"type":"Point","coordinates":[-122.26328,37.834776]}},{"properties":{"city":"Oakland","name":"Shred Works, Inc.","zip":"94601","number":"455","geo_score":1.0,"website":"www.shredworks.com","street":"High Street","id":"a63bhkbk506x","geo_precision":"zip","state":"CA"},"type":"Feature","geometry":{"type":"Point","coordinates":[-122.223779,37.786027]}},{"properties":{"city":"Oakland","name":"Sinan's Windows, Inc.","zip":"94608","number":"1025","geo_score":0.857,"website":"www.sinanswindows.com","street":"39th Street","id":"a63bhkidi1wt","geo_precision":"zip","state":"CA"},"type":"Feature","geometry":{"type":"Point","coordinates":[-122.29548,37.833876]}},{"properties":{"city":"Oakland","name":"Solstice Press","zip":"94607","number":"113","geo_score":1.0,"website":"www.solsticepress.com","street":"Filbert Street","id":"a63bhkew9pbo","geo_precision":"zip","state":"CA"},"type":"Feature","geometry":{"type":"Point","coordinates":[-122.29878,37.807967]}},{"properties":{"city":"Oakland","name":"Spring Friedlander Remodeling","zip":"94609","number":"434","geo_score":1.0,"website":null,"street":"66th Street","id":"a63bhk7shkkd","geo_precision":"zip","state":"CA"},"type":"Feature","geometry":{"type":"Point","coordinates":[-122.26328,37.834776]}},{"properties":{"city":"Oakland","name":"StopWaste.Org","zip":"94612","number":"1537","geo_score":1.0,"website":"www.StopWaste.Org","street":"Webster Street","id":"a63bhk8xme0p","geo_precision":"zip","state":"CA"},"type":"Feature","geometry":{"type":"Point","coordinates":[-122.27018,37.809435]}},{"properties":{"city":"Oakland","name":"Sustainable Earth Initiative","zip":"94611","number":"1904","geo_score":0.875,"website":"http://www.sustainableearthinitiative.org/","street":"Franklin Street","id":"a63bhk3vo3wh","geo_precision":"zip","state":"CA"},"type":"Feature","geometry":{"type":"Point","coordinates":[-122.231635,37.824372]}},{"properties":{"city":"Oakland","name":"The Focal Point LLC","zip":"94612","number":"501","geo_score":1.0,"website":"www.thefocalpoint.com","street":"14th Street","id":"a63bhkfkol2f","geo_precision":"zip","state":"CA"},"type":"Feature","geometry":{"type":"Point","coordinates":[-122.27018,37.809435]}},{"properties":{"city":"Oakland","name":"The Mixing Bowl","zip":"94609","number":"4920","geo_score":1.0,"website":null,"street":"Telegraph Avenue","id":"a63bhkaakk6u","geo_precision":"zip","state":"CA"},"type":"Feature","geometry":{"type":"Point","coordinates":[-122.26328,37.834776]}},{"properties":{"city":"Oakland","name":"The Rising Loafer Cafe &amp; Bakery","zip":"94612","number":"130","geo_score":1.0,"website":"www.therisingloafercafe.com","street":"Frank Ogawa Plaza","id":"a63bhk8rrtu1","geo_precision":"zip","state":"CA"},"type":"Feature","geometry":{"type":"Point","coordinates":[-122.27018,37.809435]}},{"properties":{"city":"Oakland","name":"Tip Top Bike Shop","zip":"94609","number":"4800","geo_score":1.0,"website":"www.tiptopbikeshop.com","street":"Telegraph Avenue","id":"a63bhk8797io","geo_precision":"zip","state":"CA"},"type":"Feature","geometry":{"type":"Point","coordinates":[-122.26328,37.834776]}},{"properties":{"city":"Oakland","name":"TJC and Associates, Inc.","zip":"94612","number":"1615","geo_score":1.0,"website":"www.tjcaa.com","street":"Broadway","id":"a63bhk2a3k77","geo_precision":"zip","state":"CA"},"type":"Feature","geometry":{"type":"Point","coordinates":[-122.27018,37.809435]}},{"properties":{"city":"Oakland","name":"Treadwell &amp; Rollo, Inc.","zip":"94612","number":"501","geo_score":1.0,"website":"www.treadwellrollo.com","street":"14th Street","id":"a63bhkeawn3m","geo_precision":"zip","state":"CA"},"type":"Feature","geometry":{"type":"Point","coordinates":[-122.27018,37.809435]}},{"properties":{"city":"Oakland","name":"URS Corporation","zip":"94612","number":"1333","geo_score":1.0,"website":"www.urscorp.com","street":"Broadway","id":"a63bhkbquv4y","geo_precision":"zip","state":"CA"},"type":"Feature","geometry":{"type":"Point","coordinates":[-122.27018,37.809435]}},{"properties":{"city":"Oakland","name":"VBN Architects","zip":"94612","number":"560","geo_score":1.0,"website":"www.vbnarch.com","street":"14th Street","id":"a63bhkenzgzv","geo_precision":"zip","state":"CA"},"type":"Feature","geometry":{"type":"Point","coordinates":[-122.27018,37.809435]}},{"properties":{"city":"Oakland","name":"Wactor and Wick LLP","zip":"94612","number":"180","geo_score":1.0,"website":"www.ww-envlaw.com","street":"Grand Avenue","id":"a63bhk9cn0s4","geo_precision":"zip","state":"CA"},"type":"Feature","geometry":{"type":"Point","coordinates":[-122.27018,37.809435]}},{"properties":{"city":"Oakland","name":"Waste Management of Alameda County Administrative Office &amp; Fleet Maintenance Facility","zip":"94603","number":"172","geo_score":1.0,"website":"www.wm.com","street":"98th Avenue","id":"a63bhkcr5j1y","geo_precision":"zip","state":"CA"},"type":"Feature","geometry":{"type":"Point","coordinates":[-122.198428,37.761778]}},{"properties":{"city":"Oakland","name":"Wendel, Rosen, Black &amp; Dean LLP","zip":"94607","number":"1111","geo_score":1.0,"website":"www.wendel.com","street":"Broadway","id":"a63bhk77qfom","geo_precision":"zip","state":"CA"},"type":"Feature","geometry":{"type":"Point","coordinates":[-122.29878,37.807967]}},{"properties":{"city":"Oakland","name":"Wine on Piedmont","zip":"94611","number":"4183","geo_score":0.875,"website":"www.wineonpiedmont.com","street":"Piedmont Avenue","id":"a63bhk4zpej9","geo_precision":"zip","state":"CA"},"type":"Feature","geometry":{"type":"Point","coordinates":[-122.231635,37.824372]}},{"properties":{"city":"Oakland","name":"Wishnev Consulting","zip":"94609","number":"560","geo_score":1.0,"website":"wishnevconsulting.com","street":"58th Street","id":"a63bhk6pm84m","geo_precision":"zip","state":"CA"},"type":"Feature","geometry":{"type":"Point","coordinates":[-122.26328,37.834776]}},{"properties":{"city":"Oakland","name":"WRECO","zip":"94612","number":"1814","geo_score":1.0,"website":"www.wreco.com","street":"Franklin Street","id":"a63bhk4kleeu","geo_precision":"zip","state":"CA"},"type":"Feature","geometry":{"type":"Point","coordinates":[-122.27018,37.809435]}}],"is_temporal":false,"author":{"url":"","metadata":"","contact_name":"","contact_address":"","source":"A","contact_phone":""},"source":"","pagination":{"sort":null,"start":0,"total":135,"limit":1000000},"state":"complete","tags":"","published":"2011-11-18T01:05:03Z","id":178371}