{"type":"FeatureCollection","data_type":"Dataset","url_type":null,"permissions":[{"permissions":{"download":true,"view":true},"group_id":"everyone"}],"classification":null,"title":"Skalli searches by zip","count":98,"stream_id":17940,"contributor":{"url":"http://geocommons.com/users/9608","name":"ekunisawa"},"data_attributes":null,"calculation_params":null,"icon_link":null,"link":"http://geocommons.com/overlays/17940.json","extent":[-156.329,20.7538,-71.0052,47.751],"geometry_types":["point"],"unique_name":null,"name":"Skalli searches by zip","feature_count":98,"description":"","next_feature":null,"is_raster":false,"short_classification":"Y","stats":{"geo_score":{"max":1.0,"mean":0.992071428571429,"variance":0.00118522164948454,"stdev":0.0344270482249718,"min":0.762,"median":1.0},"num_searches":{"max":81.0,"mean":6.21428571428571,"variance":90.9742268041237,"stdev":9.53804103598447,"min":3.0,"median":4.0}},"features":[{"properties":{"city":"San Francisco","geo_score":1.0,"description":"Clos Poggiale Syrah Sangiovese","num_searches":81.0,"id":"a66c51qf3z8j","geo_precision":"zip","zipid":"94101","state":"CA"},"type":"Feature","geometry":{"type":"Point","coordinates":[-122.727802,37.784827]}},{"properties":{"city":"Beverly Hills","geo_score":1.0,"description":"Clos Poggiale Syrah Sangiovese","num_searches":13.0,"id":"a66c51nlfiq8","geo_precision":"zip","zipid":"90209","state":"CA"},"type":"Feature","geometry":{"type":"Point","coordinates":[-118.298662,33.786594]}},{"properties":{"city":"San Francisco","geo_score":1.0,"description":"Clos Poggiale Syrah Sangiovese","num_searches":3.0,"id":"a66c51uxmnhu","geo_precision":"zip","zipid":"94109","state":"CA"},"type":"Feature","geometry":{"type":"Point","coordinates":[-122.420782,37.795219]}},{"properties":{"city":"Portland","geo_score":1.0,"description":"Clos Poggiale Syrah Sangiovese","num_searches":4.0,"id":"a66c51lad25i","geo_precision":"zip","zipid":"97210","state":"OR"},"type":"Feature","geometry":{"type":"Point","coordinates":[-122.732358,45.547339]}},{"properties":{"city":"San Francisco","geo_score":1.0,"description":"Fortant Cabernet Sauvignon","num_searches":5.0,"id":"a66c51p2j1dd","geo_precision":"zip","zipid":"94109","state":"CA"},"type":"Feature","geometry":{"type":"Point","coordinates":[-122.420782,37.795219]}},{"properties":{"city":"San Francisco","geo_score":1.0,"description":"Fortant Chardonnay","num_searches":3.0,"id":"a66c51sjw6na","geo_precision":"zip","zipid":"94109","state":"CA"},"type":"Feature","geometry":{"type":"Point","coordinates":[-122.420782,37.795219]}},{"properties":{"city":"San Francisco","geo_score":1.0,"description":"Fortant Kosher Merlot","num_searches":3.0,"id":"a66c51gp37v0","geo_precision":"zip","zipid":"94109","state":"CA"},"type":"Feature","geometry":{"type":"Point","coordinates":[-122.420782,37.795219]}},{"properties":{"city":"San Francisco","geo_score":1.0,"description":"Maison Bouachon Chateauneuf Du Pape Dedication","num_searches":3.0,"id":"a66c51kvmxkt","geo_precision":"zip","zipid":"94109","state":"CA"},"type":"Feature","geometry":{"type":"Point","coordinates":[-122.420782,37.795219]}},{"properties":{"city":"Orlando","geo_score":1.0,"description":"Maison Bouachon Cotes Du Rhone Red","num_searches":3.0,"id":"a66c51og7eq3","geo_precision":"zip","zipid":"32802","state":"FL"},"type":"Feature","geometry":{"type":"Point","coordinates":[-81.343903,28.519024]}},{"properties":{"city":"Spokane","geo_score":1.0,"description":"Maison Bouachon Cotes Du Rhone Red","num_searches":3.0,"id":"a66c51fhn3az","geo_precision":"zip","zipid":"65754","state":"MO"},"type":"Feature","geometry":{"type":"Point","coordinates":[-93.292806,36.854253]}},{"properties":{"city":"Portland","geo_score":1.0,"description":"Maison Bouachon Cotes Du Rhone Red","num_searches":4.0,"id":"a66c51q6gzdh","geo_precision":"zip","zipid":"97210","state":"OR"},"type":"Feature","geometry":{"type":"Point","coordinates":[-122.732358,45.547339]}},{"properties":{"city":"South Prairie","geo_score":0.883,"description":"Maison Bouachon Cotes Du Rhone Red","num_searches":7.0,"id":"a66c51fqzmqd","geo_precision":"street","zipid":"98385","state":"WA"},"type":"Feature","geometry":{"type":"Point","coordinates":[-122.097107,47.141079]}},{"properties":{"city":"Bronx","geo_score":1.0,"description":"Maison Bouachon Gigondas Duc de Montfort Red","num_searches":4.0,"id":"a66c51snvpqc","geo_precision":"zip","zipid":"10451","state":"NY"},"type":"Feature","geometry":{"type":"Point","coordinates":[-73.920355,40.819329]}},{"properties":{"city":"Poulsbo","geo_score":1.0,"description":"Maison Bouachon Vacqueyras Pierrelongue Red","num_searches":3.0,"id":"a66c51fh3fss","geo_precision":"zip","zipid":"98370","state":"WA"},"type":"Feature","geometry":{"type":"Point","coordinates":[-122.614094,47.751046]}},{"properties":{"city":"Albert","geo_score":1.0,"description":"Robert Skalli Cabernet Sauvignon","num_searches":3.0,"id":"a66c51oyyehp","geo_precision":"zip","zipid":"73001","state":"OK"},"type":"Feature","geometry":{"type":"Point","coordinates":[-98.357423,35.203206]}},{"properties":{"city":"Airway Heights","geo_score":0.95,"description":"Robert Skalli Cabernet Sauvignon","num_searches":6.0,"id":"a66c51en428u","geo_precision":"zip","zipid":"99001","state":"WA"},"type":"Feature","geometry":{"type":"Point","coordinates":[-117.59205,47.643803]}},{"properties":{"city":"San Francisco","geo_score":1.0,"description":"Robert Skalli Chardonnay","num_searches":3.0,"id":"a66c51pv344d","geo_precision":"zip","zipid":"94109","state":"CA"},"type":"Feature","geometry":{"type":"Point","coordinates":[-122.420782,37.795219]}},{"properties":{"city":"Georgetown","geo_score":1.0,"description":"Robert Skalli Chardonnay","num_searches":4.0,"id":"a66c51l2tsa7","geo_precision":"zip","zipid":"21930","state":"MD"},"type":"Feature","geometry":{"type":"Point","coordinates":[-75.880217,39.361779]}},{"properties":{"city":"New York","geo_score":1.0,"description":"Robert Skalli Chardonnay","num_searches":3.0,"id":"a66c51nlv58q","geo_precision":"zip","zipid":"10001","state":"NY"},"type":"Feature","geometry":{"type":"Point","coordinates":[-73.996328,40.750422]}},{"properties":{"city":"Dallas","geo_score":1.0,"description":"Robert Skalli Chardonnay","num_searches":8.0,"id":"a66c51qfh4d9","geo_precision":"zip","zipid":"75202","state":"TX"},"type":"Feature","geometry":{"type":"Point","coordinates":[-96.777626,32.767268]}},{"properties":{"city":"Houston","geo_score":1.0,"description":"Robert Skalli Chardonnay","num_searches":6.0,"id":"a66c51mjr0t2","geo_precision":"zip","zipid":"77002","state":"TX"},"type":"Feature","geometry":{"type":"Point","coordinates":[-95.391447,29.807651]}},{"properties":{"city":"Leesburg","geo_score":1.0,"description":"Robert Skalli Chardonnay","num_searches":3.0,"id":"a66c51fe2vd2","geo_precision":"zip","zipid":"20176","state":"VA"},"type":"Feature","geometry":{"type":"Point","coordinates":[-77.603458,39.119727]}},{"properties":{"city":"Studio City","geo_score":1.0,"description":"Robert Skalli Pinot Noir","num_searches":3.0,"id":"a66c51lg8270","geo_precision":"zip","zipid":"91604","state":"CA"},"type":"Feature","geometry":{"type":"Point","coordinates":[-118.298662,33.786594]}},{"properties":{"city":"Denver","geo_score":1.0,"description":"Robert Skalli Pinot Noir","num_searches":4.0,"id":"a66c51nm9xyj","geo_precision":"zip","zipid":"80201","state":"CO"},"type":"Feature","geometry":{"type":"Point","coordinates":[-104.856808,39.726303]}},{"properties":{"city":"San Francisco","geo_score":1.0,"description":"St. Supery Cabernet Sauvignon","num_searches":7.0,"id":"a66c51qrm3d4","geo_precision":"zip","zipid":"94109","state":"CA"},"type":"Feature","geometry":{"type":"Point","coordinates":[-122.420782,37.795219]}},{"properties":{"city":"San Luis Obispo","geo_score":1.0,"description":"St. Supery Cabernet Sauvignon","num_searches":4.0,"id":"a66c51pf7hzm","geo_precision":"zip","zipid":"93405","state":"CA"},"type":"Feature","geometry":{"type":"Point","coordinates":[-120.703455,35.363067]}},{"properties":{"city":"San Francisco","geo_score":1.0,"description":"St. Supery Cabernet Sauvignon","num_searches":4.0,"id":"a66c51imck7a","geo_precision":"zip","zipid":"94108","state":"CA"},"type":"Feature","geometry":{"type":"Point","coordinates":[-122.408782,37.791028]}},{"properties":{"city":"Campbell","geo_score":1.0,"description":"St. Supery Cabernet Sauvignon","num_searches":3.0,"id":"a66c51gydepp","geo_precision":"zip","zipid":"95008","state":"CA"},"type":"Feature","geometry":{"type":"Point","coordinates":[-121.705327,37.189396]}},{"properties":{"city":"Aurora","geo_score":1.0,"description":"St. Supery Cabernet Sauvignon","num_searches":4.0,"id":"a66c51j918q5","geo_precision":"zip","zipid":"80013","state":"CO"},"type":"Feature","geometry":{"type":"Point","coordinates":[-104.76275,39.660654]}},{"properties":{"city":"Denver","geo_score":1.0,"description":"St. Supery Cabernet Sauvignon","num_searches":4.0,"id":"a66c51qmqubt","geo_precision":"zip","zipid":"80203","state":"CO"},"type":"Feature","geometry":{"type":"Point","coordinates":[-104.970331,39.729205]}},{"properties":{"city":"Palm Harbor","geo_score":1.0,"description":"St. Supery Cabernet Sauvignon","num_searches":7.0,"id":"a66c51s467fy","geo_precision":"zip","zipid":"34685","state":"FL"},"type":"Feature","geometry":{"type":"Point","coordinates":[-82.692882,28.109717]}},{"properties":{"city":"Atlanta","geo_score":1.0,"description":"St. Supery Cabernet Sauvignon","num_searches":3.0,"id":"a66c51s5or87","geo_precision":"zip","zipid":"30306","state":"GA"},"type":"Feature","geometry":{"type":"Point","coordinates":[-84.359775,33.787804]}},{"properties":{"city":"Braintree","geo_score":1.0,"description":"St. Supery Cabernet Sauvignon","num_searches":8.0,"id":"a66c51ezcsas","geo_precision":"zip","zipid":"02184","state":"MA"},"type":"Feature","geometry":{"type":"Point","coordinates":[-71.005192,42.202216]}},{"properties":{"city":"New York","geo_score":1.0,"description":"St. Supery Cabernet Sauvignon","num_searches":4.0,"id":"a66c51t0e4h4","geo_precision":"zip","zipid":"10001","state":"NY"},"type":"Feature","geometry":{"type":"Point","coordinates":[-73.996328,40.750422]}},{"properties":{"city":"New York","geo_score":1.0,"description":"St. Supery Cabernet Sauvignon","num_searches":3.0,"id":"a66c51i3xryd","geo_precision":"zip","zipid":"10008","state":"NY"},"type":"Feature","geometry":{"type":"Point","coordinates":[-73.977182,40.780751]}},{"properties":{"city":"West Chester","geo_score":0.914,"description":"St. Supery Cabernet Sauvignon","num_searches":4.0,"id":"a66c51u07o8h","geo_precision":"street","zipid":"45069","state":"OH"},"type":"Feature","geometry":{"type":"Point","coordinates":[-84.43508,39.329573]}},{"properties":{"city":"Pittsburgh","geo_score":1.0,"description":"St. Supery Cabernet Sauvignon","num_searches":5.0,"id":"a66c51hqhltm","geo_precision":"zip","zipid":"15203","state":"PA"},"type":"Feature","geometry":{"type":"Point","coordinates":[-79.979914,40.425369]}},{"properties":{"city":"Medical Lake","geo_score":1.0,"description":"St. Supery Cabernet Sauvignon","num_searches":3.0,"id":"a66c51qgsjkr","geo_precision":"zip","zipid":"99022","state":"WA"},"type":"Feature","geometry":{"type":"Point","coordinates":[-117.703977,47.615007]}},{"properties":{"city":"Los Angeles","geo_score":1.0,"description":"St. Supery Chardonnay","num_searches":6.0,"id":"a66c51h3r9lo","geo_precision":"zip","zipid":"90010","state":"CA"},"type":"Feature","geometry":{"type":"Point","coordinates":[-118.298662,33.786594]}},{"properties":{"city":"San Francisco","geo_score":1.0,"description":"St. Supery Chardonnay","num_searches":3.0,"id":"a66c51p478rz","geo_precision":"zip","zipid":"94109","state":"CA"},"type":"Feature","geometry":{"type":"Point","coordinates":[-122.420782,37.795219]}},{"properties":{"city":"Orlando","geo_score":1.0,"description":"St. Supery Chardonnay","num_searches":7.0,"id":"a66c51qsdtu5","geo_precision":"zip","zipid":"32819","state":"FL"},"type":"Feature","geometry":{"type":"Point","coordinates":[-81.46784,28.452157]}},{"properties":{"city":"Kula","geo_score":1.0,"description":"St. Supery Chardonnay","num_searches":5.0,"id":"a66c51ij9x2v","geo_precision":"zip","zipid":"96790","state":"HI"},"type":"Feature","geometry":{"type":"Point","coordinates":[-156.329499,20.753763]}},{"properties":{"city":"Sparks","geo_score":1.0,"description":"St. Supery Chardonnay","num_searches":4.0,"id":"a66c51icdako","geo_precision":"zip","zipid":"89436","state":"NV"},"type":"Feature","geometry":{"type":"Point","coordinates":[-119.659053,39.651879]}},{"properties":{"city":"Carlton","geo_score":1.0,"description":"St. Supery Chardonnay","num_searches":5.0,"id":"a66c51l6d63r","geo_precision":"zip","zipid":"97111","state":"OR"},"type":"Feature","geometry":{"type":"Point","coordinates":[-123.218624,45.282393]}},{"properties":{"city":"Mcminnville","geo_score":1.0,"description":"St. Supery Chardonnay","num_searches":4.0,"id":"a66c51r0q5qo","geo_precision":"zip","zipid":"97128","state":"OR"},"type":"Feature","geometry":{"type":"Point","coordinates":[-123.237145,45.187444]}},{"properties":{"city":"Oakland","geo_score":1.0,"description":"St. Supery Dollarhide Cabernet Sauvignon","num_searches":17.0,"id":"a66c51qek6sw","geo_precision":"zip","zipid":"94601","state":"CA"},"type":"Feature","geometry":{"type":"Point","coordinates":[-122.223779,37.786027]}},{"properties":{"city":"San Francisco","geo_score":1.0,"description":"St. Supery Dollarhide Cabernet Sauvignon","num_searches":5.0,"id":"a66c51l1mth2","geo_precision":"zip","zipid":"94109","state":"CA"},"type":"Feature","geometry":{"type":"Point","coordinates":[-122.420782,37.795219]}},{"properties":{"city":"Saint Helena","geo_score":1.0,"description":"St. Supery Dollarhide Cabernet Sauvignon","num_searches":3.0,"id":"a66c51r2ygu4","geo_precision":"zip","zipid":"94574","state":"CA"},"type":"Feature","geometry":{"type":"Point","coordinates":[-122.401289,38.537757]}},{"properties":{"city":"Oklahoma City","geo_score":1.0,"description":"St. Supery Dollarhide Cabernet Sauvignon","num_searches":3.0,"id":"a66c51ix2du4","geo_precision":"zip","zipid":"73101","state":"OK"},"type":"Feature","geometry":{"type":"Point","coordinates":[-97.562817,35.491608]}},{"properties":{"city":"San Francisco","geo_score":1.0,"description":"St. Supery Dollarhide Sauvignon Blanc","num_searches":4.0,"id":"a66c51l3lnw0","geo_precision":"zip","zipid":"94109","state":"CA"},"type":"Feature","geometry":{"type":"Point","coordinates":[-122.420782,37.795219]}},{"properties":{"city":"Walnut Creek","geo_score":1.0,"description":"St. Supery Dollarhide Sauvignon Blanc","num_searches":3.0,"id":"a66c51hhq7ur","geo_precision":"zip","zipid":"94598","state":"CA"},"type":"Feature","geometry":{"type":"Point","coordinates":[-122.037045,37.906873]}},{"properties":{"city":"Jersey City","geo_score":1.0,"description":"St. Supery Dollarhide Sauvignon Blanc","num_searches":4.0,"id":"a66c51omwpg9","geo_precision":"zip","zipid":"07302","state":"NJ"},"type":"Feature","geometry":{"type":"Point","coordinates":[-74.047304,40.726001]}},{"properties":{"city":"Brooklyn","geo_score":1.0,"description":"St. Supery Dollarhide Sauvignon Blanc","num_searches":3.0,"id":"a66c51kl7a9r","geo_precision":"zip","zipid":"11222","state":"NY"},"type":"Feature","geometry":{"type":"Point","coordinates":[-73.945754,40.728388]}},{"properties":{"city":"Dublin","geo_score":1.0,"description":"St. Supery Dollarhide Sauvignon Blanc","num_searches":3.0,"id":"a66c51pyrkp2","geo_precision":"zip","zipid":"43016","state":"OH"},"type":"Feature","geometry":{"type":"Point","coordinates":[-83.011389,39.969036]}},{"properties":{"city":"Leesburg","geo_score":1.0,"description":"St. Supery Dollarhide Sauvignon Blanc","num_searches":3.0,"id":"a66c51nrdsxj","geo_precision":"zip","zipid":"20176","state":"VA"},"type":"Feature","geometry":{"type":"Point","coordinates":[-77.603458,39.119727]}},{"properties":{"city":"Rhinelander","geo_score":1.0,"description":"St. Supery Dollarhide Sauvignon Blanc","num_searches":24.0,"id":"a66c51g1039q","geo_precision":"zip","zipid":"54501","state":"WI"},"type":"Feature","geometry":{"type":"Point","coordinates":[-89.386562,45.704474]}},{"properties":{"city":"Napa","geo_score":1.0,"description":"St. Supery Elu","num_searches":4.0,"id":"a66c51kpfbdz","geo_precision":"zip","zipid":"94558","state":"CA"},"type":"Feature","geometry":{"type":"Point","coordinates":[-122.311921,38.516158]}},{"properties":{"city":"Orlando","geo_score":1.0,"description":"St. Supery Elu","num_searches":3.0,"id":"a66c51hwu4ij","geo_precision":"zip","zipid":"32819","state":"FL"},"type":"Feature","geometry":{"type":"Point","coordinates":[-81.46784,28.452157]}},{"properties":{"city":"Atlanta","geo_score":1.0,"description":"St. Supery Elu","num_searches":3.0,"id":"a66c51nhvmlw","geo_precision":"zip","zipid":"30301","state":"GA"},"type":"Feature","geometry":{"type":"Point","coordinates":[-84.47405,33.844371]}},{"properties":{"city":"Chicago","geo_score":0.857,"description":"St. Supery Elu","num_searches":15.0,"id":"a66c51ofmfv1","geo_precision":"city","zipid":"60290","state":"IL"},"type":"Feature","geometry":{"type":"Point","coordinates":[-87.68732,41.811929]}},{"properties":{"city":"Chicago","geo_score":1.0,"description":"St. Supery Elu","num_searches":4.0,"id":"a66c51n97izm","geo_precision":"zip","zipid":"60603","state":"IL"},"type":"Feature","geometry":{"type":"Point","coordinates":[-87.72596,42.055179]}},{"properties":{"city":"Chicago","geo_score":1.0,"description":"St. Supery Elu","num_searches":4.0,"id":"a66c51hr2ldc","geo_precision":"zip","zipid":"60607","state":"IL"},"type":"Feature","geometry":{"type":"Point","coordinates":[-87.81381,41.928881]}},{"properties":{"city":"Boston","geo_score":1.0,"description":"St. Supery Elu","num_searches":3.0,"id":"a66c51h9w1qt","geo_precision":"zip","zipid":"02108","state":"MA"},"type":"Feature","geometry":{"type":"Point","coordinates":[-71.102446,42.353806]}},{"properties":{"city":"Wyckoff","geo_score":1.0,"description":"St. Supery Elu","num_searches":4.0,"id":"a66c51pcfzyw","geo_precision":"zip","zipid":"07481","state":"NJ"},"type":"Feature","geometry":{"type":"Point","coordinates":[-74.165733,40.998387]}},{"properties":{"city":"Houston","geo_score":1.0,"description":"St. Supery Elu","num_searches":16.0,"id":"a66c51igm47u","geo_precision":"zip","zipid":"77001","state":"TX"},"type":"Feature","geometry":{"type":"Point","coordinates":[-95.309789,29.813142]}},{"properties":{"city":"Oakland","geo_score":1.0,"description":"St. Supery Merlot","num_searches":9.0,"id":"a66c51rux33h","geo_precision":"zip","zipid":"94601","state":"CA"},"type":"Feature","geometry":{"type":"Point","coordinates":[-122.223779,37.786027]}},{"properties":{"city":"Santa Rosa","geo_score":1.0,"description":"St. Supery Merlot","num_searches":4.0,"id":"a66c51qwi0j6","geo_precision":"zip","zipid":"95401","state":"CA"},"type":"Feature","geometry":{"type":"Point","coordinates":[-122.783159,38.450412]}},{"properties":{"city":"Brooklyn","geo_score":1.0,"description":"St. Supery Merlot","num_searches":3.0,"id":"a66c51hoibc6","geo_precision":"zip","zipid":"11214","state":"NY"},"type":"Feature","geometry":{"type":"Point","coordinates":[-73.998594,40.599523]}},{"properties":{"city":"Hercules","geo_score":1.0,"description":"St. Supery Moscato","num_searches":3.0,"id":"a66c51i06tbm","geo_precision":"zip","zipid":"94547","state":"CA"},"type":"Feature","geometry":{"type":"Point","coordinates":[-122.262101,38.008343]}},{"properties":{"city":"Hallandale","geo_score":1.0,"description":"St. Supery Moscato","num_searches":5.0,"id":"a66c51ibjega","geo_precision":"zip","zipid":"33008","state":"FL"},"type":"Feature","geometry":{"type":"Point","coordinates":[-80.448254,26.145724]}},{"properties":{"city":"Braintree","geo_score":1.0,"description":"St. Supery Moscato","num_searches":13.0,"id":"a66c51p6rg63","geo_precision":"zip","zipid":"02184","state":"MA"},"type":"Feature","geometry":{"type":"Point","coordinates":[-71.005192,42.202216]}},{"properties":{"city":"Braintree","geo_score":1.0,"description":"St. Supery Moscato","num_searches":3.0,"id":"a66c51qoyebj","geo_precision":"zip","zipid":"02185","state":"MA"},"type":"Feature","geometry":{"type":"Point","coordinates":[-71.08923,42.180048]}},{"properties":{"city":"Lake Oswego","geo_score":1.0,"description":"St. Supery Moscato","num_searches":4.0,"id":"a66c51pyzqnu","geo_precision":"zip","zipid":"97034","state":"OR"},"type":"Feature","geometry":{"type":"Point","coordinates":[-122.691388,45.408374]}},{"properties":{"city":"Rhinelander","geo_score":1.0,"description":"St. Supery Moscato","num_searches":10.0,"id":"a66c51makx4a","geo_precision":"zip","zipid":"54501","state":"WI"},"type":"Feature","geometry":{"type":"Point","coordinates":[-89.386562,45.704474]}},{"properties":{"city":"San Francisco","geo_score":1.0,"description":"St. Supery Sauvignon Blanc","num_searches":6.0,"id":"a66c51fgy5t9","geo_precision":"zip","zipid":"94101","state":"CA"},"type":"Feature","geometry":{"type":"Point","coordinates":[-122.727802,37.784827]}},{"properties":{"city":"San Francisco","geo_score":1.0,"description":"St. Supery Sauvignon Blanc","num_searches":4.0,"id":"a66c51k9crg7","geo_precision":"zip","zipid":"94109","state":"CA"},"type":"Feature","geometry":{"type":"Point","coordinates":[-122.420782,37.795219]}},{"properties":{"city":"Oakland","geo_score":1.0,"description":"St. Supery Sauvignon Blanc","num_searches":3.0,"id":"a66c51hirgbj","geo_precision":"zip","zipid":"94601","state":"CA"},"type":"Feature","geometry":{"type":"Point","coordinates":[-122.223779,37.786027]}},{"properties":{"city":"Santa Rosa","geo_score":1.0,"description":"St. Supery Sauvignon Blanc","num_searches":3.0,"id":"a66c51qre5vf","geo_precision":"zip","zipid":"95401","state":"CA"},"type":"Feature","geometry":{"type":"Point","coordinates":[-122.783159,38.450412]}},{"properties":{"city":"Denver","geo_score":1.0,"description":"St. Supery Sauvignon Blanc","num_searches":5.0,"id":"a66c51se0mju","geo_precision":"zip","zipid":"80201","state":"CO"},"type":"Feature","geometry":{"type":"Point","coordinates":[-104.856808,39.726303]}},{"properties":{"city":"Washington","geo_score":1.0,"description":"St. Supery Sauvignon Blanc","num_searches":11.0,"id":"a66c51r9bt46","geo_precision":"zip","zipid":"20002","state":"DC"},"type":"Feature","geometry":{"type":"Point","coordinates":[-76.982147,38.908218]}},{"properties":{"city":"West Palm Beach","geo_score":0.762,"description":"St. Supery Sauvignon Blanc","num_searches":5.0,"id":"a66c51gr91pv","geo_precision":"street","zipid":"33401","state":"FL"},"type":"Feature","geometry":{"type":"Point","coordinates":[-80.051047,26.724366]}},{"properties":{"city":"Orlando","geo_score":1.0,"description":"St. Supery Sauvignon Blanc","num_searches":3.0,"id":"a66c51tsbqnj","geo_precision":"zip","zipid":"32801","state":"FL"},"type":"Feature","geometry":{"type":"Point","coordinates":[-81.373291,28.545179]}},{"properties":{"city":"Atlanta","geo_score":1.0,"description":"St. Supery Sauvignon Blanc","num_searches":3.0,"id":"a66c51ozax87","geo_precision":"zip","zipid":"30319","state":"GA"},"type":"Feature","geometry":{"type":"Point","coordinates":[-84.329124,33.876752]}},{"properties":{"city":"Buckhead","geo_score":1.0,"description":"St. Supery Sauvignon Blanc","num_searches":3.0,"id":"a66c51m26raj","geo_precision":"zip","zipid":"30625","state":"GA"},"type":"Feature","geometry":{"type":"Point","coordinates":[-83.365611,33.525614]}},{"properties":{"city":"Chicago","geo_score":0.857,"description":"St. Supery Sauvignon Blanc","num_searches":3.0,"id":"a66c51tdm18i","geo_precision":"city","zipid":"60290","state":"IL"},"type":"Feature","geometry":{"type":"Point","coordinates":[-87.68732,41.811929]}},{"properties":{"city":"Braintree","geo_score":1.0,"description":"St. Supery Sauvignon Blanc","num_searches":5.0,"id":"a66c51mvuqai","geo_precision":"zip","zipid":"02184","state":"MA"},"type":"Feature","geometry":{"type":"Point","coordinates":[-71.005192,42.202216]}},{"properties":{"city":"Holtsville","geo_score":1.0,"description":"St. Supery Sauvignon Blanc","num_searches":3.0,"id":"a66c51u1lxx0","geo_precision":"zip","zipid":"00501","state":"NY"},"type":"Feature","geometry":{"type":"Point","coordinates":[-72.637078,40.922326]}},{"properties":{"city":"New York","geo_score":1.0,"description":"St. Supery Sauvignon Blanc","num_searches":3.0,"id":"a66c51gnvgux","geo_precision":"zip","zipid":"10001","state":"NY"},"type":"Feature","geometry":{"type":"Point","coordinates":[-73.996328,40.750422]}},{"properties":{"city":"Dallas","geo_score":1.0,"description":"St. Supery Sauvignon Blanc","num_searches":50.0,"id":"a66c51jbllmg","geo_precision":"zip","zipid":"75201","state":"TX"},"type":"Feature","geometry":{"type":"Point","coordinates":[-96.790329,32.781179]}},{"properties":{"city":"Dallas","geo_score":1.0,"description":"St. Supery Sauvignon Blanc","num_searches":8.0,"id":"a66c51g6wdff","geo_precision":"zip","zipid":"75210","state":"TX"},"type":"Feature","geometry":{"type":"Point","coordinates":[-96.750478,32.769479]}},{"properties":{"city":"Dallas","geo_score":1.0,"description":"St. Supery Sauvignon Blanc","num_searches":4.0,"id":"a66c51uhzcvi","geo_precision":"zip","zipid":"75202","state":"TX"},"type":"Feature","geometry":{"type":"Point","coordinates":[-96.777626,32.767268]}},{"properties":{"city":"Altadena","geo_score":1.0,"description":"St. Supery Virtu","num_searches":4.0,"id":"a66c51odttmn","geo_precision":"zip","zipid":"91001","state":"CA"},"type":"Feature","geometry":{"type":"Point","coordinates":[-118.298662,33.786594]}},{"properties":{"city":"Denver","geo_score":1.0,"description":"St. Supery Virtu","num_searches":3.0,"id":"a66c51rw6pvj","geo_precision":"zip","zipid":"80201","state":"CO"},"type":"Feature","geometry":{"type":"Point","coordinates":[-104.856808,39.726303]}},{"properties":{"city":"Orlando","geo_score":1.0,"description":"St. Supery Virtu","num_searches":3.0,"id":"a66c51mcxz3x","geo_precision":"zip","zipid":"32803","state":"FL"},"type":"Feature","geometry":{"type":"Point","coordinates":[-81.33664,28.556479]}},{"properties":{"city":"Orlando","geo_score":1.0,"description":"St. Supery Virtu","num_searches":3.0,"id":"a66c51qxwiau","geo_precision":"zip","zipid":"32819","state":"FL"},"type":"Feature","geometry":{"type":"Point","coordinates":[-81.46784,28.452157]}},{"properties":{"city":"Roswell","geo_score":1.0,"description":"St. Supery Virtu","num_searches":3.0,"id":"a66c51ljtbxj","geo_precision":"zip","zipid":"30076","state":"GA"},"type":"Feature","geometry":{"type":"Point","coordinates":[-84.320162,34.027783]}},{"properties":{"city":"Braintree","geo_score":1.0,"description":"St. Supery Virtu","num_searches":4.0,"id":"a66c51iwlqkz","geo_precision":"zip","zipid":"02184","state":"MA"},"type":"Feature","geometry":{"type":"Point","coordinates":[-71.005192,42.202216]}},{"properties":{"city":"New York","geo_score":1.0,"description":"St. Supery Virtu","num_searches":6.0,"id":"a66c51thz01y","geo_precision":"zip","zipid":"10004","state":"NY"},"type":"Feature","geometry":{"type":"Point","coordinates":[-74.025276,40.696355]}}],"is_temporal":false,"author":{"url":"","metadata":"","contact_name":"","contact_address":"","source":"","contact_phone":""},"source":"","pagination":{"sort":null,"start":0,"total":98,"limit":1000000},"state":"complete","tags":"","published":"2014-08-10T23:09:18-04:00","id":17940}