{"type":"FeatureCollection","data_type":"Dataset","url_type":null,"permissions":[{"permissions":{"download":true,"view":true},"group_id":"everyone"}],"classification":null,"title":"Dairy","count":53,"stream_id":181385,"contributor":{"url":"http://geocommons.com/users/36493","name":"jasantos"},"data_attributes":null,"calculation_params":null,"icon_link":null,"link":"http://geocommons.com/overlays/181385.json","extent":[-157.858,21.3069,-70.9495,45.5235],"geometry_types":["point"],"unique_name":null,"name":"Dairy","feature_count":53,"description":"","next_feature":null,"is_raster":false,"short_classification":"Y","stats":{"latitude":{"max":45.5234515,"mean":39.0908167792453,"variance":26.2539835407842,"stdev":5.12386412200638,"min":21.3069444,"median":40.3931033},"longitude":{"max":-70.9494938,"mean":-93.288689945283,"variance":281.318848029578,"stdev":16.7725623573018,"min":-157.8583333,"median":-88.1639909}},"features":[{"properties":{"city":"St. Laurent","company":"Danone","latitude":45.5172008,"competitor":null,"fiber":"x","industry":"Dairy","feedstock":null,"protein":null,"country":"Canada","corn procesing":null,"desc":"Medical Nutrition","grits":null,"germ":null,"longitude":-73.6667383,"capacity":null,"id":"a6i09z9j77ua","hq":null,"state":"QC"},"type":"Feature","geometry":{"type":"Point","coordinates":[-73.6667383,45.5172008]}},{"properties":{"city":"Gaithersburg","company":"Danone","latitude":39.1434406,"competitor":null,"fiber":"x","industry":"Dairy","feedstock":null,"protein":null,"country":"United States","corn procesing":null,"desc":"Medical Nutrition","grits":null,"germ":null,"longitude":-77.2013705,"capacity":null,"id":"a6i09z8sr99s","hq":null,"state":"MD"},"type":"Feature","geometry":{"type":"Point","coordinates":[-77.2013705,39.1434406]}},{"properties":{"city":"Portland","company":"Danone","latitude":45.5234515,"competitor":null,"fiber":"x","industry":"Dairy","feedstock":null,"protein":null,"country":"United States","corn procesing":null,"desc":null,"grits":null,"germ":null,"longitude":-122.6762071,"capacity":null,"id":"a6i09z5a102l","hq":null,"state":"OR"},"type":"Feature","geometry":{"type":"Point","coordinates":[-122.6762071,45.5234515]}},{"properties":{"city":"Minster","company":"Danone","latitude":40.3931033,"competitor":null,"fiber":"x","industry":"Dairy","feedstock":null,"protein":null,"country":"United States","corn procesing":null,"desc":null,"grits":null,"germ":null,"longitude":-84.3760612,"capacity":null,"id":"a6i09zc6j2kw","hq":null,"state":"OH"},"type":"Feature","geometry":{"type":"Point","coordinates":[-84.3760612,40.3931033]}},{"properties":{"city":"White Plains","company":"Danone","latitude":41.0339862,"competitor":null,"fiber":"x","industry":"Dairy","feedstock":null,"protein":null,"country":"United States","corn procesing":null,"desc":null,"grits":null,"germ":null,"longitude":-73.7629097,"capacity":null,"id":"a6i09zj9nwsr","hq":"x","state":"NY"},"type":"Feature","geometry":{"type":"Point","coordinates":[-73.7629097,41.0339862]}},{"properties":{"city":"Fort Worth","company":"Danone","latitude":32.725409,"competitor":null,"fiber":"x","industry":"Dairy","feedstock":null,"protein":null,"country":"United States","corn procesing":null,"desc":null,"grits":null,"germ":null,"longitude":-97.3208496,"capacity":null,"id":"a6i09z4ri0s3","hq":null,"state":"TX"},"type":"Feature","geometry":{"type":"Point","coordinates":[-97.3208496,32.725409]}},{"properties":{"city":"West Jordan","company":"Danone","latitude":40.6096698,"competitor":null,"fiber":"x","industry":"Dairy","feedstock":null,"protein":null,"country":"United States","corn procesing":null,"desc":null,"grits":null,"germ":null,"longitude":-111.9391031,"capacity":null,"id":"a6i09z4iy6jd","hq":null,"state":"UT"},"type":"Feature","geometry":{"type":"Point","coordinates":[-111.9391031,40.6096698]}},{"properties":{"city":"Dallas","company":"Dean Foods","latitude":32.802955,"competitor":null,"fiber":"x","industry":"Dairy","feedstock":null,"protein":null,"country":"United States","corn procesing":null,"desc":"Headquarters","grits":null,"germ":null,"longitude":-96.769923,"capacity":null,"id":"a6i09zbt3z6m","hq":"x","state":"TX"},"type":"Feature","geometry":{"type":"Point","coordinates":[-96.769923,32.802955]}},{"properties":{"city":"Rochester","company":"Dean Foods","latitude":41.0647645,"competitor":null,"fiber":"x","industry":"Dairy","feedstock":null,"protein":null,"country":"United States","corn procesing":null,"desc":null,"grits":null,"germ":null,"longitude":-86.2158331,"capacity":null,"id":"a6i09z4pjm58","hq":null,"state":"IN"},"type":"Feature","geometry":{"type":"Point","coordinates":[-86.2158331,41.0647645]}},{"properties":{"city":"Waco","company":"Dean Foods","latitude":31.549333,"competitor":null,"fiber":"x","industry":"Dairy","feedstock":null,"protein":null,"country":"United States","corn procesing":null,"desc":null,"grits":null,"germ":null,"longitude":-97.1466695,"capacity":null,"id":"a6i09zf5gsk8","hq":null,"state":"TX"},"type":"Feature","geometry":{"type":"Point","coordinates":[-97.1466695,31.549333]}},{"properties":{"city":"Salt Lake City","company":"Dean Foods","latitude":40.7607793,"competitor":null,"fiber":"x","industry":"Dairy","feedstock":null,"protein":null,"country":"United States","corn procesing":null,"desc":null,"grits":null,"germ":null,"longitude":-111.8910474,"capacity":null,"id":"a6i09z5p6krp","hq":null,"state":"UT"},"type":"Feature","geometry":{"type":"Point","coordinates":[-111.8910474,40.7607793]}},{"properties":{"city":"Tulsa","company":"Dean Foods","latitude":36.1539816,"competitor":null,"fiber":"x","industry":"Dairy","feedstock":null,"protein":null,"country":"United States","corn procesing":null,"desc":null,"grits":null,"germ":null,"longitude":-95.992775,"capacity":null,"id":"a6i09zklpu9r","hq":null,"state":"OK"},"type":"Feature","geometry":{"type":"Point","coordinates":[-95.992775,36.1539816]}},{"properties":{"city":"Birmingham","company":"Dean Foods","latitude":33.5206608,"competitor":null,"fiber":"x","industry":"Dairy","feedstock":null,"protein":null,"country":"United States","corn procesing":null,"desc":null,"grits":null,"germ":null,"longitude":-86.80249,"capacity":null,"id":"a6i09z4whn75","hq":null,"state":"AL"},"type":"Feature","geometry":{"type":"Point","coordinates":[-86.80249,33.5206608]}},{"properties":{"city":"San Antonio","company":"Dean Foods","latitude":29.4241219,"competitor":null,"fiber":"x","industry":"Dairy","feedstock":null,"protein":null,"country":"United States","corn procesing":null,"desc":null,"grits":null,"germ":null,"longitude":-98.4936282,"capacity":null,"id":"a6i09zfjif54","hq":null,"state":"TX"},"type":"Feature","geometry":{"type":"Point","coordinates":[-98.4936282,29.4241219]}},{"properties":{"city":"Friendship","company":"Dean Foods","latitude":42.2064566,"competitor":null,"fiber":"x","industry":"Dairy","feedstock":null,"protein":null,"country":"United States","corn procesing":null,"desc":null,"grits":null,"germ":null,"longitude":-78.1375099,"capacity":null,"id":"a6i09zd3dgbs","hq":null,"state":"NY"},"type":"Feature","geometry":{"type":"Point","coordinates":[-78.1375099,42.2064566]}},{"properties":{"city":"Gustine","company":"Dean Foods","latitude":37.2577171,"competitor":null,"fiber":"x","industry":"Dairy","feedstock":null,"protein":null,"country":"United States","corn procesing":null,"desc":null,"grits":null,"germ":null,"longitude":-120.9988154,"capacity":null,"id":"a6i09zbkxxg4","hq":null,"state":"CA"},"type":"Feature","geometry":{"type":"Point","coordinates":[-120.9988154,37.2577171]}},{"properties":{"city":"Springfield","company":"Dean Foods","latitude":39.9242266,"competitor":null,"fiber":"x","industry":"Dairy","feedstock":null,"protein":null,"country":"United States","corn procesing":null,"desc":null,"grits":null,"germ":null,"longitude":-83.8088171,"capacity":null,"id":"a6i09z8c3ggu","hq":null,"state":"OH"},"type":"Feature","geometry":{"type":"Point","coordinates":[-83.8088171,39.9242266]}},{"properties":{"city":"Miami","company":"Dean Foods","latitude":25.7889689,"competitor":null,"fiber":"x","industry":"Dairy","feedstock":null,"protein":null,"country":"United States","corn procesing":null,"desc":null,"grits":null,"germ":null,"longitude":-80.2264393,"capacity":null,"id":"a6i09z75wykt","hq":null,"state":"FL"},"type":"Feature","geometry":{"type":"Point","coordinates":[-80.2264393,25.7889689]}},{"properties":{"city":"Decatur","company":"Dean Foods","latitude":40.830603,"competitor":null,"fiber":"x","industry":"Dairy","feedstock":null,"protein":null,"country":"United States","corn procesing":null,"desc":null,"grits":null,"germ":null,"longitude":-84.9291329,"capacity":null,"id":"a6i09zcvi8ml","hq":null,"state":"IN"},"type":"Feature","geometry":{"type":"Point","coordinates":[-84.9291329,40.830603]}},{"properties":{"city":"O'Fallon","company":"Dean Foods","latitude":38.5922715,"competitor":null,"fiber":"x","industry":"Dairy","feedstock":null,"protein":null,"country":"United States","corn procesing":null,"desc":null,"grits":null,"germ":null,"longitude":-89.9112124,"capacity":null,"id":"a6i09z8cube3","hq":null,"state":"IL"},"type":"Feature","geometry":{"type":"Point","coordinates":[-89.9112124,38.5922715]}},{"properties":{"city":"Hayward","company":"Dean Foods","latitude":37.6688205,"competitor":null,"fiber":"x","industry":"Dairy","feedstock":null,"protein":null,"country":"United States","corn procesing":null,"desc":null,"grits":null,"germ":null,"longitude":-122.0807964,"capacity":null,"id":"a6i09z4tzmys","hq":null,"state":"CA"},"type":"Feature","geometry":{"type":"Point","coordinates":[-122.0807964,37.6688205]}},{"properties":{"city":"Burlington","company":"Dean Foods","latitude":40.0647377,"competitor":null,"fiber":"x","industry":"Dairy","feedstock":null,"protein":null,"country":"United States","corn procesing":null,"desc":null,"grits":null,"germ":null,"longitude":-74.8409196,"capacity":null,"id":"a6i09zgaxwjp","hq":null,"state":"NJ"},"type":"Feature","geometry":{"type":"Point","coordinates":[-74.8409196,40.0647377]}},{"properties":{"city":"Woodbury","company":"Dean Foods","latitude":44.9238552,"competitor":null,"fiber":"x","industry":"Dairy","feedstock":null,"protein":null,"country":"United States","corn procesing":null,"desc":null,"grits":null,"germ":null,"longitude":-92.9593797,"capacity":null,"id":"a6i09zaggp0t","hq":null,"state":"MN"},"type":"Feature","geometry":{"type":"Point","coordinates":[-92.9593797,44.9238552]}},{"properties":{"city":"Grand Rapids","company":"Dean Foods","latitude":42.9633599,"competitor":null,"fiber":"x","industry":"Dairy","feedstock":null,"protein":null,"country":"United States","corn procesing":null,"desc":null,"grits":null,"germ":null,"longitude":-85.6680863,"capacity":null,"id":"a6i09zfdo154","hq":null,"state":"MI"},"type":"Feature","geometry":{"type":"Point","coordinates":[-85.6680863,42.9633599]}},{"properties":{"city":"Honolulu","company":"Dean Foods","latitude":21.3069444,"competitor":null,"fiber":"x","industry":"Dairy","feedstock":null,"protein":null,"country":"United States","corn procesing":null,"desc":null,"grits":null,"germ":null,"longitude":-157.8583333,"capacity":null,"id":"a6i09zctr3s1","hq":null,"state":"HI"},"type":"Feature","geometry":{"type":"Point","coordinates":[-157.8583333,21.3069444]}},{"properties":{"city":"Rensselaer","company":"Dean Foods","latitude":42.6425794,"competitor":null,"fiber":"x","industry":"Dairy","feedstock":null,"protein":null,"country":"United States","corn procesing":null,"desc":null,"grits":null,"germ":null,"longitude":-73.742898,"capacity":null,"id":"a6i09zc59klg","hq":null,"state":"NY"},"type":"Feature","geometry":{"type":"Point","coordinates":[-73.742898,42.6425794]}},{"properties":{"city":"Lynn","company":"Dean Foods","latitude":42.466763,"competitor":null,"fiber":"x","industry":"Dairy","feedstock":null,"protein":null,"country":"United States","corn procesing":null,"desc":null,"grits":null,"germ":null,"longitude":-70.9494938,"capacity":null,"id":"a6i09z6tcoqe","hq":null,"state":"MA"},"type":"Feature","geometry":{"type":"Point","coordinates":[-70.9494938,42.466763]}},{"properties":{"city":"DePere","company":"Dean Foods","latitude":44.4820144,"competitor":null,"fiber":"x","industry":"Dairy","feedstock":null,"protein":null,"country":"United States","corn procesing":null,"desc":null,"grits":null,"germ":null,"longitude":-88.1273898,"capacity":null,"id":"a6i09zim7uga","hq":null,"state":"WI"},"type":"Feature","geometry":{"type":"Point","coordinates":[-88.1273898,44.4820144]}},{"properties":{"city":"Belvidere","company":"Dean Foods","latitude":42.2639098,"competitor":null,"fiber":"x","industry":"Dairy","feedstock":null,"protein":null,"country":"United States","corn procesing":null,"desc":null,"grits":null,"germ":null,"longitude":-88.8442674,"capacity":null,"id":"a6i09zhfvrlu","hq":null,"state":"IL"},"type":"Feature","geometry":{"type":"Point","coordinates":[-88.8442674,42.2639098]}},{"properties":{"city":"Plymouth","company":"Sargento Foods Inc.","latitude":43.7486054,"competitor":null,"fiber":"x","industry":"Dairy","feedstock":null,"protein":null,"country":"United States","corn procesing":null,"desc":"Cheese Manufacturer","grits":null,"germ":null,"longitude":-87.9770379,"capacity":null,"id":"a6i09ziyaz17","hq":"x","state":"WI"},"type":"Feature","geometry":{"type":"Point","coordinates":[-87.9770379,43.7486054]}},{"properties":{"city":"Hilbert","company":"Sargento Foods Inc.","latitude":44.1402681,"competitor":null,"fiber":"x","industry":"Dairy","feedstock":null,"protein":null,"country":"United States","corn procesing":null,"desc":"Cheese Manufacturer","grits":null,"germ":null,"longitude":-88.1639909,"capacity":null,"id":"a6i09z6d16zc","hq":null,"state":"WI"},"type":"Feature","geometry":{"type":"Point","coordinates":[-88.1639909,44.1402681]}},{"properties":{"city":"Kiel","company":"Sargento Foods Inc.","latitude":43.912493,"competitor":null,"fiber":"x","industry":"Dairy","feedstock":null,"protein":null,"country":"United States","corn procesing":null,"desc":"Cheese Manufacturer","grits":null,"germ":null,"longitude":-88.0356515,"capacity":null,"id":"a6i09zgajogj","hq":null,"state":"WI"},"type":"Feature","geometry":{"type":"Point","coordinates":[-88.0356515,43.912493]}},{"properties":{"city":"Elkhart Lake","company":"Sargento Foods Inc.","latitude":43.8333269,"competitor":null,"fiber":"x","industry":"Dairy","feedstock":null,"protein":null,"country":"United States","corn procesing":null,"desc":"Cheese Manufacturer","grits":null,"germ":null,"longitude":-88.0178729,"capacity":null,"id":"a6i09zcz73ay","hq":null,"state":"WI"},"type":"Feature","geometry":{"type":"Point","coordinates":[-88.0178729,43.8333269]}},{"properties":{"city":"Springfield","company":"Dairy Farmers of America","latitude":37.2089572,"competitor":null,"fiber":"x","industry":"Dairy","feedstock":null,"protein":null,"country":"United States","corn procesing":null,"desc":"Dairy based coffee beverages","grits":null,"germ":null,"longitude":-93.2922989,"capacity":null,"id":"a6i09z9sjg03","hq":null,"state":"MO"},"type":"Feature","geometry":{"type":"Point","coordinates":[-93.2922989,37.2089572]}},{"properties":{"city":"Turlock","company":"Dairy Farmers of America","latitude":37.4946568,"competitor":null,"fiber":"x","industry":"Dairy","feedstock":null,"protein":null,"country":"United States","corn procesing":null,"desc":"Italian Cheese","grits":null,"germ":null,"longitude":-120.8465941,"capacity":null,"id":"a6i09zgcmyt9","hq":null,"state":"CA"},"type":"Feature","geometry":{"type":"Point","coordinates":[-120.8465941,37.4946568]}},{"properties":{"city":"Hughson","company":"Dairy Farmers of America","latitude":37.6027244,"competitor":null,"fiber":"x","industry":"Dairy","feedstock":null,"protein":null,"country":"United States","corn procesing":null,"desc":"Cream, Butter, Condensed Milk","grits":null,"germ":null,"longitude":-120.8664811,"capacity":null,"id":"a6i09ze7qruv","hq":null,"state":"CA"},"type":"Feature","geometry":{"type":"Point","coordinates":[-120.8664811,37.6027244]}},{"properties":{"city":"Ventura","company":"Dairy Farmers of America","latitude":34.2746405,"competitor":null,"fiber":"x","industry":"Dairy","feedstock":null,"protein":null,"country":"United States","corn procesing":null,"desc":"Dairy based coffee beverages","grits":null,"germ":null,"longitude":-119.2290053,"capacity":null,"id":"a6i09zbvzgn2","hq":null,"state":"CA"},"type":"Feature","geometry":{"type":"Point","coordinates":[-119.2290053,34.2746405]}},{"properties":{"city":"Winnsboro","company":"Dairy Farmers of America","latitude":32.9573449,"competitor":null,"fiber":"x","industry":"Dairy","feedstock":null,"protein":null,"country":"United States","corn procesing":null,"desc":"Butter, anhydrous milkfat, nonfat dry milk, sweet cream buttermilk powder","grits":null,"germ":null,"longitude":-95.2902224,"capacity":null,"id":"a6i09z8tjlq2","hq":null,"state":"TX"},"type":"Feature","geometry":{"type":"Point","coordinates":[-95.2902224,32.9573449]}},{"properties":{"city":"Schulenburg","company":"Dairy Farmers of America","latitude":29.6819003,"competitor":null,"fiber":"x","industry":"Dairy","feedstock":null,"protein":null,"country":"United States","corn procesing":null,"desc":"Dairy dips and salsa","grits":null,"germ":null,"longitude":-96.9030365,"capacity":null,"id":"a6i09zjl8n2v","hq":null,"state":"TX"},"type":"Feature","geometry":{"type":"Point","coordinates":[-96.9030365,29.6819003]}},{"properties":{"city":"Beaver","company":"Dairy Farmers of America","latitude":38.2769149,"competitor":null,"fiber":"x","industry":"Dairy","feedstock":null,"protein":null,"country":"United States","corn procesing":null,"desc":"Condensed milk, cream and longhorn - cheddar, colby, colby jack, monterey jack, pepper jack","grits":null,"germ":null,"longitude":-112.6410518,"capacity":null,"id":"a6i09zgyvox4","hq":null,"state":"UT"},"type":"Feature","geometry":{"type":"Point","coordinates":[-112.6410518,38.2769149]}},{"properties":{"city":"Ft. Morgan","company":"Dairy Farmers of America","latitude":40.2502582,"competitor":null,"fiber":"x","industry":"Dairy","feedstock":null,"protein":null,"country":"United States","corn procesing":null,"desc":"Nonfat dry milk, condensed milk, cream","grits":null,"germ":null,"longitude":-103.7999509,"capacity":null,"id":"a6i09zga00t1","hq":null,"state":"CO"},"type":"Feature","geometry":{"type":"Point","coordinates":[-103.7999509,40.2502582]}},{"properties":{"city":"Monett","company":"Dairy Farmers of America","latitude":36.9289502,"competitor":null,"fiber":"x","industry":"Dairy","feedstock":null,"protein":null,"country":"United States","corn procesing":null,"desc":"American style cheese, liquid whey","grits":null,"germ":null,"longitude":-93.9277071,"capacity":null,"id":"a6i09zif70bs","hq":null,"state":"MO"},"type":"Feature","geometry":{"type":"Point","coordinates":[-93.9277071,36.9289502]}},{"properties":{"city":"Cabool","company":"Dairy Farmers of America","latitude":37.123941,"competitor":null,"fiber":"x","industry":"Dairy","feedstock":null,"protein":null,"country":"United States","corn procesing":null,"desc":"Sports Shake, energy protein beverages and dairy-based coffee beverages; adult nutritional beverages","grits":null,"germ":null,"longitude":-92.1012678,"capacity":null,"id":"a6i09z61jgrr","hq":null,"state":"MO"},"type":"Feature","geometry":{"type":"Point","coordinates":[-92.1012678,37.123941]}},{"properties":{"city":"Winthrop","company":"Dairy Farmers of America","latitude":44.5430195,"competitor":null,"fiber":"x","industry":"Dairy","feedstock":null,"protein":null,"country":"United States","corn procesing":null,"desc":"Anhydrous milkfat, fat blends, nonfat dry milk, buttermilk","grits":null,"germ":null,"longitude":-94.3663674,"capacity":null,"id":"a6i09zkh4don","hq":null,"state":"MN"},"type":"Feature","geometry":{"type":"Point","coordinates":[-94.3663674,44.5430195]}},{"properties":{"city":"Zumbrota","company":"Dairy Farmers of America","latitude":44.294132,"competitor":null,"fiber":"x","industry":"Dairy","feedstock":null,"protein":null,"country":"United States","corn procesing":null,"desc":"American style cheese, gouda, hard Italian, dry whey, cheese/cream powders","grits":null,"germ":null,"longitude":-92.6690806,"capacity":null,"id":"a6i09z9otlfn","hq":null,"state":"MN"},"type":"Feature","geometry":{"type":"Point","coordinates":[-92.6690806,44.294132]}},{"properties":{"city":"Plymouth","company":"Dairy Farmers of America","latitude":43.7486054,"competitor":null,"fiber":"x","industry":"Dairy","feedstock":null,"protein":null,"country":"United States","corn procesing":null,"desc":"Processed cheese, cut and wrap natural cheese, shreds","grits":null,"germ":null,"longitude":-87.9770379,"capacity":null,"id":"a6i09z7j19e8","hq":null,"state":"WI"},"type":"Feature","geometry":{"type":"Point","coordinates":[-87.9770379,43.7486054]}},{"properties":{"city":"Adrian","company":"Dairy Farmers of America","latitude":41.8975471,"competitor":null,"fiber":"x","industry":"Dairy","feedstock":null,"protein":null,"country":"United States","corn procesing":null,"desc":"Condensed milk, nonfat dry milk, whole milk powder, cream","grits":null,"germ":null,"longitude":-84.0371659,"capacity":null,"id":"a6i09zf3851u","hq":null,"state":"MI"},"type":"Feature","geometry":{"type":"Point","coordinates":[-84.0371659,41.8975471]}},{"properties":{"city":"Goshen","company":"Dairy Farmers of America","latitude":41.5822716,"competitor":null,"fiber":"x","industry":"Dairy","feedstock":null,"protein":null,"country":"United States","corn procesing":null,"desc":"Condensed milk, nonfat dry milk, butter, pasteurized whole milk","grits":null,"germ":null,"longitude":-85.8344383,"capacity":null,"id":"a6i09z6isw8y","hq":null,"state":"IN"},"type":"Feature","geometry":{"type":"Point","coordinates":[-85.8344383,41.5822716]}},{"properties":{"city":"New Wilmington","company":"Dairy Farmers of America","latitude":41.1222812,"competitor":null,"fiber":"x","industry":"Dairy","feedstock":null,"protein":null,"country":"United States","corn procesing":null,"desc":"Italian style cheese, dry whey","grits":null,"germ":null,"longitude":-80.3328428,"capacity":null,"id":"a6i09z4zbnoa","hq":null,"state":"PA"},"type":"Feature","geometry":{"type":"Point","coordinates":[-80.3328428,41.1222812]}},{"properties":{"city":"West Middlesex","company":"Dairy Farmers of America","latitude":41.174224,"competitor":null,"fiber":"x","industry":"Dairy","feedstock":null,"protein":null,"country":"United States","corn procesing":null,"desc":"Process cheese and shreds","grits":null,"germ":null,"longitude":-80.453402,"capacity":null,"id":"a6i09zgx6iy6","hq":null,"state":"PA"},"type":"Feature","geometry":{"type":"Point","coordinates":[-80.453402,41.174224]}},{"properties":{"city":"Mechanicsburg","company":"Dairy Farmers of America","latitude":40.2142565,"competitor":null,"fiber":"x","industry":"Dairy","feedstock":null,"protein":null,"country":"United States","corn procesing":null,"desc":"Dairy-based coffee beverages","grits":null,"germ":null,"longitude":-77.0085876,"capacity":null,"id":"a6i09z6knif0","hq":null,"state":"PA"},"type":"Feature","geometry":{"type":"Point","coordinates":[-77.0085876,40.2142565]}},{"properties":{"city":"Middlebury","company":"Dairy Farmers of America","latitude":41.8602366,"competitor":null,"fiber":"x","industry":"Dairy","feedstock":null,"protein":null,"country":"United States","corn procesing":null,"desc":"Condensed milk, nonfat dry milk/skim milk powder, whole milk powder, malted milk powder, 40 percent fat cream, powder","grits":null,"germ":null,"longitude":-77.2635038,"capacity":null,"id":"a6i09zd76n7p","hq":null,"state":"PA"},"type":"Feature","geometry":{"type":"Point","coordinates":[-77.2635038,41.8602366]}},{"properties":{"city":"Reading","company":"Dairy Farmers of America","latitude":40.3356483,"competitor":null,"fiber":"x","industry":"Dairy","feedstock":null,"protein":null,"country":"United States","corn procesing":null,"desc":"Condensed milk, sweetened condensed milk, nonfat dry milk/skim milk powder, whole milk powder, sweetened milk powders, malted milk powder, caseinates, sweeteners, 40 percent fat cream powder","grits":null,"germ":null,"longitude":-75.9268747,"capacity":null,"id":"a6i09z6fu8gv","hq":null,"state":"PA"},"type":"Feature","geometry":{"type":"Point","coordinates":[-75.9268747,40.3356483]}}],"is_temporal":false,"author":{"url":"","metadata":"","contact_name":"","contact_address":"","source":"","contact_phone":""},"source":"","pagination":{"sort":null,"start":0,"total":53,"limit":1000000},"state":"complete","tags":"","published":"2014-08-12T23:18:14-04:00","id":181385}