{"type":"FeatureCollection","data_type":"Dataset","url_type":null,"permissions":[{"permissions":{"download":true,"view":true},"group_id":"everyone"}],"classification":null,"title":"Addy_List_for_Mapping_CSV","count":23,"stream_id":181630,"contributor":{"url":"http://geocommons.com/users/36546","name":"smith2cm"},"data_attributes":null,"calculation_params":null,"icon_link":null,"link":"http://geocommons.com/overlays/181630.json","extent":[-84.7259,39.0632,-84.2899,39.3217],"geometry_types":["point"],"unique_name":null,"name":"Addy_List_for_Mapping_CSV","feature_count":23,"description":"","next_feature":null,"is_raster":false,"short_classification":"Y","stats":{},"features":[{"properties":{"city":"West Chester","place":"Dog Day EveryDay Doggie Daycare","zip":"45011","geo_score":0.919,"tag":"A","street address":"9474 Princeton-Glendale Rd.","id":"a633owfu9oyx","geo_precision":"range","state":"OH"},"type":"Feature","geometry":{"type":"Point","coordinates":[-84.463915,39.321738]}},{"properties":{"city":"Cincinnati","place":"Dog Day EveryDay Doggie Daycare","zip":"45245","geo_score":0.911,"tag":"A","street address":"624 Ohio Pike","id":"a633owf3oazl","geo_precision":"range","state":"OH"},"type":"Feature","geometry":{"type":"Point","coordinates":[-84.289947,39.065265]}},{"properties":{"city":"Cincinnati","place":"University of Cincinnati College of Allied Health","zip":"45267","geo_score":0.805,"tag":"B","street address":"3202 Eden Ave","id":"a633ow99ywtz","geo_precision":"range","state":"OH"},"type":"Feature","geometry":{"type":"Point","coordinates":[-84.505323,39.138383]}},{"properties":{"city":"Cincinnati","place":"Green Township","zip":"45247","geo_score":0.8,"tag":"C","street address":"6303 Harrison Ave.","id":"a633owklkf1b","geo_precision":"range","state":"OH"},"type":"Feature","geometry":{"type":"Point","coordinates":[-84.658787,39.192731]}},{"properties":{"city":"Cincinnati","place":"Park + Vine","zip":"45202","geo_score":1.0,"tag":"D","street address":"1202 Main Street","id":"a633owii9ax7","geo_precision":"range","state":"OH"},"type":"Feature","geometry":{"type":"Point","coordinates":[-84.511676,39.109278]}},{"properties":{"city":"Cincinnati","place":"Findlay Market","zip":"45202","geo_score":1.0,"tag":"E","street address":"1801 Race Street","id":"a633owii75cz","geo_precision":"range","state":"OH"},"type":"Feature","geometry":{"type":"Point","coordinates":[-84.518233,39.115434]}},{"properties":{"city":"Cincinnati","place":"Cincinnati Zoo and Botanical Garden","zip":"45220","geo_score":1.0,"tag":"F","street address":"3400 Vine Street","id":"a633owfbg1mb","geo_precision":"range","state":"OH"},"type":"Feature","geometry":{"type":"Point","coordinates":[-84.509327,39.142407]}},{"properties":{"city":"Cincinnati","place":"Anderson Township","zip":"45230","geo_score":0.795,"tag":"G","street address":"7850 Five Mile Rd.","id":"a633owfcqsnd","geo_precision":"range","state":"OH"},"type":"Feature","geometry":{"type":"Point","coordinates":[-84.351935,39.063218]}},{"properties":{"city":"Cincinnati","place":"Buliding Value","zip":"45223","geo_score":0.927,"tag":"H","street address":"4040 Spring Grove Ave.","id":"a633owjpx614","geo_precision":"range","state":"OH"},"type":"Feature","geometry":{"type":"Point","coordinates":[-84.538307,39.159144]}},{"properties":{"city":"Cincinnati","place":"Greener Stock","zip":"45226","geo_score":1.0,"tag":"I","street address":"3528 Columbia Parkway","id":"a633owhtga9e","geo_precision":"range","state":"OH"},"type":"Feature","geometry":{"type":"Point","coordinates":[-84.437744,39.116558]}},{"properties":{"city":"Cincinnati","place":"Marcon Chiropractic and Wellness Center","zip":"45244","geo_score":0.664,"tag":"J","street address":"8136 Beechmont Ave.","id":"a633ow7b8tmq","geo_precision":"street","state":"OH"},"type":"Feature","geometry":{"type":"Point","coordinates":[-84.2966,39.094815]}},{"properties":{"city":"Cincinnati","place":"Puppy Camp","zip":"45229","geo_score":0.805,"tag":"K","street address":"3330 Reading Road","id":"a633owd25ei4","geo_precision":"range","state":"OH"},"type":"Feature","geometry":{"type":"Point","coordinates":[-84.494592,39.139153]}},{"properties":{"city":"Cincinnati","place":"St. Teresa of Avila","zip":"45238","geo_score":0.912,"tag":"L","street address":"1175 Overlook Ave.","id":"a633owig6ze0","geo_precision":"range","state":"OH"},"type":"Feature","geometry":{"type":"Point","coordinates":[-84.598661,39.116558]}},{"properties":{"city":"Cincinnati","place":"Seven Hills School","zip":"45227","geo_score":0.912,"tag":"L","street address":"5400 Red Bank Road","id":"a633owjrc9cy","geo_precision":"range","state":"OH"},"type":"Feature","geometry":{"type":"Point","coordinates":[-84.4031,39.166978]}},{"properties":{"city":"Cincinnati","place":"St. Aloysius on the Ohio","zip":"45233","geo_score":0.912,"tag":"L","street address":"6207 Portage Street","id":"a633ow64rpi3","geo_precision":"range","state":"OH"},"type":"Feature","geometry":{"type":"Point","coordinates":[-84.683398,39.104844]}},{"properties":{"city":"Cincinnati","place":"Summit Country Day","zip":"45208","geo_score":0.912,"tag":"L","street address":"2161 Grandin Road","id":"a633ow5ynvpm","geo_precision":"range","state":"OH"},"type":"Feature","geometry":{"type":"Point","coordinates":[-84.458679,39.130991]}},{"properties":{"city":"Cincinnati","place":"Mercy Montessori","zip":"45206","geo_score":0.911,"tag":"L","street address":"2335 Grandview Ave.","id":"a633owf2df3z","geo_precision":"range","state":"OH"},"type":"Feature","geometry":{"type":"Point","coordinates":[-84.48024,39.122749]}},{"properties":{"city":"Cincinnati","place":"John P. Parker School","zip":"45227","geo_score":0.912,"tag":"L","street address":"5051 Anderson Place","id":"a633owffi4p5","geo_precision":"range","state":"OH"},"type":"Feature","geometry":{"type":"Point","coordinates":[-84.399075,39.161522]}},{"properties":{"city":"Norwood","place":"Norwood Middle School","zip":"45212","geo_score":0.965,"tag":"M","street address":"2060 Sherman Ave","id":"a633owf8hjjr","geo_precision":"range","state":"OH"},"type":"Feature","geometry":{"type":"Point","coordinates":[-84.458036,39.160534]}},{"properties":{"city":"Cleves","place":"Three Rivers Middle School","zip":"45002","geo_score":1.0,"tag":"M","street address":"8575 Bridgetown Rd.","id":"a633ow8xj82p","geo_precision":"range","state":"OH"},"type":"Feature","geometry":{"type":"Point","coordinates":[-84.725868,39.162274]}},{"properties":{"city":"Cincinnati","place":"Dater High School","zip":"45238","geo_score":0.912,"tag":"N","street address":"2146 Ferguson Rd.","id":"a633ow8xrly6","geo_precision":"range","state":"OH"},"type":"Feature","geometry":{"type":"Point","coordinates":[-84.601312,39.125114]}},{"properties":{"city":"Cincinnati","place":"Mother of Mercy High School","zip":"45211","geo_score":0.922,"tag":"N","street address":"3036 Werk Rd","id":"a633owe69ocp","geo_precision":"range","state":"OH"},"type":"Feature","geometry":{"type":"Point","coordinates":[-84.601345,39.140369]}},{"properties":{"city":"Cincinnati","place":"Hughes High School","zip":"45219","geo_score":0.922,"tag":"N","street address":"2515 Clifton Ave.","id":"a633owi4ft21","geo_precision":"range","state":"OH"},"type":"Feature","geometry":{"type":"Point","coordinates":[-84.520783,39.128129]}}],"is_temporal":false,"author":{"url":"","metadata":null,"contact_name":null,"contact_address":null,"source":null,"contact_phone":null},"source":"","pagination":{"sort":null,"start":0,"total":23,"limit":1000000},"state":"complete","tags":"","published":"2014-08-12T23:44:32-04:00","id":181630}