{"type":"FeatureCollection","data_type":"Dataset","url_type":null,"permissions":[{"permissions":{"download":true,"view":true},"group_id":"everyone"}],"classification":null,"title":"CHICAGO CROSS DOCK","count":19,"stream_id":18192,"contributor":{"url":"http://geocommons.com/users/9729","name":"jdr34"},"data_attributes":null,"calculation_params":null,"icon_link":null,"link":"http://geocommons.com/overlays/18192.json","extent":[-103.193,38.4569,-86.0448,46.8819],"geometry_types":["point"],"unique_name":null,"name":"CHICAGO CROSS DOCK","feature_count":19,"description":"","next_feature":null,"is_raster":false,"short_classification":"Y","stats":{"# of shipments":{"max":26.0,"mean":9.1578947368421,"variance":53.140350877193,"stdev":7.28974285398278,"min":1.0,"median":7.0},"geo_score":{"max":1.0,"mean":0.89,"variance":0.0230695555555556,"stdev":0.151886653645261,"min":0.415,"median":0.937},"wt":{"max":62524.0,"mean":17427.1052631579,"variance":325505413.766082,"stdev":18041.7685875327,"min":357.0,"median":12293.0}},"features":[{"properties":{"city":"WATERTOWN","name":"D B I WISCONSIN - FO","zip":"53098","# of shipments":6.0,"geo_score":1.0,"wt":7338.0,"id":"a696us05cu30","geo_precision":"range","address":"805 ELM STREET","state":"WI"},"type":"Feature","geometry":{"type":"Point","coordinates":[-88.734515,43.200216]}},{"properties":{"city":"ILLIOPOLIS","name":"DCI DANIEL CONTRACTING INCORP","zip":"62539","# of shipments":11.0,"geo_score":0.768,"wt":26537.0,"id":"a696urzni4c7","geo_precision":"street","address":"700 OLD RT 36","state":"IL"},"type":"Feature","geometry":{"type":"Point","coordinates":[-89.25522,39.84448]}},{"properties":{"city":"URBANDALE","name":"DIEBOLD","zip":"50322","# of shipments":10.0,"geo_score":0.894,"wt":16634.0,"id":"a696us5gz8l0","geo_precision":"range","address":"2871 104TH ST STE B","state":"IA"},"type":"Feature","geometry":{"type":"Point","coordinates":[-93.760601,41.620655]}},{"properties":{"city":"BROOKFIELD","name":"DIEBOLD BROOKFIELD","zip":"53045","# of shipments":1.0,"geo_score":0.937,"wt":2746.0,"id":"a696us3foyc3","geo_precision":"range","address":"3235 INTERTECH DR #100","state":"WI"},"type":"Feature","geometry":{"type":"Point","coordinates":[-88.183918,43.077824]}},{"properties":{"city":"FARGO","name":"DIEBOLD FARGO - FO","zip":"58102","# of shipments":8.0,"geo_score":0.916,"wt":12293.0,"id":"a696urx4vpsq","geo_precision":"range","address":"541 15TH ST N","state":"ND"},"type":"Feature","geometry":{"type":"Point","coordinates":[-96.803633,46.881912]}},{"properties":{"city":"HAZELWOOD","name":"DIEBOLD HAZELWOOD - FO","zip":"63042","# of shipments":22.0,"geo_score":0.645,"wt":40028.0,"id":"a696us5tffcy","geo_precision":"range","address":"4884 PARK 370 BLVD","state":"MO"},"type":"Feature","geometry":{"type":"Point","coordinates":[-90.534997,38.456871]}},{"properties":{"city":"INDIANAPOLIS","name":"DIEBOLD INC STORAGE FACITILITY - FO","zip":"46239","# of shipments":26.0,"geo_score":0.931,"wt":62524.0,"id":"a696us6hzq6u","geo_precision":"range","address":"1345 BROOKVILLE WAY STE K","state":"IN"},"type":"Feature","geometry":{"type":"Point","coordinates":[-86.044825,39.751576]}},{"properties":{"city":"JOLIET","name":"DIEBOLD JOLIET - FO","zip":"60432","# of shipments":12.0,"geo_score":0.732,"wt":23630.0,"id":"a696us2c7etd","geo_precision":"street","address":"118 HENDERSON STREET","state":"IL"},"type":"Feature","geometry":{"type":"Point","coordinates":[-88.064945,41.538914]}},{"properties":{"city":"RAPID CITY","name":"DIEBOLD RAPID CITY 1","zip":"57701","# of shipments":4.0,"geo_score":1.0,"wt":1433.0,"id":"a696us9dku8z","geo_precision":"range","address":"1115 E. NEW YORK STREET","state":"SD"},"type":"Feature","geometry":{"type":"Point","coordinates":[-103.193155,44.08481]}},{"properties":{"city":"SCHAUMBURG","name":"DIEBOLD SCHAUMBURG - FO","zip":"60173","# of shipments":3.0,"geo_score":1.0,"wt":383.0,"id":"a696us5qan4x","geo_precision":"range","address":"1316  N PLUM GROVE RD","state":"IL"},"type":"Feature","geometry":{"type":"Point","coordinates":[-88.059949,42.053496]}},{"properties":{"city":"SIOUX FALLS","name":"DIEBOLD SIOUX FALLS - FO","zip":"57104","# of shipments":6.0,"geo_score":0.941,"wt":12529.0,"id":"a696uryl7vxb","geo_precision":"range","address":"1700 F AVE.","state":"SD"},"type":"Feature","geometry":{"type":"Point","coordinates":[-96.741804,43.568307]}},{"properties":{"city":"WAUCONDA","name":"DIEBOLD TKO INSTALLATIONS","zip":"60084","# of shipments":2.0,"geo_score":1.0,"wt":357.0,"id":"a696urzbxn2z","geo_precision":"range","address":"1287 KYLE CT","state":"IL"},"type":"Feature","geometry":{"type":"Point","coordinates":[-88.148944,42.283015]}},{"properties":{"city":"DECATUR","name":"DIEBOLD-DECATUR - FO","zip":"62526","# of shipments":3.0,"geo_score":0.89,"wt":9375.0,"id":"a696urz9iqez","geo_precision":"range","address":"2287 HUBBARD AVE PARK 10","state":"IL"},"type":"Feature","geometry":{"type":"Point","coordinates":[-88.924274,39.88382]}},{"properties":{"city":"NEW BRIGHTON","name":"DIEBOLD-NEW BRIGHTON - FO","zip":"55112","# of shipments":14.0,"geo_score":0.951,"wt":14897.0,"id":"a696us2gnnlz","geo_precision":"range","address":"362 COUNTY ROAD D","state":"MN"},"type":"Feature","geometry":{"type":"Point","coordinates":[-93.192654,45.035493]}},{"properties":{"city":"SPRINGFIELD","name":"DMG ASSOCIATES INC","zip":"62703","# of shipments":4.0,"geo_score":1.0,"wt":642.0,"id":"a696us3szv1w","geo_precision":"range","address":"2733 E ASH STREET","state":"IL"},"type":"Feature","geometry":{"type":"Point","coordinates":[-89.613192,39.779371]}},{"properties":{"city":"MUSKEGO","name":"KMP ENTERPRISES INC","zip":"53150","# of shipments":21.0,"geo_score":0.415,"wt":42879.0,"id":"a696us3584so","geo_precision":"street","address":"S83 W18741 SATURN DR","state":"WI"},"type":"Feature","geometry":{"type":"Point","coordinates":[-88.142566,42.893802]}},{"properties":{"city":"CHESTERTON","name":"ROOM FOR RENT","zip":"46304","# of shipments":7.0,"geo_score":0.935,"wt":2476.0,"id":"a696us2c00cn","geo_precision":"range","address":"419 COUNCIL DR","state":"IN"},"type":"Feature","geometry":{"type":"Point","coordinates":[-87.038492,41.61455]}},{"properties":{"city":"ARLINGTON HEIGHTS","name":"TAFT INCORPORATED","zip":"60004","# of shipments":2.0,"geo_score":0.955,"wt":10303.0,"id":"a696us6rmvzc","geo_precision":"range","address":"625 W UNIVERSITY","state":"IL"},"type":"Feature","geometry":{"type":"Point","coordinates":[-87.989544,42.132698]}},{"properties":{"city":"WAUCONDA","name":"TKO INSTALLATIONS - FO","zip":"60084","# of shipments":12.0,"geo_score":1.0,"wt":44111.0,"id":"a696us07p5cu","geo_precision":"range","address":"1287 KYLE CT","state":"IL"},"type":"Feature","geometry":{"type":"Point","coordinates":[-88.148944,42.283015]}}],"is_temporal":false,"author":{"url":"","metadata":"","contact_name":"","contact_address":"","source":"","contact_phone":""},"source":"","pagination":{"sort":null,"start":0,"total":19,"limit":1000000},"state":"complete","tags":"","published":"2014-08-10T23:39:24-04:00","id":18192}