{"type":"FeatureCollection","data_type":"Dataset","url_type":null,"permissions":[{"permissions":{"download":true,"view":true},"group_id":"everyone"}],"classification":null,"title":"NYChealthcenter_-_Sheet1","count":16,"stream_id":182066,"contributor":{"url":"http://geocommons.com/users/24949","name":"maromero"},"data_attributes":null,"calculation_params":null,"icon_link":null,"link":"http://geocommons.com/overlays/182066.json","extent":[-74.0055,40.7244,-73.89,40.8501],"geometry_types":["point"],"unique_name":null,"name":"NYChealthcenter_-_Sheet1","feature_count":16,"description":"","next_feature":null,"is_raster":false,"short_classification":"Y","stats":{"postal code/zip code":{"max":10460,"mean":10352.5,"variance":34025.7333333333,"stdev":184.460655244779,"min":10011,"median":10453}},"features":[{"properties":{"city":"Bronx","name":"Adolescent and Young Adult Health Program","geo_score":0.805,"street address":"2737 3rd Ave","postal code/zip code":10451,"id":"a6dkih79cidt","geo_precision":"range","state":"NY"},"type":"Feature","geometry":{"type":"Point","coordinates":[-73.921124,40.814236]}},{"properties":{"city":"Bronx","name":"The Children's Aid Society","geo_score":0.805,"street address":"1515 Southern Blvd","postal code/zip code":10460,"id":"a6dkih1kxiwk","geo_precision":"range","state":"NY"},"type":"Feature","geometry":{"type":"Point","coordinates":[-73.890019,40.833944]}},{"properties":{"city":"Bronx","name":"Community Healthcare Network","geo_score":0.805,"street address":"975 Westchester Ave","postal code/zip code":10459,"id":"a6dkih3g8p70","geo_precision":"range","state":"NY"},"type":"Feature","geometry":{"type":"Point","coordinates":[-73.895285,40.823021]}},{"properties":{"city":"Bronx","name":"HHC Lincoln Hospital Teen Clinic","geo_score":0.902,"street address":"234 East 149th St","postal code/zip code":10451,"id":"a6dkih5fbk32","geo_precision":"range","state":"NY"},"type":"Feature","geometry":{"type":"Point","coordinates":[-73.924307,40.817714]}},{"properties":{"city":"Bronx","name":"HHC Segundo Ruiz Belvis Neighborhood Family Health Center","geo_score":0.708,"street address":"545 East 142nd St","postal code/zip code":10454,"id":"a6dkigw1dbmc","geo_precision":"street","state":"NY"},"type":"Feature","geometry":{"type":"Point","coordinates":[-73.924751,40.81438]}},{"properties":{"city":"Bronx","name":"Institute for Urban Family Health Mount Hope Family Practice","geo_score":0.805,"street address":"130 West Tremont Ave","postal code/zip code":10453,"id":"a6dkigwdzjmz","geo_precision":"range","state":"NY"},"type":"Feature","geometry":{"type":"Point","coordinates":[-73.914373,40.850085]}},{"properties":{"city":"Bronx","name":"Institute for Urban Family Health Urban Horizon Family Health Center","geo_score":0.805,"street address":"50 East 168th St","postal code/zip code":10452,"id":"a6dkigwmfbk7","geo_precision":"range","state":"NY"},"type":"Feature","geometry":{"type":"Point","coordinates":[-73.919446,40.836781]}},{"properties":{"city":"Bronx","name":"Institute for Urban Family Health Walton Family Health Center","geo_score":0.708,"street address":"1894 Walton Ave","postal code/zip code":10453,"id":"a6dkih027dsh","geo_precision":"street","state":"NY"},"type":"Feature","geometry":{"type":"Point","coordinates":[-73.924047,40.827244]}},{"properties":{"city":"Bronx","name":"MHRA MIC Women's Health Clinic at Tremont","geo_score":0.61,"street address":"4215 3rd Ave","postal code/zip code":10457,"id":"a6dkihaipndj","geo_precision":"street","state":"NY"},"type":"Feature","geometry":{"type":"Point","coordinates":[-73.908709,40.824067]}},{"properties":{"city":"Bronx","name":"Morrisania Clinic - NYC Department of Health and Mental Hygiene","geo_score":0.805,"street address":"1309 Fulton Ave","postal code/zip code":10456,"id":"a6dkih55rm9k","geo_precision":"range","state":"NY"},"type":"Feature","geometry":{"type":"Point","coordinates":[-73.90328,40.832527]}},{"properties":{"city":"Bronx","name":"Planned Parenthood Bronx Center","geo_score":0.902,"street address":"349 East 149th St","postal code/zip code":10451,"id":"a6dkih5mqqvo","geo_precision":"range","state":"NY"},"type":"Feature","geometry":{"type":"Point","coordinates":[-73.919545,40.816555]}},{"properties":{"city":"Bronx","name":"South Bronx Health Center for Children &amp; Families","geo_score":0.805,"street address":"871 Prospect Ave","postal code/zip code":10459,"id":"a6dkih5ixczi","geo_precision":"range","state":"NY"},"type":"Feature","geometry":{"type":"Point","coordinates":[-73.901276,40.820525]}},{"properties":{"city":"New York","name":"The Door","geo_score":0.805,"street address":"555 Broome St","postal code/zip code":10013,"id":"a6dkihbhja9p","geo_precision":"range","state":"NY"},"type":"Feature","geometry":{"type":"Point","coordinates":[-74.005478,40.724368]}},{"properties":{"city":"New York","name":"Health Outreach to Teens at Callen-Lorde","geo_score":0.805,"street address":"356 West 18th St","postal code/zip code":10011,"id":"a6dkih13b60e","geo_precision":"range","state":"NY"},"type":"Feature","geometry":{"type":"Point","coordinates":[-74.001932,40.742936]}},{"properties":{"city":"New York","name":"Mount Sinai Adolescent Health Center","geo_score":0.746,"street address":"312 East 94th St","postal code/zip code":10128,"id":"a6dkigxotto4","geo_precision":"range","state":"NY"},"type":"Feature","geometry":{"type":"Point","coordinates":[-73.974354,40.794059]}},{"properties":{"city":"New York","name":"Young Men's Clinic","geo_score":0.805,"street address":"21 Audubon Ave","postal code/zip code":10032,"id":"a6dkih8to6au","geo_precision":"range","state":"NY"},"type":"Feature","geometry":{"type":"Point","coordinates":[-73.939191,40.839381]}}],"is_temporal":false,"author":{"url":"","metadata":null,"contact_name":null,"contact_address":null,"source":null,"contact_phone":null},"source":"","pagination":{"sort":null,"start":0,"total":16,"limit":1000000},"state":"complete","tags":"","published":"2014-08-13T00:19:55-04:00","id":182066}