{"type":"FeatureCollection","data_type":"Dataset","url_type":null,"permissions":[{"permissions":{"download":true,"view":true},"group_id":"everyone"}],"classification":null,"title":"Iowa Roster","count":113,"stream_id":18222,"contributor":{"url":"http://geocommons.com/users/9734","name":"SoccerNCW23"},"data_attributes":null,"calculation_params":null,"icon_link":null,"link":"http://geocommons.com/overlays/18222.json","extent":[-121.655,25.8555,-70.7014,45.687],"geometry_types":["point"],"unique_name":null,"name":"Iowa Roster","feature_count":113,"description":"","next_feature":null,"is_raster":false,"short_classification":"Y","stats":{"geo_score":{"max":1.0,"mean":0.962530973451327,"variance":0.0129883584070796,"stdev":0.113966479313347,"min":0.357,"median":1.0}},"features":[{"properties":{"name":"David Cato","city":"ARLINGTON","zipcode":"76001","geo_score":1.0,"id":"a6380ml8melj","geo_precision":"zip","position":"CB","state":"TX"},"type":"Feature","geometry":{"type":"Point","coordinates":[-97.291484,32.771419]}},{"properties":{"name":"Markus Zusevics","city":"ARLINGTON HEIGHTS","zipcode":"60004","geo_score":0.857,"id":"a6380mef2i3x","geo_precision":"street","position":"OL","state":"IL"},"type":"Feature","geometry":{"type":"Point","coordinates":[-87.984994,42.153625]}},{"properties":{"name":"Tom Donatell","city":"ATLANTA","zipcode":"30301","geo_score":1.0,"id":"a6380mcw1rvz","geo_precision":"zip","position":"CB","state":"GA"},"type":"Feature","geometry":{"type":"Point","coordinates":[-84.47405,33.844371]}},{"properties":{"name":"Trey Stross","city":"AVON LAKE","zipcode":"44012","geo_score":1.0,"id":"a6380mbq6t71","geo_precision":"zip","position":"WR","state":"OH"},"type":"Feature","geometry":{"type":"Point","coordinates":[-82.017527,41.49674]}},{"properties":{"name":"Dan Doering","city":"BARRINGTON","zipcode":"60010","geo_score":1.0,"id":"a6380mjieocu","geo_precision":"zip","position":"OL","state":"IL"},"type":"Feature","geometry":{"type":"Point","coordinates":[-88.072583,42.2735]}},{"properties":{"name":"Kyle Spading","city":"BELLE PLAINE","zipcode":"52208","geo_score":1.0,"id":"a6380me016jm","geo_precision":"zip","position":"TE","state":"IA"},"type":"Feature","geometry":{"type":"Point","coordinates":[-92.242382,41.917133]}},{"properties":{"name":"Kyle Calloway","city":"BELLEVILLE","zipcode":"62220","geo_score":1.0,"id":"a6380mf13s3x","geo_precision":"zip","position":"OL","state":"IL"},"type":"Feature","geometry":{"type":"Point","coordinates":[-89.973877,38.46435]}},{"properties":{"name":"Tyler Christensen","city":"BELMOND","zipcode":"50421","geo_score":1.0,"id":"a6380m6w9hkd","geo_precision":"zip","position":"FB","state":"IA"},"type":"Feature","geometry":{"type":"Point","coordinates":[-93.712614,42.783801]}},{"properties":{"name":"Colin Sandeman","city":"BETTENDORF","zipcode":"52722","geo_score":1.0,"id":"a6380mepyvmw","geo_precision":"zip","position":"WR","state":"IA"},"type":"Feature","geometry":{"type":"Point","coordinates":[-90.529138,41.57048]}},{"properties":{"name":"Brett Greenwood","city":"BETTENDORF","zipcode":"52722","geo_score":1.0,"id":"a6380m614hd5","geo_precision":"zip","position":"CB","state":"IA"},"type":"Feature","geometry":{"type":"Point","coordinates":[-90.529138,41.57048]}},{"properties":{"name":"Pat Angerer","city":"BETTENDORF","zipcode":"52722","geo_score":1.0,"id":"a6380mcanc3w","geo_precision":"zip","position":"LB","state":"IA"},"type":"Feature","geometry":{"type":"Point","coordinates":[-90.529138,41.57048]}},{"properties":{"name":"Casey McMillan","city":"BILLINGS","zipcode":"59101","geo_score":1.0,"id":"a6380mgrtbis","geo_precision":"zip","position":"OL","state":"MT"},"type":"Feature","geometry":{"type":"Point","coordinates":[-108.387392,45.686966]}},{"properties":{"name":"Mike Daniels","city":"BLACKWOOD","zipcode":"8012","geo_score":1.0,"id":"a6380m66qq9n","geo_precision":"zip","position":"DT","state":"NJ"},"type":"Feature","geometry":{"type":"Point","coordinates":[-75.036652,39.790131]}},{"properties":{"name":"Karl Klug","city":"CALEDONIA","zipcode":"55921","geo_score":1.0,"id":"a6380m8ra0h8","geo_precision":"zip","position":"DT","state":"MN"},"type":"Feature","geometry":{"type":"Point","coordinates":[-91.458938,43.635474]}},{"properties":{"name":"Derrell Johnson-Koulianos","city":"CAMPBELL","zipcode":"44405","geo_score":1.0,"id":"a6380mgfxycc","geo_precision":"zip","position":"WR","state":"OH"},"type":"Feature","geometry":{"type":"Point","coordinates":[-80.591894,41.077708]}},{"properties":{"name":"Andy Kuempel","city":"CEDAR RAPIDS","zipcode":"52401","geo_score":1.0,"id":"a6380mj545b9","geo_precision":"zip","position":"OL","state":"IA"},"type":"Feature","geometry":{"type":"Point","coordinates":[-91.657578,41.976612]}},{"properties":{"name":"Paki O'Meara","city":"CEDAR RAPIDS","zipcode":"52401","geo_score":1.0,"id":"a6380mkup8q5","geo_precision":"zip","position":"RB","state":"IA"},"type":"Feature","geometry":{"type":"Point","coordinates":[-91.657578,41.976612]}},{"properties":{"name":"Keenan Davis","city":"CEDAR RAPIDS","zipcode":"52401","geo_score":1.0,"id":"a6380mc3z4pg","geo_precision":"zip","position":"WR","state":"IA"},"type":"Feature","geometry":{"type":"Point","coordinates":[-91.657578,41.976612]}},{"properties":{"name":"Martin Hopkins","city":"CHICAGO","zipcode":"60601","geo_score":1.0,"id":"a6380mc6vta9","geo_precision":"zip","position":"DT","state":"IL"},"type":"Feature","geometry":{"type":"Point","coordinates":[-87.68732,41.811929]}},{"properties":{"name":"William Lowe","city":"CLEVELAND","zipcode":"44101","geo_score":1.0,"id":"a6380m9n21ec","geo_precision":"zip","position":"CB","state":"OH"},"type":"Feature","geometry":{"type":"Point","coordinates":[-81.599648,41.523401]}},{"properties":{"name":"Lebron Daniel","city":"CLEVELAND","zipcode":"44101","geo_score":1.0,"id":"a6380ma2ir6b","geo_precision":"zip","position":"DT","state":"OH"},"type":"Feature","geometry":{"type":"Point","coordinates":[-81.599648,41.523401]}},{"properties":{"name":"Steve Bigach","city":"CLEVELAND","zipcode":"44101","geo_score":1.0,"id":"a6380mb8itim","geo_precision":"zip","position":"DT","state":"OH"},"type":"Feature","geometry":{"type":"Point","coordinates":[-81.599648,41.523401]}},{"properties":{"name":"Bruce Davis","city":"CLEVELAND","zipcode":"44101","geo_score":1.0,"id":"a6380m7qmhwz","geo_precision":"zip","position":"LB","state":"OH"},"type":"Feature","geometry":{"type":"Point","coordinates":[-81.599648,41.523401]}},{"properties":{"name":"Matt Murphy","city":"CLINTON","zipcode":"52732","geo_score":1.0,"id":"a6380mi80owx","geo_precision":"zip","position":"OL","state":"IA"},"type":"Feature","geometry":{"type":"Point","coordinates":[-90.301599,41.899176]}},{"properties":{"name":"Bryan Bulaga","city":"CRYSTAL LAKE","zipcode":"60012","geo_score":1.0,"id":"a6380mezetcm","geo_precision":"zip","position":"OL","state":"IL"},"type":"Feature","geometry":{"type":"Point","coordinates":[-88.305292,42.232096]}},{"properties":{"name":"Brandon Wegher","city":"DAKOTA DUNES","zipcode":"57049","geo_score":0.753,"id":"a6380mdxggtw","geo_precision":"street","position":"RB","state":"SD"},"type":"Feature","geometry":{"type":"Point","coordinates":[-96.490767,42.504725]}},{"properties":{"name":"Jason White","city":"DAVENPORT","zipcode":"52801","geo_score":1.0,"id":"a6380mj279iu","geo_precision":"zip","position":"RB","state":"IA"},"type":"Feature","geometry":{"type":"Point","coordinates":[-90.573686,41.527232]}},{"properties":{"name":"Joe Conklin","city":"DAVENPORT","zipcode":"52801","geo_score":1.0,"id":"a6380m8tlncd","geo_precision":"zip","position":"CB","state":"IA"},"type":"Feature","geometry":{"type":"Point","coordinates":[-90.573686,41.527232]}},{"properties":{"name":"Kyle Steinbrecher","city":"DAVENPORT","zipcode":"52801","geo_score":1.0,"id":"a6380mecam79","geo_precision":"zip","position":"WR","state":"IA"},"type":"Feature","geometry":{"type":"Point","coordinates":[-90.573686,41.527232]}},{"properties":{"name":"Julian Vandervelde","city":"DAVENPORT","zipcode":"52801","geo_score":1.0,"id":"a6380mev5rgq","geo_precision":"zip","position":"OL","state":"IA"},"type":"Feature","geometry":{"type":"Point","coordinates":[-90.573686,41.527232]}},{"properties":{"name":"Brett Van Sloten","city":"DECORAH","zipcode":"52101","geo_score":1.0,"id":"a6380med9k98","geo_precision":"zip","position":"OL","state":"IA"},"type":"Feature","geometry":{"type":"Point","coordinates":[-91.789582,43.294252]}},{"properties":{"name":"Adam Robinson","city":"DES MOINES","zipcode":"50301","geo_score":1.0,"id":"a6380mhy6kew","geo_precision":"zip","position":"RB","state":"IA"},"type":"Feature","geometry":{"type":"Point","coordinates":[-93.572173,41.672687]}},{"properties":{"name":"Jordan Bernstine","city":"DES MOINES","zipcode":"50301","geo_score":1.0,"id":"a6380m8cwvpk","geo_precision":"zip","position":"CB","state":"IA"},"type":"Feature","geometry":{"type":"Point","coordinates":[-93.572173,41.672687]}},{"properties":{"name":"Tyler Harrell","city":"DUBLIN","zipcode":"43016","geo_score":1.0,"id":"a6380m8ffr5t","geo_precision":"zip","position":"DT","state":"OH"},"type":"Feature","geometry":{"type":"Point","coordinates":[-83.011389,39.969036]}},{"properties":{"name":"Taylor Herbst","city":"DUBUQUE","zipcode":"52001","geo_score":1.0,"id":"a6380mc9ymuz","geo_precision":"zip","position":"CB","state":"IA"},"type":"Feature","geometry":{"type":"Point","coordinates":[-90.877135,42.458876]}},{"properties":{"name":"Jayme Murphy","city":"DUBUQUE","zipcode":"52001","geo_score":1.0,"id":"a6380ml2o440","geo_precision":"zip","position":"RB","state":"IA"},"type":"Feature","geometry":{"type":"Point","coordinates":[-90.877135,42.458876]}},{"properties":{"name":"Ross Petersen","city":"DURANT","zipcode":"52747","geo_score":1.0,"id":"a6380m60o9wj","geo_precision":"zip","position":"TE","state":"IA"},"type":"Feature","geometry":{"type":"Point","coordinates":[-91.132045,41.772184]}},{"properties":{"name":"Shane DiBona","city":"DUXBURY","zipcode":"2331","geo_score":1.0,"id":"a6380mk68pte","geo_precision":"zip","position":"FB","state":"MA"},"type":"Feature","geometry":{"type":"Point","coordinates":[-70.701357,41.970474]}},{"properties":{"name":"Matt Tobin","city":"DYERSVILLE","zipcode":"52040","geo_score":1.0,"id":"a6380mbvlypy","geo_precision":"zip","position":"OL","state":"IA"},"type":"Feature","geometry":{"type":"Point","coordinates":[-91.035655,42.421746]}},{"properties":{"name":"Ryan Donahue","city":"EVERGREEN PARK","zipcode":"60805","geo_score":1.0,"id":"a6380mkovoza","geo_precision":"zip","position":"P","state":"IL"},"type":"Feature","geometry":{"type":"Point","coordinates":[-87.68732,41.811929]}},{"properties":{"name":"Woody Orne","city":"FAIRFIELD","zipcode":"52556","geo_score":1.0,"id":"a6380mb4c513","geo_precision":"zip","position":"OL","state":"IA"},"type":"Feature","geometry":{"type":"Point","coordinates":[-91.957527,41.030998]}},{"properties":{"name":"Micah Hyde","city":"FOSTORIA","zipcode":"44830","geo_score":1.0,"id":"a6380m5xl8vz","geo_precision":"zip","position":"CB","state":"OH"},"type":"Feature","geometry":{"type":"Point","coordinates":[-83.152472,41.159551]}},{"properties":{"name":"Adam Gettis","city":"FRANKFORT","zipcode":"60423","geo_score":1.0,"id":"a6380m9cyexq","geo_precision":"zip","position":"OL","state":"IL"},"type":"Feature","geometry":{"type":"Point","coordinates":[-87.896109,41.451744]}},{"properties":{"name":"A.J. Edds","city":"GREENWOOD","zipcode":"60098","geo_score":0.857,"id":"a6380m79mpwm","geo_precision":"zip","position":"LB","state":"IN"},"type":"Feature","geometry":{"type":"Point","coordinates":[-88.389259,42.39252]}},{"properties":{"name":"Don Nordmann","city":"HOPKINTON","zipcode":"52237","geo_score":1.0,"id":"a6380mdyb6ja","geo_precision":"zip","position":"WR","state":"IA"},"type":"Feature","geometry":{"type":"Point","coordinates":[-91.276347,42.366671]}},{"properties":{"name":"Jonathan Gimm","city":"HOUSTON","zipcode":"77001","geo_score":1.0,"id":"a6380mb2zxlo","geo_precision":"zip","position":"TE","state":"TX"},"type":"Feature","geometry":{"type":"Point","coordinates":[-95.309789,29.813142]}},{"properties":{"name":"Nick Nielsen","city":"HUMBOLDT","zipcode":"50548","geo_score":1.0,"id":"a6380mgzy0nn","geo_precision":"zip","position":"CB","state":"IA"},"type":"Feature","geometry":{"type":"Point","coordinates":[-94.207763,42.775833]}},{"properties":{"name":"Cody Hundertmark","city":"HUMBOLDT","zipcode":"50548","geo_score":1.0,"id":"a6380mghs6q5","geo_precision":"zip","position":"DT","state":"IA"},"type":"Feature","geometry":{"type":"Point","coordinates":[-94.207763,42.775833]}},{"properties":{"name":"Tyler Nielsen","city":"HUMBOLDT","zipcode":"50548","geo_score":1.0,"id":"a6380m8okh4j","geo_precision":"zip","position":"LB","state":"IA"},"type":"Feature","geometry":{"type":"Point","coordinates":[-94.207763,42.775833]}},{"properties":{"name":"Jewel Hampton","city":"INDIANAPOLIS","zipcode":"46201","geo_score":1.0,"id":"a6380m4zq56q","geo_precision":"zip","position":"RB","state":"IN"},"type":"Feature","geometry":{"type":"Point","coordinates":[-86.13216,39.775092]}},{"properties":{"name":"Travis Meade","city":"IOWA CITY","zipcode":"52240","geo_score":1.0,"id":"a6380miuy3bw","geo_precision":"zip","position":"DT","state":"IA"},"type":"Feature","geometry":{"type":"Point","coordinates":[-91.541579,41.648207]}},{"properties":{"name":"Daniel Murray","city":"IOWA CITY","zipcode":"52240","geo_score":1.0,"id":"a6380ml1f9dw","geo_precision":"zip","position":"K","state":"IA"},"type":"Feature","geometry":{"type":"Point","coordinates":[-91.541579,41.648207]}},{"properties":{"name":"Zach Derby","city":"IOWA CITY","zipcode":"52240","geo_score":1.0,"id":"a6380m5szfxh","geo_precision":"zip","position":"TE","state":"IA"},"type":"Feature","geometry":{"type":"Point","coordinates":[-91.541579,41.648207]}},{"properties":{"name":"Josh Koeppel","city":"IOWA CITY","zipcode":"52240","geo_score":1.0,"id":"a6380m6wwssd","geo_precision":"zip","position":"OL","state":"IA"},"type":"Feature","geometry":{"type":"Point","coordinates":[-91.541579,41.648207]}},{"properties":{"name":"Jacob Reisen","city":"IOWA CITY","zipcode":"52240","geo_score":1.0,"id":"a6380m6hc9al","geo_precision":"zip","position":"LB","state":"IA"},"type":"Feature","geometry":{"type":"Point","coordinates":[-91.541579,41.648207]}},{"properties":{"name":"Ben Evans","city":"IOWA CITY","zipcode":"52240","geo_score":1.0,"id":"a6380m9g8bvo","geo_precision":"zip","position":"WR","state":"IA"},"type":"Feature","geometry":{"type":"Point","coordinates":[-91.541579,41.648207]}},{"properties":{"name":"James Ferentz","city":"IOWA CITY","zipcode":"52240","geo_score":1.0,"id":"a6380m7zxzxq","geo_precision":"zip","position":"OL","state":"IA"},"type":"Feature","geometry":{"type":"Point","coordinates":[-91.541579,41.648207]}},{"properties":{"name":"Joe Forgy","city":"IOWA FALLS","zipcode":"50126","geo_score":1.0,"id":"a6380mij8r2d","geo_precision":"zip","position":"DT","state":"IA"},"type":"Feature","geometry":{"type":"Point","coordinates":[-93.253363,42.43026]}},{"properties":{"name":"JoJo Pregont","city":"JANESVILLE","zipcode":"53545","geo_score":1.0,"id":"a6380mk0wldz","geo_precision":"zip","position":"WR","state":"WI"},"type":"Feature","geometry":{"type":"Point","coordinates":[-89.112201,42.710981]}},{"properties":{"name":"James Hurt","city":"KEOKUK","zipcode":"52632","geo_score":1.0,"id":"a6380mkebbe3","geo_precision":"zip","position":"WR","state":"IA"},"type":"Feature","geometry":{"type":"Point","coordinates":[-91.471682,40.584716]}},{"properties":{"name":"James Vandenberg","city":"KEOKUK","zipcode":"52632","geo_score":1.0,"id":"a6380magor1t","geo_precision":"zip","position":"QB","state":"IA"},"type":"Feature","geometry":{"type":"Point","coordinates":[-91.471682,40.584716]}},{"properties":{"name":"Nick Kuchel","city":"KINGSLEY","zipcode":"51028","geo_score":1.0,"id":"a6380mc0d5g9","geo_precision":"zip","position":"WR","state":"IA"},"type":"Feature","geometry":{"type":"Point","coordinates":[-96.077531,42.619263]}},{"properties":{"name":"Scott Covert","city":"LAKE FOREST","zipcode":"60045","geo_score":1.0,"id":"a6380mkvd24m","geo_precision":"zip","position":"DT","state":"IL"},"type":"Feature","geometry":{"type":"Point","coordinates":[-87.877569,42.240027]}},{"properties":{"name":"Troy Johnson","city":"LAKELAND","zipcode":"33801","geo_score":1.0,"id":"a6380mkdvvad","geo_precision":"zip","position":"LB","state":"FL"},"type":"Feature","geometry":{"type":"Point","coordinates":[-81.956122,28.059997]}},{"properties":{"name":"Thomas Nardo","city":"LANCASTER","zipcode":"17601","geo_score":1.0,"id":"a6380me31gta","geo_precision":"zip","position":"DT","state":"PA"},"type":"Feature","geometry":{"type":"Point","coordinates":[-76.31068,40.076553]}},{"properties":{"name":"Christian Ballard","city":"LAWRENCE","zipcode":"66044","geo_score":1.0,"id":"a6380m8kydkd","geo_precision":"zip","position":"DT","state":"KS"},"type":"Feature","geometry":{"type":"Point","coordinates":[-95.283982,38.907518]}},{"properties":{"name":"Dominic Alvis","city":"LOGAN","zipcode":"51546","geo_score":1.0,"id":"a6380mb2v52x","geo_precision":"zip","position":"DT","state":"IA"},"type":"Feature","geometry":{"type":"Point","coordinates":[-95.786047,41.657856]}},{"properties":{"name":"Dakota Getz","city":"MACON","zipcode":"60045","geo_score":0.446,"id":"a6380mdnn4ks","geo_precision":"street","position":"TE","state":"IL"},"type":"Feature","geometry":{"type":"Point","coordinates":[-87.926375,42.03261]}},{"properties":{"name":"Allen Reisner","city":"MARION","zipcode":"52302","geo_score":1.0,"id":"a6380mfhvpvy","geo_precision":"zip","position":"TE","state":"IA"},"type":"Feature","geometry":{"type":"Point","coordinates":[-91.573963,42.056938]}},{"properties":{"name":"Drew Clark","city":"MARION","zipcode":"52302","geo_score":1.0,"id":"a6380mdfdg6w","geo_precision":"zip","position":"OL","state":"IA"},"type":"Feature","geometry":{"type":"Point","coordinates":[-91.573963,42.056938]}},{"properties":{"name":"Bryce Griswold","city":"MASONVILLE","zipcode":"50654","geo_score":1.0,"id":"a6380mhs5u4h","geo_precision":"zip","position":"FB","state":"IA"},"type":"Feature","geometry":{"type":"Point","coordinates":[-91.564233,42.457286]}},{"properties":{"name":"Ricky Stanzi","city":"MENTOR","zipcode":"44060","geo_score":1.0,"id":"a6380maxm097","geo_precision":"zip","position":"QB","state":"OH"},"type":"Feature","geometry":{"type":"Point","coordinates":[-81.328779,41.679291]}},{"properties":{"name":"Brad Herman","city":"METAMORA","zipcode":"61548","geo_score":1.0,"id":"a6380mbw6mbh","geo_precision":"zip","position":"TE","state":"IL"},"type":"Feature","geometry":{"type":"Point","coordinates":[-89.358019,40.833004]}},{"properties":{"name":"Amari Spievey","city":"MIDDLETOWN","zipcode":"6457","geo_score":1.0,"id":"a6380mbi9h56","geo_precision":"zip","position":"CB","state":"CT"},"type":"Feature","geometry":{"type":"Point","coordinates":[-72.655357,41.550139]}},{"properties":{"name":"Trent Mossbrucker","city":"MOORESVILLE","zipcode":"46158","geo_score":1.0,"id":"a6380m7tb8h9","geo_precision":"zip","position":"K","state":"IN"},"type":"Feature","geometry":{"type":"Point","coordinates":[-86.437089,39.50942]}},{"properties":{"name":"Greg Castillo","city":"MOUNT LAUREL","zipcode":"8054","geo_score":1.0,"id":"a6380mc65pea","geo_precision":"zip","position":"CB","state":"NJ"},"type":"Feature","geometry":{"type":"Point","coordinates":[-74.91731,39.955912]}},{"properties":{"name":"Jordan Cotton","city":"MOUNT PLEASANT","zipcode":"52641","geo_score":1.0,"id":"a6380m9y2rsr","geo_precision":"zip","position":"WR","state":"IA"},"type":"Feature","geometry":{"type":"Point","coordinates":[-91.573713,40.994595]}},{"properties":{"name":"Jack Swanson","city":"NAPLES","zipcode":"34101","geo_score":1.0,"id":"a6380m6ld21y","geo_precision":"zip","position":"CB","state":"FL"},"type":"Feature","geometry":{"type":"Point","coordinates":[-81.38719,25.855534]}},{"properties":{"name":"Eric Guthrie","city":"NEVADA","zipcode":"50201","geo_score":1.0,"id":"a6380mke0cdp","geo_precision":"zip","position":"P","state":"IA"},"type":"Feature","geometry":{"type":"Point","coordinates":[-93.503866,42.00207]}},{"properties":{"name":"Joe Gaglione","city":"NOVELTY","zipcode":"44072","geo_score":1.0,"id":"a6380mi8rbib","geo_precision":"zip","position":"DT","state":"OH"},"type":"Feature","geometry":{"type":"Point","coordinates":[-81.328211,41.468754]}},{"properties":{"name":"Jeff Tarpinian","city":"OMAHA","zipcode":"68101","geo_score":1.0,"id":"a6380m8cizzz","geo_precision":"zip","position":"LB","state":"NE"},"type":"Feature","geometry":{"type":"Point","coordinates":[-96.171104,41.291736]}},{"properties":{"name":"Shaun Prater","city":"OMAHA","zipcode":"68101","geo_score":1.0,"id":"a6380mk7uy3c","geo_precision":"zip","position":"CB","state":"NE"},"type":"Feature","geometry":{"type":"Point","coordinates":[-96.171104,41.291736]}},{"properties":{"name":"Kyle Haganman","city":"OSAGE","zipcode":"50461","geo_score":1.0,"id":"a6380mkq6toh","geo_precision":"zip","position":"OL","state":"IA"},"type":"Feature","geometry":{"type":"Point","coordinates":[-92.789683,43.320773]}},{"properties":{"name":"Tyler Sash","city":"OSKALOOSA","zipcode":"52577","geo_score":1.0,"id":"a6380mchjk1y","geo_precision":"zip","position":"CB","state":"IA"},"type":"Feature","geometry":{"type":"Point","coordinates":[-92.662675,41.283366]}},{"properties":{"name":"Steven Staggs","city":"OSKALOOSA","zipcode":"52577","geo_score":1.0,"id":"a6380mkdwq88","geo_precision":"zip","position":"WR","state":"IA"},"type":"Feature","geometry":{"type":"Point","coordinates":[-92.662675,41.283366]}},{"properties":{"name":"Riley Reiff","city":"PARKSTON","zipcode":"57366","geo_score":1.0,"id":"a6380m8t3u2m","geo_precision":"zip","position":"DE","state":"SD"},"type":"Feature","geometry":{"type":"Point","coordinates":[-97.915618,43.383849]}},{"properties":{"name":"J.D. Griggs","city":"PISCATAWAY","zipcode":"8854","geo_score":1.0,"id":"a6380maa66f4","geo_precision":"zip","position":"TE","state":"NJ"},"type":"Feature","geometry":{"type":"Point","coordinates":[-74.457746,40.552925]}},{"properties":{"name":"Cameron Olson","city":"RADCLIFFE","zipcode":"50230","geo_score":1.0,"id":"a6380m8cehks","geo_precision":"zip","position":"LB","state":"IA"},"type":"Feature","geometry":{"type":"Point","coordinates":[-93.347563,42.310875]}},{"properties":{"name":"Rafael Eubanks","city":"SAINT PAUL","zipcode":"55101","geo_score":1.0,"id":"a6380m9j8z4h","geo_precision":"zip","position":"OL","state":"MN"},"type":"Feature","geometry":{"type":"Point","coordinates":[-93.092168,44.967965]}},{"properties":{"name":"Broderick Binns","city":"SAINT PAUL","zipcode":"55101","geo_score":1.0,"id":"a6380mbq927d","geo_precision":"zip","position":"DT","state":"MN"},"type":"Feature","geometry":{"type":"Point","coordinates":[-93.092168,44.967965]}},{"properties":{"name":"Josh Brown","city":"SAINT PETERSBURG","zipcode":"33701","geo_score":1.0,"id":"a6380mhllns8","geo_precision":"zip","position":"RB","state":"FL"},"type":"Feature","geometry":{"type":"Point","coordinates":[-82.64092,27.775654]}},{"properties":{"name":"Jeff Brinson","city":"SAINT PETERSBURG","zipcode":"33701","geo_score":1.0,"id":"a6380mlf0wl6","geo_precision":"zip","position":"RB","state":"FL"},"type":"Feature","geometry":{"type":"Point","coordinates":[-82.64092,27.775654]}},{"properties":{"name":"Collin Sleeper","city":"SOLON","zipcode":"52333","geo_score":1.0,"id":"a6380m8h20td","geo_precision":"zip","position":"CB","state":"IA"},"type":"Feature","geometry":{"type":"Point","coordinates":[-91.506086,41.792851]}},{"properties":{"name":"Terrance Pryor","city":"SOUTH HOLLAND","zipcode":"60473","geo_score":0.829,"id":"a6380m5mrbck","geo_precision":"street","position":"LB","state":"IL"},"type":"Feature","geometry":{"type":"Point","coordinates":[-87.609771,41.593607]}},{"properties":{"name":"Marvin McNutt","city":"ST. LOUIS","zipcode":"63101","geo_score":0.619,"id":"a6380mkiu65r","geo_precision":"street","position":"WR","state":"MO"},"type":"Feature","geometry":{"type":"Point","coordinates":[-90.271457,38.694471]}},{"properties":{"name":"Paul Chaney Jr.","city":"ST. LOUIS","zipcode":"63101","geo_score":0.619,"id":"a6380mkasf6j","geo_precision":"street","position":"WR","state":"MO"},"type":"Feature","geometry":{"type":"Point","coordinates":[-90.271457,38.694471]}},{"properties":{"name":"Adrian Clayborn","city":"ST. LOUIS","zipcode":"63101","geo_score":0.619,"id":"a6380maw0anm","geo_precision":"street","position":"DT","state":"MO"},"type":"Feature","geometry":{"type":"Point","coordinates":[-90.271457,38.694471]}},{"properties":{"name":"Chad Geary","city":"TIPTON","zipcode":"52772","geo_score":1.0,"id":"a6380maxkdx7","geo_precision":"zip","position":"DT","state":"IA"},"type":"Feature","geometry":{"type":"Point","coordinates":[-91.13248,41.772503]}},{"properties":{"name":"Brad Rogers","city":"TOLEDO","zipcode":"43601","geo_score":1.0,"id":"a6380mld0cwk","geo_precision":"zip","position":"RB","state":"OH"},"type":"Feature","geometry":{"type":"Point","coordinates":[-83.569359,41.720684]}},{"properties":{"name":"Nolan MacMillan","city":"TORONTO","zipcode":"M4B 1B3","geo_score":0.729,"id":"a6380m8iwmob","geo_precision":"street","position":"OL","state":"ON"},"type":"Feature","geometry":{"type":"Point","coordinates":[-121.654742,40.883499]}},{"properties":{"name":"John Wienke","city":"TUSCOLA","zipcode":"61953","geo_score":1.0,"id":"a6380mdd9sme","geo_precision":"zip","position":"QB","state":"IL"},"type":"Feature","geometry":{"type":"Point","coordinates":[-88.274137,39.787385]}},{"properties":{"name":"Chris Rowell","city":"WARRENSVILLE HEIGHTS","zipcode":"44122","geo_score":0.85,"id":"a6380m9k2ymy","geo_precision":"street","position":"CB","state":"OH"},"type":"Feature","geometry":{"type":"Point","coordinates":[-81.536234,41.483824]}},{"properties":{"name":"Justin Greiner","city":"WASHINGTON","zipcode":"52353","geo_score":1.0,"id":"a6380mfaklzs","geo_precision":"zip","position":"CB","state":"IA"},"type":"Feature","geometry":{"type":"Point","coordinates":[-91.751808,41.31663]}},{"properties":{"name":"Wade Leppert","city":"WAUCONDA","zipcode":"60084","geo_score":1.0,"id":"a6380ma0rad3","geo_precision":"zip","position":"FB","state":"IL"},"type":"Feature","geometry":{"type":"Point","coordinates":[-88.073127,42.249873]}},{"properties":{"name":"Conor Boffeli","city":"WEST DES MOINES","zipcode":"50061","geo_score":0.615,"id":"a6380md9i7ie","geo_precision":"street","position":"OL","state":"IA"},"type":"Feature","geometry":{"type":"Point","coordinates":[-93.612281,41.731314]}},{"properties":{"name":"Tony Moeaki","city":"WHEATON","zipcode":"60187","geo_score":1.0,"id":"a6380m8v7bc7","geo_precision":"zip","position":"TE","state":"IL"},"type":"Feature","geometry":{"type":"Point","coordinates":[-88.088716,41.839679]}},{"properties":{"name":"Dace Richardson","city":"WHEATON","zipcode":"60187","geo_score":1.0,"id":"a6380mggel7f","geo_precision":"zip","position":"OL","state":"IL"},"type":"Feature","geometry":{"type":"Point","coordinates":[-88.088716,41.839679]}},{"properties":{"name":"Charlie Knipper","city":"WHITEFISH BAY","zipcode":"53211","geo_score":0.357,"id":"a6380marzecs","geo_precision":"street","position":"C","state":"WI"},"type":"Feature","geometry":{"type":"Point","coordinates":[-87.90378,43.005852]}},{"properties":{"name":"Tyrel Detweiler","city":"WILLIAMSBURG","zipcode":"52361","geo_score":1.0,"id":"a6380mkl5gf7","geo_precision":"zip","position":"OL","state":"IA"},"type":"Feature","geometry":{"type":"Point","coordinates":[-92.065181,41.649999]}},{"properties":{"name":"Brett Morse","city":"WILLOWBROOK","zipcode":"60527","geo_score":0.873,"id":"a6380m5dzvek","geo_precision":"zip","position":"FB","state":"IL"},"type":"Feature","geometry":{"type":"Point","coordinates":[-88.088716,41.839679]}},{"properties":{"name":"Andrew Schulze","city":"WOODRIDGE","zipcode":"60517","geo_score":1.0,"id":"a6380mlbl3e2","geo_precision":"zip","position":"C","state":"IL"},"type":"Feature","geometry":{"type":"Point","coordinates":[-88.041731,41.736788]}},{"properties":{"name":"Zach Furlong","city":"XENIA","zipcode":"45385","geo_score":1.0,"id":"a6380meqoa6b","geo_precision":"zip","position":"TE","state":"OH"},"type":"Feature","geometry":{"type":"Point","coordinates":[-83.90813,39.684731]}},{"properties":{"name":"Jeremiha Hunter","city":"YORK","zipcode":"17315","geo_score":0.743,"id":"a6380me0smv3","geo_precision":"street","position":"LB","state":"PA"},"type":"Feature","geometry":{"type":"Point","coordinates":[-76.829072,40.110148]}}],"is_temporal":false,"author":{"url":"","metadata":"","contact_name":"","contact_address":"","source":"","contact_phone":""},"source":"","pagination":{"sort":null,"start":0,"total":113,"limit":1000000},"state":"complete","tags":"sports","published":"2014-08-10T23:45:25-04:00","id":18222}