{"type":"FeatureCollection","data_type":"Dataset","url_type":null,"permissions":[{"permissions":{"download":true,"view":true},"group_id":"everyone"}],"classification":null,"title":"Northwestern Roster","count":104,"stream_id":18258,"contributor":{"url":"http://geocommons.com/users/9734","name":"SoccerNCW23"},"data_attributes":null,"calculation_params":null,"icon_link":null,"link":"http://geocommons.com/overlays/18258.json","extent":[-122.99,25.7743,-71.1657,45.7045],"geometry_types":["point"],"unique_name":null,"name":"Northwestern Roster","feature_count":104,"description":"","next_feature":null,"is_raster":false,"short_classification":"Y","stats":{"geo_score":{"max":0.857,"mean":0.849778846153845,"variance":0.00162040692681105,"stdev":0.040254278366542,"min":0.516,"median":0.857}},"features":[{"properties":{"name":"Arby Fields","city":"ALTA LOMA","geo_score":0.857,"id":"a673c7g3sfft","geo_precision":"city","position":"RB","state":"CA"},"type":"Feature","geometry":{"type":"Point","coordinates":[-115.967051,34.839964]}},{"properties":{"name":"Brendan Smith","city":"ANDOVER","geo_score":0.857,"id":"a673c76xeo8x","geo_precision":"city","position":"S","state":"MA"},"type":"Feature","geometry":{"type":"Point","coordinates":[-71.165685,42.647991]}},{"properties":{"name":"Cameron Joplin","city":"ANN ARBOR","geo_score":0.857,"id":"a673c76cvfkx","geo_precision":"city","position":"DE","state":"MI"},"type":"Feature","geometry":{"type":"Point","coordinates":[-83.849042,42.266638]}},{"properties":{"name":"Mark Woodsum","city":"ARLINGTON HEIGHTS","geo_score":0.723,"id":"a673c7cy4rvw","geo_precision":"street","position":"RB","state":"IL"},"type":"Feature","geometry":{"type":"Point","coordinates":[-89.24893,41.475021]}},{"properties":{"name":"Evan Luxenburg","city":"BEACHWOOD","geo_score":0.857,"id":"a673c7h0q8wo","geo_precision":"city","position":"DT","state":"OH"},"type":"Feature","geometry":{"type":"Point","coordinates":[-81.505389,41.473248]}},{"properties":{"name":"Joe Mauro","city":"BEDFORD","geo_score":0.857,"id":"a673c774sgvf","geo_precision":"city","position":"QB","state":"TX"},"type":"Feature","geometry":{"type":"Point","coordinates":[-97.136289,32.852546]}},{"properties":{"name":"Dan Persa","city":"BETHLEHEM","geo_score":0.857,"id":"a673c79em07d","geo_precision":"city","position":"QB","state":"PA"},"type":"Feature","geometry":{"type":"Point","coordinates":[-78.730307,40.86173]}},{"properties":{"name":"Carl Fisher","city":"BOLINGBROOK","geo_score":0.857,"id":"a673c7cdszk5","geo_precision":"city","position":"WR","state":"IL"},"type":"Feature","geometry":{"type":"Point","coordinates":[-88.068396,41.698642]}},{"properties":{"name":"Jared Carpenter","city":"BOWLING GREEN","geo_score":0.857,"id":"a673c76eeo3o","geo_precision":"city","position":"S","state":"KY"},"type":"Feature","geometry":{"type":"Point","coordinates":[-86.451752,37.017407]}},{"properties":{"name":"Kevin Frymire","city":"BURR RIDGE","geo_score":0.857,"id":"a673c7d8ki1l","geo_precision":"city","position":"WR","state":"IL"},"type":"Feature","geometry":{"type":"Point","coordinates":[-87.918392,41.74892]}},{"properties":{"name":"Doug Bartels","city":"CALEDONIA","geo_score":0.857,"id":"a673c7isechq","geo_precision":"city","position":"OL","state":"IL"},"type":"Feature","geometry":{"type":"Point","coordinates":[-88.843027,42.397024]}},{"properties":{"name":"Jeravin Matthews","city":"CANONSBURG","geo_score":0.857,"id":"a673c76apacw","geo_precision":"city","position":"RB","state":"PA"},"type":"Feature","geometry":{"type":"Point","coordinates":[-80.12842,40.155704]}},{"properties":{"name":"Zeke Markshausen","city":"CAPRON","geo_score":0.857,"id":"a673c793cbiw","geo_precision":"city","position":"WR","state":"IL"},"type":"Feature","geometry":{"type":"Point","coordinates":[-88.759953,42.41042]}},{"properties":{"name":"Evan Watkins","city":"CAROL STREAM","geo_score":0.857,"id":"a673c78wppbh","geo_precision":"city","position":"QB","state":"IL"},"type":"Feature","geometry":{"type":"Point","coordinates":[-88.088716,41.839679]}},{"properties":{"name":"Taylor Paxton","city":"CENTENNIAL","geo_score":0.857,"id":"a673c78iz98r","geo_precision":"city","position":"OL","state":"CO"},"type":"Feature","geometry":{"type":"Point","coordinates":[-104.876923,39.579155]}},{"properties":{"name":"Steve Flaherty","city":"CHICAGO","geo_score":0.857,"id":"a673c77tax2b","geo_precision":"city","position":"K","state":"IL"},"type":"Feature","geometry":{"type":"Point","coordinates":[-87.68732,41.811929]}},{"properties":{"name":"Charles Brown","city":"CHICAGO","geo_score":0.857,"id":"a673c78dtavp","geo_precision":"city","position":"WR","state":"IL"},"type":"Feature","geometry":{"type":"Point","coordinates":[-87.68732,41.811929]}},{"properties":{"name":"Pat Hickey","city":"CHICAGO","geo_score":0.857,"id":"a673c7gzdywr","geo_precision":"city","position":"LS","state":"IL"},"type":"Feature","geometry":{"type":"Point","coordinates":[-87.68732,41.811929]}},{"properties":{"name":"Mike Kafka","city":"CHICAGO","geo_score":0.857,"id":"a673c7f2s99s","geo_precision":"city","position":"QB","state":"IL"},"type":"Feature","geometry":{"type":"Point","coordinates":[-87.68732,41.811929]}},{"properties":{"name":"Bo Cisek","city":"CHICAGO","geo_score":0.857,"id":"a673c7bwea85","geo_precision":"city","position":"DE","state":"IL"},"type":"Feature","geometry":{"type":"Point","coordinates":[-87.68732,41.811929]}},{"properties":{"name":"Corbin Bryant","city":"CHICAGO","geo_score":0.857,"id":"a673c7i9q4pi","geo_precision":"city","position":"DE","state":"IL"},"type":"Feature","geometry":{"type":"Point","coordinates":[-87.68732,41.811929]}},{"properties":{"name":"Keegan Grant","city":"COAL CITY","geo_score":0.857,"id":"a673c78k7yvl","geo_precision":"city","position":"OL","state":"IL"},"type":"Feature","geometry":{"type":"Point","coordinates":[-88.374819,41.284033]}},{"properties":{"name":"Scott Concannon","city":"COLUMBIA","geo_score":0.857,"id":"a673c7edxz59","geo_precision":"city","position":"RB","state":"MO"},"type":"Feature","geometry":{"type":"Point","coordinates":[-92.274145,38.894165]}},{"properties":{"name":"Stone Pinckney","city":"COLUMBIA","geo_score":0.857,"id":"a673c7fu3zma","geo_precision":"city","position":"LB","state":"SC"},"type":"Feature","geometry":{"type":"Point","coordinates":[-81.024864,33.987454]}},{"properties":{"name":"David Arnold","city":"COPLEY","geo_score":0.857,"id":"a673c7cxdj9q","geo_precision":"city","position":"LB","state":"OH"},"type":"Feature","geometry":{"type":"Point","coordinates":[-81.644569,41.098944]}},{"properties":{"name":"Demetrius Fields","city":"DALLAS","geo_score":0.857,"id":"a673c78dro5w","geo_precision":"city","position":"WR","state":"TX"},"type":"Feature","geometry":{"type":"Point","coordinates":[-96.790329,32.781179]}},{"properties":{"name":"Roderick Goodlow","city":"DALLAS","geo_score":0.857,"id":"a673c7j2cds7","geo_precision":"city","position":"LB","state":"TX"},"type":"Feature","geometry":{"type":"Point","coordinates":[-96.790329,32.781179]}},{"properties":{"name":"Anthony Battle","city":"DOLTON","geo_score":0.857,"id":"a673c76vjvqh","geo_precision":"city","position":"DE","state":"IL"},"type":"Feature","geometry":{"type":"Point","coordinates":[-87.68732,41.811929]}},{"properties":{"name":"Bryce McNaul","city":"EDEN PRAIRIE","geo_score":0.857,"id":"a673c7l8mamk","geo_precision":"city","position":"LB","state":"MN"},"type":"Feature","geometry":{"type":"Point","coordinates":[-93.440429,44.850563]}},{"properties":{"name":"Neal Deiters","city":"ELMHURST","geo_score":0.857,"id":"a673c7aocqr5","geo_precision":"city","position":"OL","state":"IL"},"type":"Feature","geometry":{"type":"Point","coordinates":[-87.946413,41.88353]}},{"properties":{"name":"Brendan Barber","city":"ERIE","geo_score":0.857,"id":"a673c7csspm2","geo_precision":"city","position":"WR","state":"PA"},"type":"Feature","geometry":{"type":"Point","coordinates":[-80.087341,42.087337]}},{"properties":{"name":"James Kurzawski","city":"EVANSTON","geo_score":0.857,"id":"a673c7baatns","geo_precision":"city","position":"CB","state":"IL"},"type":"Feature","geometry":{"type":"Point","coordinates":[-87.702155,42.049148]}},{"properties":{"name":"Mike Bolden","city":"EVANSTON","geo_score":0.857,"id":"a673c7537r8e","geo_precision":"city","position":"CB","state":"IL"},"type":"Feature","geometry":{"type":"Point","coordinates":[-87.702155,42.049148]}},{"properties":{"name":"Brad Phillips","city":"EXPORT","geo_score":0.857,"id":"a673c791u9t5","geo_precision":"city","position":"S","state":"PA"},"type":"Feature","geometry":{"type":"Point","coordinates":[-79.634789,40.429723]}},{"properties":{"name":"Sidney Stewart","city":"FARMINGTON HILLS","geo_score":0.857,"id":"a673c7h9cecy","geo_precision":"city","position":"WR","state":"MI"},"type":"Feature","geometry":{"type":"Point","coordinates":[-83.377155,42.485313]}},{"properties":{"name":"Niko Mafuli","city":"FLORISSANT","geo_score":0.857,"id":"a673c7eyyggc","geo_precision":"city","position":"DT","state":"MO"},"type":"Feature","geometry":{"type":"Point","coordinates":[-90.351314,38.805499]}},{"properties":{"name":"Tyris Jones","city":"FORT WAYNE","geo_score":0.857,"id":"a673c7ehbidb","geo_precision":"city","position":"LB","state":"IN"},"type":"Feature","geometry":{"type":"Point","coordinates":[-85.12886,41.130604]}},{"properties":{"name":"Drew Moulton","city":"FREELAND","geo_score":0.857,"id":"a673c7b3j5nh","geo_precision":"city","position":"WR","state":"MI"},"type":"Feature","geometry":{"type":"Point","coordinates":[-84.102426,43.496884]}},{"properties":{"name":"Martin Bayless","city":"FRESNO","geo_score":0.857,"id":"a673c76kb09a","geo_precision":"city","position":"WR","state":"TX"},"type":"Feature","geometry":{"type":"Point","coordinates":[-95.756462,29.525461]}},{"properties":{"name":"Davon Custis","city":"GAHANNA","geo_score":0.857,"id":"a673c7g4xxsi","geo_precision":"city","position":"DE","state":"OH"},"type":"Feature","geometry":{"type":"Point","coordinates":[-82.879345,40.019231]}},{"properties":{"name":"Lee Coleman","city":"GAINESVILLE","geo_score":0.857,"id":"a673c7fbsqt0","geo_precision":"city","position":"WR","state":"GA"},"type":"Feature","geometry":{"type":"Point","coordinates":[-83.837912,34.334398]}},{"properties":{"name":"Kevin Watt","city":"GLEN ELLYN","geo_score":0.857,"id":"a673c7bc3t4f","geo_precision":"city","position":"DE","state":"IL"},"type":"Feature","geometry":{"type":"Point","coordinates":[-88.029385,41.872034]}},{"properties":{"name":"Brian Mulroe","city":"GLENVIEW","geo_score":0.857,"id":"a673c784mcd6","geo_precision":"city","position":"OL","state":"IL"},"type":"Feature","geometry":{"type":"Point","coordinates":[-87.819714,42.082715]}},{"properties":{"name":"James Nussbaum","city":"GREENWOOD","geo_score":0.857,"id":"a673c7gkyzwi","geo_precision":"city","position":"S","state":"IN"},"type":"Feature","geometry":{"type":"Point","coordinates":[-86.100454,39.491246]}},{"properties":{"name":"Adam Hahn","city":"HARTFORD","geo_score":0.857,"id":"a673c7hy0vsc","geo_precision":"city","position":"DT","state":"WI"},"type":"Feature","geometry":{"type":"Point","coordinates":[-88.319032,43.357616]}},{"properties":{"name":"Jeff Budzien","city":"HARTLAND","geo_score":0.857,"id":"a673c76njw4m","geo_precision":"city","position":"K","state":"WI"},"type":"Feature","geometry":{"type":"Point","coordinates":[-88.336087,43.123679]}},{"properties":{"name":"Mike Boyle","city":"HAVERTOWN","geo_score":0.857,"id":"a673c7fke8ho","geo_precision":"city","position":"OL","state":"PA"},"type":"Feature","geometry":{"type":"Point","coordinates":[-75.312081,39.974861]}},{"properties":{"name":"Jeremy Ebert","city":"HILLIARD","geo_score":0.857,"id":"a673c7jls6n5","geo_precision":"city","position":"WR","state":"OH"},"type":"Feature","geometry":{"type":"Point","coordinates":[-83.011389,39.969036]}},{"properties":{"name":"Jack DiNardo","city":"HINSDALE","geo_score":0.857,"id":"a673c7b1k5l2","geo_precision":"city","position":"DT","state":"IL"},"type":"Feature","geometry":{"type":"Point","coordinates":[-87.966845,41.78213]}},{"properties":{"name":"John Henry Pace","city":"HINSDALE","geo_score":0.857,"id":"a673c7gxkzyh","geo_precision":"city","position":"LS","state":"IL"},"type":"Feature","geometry":{"type":"Point","coordinates":[-87.966845,41.78213]}},{"properties":{"name":"Patrick Ward","city":"HOMER GLEN","geo_score":0.857,"id":"a673c752hmd7","geo_precision":"city","position":"OL","state":"IL"},"type":"Feature","geometry":{"type":"Point","coordinates":[-87.938111,41.600032]}},{"properties":{"name":"Demetrius Dugar","city":"HOUSTON","geo_score":0.857,"id":"a673c79kqaza","geo_precision":"city","position":"CB","state":"TX"},"type":"Feature","geometry":{"type":"Point","coordinates":[-95.309789,29.813142]}},{"properties":{"name":"David Nwabuisi","city":"HOUSTON","geo_score":0.857,"id":"a673c79pu6uc","geo_precision":"city","position":"LB","state":"TX"},"type":"Feature","geometry":{"type":"Point","coordinates":[-95.309789,29.813142]}},{"properties":{"name":"Cooper Gerami","city":"LAFAYETTE","geo_score":0.857,"id":"a673c799k6f2","geo_precision":"city","position":"S","state":"LA"},"type":"Feature","geometry":{"type":"Point","coordinates":[-92.066574,30.232955]}},{"properties":{"name":"Scott Lilja","city":"LAKE BLUFF","geo_score":0.857,"id":"a673c75nz2vn","geo_precision":"city","position":"S","state":"IL"},"type":"Feature","geometry":{"type":"Point","coordinates":[-87.86767,42.294172]}},{"properties":{"name":"Brian Arnfelt","city":"LAKE ELMO","geo_score":0.857,"id":"a673c7kvufsu","geo_precision":"city","position":"DE","state":"MN"},"type":"Feature","geometry":{"type":"Point","coordinates":[-92.898177,44.992866]}},{"properties":{"name":"Kurt Mattes","city":"LARKSVILLE","geo_score":0.857,"id":"a673c75f2o3a","geo_precision":"city","position":"OL","state":"PA"},"type":"Feature","geometry":{"type":"Point","coordinates":[-75.930753,41.245082]}},{"properties":{"name":"Brett Nagel","city":"LEMONT","geo_score":0.857,"id":"a673c7fhxkyt","geo_precision":"city","position":"RB","state":"IL"},"type":"Feature","geometry":{"type":"Point","coordinates":[-87.975568,41.707431]}},{"properties":{"name":"Aaron Nagel","city":"LEMONT","geo_score":0.857,"id":"a673c7eb4tek","geo_precision":"city","position":"LB","state":"IL"},"type":"Feature","geometry":{"type":"Point","coordinates":[-87.975568,41.707431]}},{"properties":{"name":"Drake Dunsmore","city":"LENEXA","geo_score":0.857,"id":"a673c7geane8","geo_precision":"city","position":"RB","state":"KS"},"type":"Feature","geometry":{"type":"Point","coordinates":[-94.733571,38.953617]}},{"properties":{"name":"Vince Browne","city":"LISBON","geo_score":0.857,"id":"a673c776xu0d","geo_precision":"city","position":"DE","state":"OH"},"type":"Feature","geometry":{"type":"Point","coordinates":[-80.745313,40.743051]}},{"properties":{"name":"Desmond Taylor","city":"LOS ANGELES","geo_score":0.857,"id":"a673c7ib4cv2","geo_precision":"city","position":"OL","state":"CA"},"type":"Feature","geometry":{"type":"Point","coordinates":[-118.248405,33.973951]}},{"properties":{"name":"Brian Smith","city":"MEDINA","geo_score":0.857,"id":"a673c76dfqst","geo_precision":"city","position":"OL","state":"OH"},"type":"Feature","geometry":{"type":"Point","coordinates":[-81.855048,41.109975]}},{"properties":{"name":"Marshall Thomas","city":"MIAMI","geo_score":0.857,"id":"a673c78i9rj5","geo_precision":"city","position":"DT","state":"FL"},"type":"Feature","geometry":{"type":"Point","coordinates":[-80.193659,25.774266]}},{"properties":{"name":"Caleb Harper","city":"MURFREESBORO","geo_score":0.857,"id":"a673c7k54g8v","geo_precision":"city","position":"CB","state":"TN"},"type":"Feature","geometry":{"type":"Point","coordinates":[-86.372158,35.762951]}},{"properties":{"name":"Brandon Williams","city":"NAPPANEE","geo_score":0.857,"id":"a673c78z3szq","geo_precision":"city","position":"P","state":"IN"},"type":"Feature","geometry":{"type":"Point","coordinates":[-85.972724,41.574743]}},{"properties":{"name":"Damien Proby","city":"NORTH LAS VEGAS","geo_score":0.516,"id":"a673c77enyeo","geo_precision":"street","position":"LB","state":"NV"},"type":"Feature","geometry":{"type":"Point","coordinates":[-115.159866,36.180276]}},{"properties":{"name":"Kyle Petty","city":"NORTHBROOK","geo_score":0.857,"id":"a673c78cumt4","geo_precision":"city","position":"LB","state":"IL"},"type":"Feature","geometry":{"type":"Point","coordinates":[-87.838815,42.120176]}},{"properties":{"name":"Jordan Mabin","city":"NORTHFIELD","geo_score":0.857,"id":"a673c762s5kq","geo_precision":"city","position":"CB","state":"OH"},"type":"Feature","geometry":{"type":"Point","coordinates":[-81.54079,41.306454]}},{"properties":{"name":"Chuck Porcelli","city":"OAK BROOK","geo_score":0.857,"id":"a673c75c7w02","geo_precision":"city","position":"OL","state":"IL"},"type":"Feature","geometry":{"type":"Point","coordinates":[-87.92895,41.832809]}},{"properties":{"name":"Tim Weak","city":"OMAHA","geo_score":0.857,"id":"a673c78fnbpv","geo_precision":"city","position":"CB","state":"NE"},"type":"Feature","geometry":{"type":"Point","coordinates":[-96.171104,41.291736]}},{"properties":{"name":"Tim Riley","city":"OSWEGO","geo_score":0.857,"id":"a673c7kbd56u","geo_precision":"city","position":"LB","state":"IL"},"type":"Feature","geometry":{"type":"Point","coordinates":[-88.420476,41.631012]}},{"properties":{"name":"Justan Vaughn","city":"PEARLAND","geo_score":0.857,"id":"a673c7ja8a2z","geo_precision":"city","position":"CB","state":"TX"},"type":"Feature","geometry":{"type":"Point","coordinates":[-95.316425,29.328311]}},{"properties":{"name":"Sherrick McManis","city":"PEORIA","geo_score":0.857,"id":"a673c779c5kf","geo_precision":"city","position":"CB","state":"IL"},"type":"Feature","geometry":{"type":"Point","coordinates":[-89.589847,40.693137]}},{"properties":{"name":"Brian Peters","city":"PICKERINGTON","geo_score":0.857,"id":"a673c7jrn6za","geo_precision":"city","position":"S","state":"OH"},"type":"Feature","geometry":{"type":"Point","coordinates":[-82.664536,39.781747]}},{"properties":{"name":"Nate Williams","city":"PITTSBURGH","geo_score":0.857,"id":"a673c7k88h3a","geo_precision":"city","position":"LB","state":"PA"},"type":"Feature","geometry":{"type":"Point","coordinates":[-80.024817,40.434436]}},{"properties":{"name":"Quentin Williams","city":"PITTSBURGH","geo_score":0.857,"id":"a673c7ibw3j9","geo_precision":"city","position":"DE","state":"PA"},"type":"Feature","geometry":{"type":"Point","coordinates":[-80.024817,40.434436]}},{"properties":{"name":"Hunter Bates","city":"PONTE VEDRA BEACH","geo_score":0.857,"id":"a673c7eifx6b","geo_precision":"city","position":"S","state":"FL"},"type":"Feature","geometry":{"type":"Point","coordinates":[-81.420603,29.937673]}},{"properties":{"name":"Mark Ison","city":"POWELL","geo_score":0.857,"id":"a673c7a09oo7","geo_precision":"city","position":"WR","state":"OH"},"type":"Feature","geometry":{"type":"Point","coordinates":[-83.091235,40.183405]}},{"properties":{"name":"Mike Jensen","city":"RANCHO SANTA FE","geo_score":0.857,"id":"a673c7dlznrh","geo_precision":"city","position":"CB","state":"CA"},"type":"Feature","geometry":{"type":"Point","coordinates":[-117.21569,33.005026]}},{"properties":{"name":"Jacob Schmidt","city":"RHINELANDER","geo_score":0.857,"id":"a673c76n0l0m","geo_precision":"city","position":"RB","state":"WI"},"type":"Feature","geometry":{"type":"Point","coordinates":[-89.386562,45.704474]}},{"properties":{"name":"Jake Gregus","city":"RIVERSIDE","geo_score":0.857,"id":"a673c7dwi8uk","geo_precision":"city","position":"DT","state":"IL"},"type":"Feature","geometry":{"type":"Point","coordinates":[-87.68732,41.811929]}},{"properties":{"name":"Al Netter","city":"ROHNERT PARK","geo_score":0.857,"id":"a673c7809469","geo_precision":"city","position":"OL","state":"CA"},"type":"Feature","geometry":{"type":"Point","coordinates":[-122.989975,38.463088]}},{"properties":{"name":"Alex Daniel","city":"ROSWELL","geo_score":0.857,"id":"a673c7iuw5ne","geo_precision":"city","position":"RB","state":"GA"},"type":"Feature","geometry":{"type":"Point","coordinates":[-84.370475,34.055198]}},{"properties":{"name":"Corey Wootton","city":"RUTHERFORD","geo_score":0.857,"id":"a673c785idjh","geo_precision":"city","position":"DE","state":"NJ"},"type":"Feature","geometry":{"type":"Point","coordinates":[-74.109786,40.827449]}},{"properties":{"name":"Stefan Demos","city":"SCOTTSDALE","geo_score":0.857,"id":"a673c797frzv","geo_precision":"city","position":"K","state":"AZ"},"type":"Feature","geometry":{"type":"Point","coordinates":[-111.874248,33.524143]}},{"properties":{"name":"Kevin Mitchell","city":"SKOKIE","geo_score":0.857,"id":"a673c7ih6dln","geo_precision":"city","position":"WR","state":"IL"},"type":"Feature","geometry":{"type":"Point","coordinates":[-87.883566,42.057878]}},{"properties":{"name":"Stephen Simmons","city":"ST. LOUIS","geo_score":0.719,"id":"a673c7ddweie","geo_precision":"street","position":"RB","state":"MO"},"type":"Feature","geometry":{"type":"Point","coordinates":[-90.271457,38.694471]}},{"properties":{"name":"Quentin Davie","city":"ST. LOUIS","geo_score":0.719,"id":"a673c7dlwomf","geo_precision":"street","position":"LB","state":"MO"},"type":"Feature","geometry":{"type":"Point","coordinates":[-90.271457,38.694471]}},{"properties":{"name":"Will Studlien","city":"SUNBURY","geo_score":0.857,"id":"a673c7a350g7","geo_precision":"city","position":"LB","state":"OH"},"type":"Feature","geometry":{"type":"Point","coordinates":[-82.854334,40.266029]}},{"properties":{"name":"John Plasencia","city":"TAMPA","geo_score":0.857,"id":"a673c7lh2s0h","geo_precision":"city","position":"RB","state":"FL"},"type":"Feature","geometry":{"type":"Point","coordinates":[-82.582035,27.996097]}},{"properties":{"name":"Ben Burkett","city":"TOLEDO","geo_score":0.857,"id":"a673c7lfevoq","geo_precision":"city","position":"OL","state":"OH"},"type":"Feature","geometry":{"type":"Point","coordinates":[-83.569359,41.720684]}},{"properties":{"name":"Ben Johnson","city":"TREVOR","geo_score":0.857,"id":"a673c75rs360","geo_precision":"city","position":"LB","state":"WI"},"type":"Feature","geometry":{"type":"Point","coordinates":[-88.138001,42.517168]}},{"properties":{"name":"Andrew Brewer","city":"TULSA","geo_score":0.857,"id":"a673c7grm9eq","geo_precision":"city","position":"WR","state":"OK"},"type":"Feature","geometry":{"type":"Point","coordinates":[-95.868667,36.039147]}},{"properties":{"name":"Brendan Mitchell","city":"TWINSBURG","geo_score":0.857,"id":"a673c7fble21","geo_precision":"city","position":"RB","state":"OH"},"type":"Feature","geometry":{"type":"Point","coordinates":[-81.440435,41.313304]}},{"properties":{"name":"Ricky Weina","city":"UNION GROVE","geo_score":0.857,"id":"a673c7kzbd7p","geo_precision":"city","position":"CB","state":"WI"},"type":"Feature","geometry":{"type":"Point","coordinates":[-88.083092,42.739435]}},{"properties":{"name":"Davion Fleming","city":"UPLAND","geo_score":0.857,"id":"a673c7iz1zno","geo_precision":"city","position":"S","state":"CA"},"type":"Feature","geometry":{"type":"Point","coordinates":[-116.246997,34.128118]}},{"properties":{"name":"Andrew Struckmeyer","city":"VIENNA","geo_score":0.857,"id":"a673c79ulelr","geo_precision":"city","position":"DT","state":"VA"},"type":"Feature","geometry":{"type":"Point","coordinates":[-77.253749,38.897361]}},{"properties":{"name":"Tyler Scott","city":"WARREN","geo_score":0.857,"id":"a673c7hn0u87","geo_precision":"city","position":"DE","state":"OH"},"type":"Feature","geometry":{"type":"Point","coordinates":[-80.867431,41.248912]}},{"properties":{"name":"Mike Trumpy","city":"WHEATON","geo_score":0.857,"id":"a673c7f7urmf","geo_precision":"city","position":"RB","state":"IL"},"type":"Feature","geometry":{"type":"Point","coordinates":[-88.088716,41.839679]}},{"properties":{"name":"Nick Adamle","city":"WHEATON","geo_score":0.857,"id":"a673c7bmdsu2","geo_precision":"city","position":"OL","state":"IL"},"type":"Feature","geometry":{"type":"Point","coordinates":[-88.088716,41.839679]}},{"properties":{"name":"Colin Armstrong","city":"WHEATON","geo_score":0.857,"id":"a673c7fe4wu3","geo_precision":"city","position":"OL","state":"IL"},"type":"Feature","geometry":{"type":"Point","coordinates":[-88.088716,41.839679]}},{"properties":{"name":"Chris Jeske","city":"YORKVILLE","geo_score":0.857,"id":"a673c7ghujy9","geo_precision":"city","position":"LB","state":"IL"},"type":"Feature","geometry":{"type":"Point","coordinates":[-88.437533,41.601679]}},{"properties":{"name":"Josh Rooks","city":"ZEELAND","geo_score":0.857,"id":"a673c7ah37fd","geo_precision":"city","position":"RB","state":"MI"},"type":"Feature","geometry":{"type":"Point","coordinates":[-85.969722,42.869816]}}],"is_temporal":false,"author":{"url":"","metadata":"","contact_name":"","contact_address":"","source":"","contact_phone":""},"source":"","pagination":{"sort":null,"start":0,"total":104,"limit":1000000},"state":"complete","tags":"sports","published":"2014-08-10T23:51:58-04:00","id":18258}