{"type":"FeatureCollection","data_type":"Dataset","url_type":null,"permissions":[{"permissions":{"download":true,"view":true},"group_id":"everyone"}],"classification":null,"title":"Ohio State Roster","count":117,"stream_id":18259,"contributor":{"url":"http://geocommons.com/users/9734","name":"SoccerNCW23"},"data_attributes":null,"calculation_params":null,"icon_link":null,"link":"http://geocommons.com/overlays/18259.json","extent":[-95.5324,25.667,-76.6101,42.7684],"geometry_types":["point"],"unique_name":null,"name":"Ohio State Roster","feature_count":117,"description":"","next_feature":null,"is_raster":false,"short_classification":"Y","stats":{},"features":[{"properties":{"name":"Grant Schwartz","city":null,"id":"a673c763vyoa","position":"WR","state":null},"type":"Feature","geometry":null},{"properties":{"name":"Lawrence Wilson","city":"AKRON","geo_score":0.857,"id":"a673c7fw3x9v","geo_precision":"city","position":"DT","state":"OH"},"type":"Feature","geometry":{"type":"Point","coordinates":[-81.507831,41.012239]}},{"properties":{"name":"Devin Barclay","city":"ANNAPOLIS","geo_score":0.857,"id":"a673c77k9h31","geo_precision":"city","position":"K","state":"MD"},"type":"Feature","geometry":{"type":"Point","coordinates":[-76.610143,38.967311]}},{"properties":{"name":"Doug Worthington","city":"ATHOL SPRINGS","geo_score":0.857,"id":"a673c777gt0g","geo_precision":"city","position":"DT","state":"NY"},"type":"Feature","geometry":{"type":"Point","coordinates":[-78.887094,42.768413]}},{"properties":{"name":"Anderson Russell","city":"ATLANTA","geo_score":0.857,"id":"a673c7ehrmf8","geo_precision":"city","position":"CB","state":"GA"},"type":"Feature","geometry":{"type":"Point","coordinates":[-84.47405,33.844371]}},{"properties":{"name":"Joe Cech","city":"AURORA","geo_score":0.857,"id":"a673c7bhx049","geo_precision":"city","position":"WR","state":"OH"},"type":"Feature","geometry":{"type":"Point","coordinates":[-81.292977,41.311704]}},{"properties":{"name":"Adam Bellamy","city":"AURORA","geo_score":0.857,"id":"a673c7e9lj7q","geo_precision":"city","position":"DT","state":"OH"},"type":"Feature","geometry":{"type":"Point","coordinates":[-81.292977,41.311704]}},{"properties":{"name":"Austin Spitler","city":"BELLBROOK","geo_score":0.857,"id":"a673c793l6qw","geo_precision":"city","position":"LB","state":"OH"},"type":"Feature","geometry":{"type":"Point","coordinates":[-84.049985,39.632829]}},{"properties":{"name":"Dalton Britt","city":"BELLVILLE","geo_score":0.857,"id":"a673c7jaqxov","geo_precision":"city","position":"DT","state":"OH"},"type":"Feature","geometry":{"type":"Point","coordinates":[-82.481491,40.646184]}},{"properties":{"name":"Devon Torrence","city":"CANTON","geo_score":0.857,"id":"a673c792d6tj","geo_precision":"city","position":"DB","state":"OH"},"type":"Feature","geometry":{"type":"Point","coordinates":[-81.371185,40.782408]}},{"properties":{"name":"Tom Ingham","city":"CENTERVILLE","geo_score":0.857,"id":"a673c7io7wfa","geo_precision":"city","position":"DE","state":"OH"},"type":"Feature","geometry":{"type":"Point","coordinates":[-83.24325,40.494781]}},{"properties":{"name":"Justin Siems","city":"CHARLOTTE","geo_score":0.857,"id":"a673c7h0qa5i","geo_precision":"city","position":"QB","state":"NC"},"type":"Feature","geometry":{"type":"Point","coordinates":[-80.804151,35.26002]}},{"properties":{"name":"Patrick Howe","city":"CINCINNATI","geo_score":0.857,"id":"a673c7b44tkj","geo_precision":"city","position":"C","state":"OH"},"type":"Feature","geometry":{"type":"Point","coordinates":[-84.53822,39.166759]}},{"properties":{"name":"Ross Oltorik","city":"CINCINNATI","geo_score":0.857,"id":"a673c76inooh","geo_precision":"city","position":"QB","state":"OH"},"type":"Feature","geometry":{"type":"Point","coordinates":[-84.53822,39.166759]}},{"properties":{"name":"DeVier Posey","city":"CINCINNATI","geo_score":0.857,"id":"a673c757o5o5","geo_precision":"city","position":"WR","state":"OH"},"type":"Feature","geometry":{"type":"Point","coordinates":[-84.53822,39.166759]}},{"properties":{"name":"Connor Smith","city":"CINCINNATI","geo_score":0.857,"id":"a673c7c11bip","geo_precision":"city","position":"OL","state":"OH"},"type":"Feature","geometry":{"type":"Point","coordinates":[-84.53822,39.166759]}},{"properties":{"name":"Jake McQuaide","city":"CINCINNATI","geo_score":0.857,"id":"a673c77n8ag7","geo_precision":"city","position":"C","state":"OH"},"type":"Feature","geometry":{"type":"Point","coordinates":[-84.53822,39.166759]}},{"properties":{"name":"Tyler Moeller","city":"CINCINNATI","geo_score":0.857,"id":"a673c7guyfzc","geo_precision":"city","position":"LB","state":"OH"},"type":"Feature","geometry":{"type":"Point","coordinates":[-84.53822,39.166759]}},{"properties":{"name":"Spencer Smith","city":"CINCINNATI","geo_score":0.857,"id":"a673c7eehj50","geo_precision":"city","position":"TE","state":"OH"},"type":"Feature","geometry":{"type":"Point","coordinates":[-84.53822,39.166759]}},{"properties":{"name":"Kurt Coleman","city":"CLAYTON","geo_score":0.857,"id":"a673c76am2ak","geo_precision":"city","position":"CB","state":"OH"},"type":"Feature","geometry":{"type":"Point","coordinates":[-83.675475,38.743684]}},{"properties":{"name":"Chimdi Chekwa","city":"CLERMONT","geo_score":0.857,"id":"a673c7ajk7ji","geo_precision":"city","position":"CB","state":"FL"},"type":"Feature","geometry":{"type":"Point","coordinates":[-81.779423,28.584025]}},{"properties":{"name":"Jermil Martin","city":"CLEVELAND","geo_score":0.857,"id":"a673c7l9822u","geo_precision":"city","position":"RB","state":"OH"},"type":"Feature","geometry":{"type":"Point","coordinates":[-81.599648,41.523401]}},{"properties":{"name":"Jonathan Newsome","city":"CLEVELAND","geo_score":0.857,"id":"a673c7fxeyg9","geo_precision":"city","position":"DE","state":"AL"},"type":"Feature","geometry":{"type":"Point","coordinates":[-86.55985,33.977816]}},{"properties":{"name":"Ray Small","city":"CLEVELAND","geo_score":0.857,"id":"a673c76b49k2","geo_precision":"city","position":"WR","state":"OH"},"type":"Feature","geometry":{"type":"Point","coordinates":[-81.599648,41.523401]}},{"properties":{"name":"Marcus Hall","city":"CLEVELAND","geo_score":0.857,"id":"a673c7a5o2je","geo_precision":"city","position":"OL","state":"OH"},"type":"Feature","geometry":{"type":"Point","coordinates":[-81.599648,41.523401]}},{"properties":{"name":"Bryant Browning","city":"CLEVELAND","geo_score":0.857,"id":"a673c7iz4n36","geo_precision":"city","position":"OL","state":"OH"},"type":"Feature","geometry":{"type":"Point","coordinates":[-81.599648,41.523401]}},{"properties":{"name":"Jermale Hines","city":"CLEVELAND","geo_score":0.857,"id":"a673c7ize1f2","geo_precision":"city","position":"DB","state":"OH"},"type":"Feature","geometry":{"type":"Point","coordinates":[-81.599648,41.523401]}},{"properties":{"name":"Robert Rose","city":"CLEVELAND","geo_score":0.857,"id":"a673c7hbkvmj","geo_precision":"city","position":"DT","state":"OH"},"type":"Feature","geometry":{"type":"Point","coordinates":[-81.599648,41.523401]}},{"properties":{"name":"Tony Harlamert","city":"COLDWATER","geo_score":0.857,"id":"a673c7ivtd48","geo_precision":"city","position":"WR","state":"OH"},"type":"Feature","geometry":{"type":"Point","coordinates":[-84.68752,40.476443]}},{"properties":{"name":"Ross Homan","city":"COLDWATER","geo_score":0.857,"id":"a673c75g0csp","geo_precision":"city","position":"LB","state":"OH"},"type":"Feature","geometry":{"type":"Point","coordinates":[-84.68752,40.476443]}},{"properties":{"name":"Adam Homan","city":"COLDWATER","geo_score":0.857,"id":"a673c7e4hgk6","geo_precision":"city","position":"RB","state":"OH"},"type":"Feature","geometry":{"type":"Point","coordinates":[-84.68752,40.476443]}},{"properties":{"name":"Tony Jackson","city":"COLUMBUS","geo_score":0.857,"id":"a673c7gu1n03","geo_precision":"city","position":"LB","state":"OH"},"type":"Feature","geometry":{"type":"Point","coordinates":[-82.897222,40.040113]}},{"properties":{"name":"C.J. Barnett","city":"DAYTON","geo_score":0.857,"id":"a673c78wok4i","geo_precision":"city","position":"CB","state":"OH"},"type":"Feature","geometry":{"type":"Point","coordinates":[-84.268593,39.750471]}},{"properties":{"name":"Jon Lorenz","city":"DUBLIN","geo_score":0.857,"id":"a673c7j6juc9","geo_precision":"city","position":"DL","state":"OH"},"type":"Feature","geometry":{"type":"Point","coordinates":[-83.011389,39.969036]}},{"properties":{"name":"Nate Ebner","city":"DUBLIN","geo_score":0.857,"id":"a673c75q1br1","geo_precision":"city","position":"CB","state":"OH"},"type":"Feature","geometry":{"type":"Point","coordinates":[-83.011389,39.969036]}},{"properties":{"name":"Mike Adams","city":"DUBLIN","geo_score":0.857,"id":"a673c75x2nhl","geo_precision":"city","position":"OL","state":"OH"},"type":"Feature","geometry":{"type":"Point","coordinates":[-83.011389,39.969036]}},{"properties":{"name":"Jake Stoneburner","city":"DUBLIN","geo_score":0.857,"id":"a673c7ecfzeo","geo_precision":"city","position":"TE","state":"OH"},"type":"Feature","geometry":{"type":"Point","coordinates":[-83.011389,39.969036]}},{"properties":{"name":"Andrew Moses","city":"DUBLIN","geo_score":0.857,"id":"a673c7a1wzhp","geo_precision":"city","position":"OL","state":"OH"},"type":"Feature","geometry":{"type":"Point","coordinates":[-83.011389,39.969036]}},{"properties":{"name":"Taylor Rice","city":"DUBLIN","geo_score":0.857,"id":"a673c7cfcesq","geo_precision":"city","position":"CB","state":"OH"},"type":"Feature","geometry":{"type":"Point","coordinates":[-83.011389,39.969036]}},{"properties":{"name":"Thaddeus Gibson","city":"EUCLID","geo_score":0.857,"id":"a673c75gkr6g","geo_precision":"city","position":"LB","state":"OH"},"type":"Feature","geometry":{"type":"Point","coordinates":[-81.526142,41.566834]}},{"properties":{"name":"Duron Carter","city":"FORT LAUDERDALE","geo_score":0.857,"id":"a673c75bgjv4","geo_precision":"city","position":"WR","state":"FL"},"type":"Feature","geometry":{"type":"Point","coordinates":[-80.159317,26.085115]}},{"properties":{"name":"Lamaar Thomas","city":"FORT WASHINGTON","geo_score":0.857,"id":"a673c75t5vjm","geo_precision":"city","position":"WR","state":"MD"},"type":"Feature","geometry":{"type":"Point","coordinates":[-76.977596,38.757114]}},{"properties":{"name":"Dominic Clarke","city":"FREDERICK","geo_score":0.857,"id":"a673c77j5oc9","geo_precision":"city","position":"DB","state":"MD"},"type":"Feature","geometry":{"type":"Point","coordinates":[-77.369299,39.512748]}},{"properties":{"name":"Chris Malone","city":"GAHANNA","geo_score":0.857,"id":"a673c7kafm7j","geo_precision":"city","position":"OL","state":"OH"},"type":"Feature","geometry":{"type":"Point","coordinates":[-82.879345,40.019231]}},{"properties":{"name":"Keith Wells","city":"GAINESVILLE","geo_score":0.857,"id":"a673c77npcte","geo_precision":"city","position":"DT","state":"GA"},"type":"Feature","geometry":{"type":"Point","coordinates":[-83.837912,34.334398]}},{"properties":{"name":"Melvin Fellows","city":"GARFIELD HEIGHTS","geo_score":0.74,"id":"a673c762j4hn","geo_precision":"street","position":"DE","state":"OH"},"type":"Feature","geometry":{"type":"Point","coordinates":[-81.616306,41.430937]}},{"properties":{"name":"James Jackson","city":"GRAND LEDGE","geo_score":0.857,"id":"a673c7929sou","geo_precision":"city","position":"WR","state":"MI"},"type":"Feature","geometry":{"type":"Point","coordinates":[-84.766787,42.700035]}},{"properties":{"name":"Reid Fragel","city":"GROSSE POINTE FARMS","geo_score":0.857,"id":"a673c7954jqt","geo_precision":"city","position":"TE","state":"MI"},"type":"Feature","geometry":{"type":"Point","coordinates":[-82.891859,42.409204]}},{"properties":{"name":"Dan Potokar","city":"GROVE CITY","geo_score":0.857,"id":"a673c793yyko","geo_precision":"city","position":"WR","state":"OH"},"type":"Feature","geometry":{"type":"Point","coordinates":[-83.011389,39.969036]}},{"properties":{"name":"Gar Chappelear","city":"GROVE CITY","geo_score":0.857,"id":"a673c75ajkry","geo_precision":"city","position":"C","state":"OH"},"type":"Feature","geometry":{"type":"Point","coordinates":[-83.011389,39.969036]}},{"properties":{"name":"Bo DeLande","city":"HILLIARD","geo_score":0.857,"id":"a673c7k3yf2p","geo_precision":"city","position":"RB","state":"OH"},"type":"Feature","geometry":{"type":"Point","coordinates":[-83.011389,39.969036]}},{"properties":{"name":"Ken Guiton","city":"HOUSTON","geo_score":0.857,"id":"a673c77wtj2y","geo_precision":"city","position":"QB","state":"TX"},"type":"Feature","geometry":{"type":"Point","coordinates":[-95.309789,29.813142]}},{"properties":{"name":"Donnie Evege","city":"HUBER HEIGHTS","geo_score":0.696,"id":"a673c77pyd8o","geo_precision":"street","position":"CB","state":"OH"},"type":"Feature","geometry":{"type":"Point","coordinates":[-84.137993,39.865668]}},{"properties":{"name":"Brian Rolle","city":"IMMOKALEE","geo_score":0.857,"id":"a673c779axuf","geo_precision":"city","position":"LB","state":"FL"},"type":"Feature","geometry":{"type":"Point","coordinates":[-81.417299,26.41869]}},{"properties":{"name":"Marcus Williams","city":"IRONTON","geo_score":0.857,"id":"a673c76eqio0","geo_precision":"city","position":"RB","state":"OH"},"type":"Feature","geometry":{"type":"Point","coordinates":[-82.596777,38.544457]}},{"properties":{"name":"Terrelle Pryor","city":"JEANNETTE","geo_score":0.857,"id":"a673c7gyqizd","geo_precision":"city","position":"QB","state":"PA"},"type":"Feature","geometry":{"type":"Point","coordinates":[-79.407913,40.374572]}},{"properties":{"name":"Jordan Hall","city":"JEANNETTE","geo_score":0.857,"id":"a673c7i8shxt","geo_precision":"city","position":"RB","state":"PA"},"type":"Feature","geometry":{"type":"Point","coordinates":[-79.407913,40.374572]}},{"properties":{"name":"Chris Roark","city":"KETTERING","geo_score":0.857,"id":"a673c7di6j23","geo_precision":"city","position":"WR","state":"OH"},"type":"Feature","geometry":{"type":"Point","coordinates":[-84.168827,39.689504]}},{"properties":{"name":"K.C. Christian","city":"KITTS HILL","geo_score":0.857,"id":"a673c7erpyyu","geo_precision":"city","position":"RB","state":"OH"},"type":"Feature","geometry":{"type":"Point","coordinates":[-82.545723,38.562503]}},{"properties":{"name":"J.B. Shugarts","city":"KLEIN","geo_score":0.857,"id":"a673c7b2py2q","geo_precision":"city","position":"OL","state":"TX"},"type":"Feature","geometry":{"type":"Point","coordinates":[-95.532441,30.04772]}},{"properties":{"name":"Nate Oliver","city":"LAKEWOOD","geo_score":0.857,"id":"a673c7e0d5gh","geo_precision":"city","position":"S","state":"OH"},"type":"Feature","geometry":{"type":"Point","coordinates":[-81.637249,41.514849]}},{"properties":{"name":"Don Matheney","city":"LANCASTER","geo_score":0.857,"id":"a673c7gytbhy","geo_precision":"city","position":"DT","state":"OH"},"type":"Feature","geometry":{"type":"Point","coordinates":[-82.609282,39.68965]}},{"properties":{"name":"Jim Cordle","city":"LANCASTER","geo_score":0.857,"id":"a673c7ir1yjj","geo_precision":"city","position":"C","state":"OH"},"type":"Feature","geometry":{"type":"Point","coordinates":[-82.609282,39.68965]}},{"properties":{"name":"Ricky Crawford","city":"LEWIS CENTER","geo_score":0.857,"id":"a673c78q4zxl","geo_precision":"city","position":"WR","state":"OH"},"type":"Feature","geometry":{"type":"Point","coordinates":[-82.987804,40.187886]}},{"properties":{"name":"Jordan Whiting","city":"LOUISVILLE","geo_score":0.857,"id":"a673c7hn604n","geo_precision":"city","position":"LB","state":"KY"},"type":"Feature","geometry":{"type":"Point","coordinates":[-85.676819,38.188962]}},{"properties":{"name":"Jon Thoma","city":"LOUISVILLE","geo_score":0.857,"id":"a673c7hztrd1","geo_precision":"city","position":"P","state":"OH"},"type":"Feature","geometry":{"type":"Point","coordinates":[-81.390056,40.802406]}},{"properties":{"name":"Nic DiLillo","city":"MADISON","geo_score":0.857,"id":"a673c78loano","geo_precision":"city","position":"TE","state":"OH"},"type":"Feature","geometry":{"type":"Point","coordinates":[-81.073247,41.781467]}},{"properties":{"name":"Chris Maxwell","city":"MAINEVILLE","geo_score":0.857,"id":"a673c7dgwyng","geo_precision":"city","position":"CB","state":"OH"},"type":"Feature","geometry":{"type":"Point","coordinates":[-84.243763,39.316973]}},{"properties":{"name":"Dexter Larimore","city":"MERRILLVILLE","geo_score":0.857,"id":"a673c777zyn5","geo_precision":"city","position":"DT","state":"IN"},"type":"Feature","geometry":{"type":"Point","coordinates":[-87.338656,41.497212]}},{"properties":{"name":"Travis Howard","city":"MIAMI","geo_score":0.857,"id":"a673c7btjsbh","geo_precision":"city","position":"CB","state":"FL"},"type":"Feature","geometry":{"type":"Point","coordinates":[-80.193659,25.774266]}},{"properties":{"name":"Andre Amos","city":"MIDDLETOWN","geo_score":0.857,"id":"a673c7j95oln","geo_precision":"city","position":"CB","state":"OH"},"type":"Feature","geometry":{"type":"Point","coordinates":[-83.619095,40.191724]}},{"properties":{"name":"Evan Blankenship","city":"MONACA","geo_score":0.857,"id":"a673c7helxoj","geo_precision":"city","position":"OL","state":"PA"},"type":"Feature","geometry":{"type":"Point","coordinates":[-80.327814,40.656366]}},{"properties":{"name":"Corey Brown","city":"MONROEVILLE","geo_score":0.857,"id":"a673c768eaol","geo_precision":"city","position":"DB","state":"PA"},"type":"Feature","geometry":{"type":"Point","coordinates":[-80.236882,40.548117]}},{"properties":{"name":"Dorian Bell","city":"MONROEVILLE","geo_score":0.857,"id":"a673c769cmba","geo_precision":"city","position":"LB","state":"PA"},"type":"Feature","geometry":{"type":"Point","coordinates":[-80.236882,40.548117]}},{"properties":{"name":"Stewart Smith","city":"NEW ALBANY","geo_score":0.857,"id":"a673c7j256ek","geo_precision":"city","position":"DT","state":"OH"},"type":"Feature","geometry":{"type":"Point","coordinates":[-82.814347,40.085113]}},{"properties":{"name":"Storm Klein","city":"NEWARK","geo_score":0.857,"id":"a673c7evf89i","geo_precision":"city","position":"LB","state":"OH"},"type":"Feature","geometry":{"type":"Point","coordinates":[-82.485985,40.085963]}},{"properties":{"name":"James Georgiades","city":"NORTH CANTON","geo_score":0.425,"id":"a673c759b6ge","geo_precision":"street","position":"RB","state":"OH"},"type":"Feature","geometry":{"type":"Point","coordinates":[-81.377918,40.810202]}},{"properties":{"name":"Etienne Sabino","city":"NORTH MIAMI BEACH","geo_score":0.84,"id":"a673c7cfgs9o","geo_precision":"city","position":"LB","state":"FL"},"type":"Feature","geometry":{"type":"Point","coordinates":[-80.162546,25.933149]}},{"properties":{"name":"Taurian Washington","city":"ORCHARD LAKE","geo_score":0.857,"id":"a673c7egsl1o","geo_precision":"city","position":"WR","state":"MI"},"type":"Feature","geometry":{"type":"Point","coordinates":[-83.35938,42.583089]}},{"properties":{"name":"Aaron Gant","city":"ORCHARD LAKE","geo_score":0.857,"id":"a673c7i9p7vq","geo_precision":"city","position":"S","state":"MI"},"type":"Feature","geometry":{"type":"Point","coordinates":[-83.35938,42.583089]}},{"properties":{"name":"Michael Brewster","city":"ORLANDO","geo_score":0.857,"id":"a673c7ie56qh","geo_precision":"city","position":"OL","state":"FL"},"type":"Feature","geometry":{"type":"Point","coordinates":[-81.373291,28.545179]}},{"properties":{"name":"Chris Fields","city":"PAINESVILLE","geo_score":0.857,"id":"a673c7hmujla","geo_precision":"city","position":"WR","state":"OH"},"type":"Feature","geometry":{"type":"Point","coordinates":[-81.19903,41.707918]}},{"properties":{"name":"Justin Boren","city":"PICKERINGTON","geo_score":0.857,"id":"a673c7amznof","geo_precision":"city","position":"OL","state":"OH"},"type":"Feature","geometry":{"type":"Point","coordinates":[-82.664536,39.781747]}},{"properties":{"name":"Zach Boren","city":"PICKERINGTON","geo_score":0.857,"id":"a673c7emvj35","geo_precision":"city","position":"RB","state":"OH"},"type":"Feature","geometry":{"type":"Point","coordinates":[-82.664536,39.781747]}},{"properties":{"name":"Jamie Wood","city":"PICKERINGTON","geo_score":0.857,"id":"a673c7emm5vg","geo_precision":"city","position":"CB","state":"OH"},"type":"Feature","geometry":{"type":"Point","coordinates":[-82.664536,39.781747]}},{"properties":{"name":"Jaamal Berry","city":"PINECREST","geo_score":0.857,"id":"a673c7dkb9c5","geo_precision":"city","position":"RB","state":"FL"},"type":"Feature","geometry":{"type":"Point","coordinates":[-80.308107,25.667048]}},{"properties":{"name":"Brandon Saine","city":"PIQUA","geo_score":0.857,"id":"a673c7b5154n","geo_precision":"city","position":"RB","state":"OH"},"type":"Feature","geometry":{"type":"Point","coordinates":[-84.228811,40.123618]}},{"properties":{"name":"Grant Dziak","city":"PORT CLINTON","geo_score":0.857,"id":"a673c7l15391","geo_precision":"city","position":"LB","state":"OH"},"type":"Feature","geometry":{"type":"Point","coordinates":[-83.050219,41.558318]}},{"properties":{"name":"Aaron Pettrey","city":"RACELAND","geo_score":0.857,"id":"a673c7les6xk","geo_precision":"city","position":"K","state":"KY"},"type":"Feature","geometry":{"type":"Point","coordinates":[-82.728498,38.54008]}},{"properties":{"name":"Orhian Johnson","city":"SAINT PETERSBURG","geo_score":0.857,"id":"a673c7j7ql4j","geo_precision":"city","position":"CB","state":"FL"},"type":"Feature","geometry":{"type":"Point","coordinates":[-82.64092,27.775654]}},{"properties":{"name":"Ryan Schuck","city":"SELINSGROVE","geo_score":0.857,"id":"a673c7ddl6e4","geo_precision":"city","position":"WR","state":"PA"},"type":"Feature","geometry":{"type":"Point","coordinates":[-76.857577,40.825914]}},{"properties":{"name":"Garrett Hummel","city":"SHELBY","geo_score":0.857,"id":"a673c77u7j0b","geo_precision":"city","position":"WR","state":"OH"},"type":"Feature","geometry":{"type":"Point","coordinates":[-82.571998,40.848784]}},{"properties":{"name":"Sam Longo","city":"SPRING VALLEY","geo_score":0.857,"id":"a673c7ausx4z","geo_precision":"city","position":"OL","state":"OH"},"type":"Feature","geometry":{"type":"Point","coordinates":[-83.730771,41.605607]}},{"properties":{"name":"Jake Ballard","city":"SPRINGBORO","geo_score":0.857,"id":"a673c773qwr0","geo_precision":"city","position":"TE","state":"OH"},"type":"Feature","geometry":{"type":"Point","coordinates":[-84.14633,39.465762]}},{"properties":{"name":"Scott Sika","city":"STRONGSVILLE","geo_score":0.857,"id":"a673c7jlwwvb","geo_precision":"city","position":"OL","state":"OH"},"type":"Feature","geometry":{"type":"Point","coordinates":[-81.831656,41.313268]}},{"properties":{"name":"Josh Kerr","city":"STRONGSVILLE","geo_score":0.857,"id":"a673c7hbkurw","geo_precision":"city","position":"OT","state":"OH"},"type":"Feature","geometry":{"type":"Point","coordinates":[-81.831656,41.313268]}},{"properties":{"name":"Cameron Heyward","city":"SUWANEE","geo_score":0.857,"id":"a673c78f8at5","geo_precision":"city","position":"DT","state":"GA"},"type":"Feature","geometry":{"type":"Point","coordinates":[-84.026171,34.042479]}},{"properties":{"name":"Derek Erwin","city":"TIRO","geo_score":0.857,"id":"a673c7hz3obs","geo_precision":"city","position":"P","state":"OH"},"type":"Feature","geometry":{"type":"Point","coordinates":[-82.806099,40.914732]}},{"properties":{"name":"Dane Sanzenbacher","city":"TOLEDO","geo_score":0.857,"id":"a673c7ab86o9","geo_precision":"city","position":"WR","state":"OH"},"type":"Feature","geometry":{"type":"Point","coordinates":[-83.569359,41.720684]}},{"properties":{"name":"Jack Mewhort","city":"TOLEDO","geo_score":0.857,"id":"a673c7aqwrs0","geo_precision":"city","position":"OL","state":"OH"},"type":"Feature","geometry":{"type":"Point","coordinates":[-83.569359,41.720684]}},{"properties":{"name":"Todd Denlinger","city":"TROY","geo_score":0.857,"id":"a673c796clxx","geo_precision":"city","position":"DT","state":"OH"},"type":"Feature","geometry":{"type":"Point","coordinates":[-84.226398,40.062621]}},{"properties":{"name":"James Hastings","city":"UPPER ARLINGTON","geo_score":0.857,"id":"a673c7atsjg4","geo_precision":"city","position":"LB","state":"OH"},"type":"Feature","geometry":{"type":"Point","coordinates":[-83.062408,39.994508]}},{"properties":{"name":"Garrett Goebel","city":"VILLA PARK","geo_score":0.857,"id":"a673c7aaddiz","geo_precision":"city","position":"DT","state":"IL"},"type":"Feature","geometry":{"type":"Point","coordinates":[-87.97643,41.875379]}},{"properties":{"name":"Geroge Makridis","city":"WARREN","geo_score":0.857,"id":"a673c7gcfhzx","geo_precision":"city","position":"C","state":"OH"},"type":"Feature","geometry":{"type":"Point","coordinates":[-80.867431,41.248912]}},{"properties":{"name":"Daniel Herron","city":"WARREN","geo_score":0.857,"id":"a673c7ik5usj","geo_precision":"city","position":"RB","state":"OH"},"type":"Feature","geometry":{"type":"Point","coordinates":[-80.867431,41.248912]}},{"properties":{"name":"Andy Miller","city":"WASHINGTON","geo_score":0.857,"id":"a673c7kgkajm","geo_precision":"city","position":"OL","state":"PA"},"type":"Feature","geometry":{"type":"Point","coordinates":[-80.146709,40.135391]}},{"properties":{"name":"Andrew Sweat","city":"WASHINGTON","geo_score":0.857,"id":"a673c7hr5sb0","geo_precision":"city","position":"LB","state":"PA"},"type":"Feature","geometry":{"type":"Point","coordinates":[-80.146709,40.135391]}},{"properties":{"name":"Nathan Williams","city":"WASHINGTON COURT HOUSE","geo_score":0.706,"id":"a673c7e0pnsq","geo_precision":"street","position":"DT","state":"OH"},"type":"Feature","geometry":{"type":"Point","coordinates":[-83.435589,39.538765]}},{"properties":{"name":"Onesiaum Glass","city":"WATERVILLE","geo_score":0.857,"id":"a673c7519rsg","geo_precision":"city","position":"RB","state":"OH"},"type":"Feature","geometry":{"type":"Point","coordinates":[-83.765287,41.513751]}},{"properties":{"name":"Solomon Thomas","city":"WEST CHESTER","geo_score":0.835,"id":"a673c7lft878","geo_precision":"city","position":"DT","state":"OH"},"type":"Feature","geometry":{"type":"Point","coordinates":[-81.344278,40.23368]}},{"properties":{"name":"Ben Buchanan","city":"WESTERVILLE","geo_score":0.857,"id":"a673c76cf4es","geo_precision":"city","position":"P","state":"OH"},"type":"Feature","geometry":{"type":"Point","coordinates":[-82.896457,40.10447]}},{"properties":{"name":"Rocco Pentello","city":"WESTERVILLE","geo_score":0.857,"id":"a673c7hq4vvb","geo_precision":"city","position":"CB","state":"OH"},"type":"Feature","geometry":{"type":"Point","coordinates":[-82.896457,40.10447]}},{"properties":{"name":"Joe Bauserman","city":"WOODSTOCK","geo_score":0.857,"id":"a673c78wkssr","geo_precision":"city","position":"QB","state":"VA"},"type":"Feature","geometry":{"type":"Point","coordinates":[-78.512429,38.918791]}},{"properties":{"name":"Joe Gantz","city":"WOOSTER","geo_score":0.857,"id":"a673c7hgoosz","geo_precision":"city","position":"RB","state":"OH"},"type":"Feature","geometry":{"type":"Point","coordinates":[-81.895377,40.830699]}},{"properties":{"name":"Zach Domicone","city":"XENIA","geo_score":0.857,"id":"a673c7f4qgcr","geo_precision":"city","position":"CB","state":"OH"},"type":"Feature","geometry":{"type":"Point","coordinates":[-83.90813,39.684731]}},{"properties":{"name":"John Simon","city":"YOUNGSTOWN","geo_score":0.857,"id":"a673c7jlhv6l","geo_precision":"city","position":"DL","state":"OH"},"type":"Feature","geometry":{"type":"Point","coordinates":[-80.802854,41.017082]}},{"properties":{"name":"Corey Linsley","city":"YOUNGSTOWN","geo_score":0.857,"id":"a673c7ci9bay","geo_precision":"city","position":"OL","state":"OH"},"type":"Feature","geometry":{"type":"Point","coordinates":[-80.802854,41.017082]}}],"is_temporal":false,"author":{"url":"","metadata":"","contact_name":"","contact_address":"","source":"","contact_phone":""},"source":"","pagination":{"sort":null,"start":0,"total":117,"limit":1000000},"state":"complete","tags":"sports","published":"2014-08-10T23:52:02-04:00","id":18259}