{"type":"FeatureCollection","data_type":"Dataset","url_type":null,"permissions":[{"permissions":{"download":true,"view":true},"group_id":"everyone"}],"classification":null,"title":"RecordStoreData","count":74,"stream_id":183006,"contributor":{"url":"http://geocommons.com/users/5925","name":"afdomas"},"data_attributes":null,"calculation_params":null,"icon_link":null,"link":"http://geocommons.com/overlays/183006.json","extent":[-122.482,25.7743,-71.5175,48.0496],"geometry_types":["point"],"unique_name":null,"name":"RecordStoreData","feature_count":74,"description":"List of record stores around the United States that sell vinyl albums. ","next_feature":null,"is_raster":false,"short_classification":"Y","stats":{},"features":[{"properties":{"city":"Tempe","name":"Memory Lane Out-of Print Records &amp; Compact Discs","geo_score":0.857,"id":"a65sd4lhxzsz","geo_precision":"city","state":"Arizona"},"type":"Feature","geometry":{"type":"Point","coordinates":[-111.90931,33.414768]}},{"properties":{"city":"Compton","name":"RIDING HIGH MUSIC GROUP","geo_score":0.857,"id":"a65sd4atcjd7","geo_precision":"city","state":"California"},"type":"Feature","geometry":{"type":"Point","coordinates":[-118.240208,33.874815]}},{"properties":{"city":"Fremont","name":"Vinylized","geo_score":0.857,"id":"a65sd4nkhqr4","geo_precision":"city","state":"California"},"type":"Feature","geometry":{"type":"Point","coordinates":[-121.988572,37.54827]}},{"properties":{"city":"Hollywood","name":"California Albums","geo_score":0.857,"id":"a65sd4bpwc0h","geo_precision":"city","state":"California"},"type":"Feature","geometry":{"type":"Point","coordinates":[-118.326743,34.098343]}},{"properties":{"city":"Los Angeles","name":"Mahasa Music","geo_score":0.857,"id":"a65sd4j075tk","geo_precision":"city","state":"California"},"type":"Feature","geometry":{"type":"Point","coordinates":[-118.243685,34.052234]}},{"properties":{"city":"Palm Desert","name":"Record Alley","geo_score":0.757,"id":"a65sd4nh2nwj","geo_precision":"city","state":"California"},"type":"Feature","geometry":{"type":"Point","coordinates":[-120.763269,38.259361]}},{"properties":{"city":"Santa Clarita","name":"SIlverDisc Music","geo_score":0.75,"id":"a65sd4oxnufu","geo_precision":"city","state":"California"},"type":"Feature","geometry":{"type":"Point","coordinates":[-122.168022,37.862148]}},{"properties":{"city":"Walnut Creek","name":"Harold Renny's Online Vinyl Store","geo_score":0.727,"id":"a65sd4kwr441","geo_precision":"city","state":"California"},"type":"Feature","geometry":{"type":"Point","coordinates":[-122.481647,38.517964]}},{"properties":{"city":"Colorado Springs","name":"Back to Vinyl Records","geo_score":0.857,"id":"a65sd4b3tyzu","geo_precision":"city","state":"Colorado"},"type":"Feature","geometry":{"type":"Point","coordinates":[-104.821363,38.833882]}},{"properties":{"city":"Denver","name":"Tiwsh &amp; Shout Records","geo_score":0.857,"id":"a65sd4fbmb4j","geo_precision":"city","state":"Colorado"},"type":"Feature","geometry":{"type":"Point","coordinates":[-104.984703,39.739154]}},{"properties":{"city":"New London","name":"Tlegraph","geo_score":0.667,"id":"a65sd4dr4jlg","geo_precision":"city","state":"Conneticut"},"type":"Feature","geometry":{"type":"Point","coordinates":[-86.050237,32.273198]}},{"properties":{"city":"Hockessin","name":"Yorklyn Records","geo_score":0.857,"id":"a65sd4ape3jk","geo_precision":"city","state":"Delaware"},"type":"Feature","geometry":{"type":"Point","coordinates":[-75.680897,39.635202]}},{"properties":{"city":"Fort Pierce","name":"Warrior Music Plus","geo_score":0.857,"id":"a65sd4kdip2e","geo_precision":"city","state":"Florida"},"type":"Feature","geometry":{"type":"Point","coordinates":[-80.325606,27.446706]}},{"properties":{"city":"Fort Pierce","name":"Warrior Music Plus &amp; Collectables","geo_score":0.857,"id":"a65sd4lv6iob","geo_precision":"city","state":"Florida"},"type":"Feature","geometry":{"type":"Point","coordinates":[-80.325606,27.446706]}},{"properties":{"city":"Gainesville","name":"Wild Bills Disco Hits Inc","geo_score":0.818,"id":"a65sd4qn1lvs","geo_precision":"city","state":"Florida"},"type":"Feature","geometry":{"type":"Point","coordinates":[-85.354651,30.731305]}},{"properties":{"city":"Hollywood","name":"Midnight Records","geo_score":0.857,"id":"a65sd4cyk8dq","geo_precision":"city","state":"Florida"},"type":"Feature","geometry":{"type":"Point","coordinates":[-80.14949,26.011201]}},{"properties":{"city":"Miami","name":"Yesterday and Today Records","geo_score":0.857,"id":"a65sd4hvlwkv","geo_precision":"city","state":"Florida"},"type":"Feature","geometry":{"type":"Point","coordinates":[-80.193659,25.774266]}},{"properties":{"city":"Oldsmar","name":"The Vinyl Record Shop","geo_score":0.857,"id":"a65sd4nlwje0","geo_precision":"city","state":"Florida"},"type":"Feature","geometry":{"type":"Point","coordinates":[-82.677379,28.050324]}},{"properties":{"city":"Orlando","name":"Music and Movies Plus","geo_score":0.857,"id":"a65sd4k74h17","geo_precision":"city","state":"Florida"},"type":"Feature","geometry":{"type":"Point","coordinates":[-81.379237,28.538336]}},{"properties":{"city":"Saint Petersburg","name":"Bananas Music","geo_score":0.857,"id":"a65sd4f9etak","geo_precision":"city","state":"Florida"},"type":"Feature","geometry":{"type":"Point","coordinates":[-82.679266,27.770861]}},{"properties":{"city":"Wesley Chapel","name":"In The Grooce Records","geo_score":0.857,"id":"a65sd4o6poyb","geo_precision":"city","state":"Florida"},"type":"Feature","geometry":{"type":"Point","coordinates":[-82.327866,28.23973]}},{"properties":{"city":"Moscow","name":"Deadbeat Records","geo_score":0.857,"id":"a65sd4g5erpg","geo_precision":"city","state":"Idaho"},"type":"Feature","geometry":{"type":"Point","coordinates":[-116.870147,46.735334]}},{"properties":{"city":"Chicago","name":"KSTARKE Records","geo_score":0.857,"id":"a65sd4ofrsu4","geo_precision":"city","state":"Illinois"},"type":"Feature","geometry":{"type":"Point","coordinates":[-87.650052,41.850033]}},{"properties":{"city":"Evanston","name":"Vintage Vinyl","geo_score":0.857,"id":"a65sd4pu0mpc","geo_precision":"city","state":"Illinois"},"type":"Feature","geometry":{"type":"Point","coordinates":[-87.702155,42.049148]}},{"properties":{"city":"Kingsman","name":"ParkCo Music","geo_score":0.0,"id":"a65sd4honh11","geo_precision":"unmatched","state":"Indiana"},"type":"Feature","geometry":null},{"properties":{"city":"Lafayette","name":"Vinylville, LA 70507","geo_score":0.714,"id":"a65sd4caxe2c","geo_precision":"city","state":"Louisiana"},"type":"Feature","geometry":{"type":"Point","coordinates":[-84.216286,30.427979]}},{"properties":{"city":"New Orleans","name":"Louisiana Music Factory","geo_score":0.857,"id":"a65sd4f5p2p0","geo_precision":"city","state":"Louisiana"},"type":"Feature","geometry":{"type":"Point","coordinates":[-89.930956,30.068812]}},{"properties":{"city":"West Monroe","name":"POPship &amp; Spazz Records","geo_score":0.657,"id":"a65sd4n67qlq","geo_precision":"city","state":"Louisiana"},"type":"Feature","geometry":{"type":"Point","coordinates":[-92.119301,32.509311]}},{"properties":{"city":"Worcester","name":"Joes Bargain Vinyl Records","geo_score":0.714,"id":"a65sd4h0xk9v","geo_precision":"city","state":"Massachusettes"},"type":"Feature","geometry":{"type":"Point","coordinates":[-71.802293,42.262593]}},{"properties":{"city":"Lowell","name":"Garnick's Music","geo_score":0.714,"id":"a65sd4gil1ul","geo_precision":"city","state":"Massachusettes"},"type":"Feature","geometry":{"type":"Point","coordinates":[-109.893685,31.427878]}},{"properties":{"city":"Charlevoix","name":"Boogiebobs Records","geo_score":0.857,"id":"a65sd4eo3r92","geo_precision":"city","state":"Michigan"},"type":"Feature","geometry":{"type":"Point","coordinates":[-85.229723,45.26536]}},{"properties":{"city":"East Lansing","name":"The Record Lounge","geo_score":0.805,"id":"a65sd4cgxmky","geo_precision":"city","state":"Michigan"},"type":"Feature","geometry":{"type":"Point","coordinates":[-84.555535,42.732535]}},{"properties":{"city":"Eastpointe","name":"Melodies And Memories","geo_score":0.857,"id":"a65sd4o4siix","geo_precision":"city","state":"Michigan"},"type":"Feature","geometry":{"type":"Point","coordinates":[-82.944318,42.464986]}},{"properties":{"city":"Richland","name":"Bill Krohn's Boulecard Records","geo_score":0.786,"id":"a65sd4por25a","geo_precision":"city","state":"Michigan"},"type":"Feature","geometry":{"type":"Point","coordinates":[-85.496952,42.40115]}},{"properties":{"city":"Traverse City","name":"RPM RECORSD","geo_score":0.821,"id":"a65sd4h3v1gu","geo_precision":"city","state":"Michigan"},"type":"Feature","geometry":{"type":"Point","coordinates":[-88.234001,47.194369]}},{"properties":{"city":"Minneapolis","name":"WHO SHOT YA RECRODS","geo_score":0.857,"id":"a65sd4of00sy","geo_precision":"city","state":"Minnesota"},"type":"Feature","geometry":{"type":"Point","coordinates":[-93.263836,44.979965]}},{"properties":{"city":"Ocean Springs","name":"Maynard's Music","geo_score":0.738,"id":"a65sd4ndn7wg","geo_precision":"city","state":"Mississippi"},"type":"Feature","geometry":{"type":"Point","coordinates":[-89.663676,30.584635]}},{"properties":{"city":"Kansas City","name":"MOD Gallery &amp; Records","geo_score":0.857,"id":"a65sd4p54l8z","geo_precision":"city","state":"Missouri"},"type":"Feature","geometry":{"type":"Point","coordinates":[-94.598583,39.102404]}},{"properties":{"city":"Mineral Point","name":"Jungle Street Records","geo_score":0.857,"id":"a65sd4myjyzn","geo_precision":"city","state":"Missouri"},"type":"Feature","geometry":{"type":"Point","coordinates":[-90.742423,37.936112]}},{"properties":{"city":"Saint Louis","name":"Apop records","geo_score":0.857,"id":"a65sd4m08mh4","geo_precision":"city","state":"Missouri"},"type":"Feature","geometry":{"type":"Point","coordinates":[-90.197889,38.627273]}},{"properties":{"city":"Lincoln","name":"Backtrack Records","geo_score":0.857,"id":"a65sd4j8bklf","geo_precision":"city","state":"Nebraska"},"type":"Feature","geometry":{"type":"Point","coordinates":[-96.66696,40.800001]}},{"properties":{"city":"Meredith","name":"Fast Hits Music","geo_score":0.857,"id":"a65sd4lhna02","geo_precision":"city","state":"New Hampshire"},"type":"Feature","geometry":{"type":"Point","coordinates":[-71.517479,43.592239]}},{"properties":{"city":"Princeton","name":"Princeton Record Exchange","geo_score":0.806,"id":"a65sd4k31wrz","geo_precision":"city","state":"New Jersey"},"type":"Feature","geometry":{"type":"Point","coordinates":[-74.64795,40.363882]}},{"properties":{"city":"Albany","name":"Last Vestige Music Shop","geo_score":0.857,"id":"a65sd4kxiqlc","geo_precision":"city","state":"New York"},"type":"Feature","geometry":{"type":"Point","coordinates":[-73.756232,42.652579]}},{"properties":{"city":"Corning","name":"Crunge Records","geo_score":0.798,"id":"a65sd4qp0lup","geo_precision":"city","state":"New York"},"type":"Feature","geometry":{"type":"Point","coordinates":[-77.005244,42.120908]}},{"properties":{"city":"Massapequa Park","name":"infinity records","geo_score":0.816,"id":"a65sd4htgvh6","geo_precision":"city","state":"New York"},"type":"Feature","geometry":{"type":"Point","coordinates":[-73.601772,40.754757]}},{"properties":{"city":"Waverly","name":"Broad Street Records","geo_score":0.857,"id":"a65sd4gg4a8g","geo_precision":"city","state":"New York"},"type":"Feature","geometry":{"type":"Point","coordinates":[-76.502218,42.107825]}},{"properties":{"city":"Princeton","name":"Silverball Records","geo_score":0.857,"id":"a65sd4ll6g52","geo_precision":"city","state":"North Carolina"},"type":"Feature","geometry":{"type":"Point","coordinates":[-78.164309,35.471193]}},{"properties":{"city":"Ashtabula","name":"DHUK CD &amp; Vinyl","geo_score":0.857,"id":"a65sd4nuxkpk","geo_precision":"city","state":"Ohio"},"type":"Feature","geometry":{"type":"Point","coordinates":[-80.74349,41.772583]}},{"properties":{"city":"Bowling Green","name":"Finders Records","geo_score":0.738,"id":"a65sd4dbise0","geo_precision":"city","state":"Ohio"},"type":"Feature","geometry":{"type":"Point","coordinates":[-81.895974,40.76339]}},{"properties":{"city":"Cleveland","name":"Music STACK","geo_score":0.857,"id":"a65sd4per8kd","geo_precision":"city","state":"Ohio"},"type":"Feature","geometry":{"type":"Point","coordinates":[-81.695409,41.499495]}},{"properties":{"city":"Columbus","name":"Used Kids Records","geo_score":0.776,"id":"a65sd4mvn331","geo_precision":"city","state":"Ohio"},"type":"Feature","geometry":{"type":"Point","coordinates":[-82.695724,39.998397]}},{"properties":{"city":"Columbus","name":"Elizabeth's Records","geo_score":0.776,"id":"a65sd4f76m20","geo_precision":"city","state":"Ohio"},"type":"Feature","geometry":{"type":"Point","coordinates":[-82.695724,39.998397]}},{"properties":{"city":"Kent","name":"The Vinyl Underground","geo_score":0.755,"id":"a65sd4ly4htx","geo_precision":"city","state":"Ohio"},"type":"Feature","geometry":{"type":"Point","coordinates":[-82.254594,39.411459]}},{"properties":{"city":"Medina","name":"Applecats","geo_score":0.857,"id":"a65sd4g54cvh","geo_precision":"city","state":"Ohio"},"type":"Feature","geometry":{"type":"Point","coordinates":[-81.855048,41.109975]}},{"properties":{"city":"Youngston","name":"Inde Wax Records","geo_score":0.843,"id":"a65sd4paagh1","geo_precision":"city","state":"Ohio"},"type":"Feature","geometry":{"type":"Point","coordinates":[-80.649519,41.09978]}},{"properties":{"city":"Ephrata","name":"ab vinyl records","geo_score":0.633,"id":"a65sd4ohhnsx","geo_precision":"city","state":"Pennsylvania"},"type":"Feature","geometry":{"type":"Point","coordinates":[-122.202079,47.978985]}},{"properties":{"city":"Lancaster","name":"AB records","geo_score":0.762,"id":"a65sd4q9mskq","geo_precision":"city","state":"Pennsylvania"},"type":"Feature","geometry":{"type":"Point","coordinates":[-76.658856,39.960376]}},{"properties":{"city":"Philadelphia","name":"Digital Ferret","geo_score":0.857,"id":"a65sd4hmh15d","geo_precision":"city","state":"Pennsylvania"},"type":"Feature","geometry":{"type":"Point","coordinates":[-75.163789,39.952335]}},{"properties":{"city":"Malvern","name":"Stone Groove Recrds","geo_score":0.857,"id":"a65sd4jfla79","geo_precision":"city","state":"Pennsylvania"},"type":"Feature","geometry":{"type":"Point","coordinates":[-75.713599,40.02951]}},{"properties":{"city":"Lexington","name":"The beaver hut","geo_score":0.857,"id":"a65sd4mz7oed","geo_precision":"city","state":"South Carolina"},"type":"Feature","geometry":{"type":"Point","coordinates":[-81.248345,33.925183]}},{"properties":{"city":"Myrtle Beach","name":"kilgor trouts music &amp; more","geo_score":0.857,"id":"a65sd4fp51sb","geo_precision":"city","state":"South Carolina"},"type":"Feature","geometry":{"type":"Point","coordinates":[-78.852005,33.711741]}},{"properties":{"city":"Antioch","name":"platinum bound records","geo_score":0.857,"id":"a65sd4d1tq7m","geo_precision":"city","state":"Tennessee"},"type":"Feature","geometry":{"type":"Point","coordinates":[-84.217972,35.756467]}},{"properties":{"city":"Hixson","name":"for the record","geo_score":0.857,"id":"a65sd4po8j31","geo_precision":"city","state":"Tennessee"},"type":"Feature","geometry":{"type":"Point","coordinates":[-85.21024,35.166775]}},{"properties":{"city":"Knoxville","name":"wild honey recrods","geo_score":0.794,"id":"a65sd4aql2ho","geo_precision":"city","state":"Tennessee"},"type":"Feature","geometry":{"type":"Point","coordinates":[-86.784443,36.16589]}},{"properties":{"city":"Murfreesboro","name":"digital planet","geo_score":0.857,"id":"a65sd4pzwbci","geo_precision":"city","state":"Tennessee"},"type":"Feature","geometry":{"type":"Point","coordinates":[-86.372158,35.762951]}},{"properties":{"city":"League City","name":"sweet spot audio and more","geo_score":0.743,"id":"a65sd4kzt8ga","geo_precision":"city","state":"Texas"},"type":"Feature","geometry":{"type":"Point","coordinates":[-100.152612,34.717558]}},{"properties":{"city":"Mesquite","name":"groovenet","geo_score":0.857,"id":"a65sd4cznk8h","geo_precision":"city","state":"Texas"},"type":"Feature","geometry":{"type":"Point","coordinates":[-96.599159,32.766796]}},{"properties":{"city":"Paige","name":"negtivity records","geo_score":0.857,"id":"a65sd4htbf9b","geo_precision":"city","state":"Texas"},"type":"Feature","geometry":{"type":"Point","coordinates":[-97.157246,30.210039]}},{"properties":{"city":"San Antonio","name":"mozats madhouse","geo_score":0.857,"id":"a65sd4cjsm76","geo_precision":"city","state":"Texas"},"type":"Feature","geometry":{"type":"Point","coordinates":[-98.493628,29.424122]}},{"properties":{"city":"Marysville","name":"last ngihts records","geo_score":0.857,"id":"a65sd4lhercl","geo_precision":"city","state":"Washington"},"type":"Feature","geometry":{"type":"Point","coordinates":[-122.161951,48.049576]}},{"properties":{"city":"Sumner","name":"northern songs unlimited records","geo_score":0.857,"id":"a65sd4gf1spn","geo_precision":"city","state":"Washington"},"type":"Feature","geometry":{"type":"Point","coordinates":[-122.113223,47.066193]}},{"properties":{"city":"Eau Claire","name":"metrowax records","geo_score":0.619,"id":"a65sd4j6c6yb","geo_precision":"city","state":"Wisconson"},"type":"Feature","geometry":{"type":"Point","coordinates":[-90.45788,35.309809]}},{"properties":{"city":"Watertown","name":"fox music company:audio rarities","geo_score":0.714,"id":"a65sd4igt3tj","geo_precision":"city","state":"Wisconson"},"type":"Feature","geometry":{"type":"Point","coordinates":[-82.614567,30.192454]}}],"is_temporal":false,"author":{"url":"","metadata":"","contact_name":"","contact_address":"","source":"","contact_phone":""},"source":"","pagination":{"sort":null,"start":0,"total":74,"limit":1000000},"state":"complete","tags":"music,records","published":"2014-08-13T01:43:43-04:00","id":183006}