{"type":"FeatureCollection","data_type":"Dataset","url_type":null,"permissions":[{"permissions":{"download":true,"view":true},"group_id":"everyone"}],"classification":null,"title":"Test geocode","count":23,"stream_id":18359,"contributor":{"url":"http://geocommons.com/users/9753","name":"jscrivani"},"data_attributes":null,"calculation_params":null,"icon_link":null,"link":"http://geocommons.com/overlays/18359.json","extent":[-78.5166,38.0243,-78.4633,38.0521],"geometry_types":["point"],"unique_name":null,"name":"Test geocode","feature_count":23,"description":"","next_feature":null,"is_raster":false,"short_classification":"Y","stats":{"geo_score":{"max":1.0,"mean":0.930217391304348,"variance":0.0053617233201581,"stdev":0.0732237893048298,"min":0.78,"median":0.927}},"features":[{"properties":{"city":"Charlottesville","business":"Riverside Grill","zip":"22902","geo_score":1.0,"id":"a6gj6gs4ulvj","geo_precision":"range","address":"1427 Hazel St","state":"VA","oid_":null},"type":"Feature","geometry":{"type":"Point","coordinates":[-78.463301,38.033055]}},{"properties":{"city":"Charlottesville","business":"Vivace","zip":"22903","geo_score":1.0,"id":"a6gj6gw61wd2","geo_precision":"range","address":"2224 Ivy Rd","state":"VA","oid_":null},"type":"Feature","geometry":{"type":"Point","coordinates":[-78.516556,38.045186]}},{"properties":{"city":"Charlottesville","business":"Revolutionary Soup","zip":"22902","geo_score":0.916,"id":"a6gj6gqrzkrr","geo_precision":"range","address":"108 Second St SW","state":"VA","oid_":null},"type":"Feature","geometry":{"type":"Point","coordinates":[-78.482268,38.030981]}},{"properties":{"city":"Charlottesville","business":"Atomic Burrito","zip":"22902","geo_score":0.916,"id":"a6gj6gty6v7z","geo_precision":"range","address":"109 Second St SE","state":"VA","oid_":null},"type":"Feature","geometry":{"type":"Point","coordinates":[-78.480768,38.03048]}},{"properties":{"city":"Charlottesville","business":"Bluegrass Grill,","zip":"22902","geo_score":0.833,"id":"a6gj6gvfkwud","geo_precision":"range","address":"313 Second St","state":"VA","oid_":null},"type":"Feature","geometry":{"type":"Point","coordinates":[-78.480035,38.032148]}},{"properties":{"city":"Charlottesville","business":"C&amp;O","zip":"22902","geo_score":0.927,"id":"a6gj6h19ikkc","geo_precision":"range","address":"515 E Water St","state":"VA","oid_":null},"type":"Feature","geometry":{"type":"Point","coordinates":[-78.478706,38.029012]}},{"properties":{"city":"Charlottesville","business":"Fellini's #9","zip":"22902","geo_score":0.967,"id":"a6gj6gys6hfn","geo_precision":"range","address":"201 W Market St","state":"VA","oid_":null},"type":"Feature","geometry":{"type":"Point","coordinates":[-78.481893,38.031758]}},{"properties":{"city":"Charlottesville","business":"Mas","zip":"22902","geo_score":0.976,"id":"a6gj6h1j5931","geo_precision":"range","address":"501 Monticell Rd","state":"VA","oid_":null},"type":"Feature","geometry":{"type":"Point","coordinates":[-78.474741,38.02426]}},{"properties":{"city":"Charlottesville","business":"Mono Loco","zip":"22902","geo_score":0.927,"id":"a6gj6h14x1rf","geo_precision":"range","address":"200 W Water St","state":"VA","oid_":null},"type":"Feature","geometry":{"type":"Point","coordinates":[-78.48261,38.030288]}},{"properties":{"city":"Charlottesville","business":"OXO","zip":"22902","geo_score":0.927,"id":"a6gj6h1y9ziv","geo_precision":"range","address":"215 W Water St","state":"VA","oid_":null},"type":"Feature","geometry":{"type":"Point","coordinates":[-78.482791,38.030364]}},{"properties":{"city":"Charlottesville","business":"South Street Brewer","zip":"22902","geo_score":0.78,"id":"a6gj6h4fvtmc","geo_precision":"range","address":"106 W South St","state":"VA","oid_":null},"type":"Feature","geometry":{"type":"Point","coordinates":[-78.482217,38.029381]}},{"properties":{"city":"Charlottesville","business":"Take It Away Sandwich Sh","zip":"22903","geo_score":1.0,"id":"a6gj6h5asipb","geo_precision":"range","address":"115 Elliewood Ave","state":"VA","oid_":null},"type":"Feature","geometry":{"type":"Point","coordinates":[-78.500388,38.036205]}},{"properties":{"city":"Charlottesville","business":"St. Maarten Cafe","zip":"22903","geo_score":1.0,"id":"a6gj6gu0vys2","geo_precision":"range","address":"1400 Wertland St","state":"VA","oid_":null},"type":"Feature","geometry":{"type":"Point","coordinates":[-78.499237,38.034735]}},{"properties":{"city":"Charlottesville","business":"Bodo's Bagel Bakery","zip":"22902","geo_score":0.837,"id":"a6gj6gvtt0p0","geo_precision":"street","address":"404 Preston Ave","state":"VA","oid_":null},"type":"Feature","geometry":{"type":"Point","coordinates":[-78.483584,38.033252]}},{"properties":{"city":"Charlottesville","business":"Wayside Ol' Virginia Fried Chicken","zip":"22903","geo_score":1.0,"id":"a6gj6gxao1kp","geo_precision":"range","address":"2203 Jefferson Park Ave","state":"VA","oid_":null},"type":"Feature","geometry":{"type":"Point","coordinates":[-78.514977,38.025093]}},{"properties":{"city":"Charlottesville","business":"White Spot","zip":"22903","geo_score":1.0,"id":"a6gj6gyrkk74","geo_precision":"range","address":"1407 University Ave","state":"VA","oid_":null},"type":"Feature","geometry":{"type":"Point","coordinates":[-78.500078,38.034293]}},{"properties":{"city":"Charlottesville","business":"Horse &amp; Hound GastroPub","zip":"22903","geo_score":1.0,"id":"a6gj6gqk18aa","geo_precision":"range","address":"625 West Main St","state":"VA","oid_":null},"type":"Feature","geometry":{"type":"Point","coordinates":[-78.488619,38.031164]}},{"properties":{"city":"Charlottesville","business":"Five Guys Burgers","zip":"22903","geo_score":0.841,"id":"a6gj6gwmzjvg","geo_precision":"range","address":"1119 Emmet St","state":"VA","oid_":null},"type":"Feature","geometry":{"type":"Point","coordinates":[-78.499976,38.05182]}},{"properties":{"city":"Charlottesville","business":"Wild Wing Cafe","zip":"22903","geo_score":1.0,"id":"a6gj6h3pgb45","geo_precision":"range","address":"820 W Main St","state":"VA","oid_":null},"type":"Feature","geometry":{"type":"Point","coordinates":[-78.49127,38.031836]}},{"properties":{"city":"Charlottesville","business":"El Puerto","zip":"22903","geo_score":0.878,"id":"a6gj6h57m7dy","geo_precision":"range","address":"2045 Barracks Rd","state":"VA","oid_":null},"type":"Feature","geometry":{"type":"Point","coordinates":[-78.498438,38.052087]}},{"properties":{"city":"Charlottesville","business":"Mesob Ethiopian Cuisine","zip":"22903","geo_score":0.854,"id":"a6gj6gpubfka","geo_precision":"range","address":"104 14th St","state":"VA","oid_":null},"type":"Feature","geometry":{"type":"Point","coordinates":[-78.499613,38.034065]}},{"properties":{"city":"Charlottesville","business":"Tokyo Rose","zip":"22903","geo_score":0.816,"id":"a6gj6gssrerh","geo_precision":"street","address":"2171 Ivy Rd.,","state":"VA","oid_":null},"type":"Feature","geometry":{"type":"Point","coordinates":[-78.512857,38.043389]}},{"properties":{"city":"Charlottesville","business":"Belmont Bar-B-Que","zip":"22902","geo_score":1.0,"id":"a6gj6gut9lrc","geo_precision":"range","address":"816 Hinton Ave","state":"VA","oid_":null},"type":"Feature","geometry":{"type":"Point","coordinates":[-78.476282,38.02506]}}],"is_temporal":false,"author":{"url":"","metadata":"","contact_name":"","contact_address":"","source":"","contact_phone":""},"source":"","pagination":{"sort":null,"start":0,"total":23,"limit":1000000},"state":"complete","tags":"","published":"2014-08-11T00:07:28-04:00","id":18359}