{"type":"FeatureCollection","data_type":"Dataset","url_type":null,"permissions":[{"permissions":{"download":true,"view":true},"group_id":"everyone"}],"classification":null,"title":"student lat/long","count":484,"stream_id":18363,"contributor":{"url":"http://geocommons.com/users/9800","name":"tempalte"},"data_attributes":null,"calculation_params":null,"icon_link":null,"link":"http://geocommons.com/overlays/18363.json","extent":[-94.6,38.97,-94.46,39.11],"geometry_types":["point"],"unique_name":null,"name":"student lat/long","feature_count":484,"description":"","next_feature":null,"is_raster":false,"short_classification":"Y","stats":{"latitude":{"max":39.11,"mean":39.019938016529,"variance":0.00173519283746563,"stdev":0.0416556459254401,"min":38.97,"median":39.01},"longitude":{"max":-94.46,"mean":-94.5748347107442,"variance":0.000574506784388197,"stdev":0.0239688711538152,"min":-94.6,"median":-94.58}},"features":[{"properties":{"city":"Kansas City","latitude":39.1,"zip":"64106","country":"United States","longitude":-94.57,"id":"a6dup1613o8v","state":"MO"},"type":"Feature","geometry":{"type":"Point","coordinates":[-94.57,39.1]}},{"properties":{"city":"Kansas City","latitude":39.1,"zip":"64106","country":"United States","longitude":-94.57,"id":"a6dup1awd73l","state":"MO"},"type":"Feature","geometry":{"type":"Point","coordinates":[-94.57,39.1]}},{"properties":{"city":"Kansas City","latitude":39.1,"zip":"64106","country":"United States","longitude":-94.57,"id":"a6dup1e3iwcb","state":"MO"},"type":"Feature","geometry":{"type":"Point","coordinates":[-94.57,39.1]}},{"properties":{"city":"Kansas City","latitude":39.1,"zip":"64106","country":"United States","longitude":-94.57,"id":"a6dup123r1wi","state":"MO"},"type":"Feature","geometry":{"type":"Point","coordinates":[-94.57,39.1]}},{"properties":{"city":"Kansas City","latitude":39.1,"zip":"64106","country":"United States","longitude":-94.57,"id":"a6dup15td6n5","state":"MO"},"type":"Feature","geometry":{"type":"Point","coordinates":[-94.57,39.1]}},{"properties":{"city":"Kansas City","latitude":39.1,"zip":"64106","country":"United States","longitude":-94.57,"id":"a6dup13x25fa","state":"MO"},"type":"Feature","geometry":{"type":"Point","coordinates":[-94.57,39.1]}},{"properties":{"city":"Kansas City","latitude":39.1,"zip":"64106","country":"United States","longitude":-94.57,"id":"a6dup12mp7tn","state":"MO"},"type":"Feature","geometry":{"type":"Point","coordinates":[-94.57,39.1]}},{"properties":{"city":"Kansas City","latitude":39.1,"zip":"64106","country":"United States","longitude":-94.57,"id":"a6dup10biwof","state":"MO"},"type":"Feature","geometry":{"type":"Point","coordinates":[-94.57,39.1]}},{"properties":{"city":"Kansas City","latitude":39.1,"zip":"64106","country":"United States","longitude":-94.57,"id":"a6dup1f4zbih","state":"MO"},"type":"Feature","geometry":{"type":"Point","coordinates":[-94.57,39.1]}},{"properties":{"city":"Kansas City","latitude":39.1,"zip":"64106","country":"United States","longitude":-94.57,"id":"a6dup1759gj3","state":"MO"},"type":"Feature","geometry":{"type":"Point","coordinates":[-94.57,39.1]}},{"properties":{"city":"Kansas City","latitude":39.1,"zip":"64106","country":"United States","longitude":-94.57,"id":"a6dup17ot0jn","state":"MO"},"type":"Feature","geometry":{"type":"Point","coordinates":[-94.57,39.1]}},{"properties":{"city":"Kansas City","latitude":39.08,"zip":"64108","country":"United States","longitude":-94.58,"id":"a6dup135fyuy","state":"MO"},"type":"Feature","geometry":{"type":"Point","coordinates":[-94.58,39.08]}},{"properties":{"city":"Kansas City","latitude":39.08,"zip":"64108","country":"United States","longitude":-94.58,"id":"a6dup1dbiyee","state":"MO"},"type":"Feature","geometry":{"type":"Point","coordinates":[-94.58,39.08]}},{"properties":{"city":"Kansas City","latitude":39.08,"zip":"64108","country":"United States","longitude":-94.58,"id":"a6dup1bjzd9z","state":"MO"},"type":"Feature","geometry":{"type":"Point","coordinates":[-94.58,39.08]}},{"properties":{"city":"Kansas City","latitude":39.08,"zip":"64108","country":"United States","longitude":-94.58,"id":"a6dup197d565","state":"MO"},"type":"Feature","geometry":{"type":"Point","coordinates":[-94.58,39.08]}},{"properties":{"city":"Kansas City","latitude":39.08,"zip":"64108","country":"United States","longitude":-94.58,"id":"a6dup19t643u","state":"MO"},"type":"Feature","geometry":{"type":"Point","coordinates":[-94.58,39.08]}},{"properties":{"city":"Kansas City","latitude":39.08,"zip":"64108","country":"United States","longitude":-94.58,"id":"a6dup16u5tuq","state":"MO"},"type":"Feature","geometry":{"type":"Point","coordinates":[-94.58,39.08]}},{"properties":{"city":"Kansas City","latitude":39.08,"zip":"64108","country":"United States","longitude":-94.58,"id":"a6dup1e4q7qp","state":"MO"},"type":"Feature","geometry":{"type":"Point","coordinates":[-94.58,39.08]}},{"properties":{"city":"Kansas City","latitude":39.08,"zip":"64108","country":"United States","longitude":-94.58,"id":"a6dup1dw3ucg","state":"MO"},"type":"Feature","geometry":{"type":"Point","coordinates":[-94.58,39.08]}},{"properties":{"city":"Kansas City","latitude":39.08,"zip":"64108","country":"United States","longitude":-94.58,"id":"a6dup1c36eul","state":"MO"},"type":"Feature","geometry":{"type":"Point","coordinates":[-94.58,39.08]}},{"properties":{"city":"Kansas City","latitude":39.08,"zip":"64108","country":"United States","longitude":-94.58,"id":"a6dup1395y11","state":"MO"},"type":"Feature","geometry":{"type":"Point","coordinates":[-94.58,39.08]}},{"properties":{"city":"Kansas City","latitude":39.08,"zip":"64108","country":"United States","longitude":-94.58,"id":"a6dup16cu8zq","state":"MO"},"type":"Feature","geometry":{"type":"Point","coordinates":[-94.58,39.08]}},{"properties":{"city":"Kansas City","latitude":39.08,"zip":"64108","country":"United States","longitude":-94.58,"id":"a6dup16tsy0g","state":"MO"},"type":"Feature","geometry":{"type":"Point","coordinates":[-94.58,39.08]}},{"properties":{"city":"Kansas City","latitude":39.07,"zip":"64109","country":"United States","longitude":-94.57,"id":"a6dup16yh9xj","state":"MO"},"type":"Feature","geometry":{"type":"Point","coordinates":[-94.57,39.07]}},{"properties":{"city":"Kansas City","latitude":39.07,"zip":"64109","country":"United States","longitude":-94.57,"id":"a6dup193tocn","state":"MO"},"type":"Feature","geometry":{"type":"Point","coordinates":[-94.57,39.07]}},{"properties":{"city":"Kansas City","latitude":39.07,"zip":"64109","country":"United States","longitude":-94.57,"id":"a6dup1dutcft","state":"MO"},"type":"Feature","geometry":{"type":"Point","coordinates":[-94.57,39.07]}},{"properties":{"city":"Kansas City","latitude":39.07,"zip":"64109","country":"United States","longitude":-94.57,"id":"a6dup132ms5b","state":"MO"},"type":"Feature","geometry":{"type":"Point","coordinates":[-94.57,39.07]}},{"properties":{"city":"Kansas City","latitude":39.07,"zip":"64109","country":"United States","longitude":-94.57,"id":"a6dup1bazd2s","state":"MO"},"type":"Feature","geometry":{"type":"Point","coordinates":[-94.57,39.07]}},{"properties":{"city":"Kansas City","latitude":39.07,"zip":"64109","country":"United States","longitude":-94.57,"id":"a6dup12bypo6","state":"MO"},"type":"Feature","geometry":{"type":"Point","coordinates":[-94.57,39.07]}},{"properties":{"city":"Kansas City","latitude":39.07,"zip":"64109","country":"United States","longitude":-94.57,"id":"a6dup1ahfxoe","state":"MO"},"type":"Feature","geometry":{"type":"Point","coordinates":[-94.57,39.07]}},{"properties":{"city":"Kansas City","latitude":39.07,"zip":"64109","country":"United States","longitude":-94.57,"id":"a6dup0z5x9x7","state":"MO"},"type":"Feature","geometry":{"type":"Point","coordinates":[-94.57,39.07]}},{"properties":{"city":"Kansas City","latitude":39.07,"zip":"64109","country":"United States","longitude":-94.57,"id":"a6dup1cy8j37","state":"MO"},"type":"Feature","geometry":{"type":"Point","coordinates":[-94.57,39.07]}},{"properties":{"city":"Kansas City","latitude":39.07,"zip":"64109","country":"United States","longitude":-94.57,"id":"a6dup1dxj21e","state":"MO"},"type":"Feature","geometry":{"type":"Point","coordinates":[-94.57,39.07]}},{"properties":{"city":"Kansas City","latitude":39.07,"zip":"64109","country":"United States","longitude":-94.57,"id":"a6dup19lge9b","state":"MO"},"type":"Feature","geometry":{"type":"Point","coordinates":[-94.57,39.07]}},{"properties":{"city":"Kansas City","latitude":39.07,"zip":"64109","country":"United States","longitude":-94.57,"id":"a6dup18eex75","state":"MO"},"type":"Feature","geometry":{"type":"Point","coordinates":[-94.57,39.07]}},{"properties":{"city":"Kansas City","latitude":39.07,"zip":"64109","country":"United States","longitude":-94.57,"id":"a6dup1b1auct","state":"MO"},"type":"Feature","geometry":{"type":"Point","coordinates":[-94.57,39.07]}},{"properties":{"city":"Kansas City","latitude":39.07,"zip":"64109","country":"United States","longitude":-94.57,"id":"a6dup17xb2et","state":"MO"},"type":"Feature","geometry":{"type":"Point","coordinates":[-94.57,39.07]}},{"properties":{"city":"Kansas City","latitude":39.07,"zip":"64109","country":"United States","longitude":-94.57,"id":"a6dup1cvwmdb","state":"MO"},"type":"Feature","geometry":{"type":"Point","coordinates":[-94.57,39.07]}},{"properties":{"city":"Kansas City","latitude":39.07,"zip":"64109","country":"United States","longitude":-94.57,"id":"a6dup14icygn","state":"MO"},"type":"Feature","geometry":{"type":"Point","coordinates":[-94.57,39.07]}},{"properties":{"city":"Kansas City","latitude":39.07,"zip":"64109","country":"United States","longitude":-94.57,"id":"a6dup15os3jb","state":"MO"},"type":"Feature","geometry":{"type":"Point","coordinates":[-94.57,39.07]}},{"properties":{"city":"Kansas City","latitude":39.07,"zip":"64109","country":"United States","longitude":-94.57,"id":"a6dup13d5ido","state":"MO"},"type":"Feature","geometry":{"type":"Point","coordinates":[-94.57,39.07]}},{"properties":{"city":"Kansas City","latitude":39.07,"zip":"64109","country":"United States","longitude":-94.57,"id":"a6dup1f3b7n8","state":"MO"},"type":"Feature","geometry":{"type":"Point","coordinates":[-94.57,39.07]}},{"properties":{"city":"Kansas City","latitude":39.07,"zip":"64109","country":"United States","longitude":-94.57,"id":"a6dup14gdtep","state":"MO"},"type":"Feature","geometry":{"type":"Point","coordinates":[-94.57,39.07]}},{"properties":{"city":"Kansas City","latitude":39.07,"zip":"64109","country":"United States","longitude":-94.57,"id":"a6dup16lti7k","state":"MO"},"type":"Feature","geometry":{"type":"Point","coordinates":[-94.57,39.07]}},{"properties":{"city":"Kansas City","latitude":39.07,"zip":"64109","country":"United States","longitude":-94.57,"id":"a6dup148x6md","state":"MO"},"type":"Feature","geometry":{"type":"Point","coordinates":[-94.57,39.07]}},{"properties":{"city":"Kansas City","latitude":39.07,"zip":"64109","country":"United States","longitude":-94.57,"id":"a6dup17p5z9t","state":"MO"},"type":"Feature","geometry":{"type":"Point","coordinates":[-94.57,39.07]}},{"properties":{"city":"Kansas City","latitude":39.07,"zip":"64109","country":"United States","longitude":-94.57,"id":"a6dup1c8v616","state":"MO"},"type":"Feature","geometry":{"type":"Point","coordinates":[-94.57,39.07]}},{"properties":{"city":"Kansas City","latitude":39.07,"zip":"64109","country":"United States","longitude":-94.57,"id":"a6dup166n0l3","state":"MO"},"type":"Feature","geometry":{"type":"Point","coordinates":[-94.57,39.07]}},{"properties":{"city":"Kansas City","latitude":39.07,"zip":"64109","country":"United States","longitude":-94.57,"id":"a6dup1bs1ev8","state":"MO"},"type":"Feature","geometry":{"type":"Point","coordinates":[-94.57,39.07]}},{"properties":{"city":"Kansas City","latitude":39.07,"zip":"64109","country":"United States","longitude":-94.57,"id":"a6dup1btdwe9","state":"MO"},"type":"Feature","geometry":{"type":"Point","coordinates":[-94.57,39.07]}},{"properties":{"city":"Kansas City","latitude":39.07,"zip":"64109","country":"United States","longitude":-94.57,"id":"a6dup19hqadz","state":"MO"},"type":"Feature","geometry":{"type":"Point","coordinates":[-94.57,39.07]}},{"properties":{"city":"Kansas City","latitude":39.03,"zip":"64110","country":"United States","longitude":-94.57,"id":"a6dup1e59xr2","state":"MO"},"type":"Feature","geometry":{"type":"Point","coordinates":[-94.57,39.03]}},{"properties":{"city":"Kansas City","latitude":39.03,"zip":"64110","country":"United States","longitude":-94.57,"id":"a6dup18nh8yq","state":"MO"},"type":"Feature","geometry":{"type":"Point","coordinates":[-94.57,39.03]}},{"properties":{"city":"Kansas City","latitude":39.03,"zip":"64110","country":"United States","longitude":-94.57,"id":"a6dup10fxwph","state":"MO"},"type":"Feature","geometry":{"type":"Point","coordinates":[-94.57,39.03]}},{"properties":{"city":"Kansas City","latitude":39.03,"zip":"64110","country":"United States","longitude":-94.57,"id":"a6dup1bjexg1","state":"MO"},"type":"Feature","geometry":{"type":"Point","coordinates":[-94.57,39.03]}},{"properties":{"city":"Kansas City","latitude":39.03,"zip":"64110","country":"United States","longitude":-94.57,"id":"a6dup15ebu4s","state":"MO"},"type":"Feature","geometry":{"type":"Point","coordinates":[-94.57,39.03]}},{"properties":{"city":"Kansas City","latitude":39.03,"zip":"64110","country":"United States","longitude":-94.57,"id":"a6dup12s0ju6","state":"MO"},"type":"Feature","geometry":{"type":"Point","coordinates":[-94.57,39.03]}},{"properties":{"city":"Kansas City","latitude":39.03,"zip":"64110","country":"United States","longitude":-94.57,"id":"a6dup1do2wtx","state":"MO"},"type":"Feature","geometry":{"type":"Point","coordinates":[-94.57,39.03]}},{"properties":{"city":"Kansas City","latitude":39.03,"zip":"64110","country":"United States","longitude":-94.57,"id":"a6dup16c3b7p","state":"MO"},"type":"Feature","geometry":{"type":"Point","coordinates":[-94.57,39.03]}},{"properties":{"city":"Kansas City","latitude":39.03,"zip":"64110","country":"United States","longitude":-94.57,"id":"a6dup18pggxj","state":"MO"},"type":"Feature","geometry":{"type":"Point","coordinates":[-94.57,39.03]}},{"properties":{"city":"Kansas City","latitude":39.03,"zip":"64110","country":"United States","longitude":-94.57,"id":"a6dup1bdurty","state":"MO"},"type":"Feature","geometry":{"type":"Point","coordinates":[-94.57,39.03]}},{"properties":{"city":"Kansas City","latitude":39.03,"zip":"64110","country":"United States","longitude":-94.57,"id":"a6dup1624dzw","state":"MO"},"type":"Feature","geometry":{"type":"Point","coordinates":[-94.57,39.03]}},{"properties":{"city":"Kansas City","latitude":39.03,"zip":"64110","country":"United States","longitude":-94.57,"id":"a6dup1bt2tll","state":"MO"},"type":"Feature","geometry":{"type":"Point","coordinates":[-94.57,39.03]}},{"properties":{"city":"Kansas City","latitude":39.03,"zip":"64110","country":"United States","longitude":-94.57,"id":"a6dup1cm6pzx","state":"MO"},"type":"Feature","geometry":{"type":"Point","coordinates":[-94.57,39.03]}},{"properties":{"city":"Kansas City","latitude":39.03,"zip":"64110","country":"United States","longitude":-94.57,"id":"a6dup17akyyj","state":"MO"},"type":"Feature","geometry":{"type":"Point","coordinates":[-94.57,39.03]}},{"properties":{"city":"Kansas City","latitude":39.03,"zip":"64110","country":"United States","longitude":-94.57,"id":"a6dup106wq2r","state":"MO"},"type":"Feature","geometry":{"type":"Point","coordinates":[-94.57,39.03]}},{"properties":{"city":"Kansas City","latitude":39.03,"zip":"64110","country":"United States","longitude":-94.57,"id":"a6dup1f6ir30","state":"MO"},"type":"Feature","geometry":{"type":"Point","coordinates":[-94.57,39.03]}},{"properties":{"city":"Kansas City","latitude":39.03,"zip":"64110","country":"United States","longitude":-94.57,"id":"a6dup11j0o29","state":"MO"},"type":"Feature","geometry":{"type":"Point","coordinates":[-94.57,39.03]}},{"properties":{"city":"Kansas City","latitude":39.03,"zip":"64110","country":"United States","longitude":-94.57,"id":"a6dup1d10ckq","state":"MO"},"type":"Feature","geometry":{"type":"Point","coordinates":[-94.57,39.03]}},{"properties":{"city":"Kansas City","latitude":39.03,"zip":"64110","country":"United States","longitude":-94.57,"id":"a6dup12i9vfj","state":"MO"},"type":"Feature","geometry":{"type":"Point","coordinates":[-94.57,39.03]}},{"properties":{"city":"Kansas City","latitude":39.03,"zip":"64110","country":"United States","longitude":-94.57,"id":"a6dup11l99i8","state":"MO"},"type":"Feature","geometry":{"type":"Point","coordinates":[-94.57,39.03]}},{"properties":{"city":"Kansas City","latitude":39.03,"zip":"64110","country":"United States","longitude":-94.57,"id":"a6dup1aocbyd","state":"MO"},"type":"Feature","geometry":{"type":"Point","coordinates":[-94.57,39.03]}},{"properties":{"city":"Kansas City","latitude":39.03,"zip":"64110","country":"United States","longitude":-94.57,"id":"a6dup13qp5dx","state":"MO"},"type":"Feature","geometry":{"type":"Point","coordinates":[-94.57,39.03]}},{"properties":{"city":"Kansas City","latitude":39.03,"zip":"64110","country":"United States","longitude":-94.57,"id":"a6dup197p2z4","state":"MO"},"type":"Feature","geometry":{"type":"Point","coordinates":[-94.57,39.03]}},{"properties":{"city":"Kansas City","latitude":39.03,"zip":"64110","country":"United States","longitude":-94.57,"id":"a6dup1bijc5d","state":"MO"},"type":"Feature","geometry":{"type":"Point","coordinates":[-94.57,39.03]}},{"properties":{"city":"Kansas City","latitude":39.03,"zip":"64110","country":"United States","longitude":-94.57,"id":"a6dup1c7eue3","state":"MO"},"type":"Feature","geometry":{"type":"Point","coordinates":[-94.57,39.03]}},{"properties":{"city":"Kansas City","latitude":39.03,"zip":"64110","country":"United States","longitude":-94.57,"id":"a6dup1a8p8xn","state":"MO"},"type":"Feature","geometry":{"type":"Point","coordinates":[-94.57,39.03]}},{"properties":{"city":"Kansas City","latitude":39.03,"zip":"64110","country":"United States","longitude":-94.57,"id":"a6dup1bnncpe","state":"MO"},"type":"Feature","geometry":{"type":"Point","coordinates":[-94.57,39.03]}},{"properties":{"city":"Kansas City","latitude":39.03,"zip":"64110","country":"United States","longitude":-94.57,"id":"a6dup1axh816","state":"MO"},"type":"Feature","geometry":{"type":"Point","coordinates":[-94.57,39.03]}},{"properties":{"city":"Kansas City","latitude":39.03,"zip":"64110","country":"United States","longitude":-94.57,"id":"a6dup10j53gm","state":"MO"},"type":"Feature","geometry":{"type":"Point","coordinates":[-94.57,39.03]}},{"properties":{"city":"Kansas City","latitude":39.03,"zip":"64110","country":"United States","longitude":-94.57,"id":"a6dup1d6cr83","state":"MO"},"type":"Feature","geometry":{"type":"Point","coordinates":[-94.57,39.03]}},{"properties":{"city":"Kansas City","latitude":39.03,"zip":"64110","country":"United States","longitude":-94.57,"id":"a6dup0z5s50c","state":"MO"},"type":"Feature","geometry":{"type":"Point","coordinates":[-94.57,39.03]}},{"properties":{"city":"Kansas City","latitude":39.03,"zip":"64110","country":"United States","longitude":-94.57,"id":"a6dup10wdq2j","state":"MO"},"type":"Feature","geometry":{"type":"Point","coordinates":[-94.57,39.03]}},{"properties":{"city":"Kansas City","latitude":39.03,"zip":"64110","country":"United States","longitude":-94.57,"id":"a6dup14wshv5","state":"MO"},"type":"Feature","geometry":{"type":"Point","coordinates":[-94.57,39.03]}},{"properties":{"city":"Kansas City","latitude":39.03,"zip":"64110","country":"United States","longitude":-94.57,"id":"a6dup14l57cw","state":"MO"},"type":"Feature","geometry":{"type":"Point","coordinates":[-94.57,39.03]}},{"properties":{"city":"Kansas City","latitude":39.03,"zip":"64110","country":"United States","longitude":-94.57,"id":"a6dup13cemv0","state":"MO"},"type":"Feature","geometry":{"type":"Point","coordinates":[-94.57,39.03]}},{"properties":{"city":"Kansas City","latitude":39.03,"zip":"64110","country":"United States","longitude":-94.57,"id":"a6dup1aj2xrm","state":"MO"},"type":"Feature","geometry":{"type":"Point","coordinates":[-94.57,39.03]}},{"properties":{"city":"Kansas City","latitude":39.03,"zip":"64110","country":"United States","longitude":-94.57,"id":"a6dup130095n","state":"MO"},"type":"Feature","geometry":{"type":"Point","coordinates":[-94.57,39.03]}},{"properties":{"city":"Kansas City","latitude":39.03,"zip":"64110","country":"United States","longitude":-94.57,"id":"a6dup10k7o5l","state":"MO"},"type":"Feature","geometry":{"type":"Point","coordinates":[-94.57,39.03]}},{"properties":{"city":"Kansas City","latitude":39.03,"zip":"64110","country":"United States","longitude":-94.57,"id":"a6dup12auofz","state":"MO"},"type":"Feature","geometry":{"type":"Point","coordinates":[-94.57,39.03]}},{"properties":{"city":"Kansas City","latitude":39.03,"zip":"64110","country":"United States","longitude":-94.57,"id":"a6dup1ayt4ok","state":"MO"},"type":"Feature","geometry":{"type":"Point","coordinates":[-94.57,39.03]}},{"properties":{"city":"Kansas City","latitude":39.03,"zip":"64110","country":"United States","longitude":-94.57,"id":"a6dup1352eq8","state":"MO"},"type":"Feature","geometry":{"type":"Point","coordinates":[-94.57,39.03]}},{"properties":{"city":"Kansas City","latitude":39.03,"zip":"64110","country":"United States","longitude":-94.57,"id":"a6dup12bl70q","state":"MO"},"type":"Feature","geometry":{"type":"Point","coordinates":[-94.57,39.03]}},{"properties":{"city":"Kansas City","latitude":39.03,"zip":"64110","country":"United States","longitude":-94.57,"id":"a6dup0zso96r","state":"MO"},"type":"Feature","geometry":{"type":"Point","coordinates":[-94.57,39.03]}},{"properties":{"city":"Kansas City","latitude":39.03,"zip":"64110","country":"United States","longitude":-94.57,"id":"a6dup0zbnoaj","state":"MO"},"type":"Feature","geometry":{"type":"Point","coordinates":[-94.57,39.03]}},{"properties":{"city":"Kansas City","latitude":39.03,"zip":"64110","country":"United States","longitude":-94.57,"id":"a6dup19uxjju","state":"MO"},"type":"Feature","geometry":{"type":"Point","coordinates":[-94.57,39.03]}},{"properties":{"city":"Kansas City","latitude":39.03,"zip":"64110","country":"United States","longitude":-94.57,"id":"a6dup1a8tmlm","state":"MO"},"type":"Feature","geometry":{"type":"Point","coordinates":[-94.57,39.03]}},{"properties":{"city":"Kansas City","latitude":39.03,"zip":"64110","country":"United States","longitude":-94.57,"id":"a6dup15wzha0","state":"MO"},"type":"Feature","geometry":{"type":"Point","coordinates":[-94.57,39.03]}},{"properties":{"city":"Kansas City","latitude":39.03,"zip":"64110","country":"United States","longitude":-94.57,"id":"a6dup109syim","state":"MO"},"type":"Feature","geometry":{"type":"Point","coordinates":[-94.57,39.03]}},{"properties":{"city":"Kansas City","latitude":39.03,"zip":"64110","country":"United States","longitude":-94.57,"id":"a6dup11b5xhf","state":"MO"},"type":"Feature","geometry":{"type":"Point","coordinates":[-94.57,39.03]}},{"properties":{"city":"Kansas City","latitude":39.03,"zip":"64110","country":"United States","longitude":-94.57,"id":"a6dup19vti9b","state":"MO"},"type":"Feature","geometry":{"type":"Point","coordinates":[-94.57,39.03]}},{"properties":{"city":"Kansas City","latitude":39.03,"zip":"64110","country":"United States","longitude":-94.57,"id":"a6dup18mpiqt","state":"MO"},"type":"Feature","geometry":{"type":"Point","coordinates":[-94.57,39.03]}},{"properties":{"city":"Kansas City","latitude":39.03,"zip":"64110","country":"United States","longitude":-94.57,"id":"a6dup19npkp5","state":"MO"},"type":"Feature","geometry":{"type":"Point","coordinates":[-94.57,39.03]}},{"properties":{"city":"Kansas City","latitude":39.03,"zip":"64110","country":"United States","longitude":-94.57,"id":"a6dup13jzbnh","state":"MO"},"type":"Feature","geometry":{"type":"Point","coordinates":[-94.57,39.03]}},{"properties":{"city":"Kansas City","latitude":39.03,"zip":"64110","country":"United States","longitude":-94.57,"id":"a6dup19folzt","state":"MO"},"type":"Feature","geometry":{"type":"Point","coordinates":[-94.57,39.03]}},{"properties":{"city":"Kansas City","latitude":39.03,"zip":"64110","country":"United States","longitude":-94.57,"id":"a6dup1841cit","state":"MO"},"type":"Feature","geometry":{"type":"Point","coordinates":[-94.57,39.03]}},{"properties":{"city":"Kansas City","latitude":39.03,"zip":"64110","country":"United States","longitude":-94.57,"id":"a6dup1domva6","state":"MO"},"type":"Feature","geometry":{"type":"Point","coordinates":[-94.57,39.03]}},{"properties":{"city":"Kansas City","latitude":39.03,"zip":"64110","country":"United States","longitude":-94.57,"id":"a6dup154g19m","state":"MO"},"type":"Feature","geometry":{"type":"Point","coordinates":[-94.57,39.03]}},{"properties":{"city":"Kansas City","latitude":39.03,"zip":"64110","country":"United States","longitude":-94.57,"id":"a6dup1c89xy3","state":"MO"},"type":"Feature","geometry":{"type":"Point","coordinates":[-94.57,39.03]}},{"properties":{"city":"Kansas City","latitude":39.03,"zip":"64110","country":"United States","longitude":-94.57,"id":"a6dup1a5mqod","state":"MO"},"type":"Feature","geometry":{"type":"Point","coordinates":[-94.57,39.03]}},{"properties":{"city":"Kansas City","latitude":39.03,"zip":"64110","country":"United States","longitude":-94.57,"id":"a6dup1cxj8u7","state":"MO"},"type":"Feature","geometry":{"type":"Point","coordinates":[-94.57,39.03]}},{"properties":{"city":"Kansas City","latitude":39.06,"zip":"64111","country":"United States","longitude":-94.59,"id":"a6dup11lxkt1","state":"MO"},"type":"Feature","geometry":{"type":"Point","coordinates":[-94.59,39.06]}},{"properties":{"city":"Kansas City","latitude":39.06,"zip":"64111","country":"United States","longitude":-94.59,"id":"a6dup1bs1cig","state":"MO"},"type":"Feature","geometry":{"type":"Point","coordinates":[-94.59,39.06]}},{"properties":{"city":"Kansas City","latitude":39.06,"zip":"64111","country":"United States","longitude":-94.59,"id":"a6dup12fe3z6","state":"MO"},"type":"Feature","geometry":{"type":"Point","coordinates":[-94.59,39.06]}},{"properties":{"city":"Kansas City","latitude":39.06,"zip":"64111","country":"United States","longitude":-94.59,"id":"a6dup17hbund","state":"MO"},"type":"Feature","geometry":{"type":"Point","coordinates":[-94.59,39.06]}},{"properties":{"city":"Kansas City","latitude":39.06,"zip":"64111","country":"United States","longitude":-94.59,"id":"a6dup0z8al1h","state":"MO"},"type":"Feature","geometry":{"type":"Point","coordinates":[-94.59,39.06]}},{"properties":{"city":"Kansas City","latitude":39.06,"zip":"64111","country":"United States","longitude":-94.59,"id":"a6dup1ahbutg","state":"MO"},"type":"Feature","geometry":{"type":"Point","coordinates":[-94.59,39.06]}},{"properties":{"city":"Kansas City","latitude":39.06,"zip":"64111","country":"United States","longitude":-94.59,"id":"a6dup101eifi","state":"MO"},"type":"Feature","geometry":{"type":"Point","coordinates":[-94.59,39.06]}},{"properties":{"city":"Kansas City","latitude":39.06,"zip":"64111","country":"United States","longitude":-94.59,"id":"a6dup1bu6r2a","state":"MO"},"type":"Feature","geometry":{"type":"Point","coordinates":[-94.59,39.06]}},{"properties":{"city":"Kansas City","latitude":39.06,"zip":"64111","country":"United States","longitude":-94.59,"id":"a6dup1a0fquy","state":"MO"},"type":"Feature","geometry":{"type":"Point","coordinates":[-94.59,39.06]}},{"properties":{"city":"Kansas City","latitude":39.06,"zip":"64111","country":"United States","longitude":-94.59,"id":"a6dup189ea1a","state":"MO"},"type":"Feature","geometry":{"type":"Point","coordinates":[-94.59,39.06]}},{"properties":{"city":"Kansas City","latitude":39.06,"zip":"64111","country":"United States","longitude":-94.59,"id":"a6dup1cpe1lf","state":"MO"},"type":"Feature","geometry":{"type":"Point","coordinates":[-94.59,39.06]}},{"properties":{"city":"Kansas City","latitude":39.06,"zip":"64111","country":"United States","longitude":-94.59,"id":"a6dup113fld1","state":"MO"},"type":"Feature","geometry":{"type":"Point","coordinates":[-94.59,39.06]}},{"properties":{"city":"Kansas City","latitude":39.06,"zip":"64111","country":"United States","longitude":-94.59,"id":"a6dup13w8elh","state":"MO"},"type":"Feature","geometry":{"type":"Point","coordinates":[-94.59,39.06]}},{"properties":{"city":"Kansas City","latitude":39.06,"zip":"64111","country":"United States","longitude":-94.59,"id":"a6dup134f9td","state":"MO"},"type":"Feature","geometry":{"type":"Point","coordinates":[-94.59,39.06]}},{"properties":{"city":"Kansas City","latitude":39.06,"zip":"64111","country":"United States","longitude":-94.59,"id":"a6dup188tz6z","state":"MO"},"type":"Feature","geometry":{"type":"Point","coordinates":[-94.59,39.06]}},{"properties":{"city":"Kansas City","latitude":39.06,"zip":"64111","country":"United States","longitude":-94.59,"id":"a6dup18g8ppi","state":"MO"},"type":"Feature","geometry":{"type":"Point","coordinates":[-94.59,39.06]}},{"properties":{"city":"Kansas City","latitude":39.06,"zip":"64111","country":"United States","longitude":-94.59,"id":"a6dup19zyyvf","state":"MO"},"type":"Feature","geometry":{"type":"Point","coordinates":[-94.59,39.06]}},{"properties":{"city":"Kansas City","latitude":39.06,"zip":"64111","country":"United States","longitude":-94.59,"id":"a6dup0zud34s","state":"MO"},"type":"Feature","geometry":{"type":"Point","coordinates":[-94.59,39.06]}},{"properties":{"city":"Kansas City","latitude":39.06,"zip":"64111","country":"United States","longitude":-94.59,"id":"a6dup1bsmb4r","state":"MO"},"type":"Feature","geometry":{"type":"Point","coordinates":[-94.59,39.06]}},{"properties":{"city":"Kansas City","latitude":39.06,"zip":"64111","country":"United States","longitude":-94.59,"id":"a6dup14h0yt7","state":"MO"},"type":"Feature","geometry":{"type":"Point","coordinates":[-94.59,39.06]}},{"properties":{"city":"Kansas City","latitude":39.06,"zip":"64111","country":"United States","longitude":-94.59,"id":"a6dup1ec85el","state":"MO"},"type":"Feature","geometry":{"type":"Point","coordinates":[-94.59,39.06]}},{"properties":{"city":"Kansas City","latitude":39.06,"zip":"64111","country":"United States","longitude":-94.59,"id":"a6dup12r9xif","state":"MO"},"type":"Feature","geometry":{"type":"Point","coordinates":[-94.59,39.06]}},{"properties":{"city":"Kansas City","latitude":39.06,"zip":"64111","country":"United States","longitude":-94.59,"id":"a6dup165scqx","state":"MO"},"type":"Feature","geometry":{"type":"Point","coordinates":[-94.59,39.06]}},{"properties":{"city":"Kansas City","latitude":39.06,"zip":"64111","country":"United States","longitude":-94.59,"id":"a6dup19bgvvv","state":"MO"},"type":"Feature","geometry":{"type":"Point","coordinates":[-94.59,39.06]}},{"properties":{"city":"Kansas City","latitude":39.06,"zip":"64111","country":"United States","longitude":-94.59,"id":"a6dup1ccdf3o","state":"MO"},"type":"Feature","geometry":{"type":"Point","coordinates":[-94.59,39.06]}},{"properties":{"city":"Kansas City","latitude":39.06,"zip":"64111","country":"United States","longitude":-94.59,"id":"a6dup12qjvns","state":"MO"},"type":"Feature","geometry":{"type":"Point","coordinates":[-94.59,39.06]}},{"properties":{"city":"Kansas City","latitude":39.06,"zip":"64111","country":"United States","longitude":-94.59,"id":"a6dup1dtq4e3","state":"MO"},"type":"Feature","geometry":{"type":"Point","coordinates":[-94.59,39.06]}},{"properties":{"city":"Kansas City","latitude":39.06,"zip":"64111","country":"United States","longitude":-94.59,"id":"a6dup1bhb6pe","state":"MO"},"type":"Feature","geometry":{"type":"Point","coordinates":[-94.59,39.06]}},{"properties":{"city":"Kansas City","latitude":39.06,"zip":"64111","country":"United States","longitude":-94.59,"id":"a6dup1aiatnc","state":"MO"},"type":"Feature","geometry":{"type":"Point","coordinates":[-94.59,39.06]}},{"properties":{"city":"Kansas City","latitude":39.06,"zip":"64111","country":"United States","longitude":-94.59,"id":"a6dup1bgycmg","state":"MO"},"type":"Feature","geometry":{"type":"Point","coordinates":[-94.59,39.06]}},{"properties":{"city":"Kansas City","latitude":39.06,"zip":"64111","country":"United States","longitude":-94.59,"id":"a6dup17j2gsa","state":"MO"},"type":"Feature","geometry":{"type":"Point","coordinates":[-94.59,39.06]}},{"properties":{"city":"Kansas City","latitude":39.06,"zip":"64111","country":"United States","longitude":-94.59,"id":"a6dup1azy0vi","state":"MO"},"type":"Feature","geometry":{"type":"Point","coordinates":[-94.59,39.06]}},{"properties":{"city":"Kansas City","latitude":39.06,"zip":"64111","country":"United States","longitude":-94.59,"id":"a6dup1cp5p9v","state":"MO"},"type":"Feature","geometry":{"type":"Point","coordinates":[-94.59,39.06]}},{"properties":{"city":"Kansas City","latitude":39.06,"zip":"64111","country":"United States","longitude":-94.59,"id":"a6dup13w6hbn","state":"MO"},"type":"Feature","geometry":{"type":"Point","coordinates":[-94.59,39.06]}},{"properties":{"city":"Kansas City","latitude":39.06,"zip":"64111","country":"United States","longitude":-94.59,"id":"a6dup1a937g5","state":"MO"},"type":"Feature","geometry":{"type":"Point","coordinates":[-94.59,39.06]}},{"properties":{"city":"Kansas City","latitude":39.06,"zip":"64111","country":"United States","longitude":-94.59,"id":"a6dup1dphbha","state":"MO"},"type":"Feature","geometry":{"type":"Point","coordinates":[-94.59,39.06]}},{"properties":{"city":"Kansas City","latitude":39.06,"zip":"64111","country":"United States","longitude":-94.59,"id":"a6dup1877tfw","state":"MO"},"type":"Feature","geometry":{"type":"Point","coordinates":[-94.59,39.06]}},{"properties":{"city":"Kansas City","latitude":39.06,"zip":"64111","country":"United States","longitude":-94.59,"id":"a6dup13p1bzg","state":"MO"},"type":"Feature","geometry":{"type":"Point","coordinates":[-94.59,39.06]}},{"properties":{"city":"Kansas City","latitude":39.06,"zip":"64111","country":"United States","longitude":-94.59,"id":"a6dup0zcev4u","state":"MO"},"type":"Feature","geometry":{"type":"Point","coordinates":[-94.59,39.06]}},{"properties":{"city":"Kansas City","latitude":39.06,"zip":"64111","country":"United States","longitude":-94.59,"id":"a6dup19eoc9e","state":"MO"},"type":"Feature","geometry":{"type":"Point","coordinates":[-94.59,39.06]}},{"properties":{"city":"Kansas City","latitude":39.06,"zip":"64111","country":"United States","longitude":-94.59,"id":"a6dup1bt5t7d","state":"MO"},"type":"Feature","geometry":{"type":"Point","coordinates":[-94.59,39.06]}},{"properties":{"city":"Kansas City","latitude":39.06,"zip":"64111","country":"United States","longitude":-94.59,"id":"a6dup0zsrjaa","state":"MO"},"type":"Feature","geometry":{"type":"Point","coordinates":[-94.59,39.06]}},{"properties":{"city":"Kansas City","latitude":39.06,"zip":"64111","country":"United States","longitude":-94.59,"id":"a6dup10bmntp","state":"MO"},"type":"Feature","geometry":{"type":"Point","coordinates":[-94.59,39.06]}},{"properties":{"city":"Kansas City","latitude":39.06,"zip":"64111","country":"United States","longitude":-94.59,"id":"a6dup12cnce8","state":"MO"},"type":"Feature","geometry":{"type":"Point","coordinates":[-94.59,39.06]}},{"properties":{"city":"Kansas City","latitude":39.04,"zip":"64112","country":"United States","longitude":-94.6,"id":"a6dup1ezz1n8","state":"MO"},"type":"Feature","geometry":{"type":"Point","coordinates":[-94.6,39.04]}},{"properties":{"city":"Kansas City","latitude":39.04,"zip":"64112","country":"United States","longitude":-94.6,"id":"a6dup1eguxqc","state":"MO"},"type":"Feature","geometry":{"type":"Point","coordinates":[-94.6,39.04]}},{"properties":{"city":"Kansas City","latitude":39.04,"zip":"64112","country":"United States","longitude":-94.6,"id":"a6dup19d1p19","state":"MO"},"type":"Feature","geometry":{"type":"Point","coordinates":[-94.6,39.04]}},{"properties":{"city":"Kansas City","latitude":39.04,"zip":"64112","country":"United States","longitude":-94.6,"id":"a6dup1bklk3f","state":"MO"},"type":"Feature","geometry":{"type":"Point","coordinates":[-94.6,39.04]}},{"properties":{"city":"Kansas City","latitude":39.04,"zip":"64112","country":"United States","longitude":-94.6,"id":"a6dup17dq8qw","state":"MO"},"type":"Feature","geometry":{"type":"Point","coordinates":[-94.6,39.04]}},{"properties":{"city":"Kansas City","latitude":39.04,"zip":"64112","country":"United States","longitude":-94.6,"id":"a6dup189te0r","state":"MO"},"type":"Feature","geometry":{"type":"Point","coordinates":[-94.6,39.04]}},{"properties":{"city":"Kansas City","latitude":39.04,"zip":"64112","country":"United States","longitude":-94.6,"id":"a6dup1292lnz","state":"MO"},"type":"Feature","geometry":{"type":"Point","coordinates":[-94.6,39.04]}},{"properties":{"city":"Kansas City","latitude":39.04,"zip":"64112","country":"United States","longitude":-94.6,"id":"a6dup19p4az5","state":"MO"},"type":"Feature","geometry":{"type":"Point","coordinates":[-94.6,39.04]}},{"properties":{"city":"Kansas City","latitude":39.04,"zip":"64112","country":"United States","longitude":-94.6,"id":"a6dup16x7rra","state":"MO"},"type":"Feature","geometry":{"type":"Point","coordinates":[-94.6,39.04]}},{"properties":{"city":"Kansas City","latitude":39.04,"zip":"64112","country":"United States","longitude":-94.6,"id":"a6dup12t822c","state":"MO"},"type":"Feature","geometry":{"type":"Point","coordinates":[-94.6,39.04]}},{"properties":{"city":"Kansas City","latitude":39.04,"zip":"64112","country":"United States","longitude":-94.6,"id":"a6dup14oncs7","state":"MO"},"type":"Feature","geometry":{"type":"Point","coordinates":[-94.6,39.04]}},{"properties":{"city":"Kansas City","latitude":39.04,"zip":"64112","country":"United States","longitude":-94.6,"id":"a6dup1bzmfpw","state":"MO"},"type":"Feature","geometry":{"type":"Point","coordinates":[-94.6,39.04]}},{"properties":{"city":"Kansas City","latitude":39.01,"zip":"64113","country":"United States","longitude":-94.59,"id":"a6dup11re1oq","state":"MO"},"type":"Feature","geometry":{"type":"Point","coordinates":[-94.59,39.01]}},{"properties":{"city":"Kansas City","latitude":39.01,"zip":"64113","country":"United States","longitude":-94.59,"id":"a6dup1dj6725","state":"MO"},"type":"Feature","geometry":{"type":"Point","coordinates":[-94.59,39.01]}},{"properties":{"city":"Kansas City","latitude":39.01,"zip":"64113","country":"United States","longitude":-94.59,"id":"a6dup1aldkoj","state":"MO"},"type":"Feature","geometry":{"type":"Point","coordinates":[-94.59,39.01]}},{"properties":{"city":"Kansas City","latitude":39.01,"zip":"64113","country":"United States","longitude":-94.59,"id":"a6dup19108tk","state":"MO"},"type":"Feature","geometry":{"type":"Point","coordinates":[-94.59,39.01]}},{"properties":{"city":"Kansas City","latitude":39.01,"zip":"64113","country":"United States","longitude":-94.59,"id":"a6dup1b49hd7","state":"MO"},"type":"Feature","geometry":{"type":"Point","coordinates":[-94.59,39.01]}},{"properties":{"city":"Kansas City","latitude":39.01,"zip":"64113","country":"United States","longitude":-94.59,"id":"a6dup1cccnvc","state":"MO"},"type":"Feature","geometry":{"type":"Point","coordinates":[-94.59,39.01]}},{"properties":{"city":"Kansas City","latitude":39.01,"zip":"64113","country":"United States","longitude":-94.59,"id":"a6dup15z4fm4","state":"MO"},"type":"Feature","geometry":{"type":"Point","coordinates":[-94.59,39.01]}},{"properties":{"city":"Kansas City","latitude":39.01,"zip":"64113","country":"United States","longitude":-94.59,"id":"a6dup19qd8mr","state":"MO"},"type":"Feature","geometry":{"type":"Point","coordinates":[-94.59,39.01]}},{"properties":{"city":"Kansas City","latitude":39.01,"zip":"64113","country":"United States","longitude":-94.59,"id":"a6dup1e5o52n","state":"MO"},"type":"Feature","geometry":{"type":"Point","coordinates":[-94.59,39.01]}},{"properties":{"city":"Kansas City","latitude":39.01,"zip":"64113","country":"United States","longitude":-94.59,"id":"a6dup1c0jis6","state":"MO"},"type":"Feature","geometry":{"type":"Point","coordinates":[-94.59,39.01]}},{"properties":{"city":"Kansas City","latitude":39.01,"zip":"64113","country":"United States","longitude":-94.59,"id":"a6dup1dbiuhc","state":"MO"},"type":"Feature","geometry":{"type":"Point","coordinates":[-94.59,39.01]}},{"properties":{"city":"Kansas City","latitude":39.01,"zip":"64113","country":"United States","longitude":-94.59,"id":"a6dup1abbex4","state":"MO"},"type":"Feature","geometry":{"type":"Point","coordinates":[-94.59,39.01]}},{"properties":{"city":"Kansas City","latitude":39.01,"zip":"64113","country":"United States","longitude":-94.59,"id":"a6dup148f3xb","state":"MO"},"type":"Feature","geometry":{"type":"Point","coordinates":[-94.59,39.01]}},{"properties":{"city":"Kansas City","latitude":39.01,"zip":"64113","country":"United States","longitude":-94.59,"id":"a6dup154p212","state":"MO"},"type":"Feature","geometry":{"type":"Point","coordinates":[-94.59,39.01]}},{"properties":{"city":"Kansas City","latitude":39.01,"zip":"64113","country":"United States","longitude":-94.59,"id":"a6dup16pxepl","state":"MO"},"type":"Feature","geometry":{"type":"Point","coordinates":[-94.59,39.01]}},{"properties":{"city":"Kansas City","latitude":39.01,"zip":"64113","country":"United States","longitude":-94.59,"id":"a6dup17nx4d7","state":"MO"},"type":"Feature","geometry":{"type":"Point","coordinates":[-94.59,39.01]}},{"properties":{"city":"Kansas City","latitude":39.01,"zip":"64113","country":"United States","longitude":-94.59,"id":"a6dup0zj61yt","state":"MO"},"type":"Feature","geometry":{"type":"Point","coordinates":[-94.59,39.01]}},{"properties":{"city":"Kansas City","latitude":39.01,"zip":"64113","country":"United States","longitude":-94.59,"id":"a6dup19esuff","state":"MO"},"type":"Feature","geometry":{"type":"Point","coordinates":[-94.59,39.01]}},{"properties":{"city":"Kansas City","latitude":39.01,"zip":"64113","country":"United States","longitude":-94.59,"id":"a6dup1dsm5es","state":"MO"},"type":"Feature","geometry":{"type":"Point","coordinates":[-94.59,39.01]}},{"properties":{"city":"Kansas City","latitude":39.01,"zip":"64113","country":"United States","longitude":-94.59,"id":"a6dup13vgg36","state":"MO"},"type":"Feature","geometry":{"type":"Point","coordinates":[-94.59,39.01]}},{"properties":{"city":"Kansas City","latitude":39.01,"zip":"64113","country":"United States","longitude":-94.59,"id":"a6dup0z34n3a","state":"MO"},"type":"Feature","geometry":{"type":"Point","coordinates":[-94.59,39.01]}},{"properties":{"city":"Kansas City","latitude":39.01,"zip":"64113","country":"United States","longitude":-94.59,"id":"a6dup1cysj29","state":"MO"},"type":"Feature","geometry":{"type":"Point","coordinates":[-94.59,39.01]}},{"properties":{"city":"Kansas City","latitude":39.01,"zip":"64113","country":"United States","longitude":-94.59,"id":"a6dup1f0wzo9","state":"MO"},"type":"Feature","geometry":{"type":"Point","coordinates":[-94.59,39.01]}},{"properties":{"city":"Kansas City","latitude":39.01,"zip":"64113","country":"United States","longitude":-94.59,"id":"a6dup125dnrn","state":"MO"},"type":"Feature","geometry":{"type":"Point","coordinates":[-94.59,39.01]}},{"properties":{"city":"Kansas City","latitude":39.01,"zip":"64113","country":"United States","longitude":-94.59,"id":"a6dup1dajd4r","state":"MO"},"type":"Feature","geometry":{"type":"Point","coordinates":[-94.59,39.01]}},{"properties":{"city":"Kansas City","latitude":39.01,"zip":"64113","country":"United States","longitude":-94.59,"id":"a6dup12469gc","state":"MO"},"type":"Feature","geometry":{"type":"Point","coordinates":[-94.59,39.01]}},{"properties":{"city":"Kansas City","latitude":39.01,"zip":"64113","country":"United States","longitude":-94.59,"id":"a6dup19ohp12","state":"MO"},"type":"Feature","geometry":{"type":"Point","coordinates":[-94.59,39.01]}},{"properties":{"city":"Kansas City","latitude":39.01,"zip":"64113","country":"United States","longitude":-94.59,"id":"a6dup16byc0u","state":"MO"},"type":"Feature","geometry":{"type":"Point","coordinates":[-94.59,39.01]}},{"properties":{"city":"Kansas City","latitude":39.01,"zip":"64113","country":"United States","longitude":-94.59,"id":"a6dup1bgyahf","state":"MO"},"type":"Feature","geometry":{"type":"Point","coordinates":[-94.59,39.01]}},{"properties":{"city":"Kansas City","latitude":39.01,"zip":"64113","country":"United States","longitude":-94.59,"id":"a6dup1b7j8au","state":"MO"},"type":"Feature","geometry":{"type":"Point","coordinates":[-94.59,39.01]}},{"properties":{"city":"Kansas City","latitude":39.01,"zip":"64113","country":"United States","longitude":-94.59,"id":"a6dup1ayzd8r","state":"MO"},"type":"Feature","geometry":{"type":"Point","coordinates":[-94.59,39.01]}},{"properties":{"city":"Kansas City","latitude":39.01,"zip":"64113","country":"United States","longitude":-94.59,"id":"a6dup13yode8","state":"MO"},"type":"Feature","geometry":{"type":"Point","coordinates":[-94.59,39.01]}},{"properties":{"city":"Kansas City","latitude":39.01,"zip":"64113","country":"United States","longitude":-94.59,"id":"a6dup17al4z1","state":"MO"},"type":"Feature","geometry":{"type":"Point","coordinates":[-94.59,39.01]}},{"properties":{"city":"Kansas City","latitude":39.01,"zip":"64113","country":"United States","longitude":-94.59,"id":"a6dup1afwct7","state":"MO"},"type":"Feature","geometry":{"type":"Point","coordinates":[-94.59,39.01]}},{"properties":{"city":"Kansas City","latitude":39.01,"zip":"64113","country":"United States","longitude":-94.59,"id":"a6dup14zqfvn","state":"MO"},"type":"Feature","geometry":{"type":"Point","coordinates":[-94.59,39.01]}},{"properties":{"city":"Kansas City","latitude":39.01,"zip":"64113","country":"United States","longitude":-94.59,"id":"a6dup1dftkm4","state":"MO"},"type":"Feature","geometry":{"type":"Point","coordinates":[-94.59,39.01]}},{"properties":{"city":"Kansas City","latitude":39.01,"zip":"64113","country":"United States","longitude":-94.59,"id":"a6dup17eps6k","state":"MO"},"type":"Feature","geometry":{"type":"Point","coordinates":[-94.59,39.01]}},{"properties":{"city":"Kansas City","latitude":39.01,"zip":"64113","country":"United States","longitude":-94.59,"id":"a6dup19uop3w","state":"MO"},"type":"Feature","geometry":{"type":"Point","coordinates":[-94.59,39.01]}},{"properties":{"city":"Kansas City","latitude":39.01,"zip":"64113","country":"United States","longitude":-94.59,"id":"a6dup152qmkx","state":"MO"},"type":"Feature","geometry":{"type":"Point","coordinates":[-94.59,39.01]}},{"properties":{"city":"Kansas City","latitude":39.01,"zip":"64113","country":"United States","longitude":-94.59,"id":"a6dup16pl7wi","state":"MO"},"type":"Feature","geometry":{"type":"Point","coordinates":[-94.59,39.01]}},{"properties":{"city":"Kansas City","latitude":39.01,"zip":"64113","country":"United States","longitude":-94.59,"id":"a6dup17b03cm","state":"MO"},"type":"Feature","geometry":{"type":"Point","coordinates":[-94.59,39.01]}},{"properties":{"city":"Kansas City","latitude":39.01,"zip":"64113","country":"United States","longitude":-94.59,"id":"a6dup102q0vv","state":"MO"},"type":"Feature","geometry":{"type":"Point","coordinates":[-94.59,39.01]}},{"properties":{"city":"Kansas City","latitude":39.01,"zip":"64113","country":"United States","longitude":-94.59,"id":"a6dup10pcuhe","state":"MO"},"type":"Feature","geometry":{"type":"Point","coordinates":[-94.59,39.01]}},{"properties":{"city":"Kansas City","latitude":39.01,"zip":"64113","country":"United States","longitude":-94.59,"id":"a6dup134z4ke","state":"MO"},"type":"Feature","geometry":{"type":"Point","coordinates":[-94.59,39.01]}},{"properties":{"city":"Kansas City","latitude":39.01,"zip":"64113","country":"United States","longitude":-94.59,"id":"a6dup171ozxv","state":"MO"},"type":"Feature","geometry":{"type":"Point","coordinates":[-94.59,39.01]}},{"properties":{"city":"Kansas City","latitude":39.01,"zip":"64113","country":"United States","longitude":-94.59,"id":"a6dup1ea2w23","state":"MO"},"type":"Feature","geometry":{"type":"Point","coordinates":[-94.59,39.01]}},{"properties":{"city":"Kansas City","latitude":39.01,"zip":"64113","country":"United States","longitude":-94.59,"id":"a6dup16yvl8n","state":"MO"},"type":"Feature","geometry":{"type":"Point","coordinates":[-94.59,39.01]}},{"properties":{"city":"Kansas City","latitude":39.01,"zip":"64113","country":"United States","longitude":-94.59,"id":"a6dup15v6au6","state":"MO"},"type":"Feature","geometry":{"type":"Point","coordinates":[-94.59,39.01]}},{"properties":{"city":"Kansas City","latitude":39.01,"zip":"64113","country":"United States","longitude":-94.59,"id":"a6dup1080wiv","state":"MO"},"type":"Feature","geometry":{"type":"Point","coordinates":[-94.59,39.01]}},{"properties":{"city":"Kansas City","latitude":39.01,"zip":"64113","country":"United States","longitude":-94.59,"id":"a6dup14v5gbd","state":"MO"},"type":"Feature","geometry":{"type":"Point","coordinates":[-94.59,39.01]}},{"properties":{"city":"Kansas City","latitude":39.01,"zip":"64113","country":"United States","longitude":-94.59,"id":"a6dup1ay5jlw","state":"MO"},"type":"Feature","geometry":{"type":"Point","coordinates":[-94.59,39.01]}},{"properties":{"city":"Kansas City","latitude":39.01,"zip":"64113","country":"United States","longitude":-94.59,"id":"a6dup1aa78mw","state":"MO"},"type":"Feature","geometry":{"type":"Point","coordinates":[-94.59,39.01]}},{"properties":{"city":"Kansas City","latitude":39.01,"zip":"64113","country":"United States","longitude":-94.59,"id":"a6dup115aqg5","state":"MO"},"type":"Feature","geometry":{"type":"Point","coordinates":[-94.59,39.01]}},{"properties":{"city":"Kansas City","latitude":39.01,"zip":"64113","country":"United States","longitude":-94.59,"id":"a6dup19g9mqj","state":"MO"},"type":"Feature","geometry":{"type":"Point","coordinates":[-94.59,39.01]}},{"properties":{"city":"Kansas City","latitude":39.01,"zip":"64113","country":"United States","longitude":-94.59,"id":"a6dup115iz93","state":"MO"},"type":"Feature","geometry":{"type":"Point","coordinates":[-94.59,39.01]}},{"properties":{"city":"Kansas City","latitude":39.01,"zip":"64113","country":"United States","longitude":-94.59,"id":"a6dup17yqqrt","state":"MO"},"type":"Feature","geometry":{"type":"Point","coordinates":[-94.59,39.01]}},{"properties":{"city":"Kansas City","latitude":39.01,"zip":"64113","country":"United States","longitude":-94.59,"id":"a6dup17o657w","state":"MO"},"type":"Feature","geometry":{"type":"Point","coordinates":[-94.59,39.01]}},{"properties":{"city":"Kansas City","latitude":39.01,"zip":"64113","country":"United States","longitude":-94.59,"id":"a6dup1253uou","state":"MO"},"type":"Feature","geometry":{"type":"Point","coordinates":[-94.59,39.01]}},{"properties":{"city":"Kansas City","latitude":39.01,"zip":"64113","country":"United States","longitude":-94.59,"id":"a6dup117ck56","state":"MO"},"type":"Feature","geometry":{"type":"Point","coordinates":[-94.59,39.01]}},{"properties":{"city":"Kansas City","latitude":39.01,"zip":"64113","country":"United States","longitude":-94.59,"id":"a6dup1dbmen5","state":"MO"},"type":"Feature","geometry":{"type":"Point","coordinates":[-94.59,39.01]}},{"properties":{"city":"Kansas City","latitude":39.01,"zip":"64113","country":"United States","longitude":-94.59,"id":"a6dup11mco78","state":"MO"},"type":"Feature","geometry":{"type":"Point","coordinates":[-94.59,39.01]}},{"properties":{"city":"Kansas City","latitude":39.01,"zip":"64113","country":"United States","longitude":-94.59,"id":"a6dup1alkutj","state":"MO"},"type":"Feature","geometry":{"type":"Point","coordinates":[-94.59,39.01]}},{"properties":{"city":"Kansas City","latitude":39.01,"zip":"64113","country":"United States","longitude":-94.59,"id":"a6dup0zwdekn","state":"MO"},"type":"Feature","geometry":{"type":"Point","coordinates":[-94.59,39.01]}},{"properties":{"city":"Kansas City","latitude":39.01,"zip":"64113","country":"United States","longitude":-94.59,"id":"a6dup13wlthw","state":"MO"},"type":"Feature","geometry":{"type":"Point","coordinates":[-94.59,39.01]}},{"properties":{"city":"Kansas City","latitude":39.01,"zip":"64113","country":"United States","longitude":-94.59,"id":"a6dup1b8srth","state":"MO"},"type":"Feature","geometry":{"type":"Point","coordinates":[-94.59,39.01]}},{"properties":{"city":"Kansas City","latitude":39.01,"zip":"64113","country":"United States","longitude":-94.59,"id":"a6dup0z245tv","state":"MO"},"type":"Feature","geometry":{"type":"Point","coordinates":[-94.59,39.01]}},{"properties":{"city":"Kansas City","latitude":39.01,"zip":"64113","country":"United States","longitude":-94.59,"id":"a6dup12mmwl8","state":"MO"},"type":"Feature","geometry":{"type":"Point","coordinates":[-94.59,39.01]}},{"properties":{"city":"Kansas City","latitude":39.01,"zip":"64113","country":"United States","longitude":-94.59,"id":"a6dup1b8a3cr","state":"MO"},"type":"Feature","geometry":{"type":"Point","coordinates":[-94.59,39.01]}},{"properties":{"city":"Kansas City","latitude":39.01,"zip":"64113","country":"United States","longitude":-94.59,"id":"a6dup11xknlp","state":"MO"},"type":"Feature","geometry":{"type":"Point","coordinates":[-94.59,39.01]}},{"properties":{"city":"Kansas City","latitude":39.01,"zip":"64113","country":"United States","longitude":-94.59,"id":"a6dup14vpova","state":"MO"},"type":"Feature","geometry":{"type":"Point","coordinates":[-94.59,39.01]}},{"properties":{"city":"Kansas City","latitude":39.01,"zip":"64113","country":"United States","longitude":-94.59,"id":"a6dup1c79h9w","state":"MO"},"type":"Feature","geometry":{"type":"Point","coordinates":[-94.59,39.01]}},{"properties":{"city":"Kansas City","latitude":39.01,"zip":"64113","country":"United States","longitude":-94.59,"id":"a6dup1dmbf2d","state":"MO"},"type":"Feature","geometry":{"type":"Point","coordinates":[-94.59,39.01]}},{"properties":{"city":"Kansas City","latitude":39.01,"zip":"64113","country":"United States","longitude":-94.59,"id":"a6dup16pw3tr","state":"MO"},"type":"Feature","geometry":{"type":"Point","coordinates":[-94.59,39.01]}},{"properties":{"city":"Kansas City","latitude":39.01,"zip":"64113","country":"United States","longitude":-94.59,"id":"a6dup1amzk7o","state":"MO"},"type":"Feature","geometry":{"type":"Point","coordinates":[-94.59,39.01]}},{"properties":{"city":"Kansas City","latitude":39.01,"zip":"64113","country":"United States","longitude":-94.59,"id":"a6dup1911xv0","state":"MO"},"type":"Feature","geometry":{"type":"Point","coordinates":[-94.59,39.01]}},{"properties":{"city":"Kansas City","latitude":39.01,"zip":"64113","country":"United States","longitude":-94.59,"id":"a6dup1apg27u","state":"MO"},"type":"Feature","geometry":{"type":"Point","coordinates":[-94.59,39.01]}},{"properties":{"city":"Kansas City","latitude":39.01,"zip":"64113","country":"United States","longitude":-94.59,"id":"a6dup1aaqsuo","state":"MO"},"type":"Feature","geometry":{"type":"Point","coordinates":[-94.59,39.01]}},{"properties":{"city":"Kansas City","latitude":39.01,"zip":"64113","country":"United States","longitude":-94.59,"id":"a6dup1f38c30","state":"MO"},"type":"Feature","geometry":{"type":"Point","coordinates":[-94.59,39.01]}},{"properties":{"city":"Kansas City","latitude":39.01,"zip":"64113","country":"United States","longitude":-94.59,"id":"a6dup114bxcu","state":"MO"},"type":"Feature","geometry":{"type":"Point","coordinates":[-94.59,39.01]}},{"properties":{"city":"Kansas City","latitude":39.01,"zip":"64113","country":"United States","longitude":-94.59,"id":"a6dup176cesz","state":"MO"},"type":"Feature","geometry":{"type":"Point","coordinates":[-94.59,39.01]}},{"properties":{"city":"Kansas City","latitude":39.01,"zip":"64113","country":"United States","longitude":-94.59,"id":"a6dup18rd09g","state":"MO"},"type":"Feature","geometry":{"type":"Point","coordinates":[-94.59,39.01]}},{"properties":{"city":"Kansas City","latitude":38.97,"zip":"64114","country":"United States","longitude":-94.6,"id":"a6dup13um71c","state":"MO"},"type":"Feature","geometry":{"type":"Point","coordinates":[-94.6,38.97]}},{"properties":{"city":"Kansas City","latitude":38.97,"zip":"64114","country":"United States","longitude":-94.6,"id":"a6dup10svoxb","state":"MO"},"type":"Feature","geometry":{"type":"Point","coordinates":[-94.6,38.97]}},{"properties":{"city":"Kansas City","latitude":38.97,"zip":"64114","country":"United States","longitude":-94.6,"id":"a6dup1a563dj","state":"MO"},"type":"Feature","geometry":{"type":"Point","coordinates":[-94.6,38.97]}},{"properties":{"city":"Kansas City","latitude":38.97,"zip":"64114","country":"United States","longitude":-94.6,"id":"a6dup16sr74f","state":"MO"},"type":"Feature","geometry":{"type":"Point","coordinates":[-94.6,38.97]}},{"properties":{"city":"Kansas City","latitude":38.97,"zip":"64114","country":"United States","longitude":-94.6,"id":"a6dup13ke153","state":"MO"},"type":"Feature","geometry":{"type":"Point","coordinates":[-94.6,38.97]}},{"properties":{"city":"Kansas City","latitude":38.97,"zip":"64114","country":"United States","longitude":-94.6,"id":"a6dup1bv1zcd","state":"MO"},"type":"Feature","geometry":{"type":"Point","coordinates":[-94.6,38.97]}},{"properties":{"city":"Kansas City","latitude":38.97,"zip":"64114","country":"United States","longitude":-94.6,"id":"a6dup14ibjpj","state":"MO"},"type":"Feature","geometry":{"type":"Point","coordinates":[-94.6,38.97]}},{"properties":{"city":"Kansas City","latitude":38.97,"zip":"64114","country":"United States","longitude":-94.6,"id":"a6dup1byy638","state":"MO"},"type":"Feature","geometry":{"type":"Point","coordinates":[-94.6,38.97]}},{"properties":{"city":"Kansas City","latitude":38.97,"zip":"64114","country":"United States","longitude":-94.6,"id":"a6dup1e3brsx","state":"MO"},"type":"Feature","geometry":{"type":"Point","coordinates":[-94.6,38.97]}},{"properties":{"city":"Kansas City","latitude":38.97,"zip":"64114","country":"United States","longitude":-94.6,"id":"a6dup1da4bhs","state":"MO"},"type":"Feature","geometry":{"type":"Point","coordinates":[-94.6,38.97]}},{"properties":{"city":"Kansas City","latitude":38.97,"zip":"64114","country":"United States","longitude":-94.6,"id":"a6dup1784jyc","state":"MO"},"type":"Feature","geometry":{"type":"Point","coordinates":[-94.6,38.97]}},{"properties":{"city":"Kansas City","latitude":38.97,"zip":"64114","country":"United States","longitude":-94.6,"id":"a6dup1cbr0oa","state":"MO"},"type":"Feature","geometry":{"type":"Point","coordinates":[-94.6,38.97]}},{"properties":{"city":"Kansas City","latitude":38.97,"zip":"64114","country":"United States","longitude":-94.6,"id":"a6dup1adidnj","state":"MO"},"type":"Feature","geometry":{"type":"Point","coordinates":[-94.6,38.97]}},{"properties":{"city":"Kansas City","latitude":38.97,"zip":"64114","country":"United States","longitude":-94.6,"id":"a6dup14hpdeb","state":"MO"},"type":"Feature","geometry":{"type":"Point","coordinates":[-94.6,38.97]}},{"properties":{"city":"Kansas City","latitude":38.97,"zip":"64114","country":"United States","longitude":-94.6,"id":"a6dup1al39qf","state":"MO"},"type":"Feature","geometry":{"type":"Point","coordinates":[-94.6,38.97]}},{"properties":{"city":"Kansas City","latitude":38.97,"zip":"64114","country":"United States","longitude":-94.6,"id":"a6dup14k7svb","state":"MO"},"type":"Feature","geometry":{"type":"Point","coordinates":[-94.6,38.97]}},{"properties":{"city":"Kansas City","latitude":38.97,"zip":"64114","country":"United States","longitude":-94.6,"id":"a6dup160vijl","state":"MO"},"type":"Feature","geometry":{"type":"Point","coordinates":[-94.6,38.97]}},{"properties":{"city":"Kansas City","latitude":38.97,"zip":"64114","country":"United States","longitude":-94.6,"id":"a6dup1208svq","state":"MO"},"type":"Feature","geometry":{"type":"Point","coordinates":[-94.6,38.97]}},{"properties":{"city":"Kansas City","latitude":38.97,"zip":"64114","country":"United States","longitude":-94.6,"id":"a6dup1e6ruq3","state":"MO"},"type":"Feature","geometry":{"type":"Point","coordinates":[-94.6,38.97]}},{"properties":{"city":"Kansas City","latitude":38.97,"zip":"64114","country":"United States","longitude":-94.6,"id":"a6dup1459k88","state":"MO"},"type":"Feature","geometry":{"type":"Point","coordinates":[-94.6,38.97]}},{"properties":{"city":"Kansas City","latitude":38.97,"zip":"64114","country":"United States","longitude":-94.6,"id":"a6dup0zcg00a","state":"MO"},"type":"Feature","geometry":{"type":"Point","coordinates":[-94.6,38.97]}},{"properties":{"city":"Kansas City","latitude":38.97,"zip":"64114","country":"United States","longitude":-94.6,"id":"a6dup1dzkkuq","state":"MO"},"type":"Feature","geometry":{"type":"Point","coordinates":[-94.6,38.97]}},{"properties":{"city":"Kansas City","latitude":38.97,"zip":"64114","country":"United States","longitude":-94.6,"id":"a6dup0zm16gv","state":"MO"},"type":"Feature","geometry":{"type":"Point","coordinates":[-94.6,38.97]}},{"properties":{"city":"Kansas City","latitude":38.97,"zip":"64114","country":"United States","longitude":-94.6,"id":"a6dup12joaol","state":"MO"},"type":"Feature","geometry":{"type":"Point","coordinates":[-94.6,38.97]}},{"properties":{"city":"Kansas City","latitude":38.97,"zip":"64114","country":"United States","longitude":-94.6,"id":"a6dup0zbhfhh","state":"MO"},"type":"Feature","geometry":{"type":"Point","coordinates":[-94.6,38.97]}},{"properties":{"city":"Kansas City","latitude":38.97,"zip":"64114","country":"United States","longitude":-94.6,"id":"a6dup18z1mn6","state":"MO"},"type":"Feature","geometry":{"type":"Point","coordinates":[-94.6,38.97]}},{"properties":{"city":"Kansas City","latitude":38.97,"zip":"64114","country":"United States","longitude":-94.6,"id":"a6dup13p1j64","state":"MO"},"type":"Feature","geometry":{"type":"Point","coordinates":[-94.6,38.97]}},{"properties":{"city":"Kansas City","latitude":38.97,"zip":"64114","country":"United States","longitude":-94.6,"id":"a6dup14c5tyr","state":"MO"},"type":"Feature","geometry":{"type":"Point","coordinates":[-94.6,38.97]}},{"properties":{"city":"Kansas City","latitude":38.97,"zip":"64114","country":"United States","longitude":-94.6,"id":"a6dup14n1xjv","state":"MO"},"type":"Feature","geometry":{"type":"Point","coordinates":[-94.6,38.97]}},{"properties":{"city":"Kansas City","latitude":38.97,"zip":"64114","country":"United States","longitude":-94.6,"id":"a6dup114qp30","state":"MO"},"type":"Feature","geometry":{"type":"Point","coordinates":[-94.6,38.97]}},{"properties":{"city":"Kansas City","latitude":38.97,"zip":"64114","country":"United States","longitude":-94.6,"id":"a6dup1ahrb6l","state":"MO"},"type":"Feature","geometry":{"type":"Point","coordinates":[-94.6,38.97]}},{"properties":{"city":"Kansas City","latitude":38.97,"zip":"64114","country":"United States","longitude":-94.6,"id":"a6dup1eu5lo5","state":"MO"},"type":"Feature","geometry":{"type":"Point","coordinates":[-94.6,38.97]}},{"properties":{"city":"Kansas City","latitude":38.97,"zip":"64114","country":"United States","longitude":-94.6,"id":"a6dup151hc3i","state":"MO"},"type":"Feature","geometry":{"type":"Point","coordinates":[-94.6,38.97]}},{"properties":{"city":"Kansas City","latitude":38.97,"zip":"64114","country":"United States","longitude":-94.6,"id":"a6dup18fl8i1","state":"MO"},"type":"Feature","geometry":{"type":"Point","coordinates":[-94.6,38.97]}},{"properties":{"city":"Kansas City","latitude":38.97,"zip":"64114","country":"United States","longitude":-94.6,"id":"a6dup1e99sau","state":"MO"},"type":"Feature","geometry":{"type":"Point","coordinates":[-94.6,38.97]}},{"properties":{"city":"Kansas City","latitude":38.97,"zip":"64114","country":"United States","longitude":-94.6,"id":"a6dup17b7e9s","state":"MO"},"type":"Feature","geometry":{"type":"Point","coordinates":[-94.6,38.97]}},{"properties":{"city":"Kansas City","latitude":38.97,"zip":"64114","country":"United States","longitude":-94.6,"id":"a6dup1awapzc","state":"MO"},"type":"Feature","geometry":{"type":"Point","coordinates":[-94.6,38.97]}},{"properties":{"city":"Kansas City","latitude":38.97,"zip":"64114","country":"United States","longitude":-94.6,"id":"a6dup18u9h8x","state":"MO"},"type":"Feature","geometry":{"type":"Point","coordinates":[-94.6,38.97]}},{"properties":{"city":"Kansas City","latitude":38.97,"zip":"64114","country":"United States","longitude":-94.6,"id":"a6dup0zvtqmb","state":"MO"},"type":"Feature","geometry":{"type":"Point","coordinates":[-94.6,38.97]}},{"properties":{"city":"Kansas City","latitude":38.97,"zip":"64114","country":"United States","longitude":-94.6,"id":"a6dup0z9ogfy","state":"MO"},"type":"Feature","geometry":{"type":"Point","coordinates":[-94.6,38.97]}},{"properties":{"city":"Kansas City","latitude":38.97,"zip":"64114","country":"United States","longitude":-94.6,"id":"a6dup13kzhka","state":"MO"},"type":"Feature","geometry":{"type":"Point","coordinates":[-94.6,38.97]}},{"properties":{"city":"Kansas City","latitude":38.97,"zip":"64114","country":"United States","longitude":-94.6,"id":"a6dup0zrzlnj","state":"MO"},"type":"Feature","geometry":{"type":"Point","coordinates":[-94.6,38.97]}},{"properties":{"city":"Kansas City","latitude":38.97,"zip":"64114","country":"United States","longitude":-94.6,"id":"a6dup1bxb0va","state":"MO"},"type":"Feature","geometry":{"type":"Point","coordinates":[-94.6,38.97]}},{"properties":{"city":"Kansas City","latitude":38.97,"zip":"64114","country":"United States","longitude":-94.6,"id":"a6dup163wb1h","state":"MO"},"type":"Feature","geometry":{"type":"Point","coordinates":[-94.6,38.97]}},{"properties":{"city":"Kansas City","latitude":38.97,"zip":"64114","country":"United States","longitude":-94.6,"id":"a6dup19f96c5","state":"MO"},"type":"Feature","geometry":{"type":"Point","coordinates":[-94.6,38.97]}},{"properties":{"city":"Kansas City","latitude":38.97,"zip":"64114","country":"United States","longitude":-94.6,"id":"a6dup15zwmb8","state":"MO"},"type":"Feature","geometry":{"type":"Point","coordinates":[-94.6,38.97]}},{"properties":{"city":"Kansas City","latitude":38.97,"zip":"64114","country":"United States","longitude":-94.6,"id":"a6dup14i8i98","state":"MO"},"type":"Feature","geometry":{"type":"Point","coordinates":[-94.6,38.97]}},{"properties":{"city":"Kansas City","latitude":38.97,"zip":"64114","country":"United States","longitude":-94.6,"id":"a6dup14putwa","state":"MO"},"type":"Feature","geometry":{"type":"Point","coordinates":[-94.6,38.97]}},{"properties":{"city":"Kansas City","latitude":38.97,"zip":"64114","country":"United States","longitude":-94.6,"id":"a6dup131oghi","state":"MO"},"type":"Feature","geometry":{"type":"Point","coordinates":[-94.6,38.97]}},{"properties":{"city":"Kansas City","latitude":38.97,"zip":"64114","country":"United States","longitude":-94.6,"id":"a6dup170zbc2","state":"MO"},"type":"Feature","geometry":{"type":"Point","coordinates":[-94.6,38.97]}},{"properties":{"city":"Kansas City","latitude":38.97,"zip":"64114","country":"United States","longitude":-94.6,"id":"a6dup11x8dth","state":"MO"},"type":"Feature","geometry":{"type":"Point","coordinates":[-94.6,38.97]}},{"properties":{"city":"Kansas City","latitude":38.97,"zip":"64114","country":"United States","longitude":-94.6,"id":"a6dup1eojaba","state":"MO"},"type":"Feature","geometry":{"type":"Point","coordinates":[-94.6,38.97]}},{"properties":{"city":"Kansas City","latitude":38.97,"zip":"64114","country":"United States","longitude":-94.6,"id":"a6dup18wig88","state":"MO"},"type":"Feature","geometry":{"type":"Point","coordinates":[-94.6,38.97]}},{"properties":{"city":"Kansas City","latitude":38.97,"zip":"64114","country":"United States","longitude":-94.6,"id":"a6dup13x15ln","state":"MO"},"type":"Feature","geometry":{"type":"Point","coordinates":[-94.6,38.97]}},{"properties":{"city":"Kansas City","latitude":38.97,"zip":"64114","country":"United States","longitude":-94.6,"id":"a6dup19w1y7a","state":"MO"},"type":"Feature","geometry":{"type":"Point","coordinates":[-94.6,38.97]}},{"properties":{"city":"Kansas City","latitude":38.97,"zip":"64114","country":"United States","longitude":-94.6,"id":"a6dup139h6kq","state":"MO"},"type":"Feature","geometry":{"type":"Point","coordinates":[-94.6,38.97]}},{"properties":{"city":"Kansas City","latitude":38.97,"zip":"64114","country":"United States","longitude":-94.6,"id":"a6dup19a48d8","state":"MO"},"type":"Feature","geometry":{"type":"Point","coordinates":[-94.6,38.97]}},{"properties":{"city":"Kansas City","latitude":38.97,"zip":"64114","country":"United States","longitude":-94.6,"id":"a6dup10z8u29","state":"MO"},"type":"Feature","geometry":{"type":"Point","coordinates":[-94.6,38.97]}},{"properties":{"city":"Kansas City","latitude":38.97,"zip":"64114","country":"United States","longitude":-94.6,"id":"a6dup1cucwzc","state":"MO"},"type":"Feature","geometry":{"type":"Point","coordinates":[-94.6,38.97]}},{"properties":{"city":"Kansas City","latitude":38.97,"zip":"64114","country":"United States","longitude":-94.6,"id":"a6dup10ikw6z","state":"MO"},"type":"Feature","geometry":{"type":"Point","coordinates":[-94.6,38.97]}},{"properties":{"city":"Kansas City","latitude":38.97,"zip":"64114","country":"United States","longitude":-94.6,"id":"a6dup11rcdls","state":"MO"},"type":"Feature","geometry":{"type":"Point","coordinates":[-94.6,38.97]}},{"properties":{"city":"Kansas City","latitude":38.97,"zip":"64114","country":"United States","longitude":-94.6,"id":"a6dup17oyqbe","state":"MO"},"type":"Feature","geometry":{"type":"Point","coordinates":[-94.6,38.97]}},{"properties":{"city":"Kansas City","latitude":39.11,"zip":"64123","country":"United States","longitude":-94.52,"id":"a6dup15vudpc","state":"MO"},"type":"Feature","geometry":{"type":"Point","coordinates":[-94.52,39.11]}},{"properties":{"city":"Kansas City","latitude":39.11,"zip":"64123","country":"United States","longitude":-94.52,"id":"a6dup16s6s6e","state":"MO"},"type":"Feature","geometry":{"type":"Point","coordinates":[-94.52,39.11]}},{"properties":{"city":"Kansas City","latitude":39.11,"zip":"64123","country":"United States","longitude":-94.52,"id":"a6dup1cgk9nh","state":"MO"},"type":"Feature","geometry":{"type":"Point","coordinates":[-94.52,39.11]}},{"properties":{"city":"Kansas City","latitude":39.11,"zip":"64123","country":"United States","longitude":-94.52,"id":"a6dup19yhizh","state":"MO"},"type":"Feature","geometry":{"type":"Point","coordinates":[-94.52,39.11]}},{"properties":{"city":"Kansas City","latitude":39.11,"zip":"64124","country":"United States","longitude":-94.54,"id":"a6dup1cl34zc","state":"MO"},"type":"Feature","geometry":{"type":"Point","coordinates":[-94.54,39.11]}},{"properties":{"city":"Kansas City","latitude":39.11,"zip":"64124","country":"United States","longitude":-94.54,"id":"a6dup14f7zig","state":"MO"},"type":"Feature","geometry":{"type":"Point","coordinates":[-94.54,39.11]}},{"properties":{"city":"Kansas City","latitude":39.11,"zip":"64124","country":"United States","longitude":-94.54,"id":"a6dup108vpb5","state":"MO"},"type":"Feature","geometry":{"type":"Point","coordinates":[-94.54,39.11]}},{"properties":{"city":"Kansas City","latitude":39.11,"zip":"64124","country":"United States","longitude":-94.54,"id":"a6dup13i61nc","state":"MO"},"type":"Feature","geometry":{"type":"Point","coordinates":[-94.54,39.11]}},{"properties":{"city":"Kansas City","latitude":39.09,"zip":"64126","country":"United States","longitude":-94.5,"id":"a6dup1d6jl94","state":"MO"},"type":"Feature","geometry":{"type":"Point","coordinates":[-94.5,39.09]}},{"properties":{"city":"Kansas City","latitude":39.09,"zip":"64127","country":"United States","longitude":-94.54,"id":"a6dup18r7uyw","state":"MO"},"type":"Feature","geometry":{"type":"Point","coordinates":[-94.54,39.09]}},{"properties":{"city":"Kansas City","latitude":39.09,"zip":"64127","country":"United States","longitude":-94.54,"id":"a6dup1cqlcxz","state":"MO"},"type":"Feature","geometry":{"type":"Point","coordinates":[-94.54,39.09]}},{"properties":{"city":"Kansas City","latitude":39.09,"zip":"64127","country":"United States","longitude":-94.54,"id":"a6dup17asg5c","state":"MO"},"type":"Feature","geometry":{"type":"Point","coordinates":[-94.54,39.09]}},{"properties":{"city":"Kansas City","latitude":39.09,"zip":"64127","country":"United States","longitude":-94.54,"id":"a6dup17qxv44","state":"MO"},"type":"Feature","geometry":{"type":"Point","coordinates":[-94.54,39.09]}},{"properties":{"city":"Kansas City","latitude":39.09,"zip":"64127","country":"United States","longitude":-94.54,"id":"a6dup1apj7ru","state":"MO"},"type":"Feature","geometry":{"type":"Point","coordinates":[-94.54,39.09]}},{"properties":{"city":"Kansas City","latitude":39.09,"zip":"64127","country":"United States","longitude":-94.54,"id":"a6dup1eist1k","state":"MO"},"type":"Feature","geometry":{"type":"Point","coordinates":[-94.54,39.09]}},{"properties":{"city":"Kansas City","latitude":39.09,"zip":"64127","country":"United States","longitude":-94.54,"id":"a6dup14w9e5a","state":"MO"},"type":"Feature","geometry":{"type":"Point","coordinates":[-94.54,39.09]}},{"properties":{"city":"Kansas City","latitude":39.09,"zip":"64127","country":"United States","longitude":-94.54,"id":"a6dup19p2bzk","state":"MO"},"type":"Feature","geometry":{"type":"Point","coordinates":[-94.54,39.09]}},{"properties":{"city":"Kansas City","latitude":39.09,"zip":"64127","country":"United States","longitude":-94.54,"id":"a6dup118muk7","state":"MO"},"type":"Feature","geometry":{"type":"Point","coordinates":[-94.54,39.09]}},{"properties":{"city":"Kansas City","latitude":39.09,"zip":"64127","country":"United States","longitude":-94.54,"id":"a6dup12wrp57","state":"MO"},"type":"Feature","geometry":{"type":"Point","coordinates":[-94.54,39.09]}},{"properties":{"city":"Kansas City","latitude":39.09,"zip":"64127","country":"United States","longitude":-94.54,"id":"a6dup1exwf1u","state":"MO"},"type":"Feature","geometry":{"type":"Point","coordinates":[-94.54,39.09]}},{"properties":{"city":"Kansas City","latitude":39.09,"zip":"64127","country":"United States","longitude":-94.54,"id":"a6dup1b7csxx","state":"MO"},"type":"Feature","geometry":{"type":"Point","coordinates":[-94.54,39.09]}},{"properties":{"city":"Kansas City","latitude":39.09,"zip":"64127","country":"United States","longitude":-94.54,"id":"a6dup1dzy36l","state":"MO"},"type":"Feature","geometry":{"type":"Point","coordinates":[-94.54,39.09]}},{"properties":{"city":"Kansas City","latitude":39.09,"zip":"64127","country":"United States","longitude":-94.54,"id":"a6dup12ydzd0","state":"MO"},"type":"Feature","geometry":{"type":"Point","coordinates":[-94.54,39.09]}},{"properties":{"city":"Kansas City","latitude":39.07,"zip":"64128","country":"United States","longitude":-94.54,"id":"a6dup1a843j7","state":"MO"},"type":"Feature","geometry":{"type":"Point","coordinates":[-94.54,39.07]}},{"properties":{"city":"Kansas City","latitude":39.07,"zip":"64128","country":"United States","longitude":-94.54,"id":"a6dup11pwa92","state":"MO"},"type":"Feature","geometry":{"type":"Point","coordinates":[-94.54,39.07]}},{"properties":{"city":"Kansas City","latitude":39.07,"zip":"64128","country":"United States","longitude":-94.54,"id":"a6dup10zrikt","state":"MO"},"type":"Feature","geometry":{"type":"Point","coordinates":[-94.54,39.07]}},{"properties":{"city":"Kansas City","latitude":39.07,"zip":"64128","country":"United States","longitude":-94.54,"id":"a6dup1df589b","state":"MO"},"type":"Feature","geometry":{"type":"Point","coordinates":[-94.54,39.07]}},{"properties":{"city":"Kansas City","latitude":39.07,"zip":"64128","country":"United States","longitude":-94.54,"id":"a6dup1b6hw46","state":"MO"},"type":"Feature","geometry":{"type":"Point","coordinates":[-94.54,39.07]}},{"properties":{"city":"Kansas City","latitude":39.07,"zip":"64128","country":"United States","longitude":-94.54,"id":"a6dup18cq3r7","state":"MO"},"type":"Feature","geometry":{"type":"Point","coordinates":[-94.54,39.07]}},{"properties":{"city":"Kansas City","latitude":39.07,"zip":"64128","country":"United States","longitude":-94.54,"id":"a6dup12hwnub","state":"MO"},"type":"Feature","geometry":{"type":"Point","coordinates":[-94.54,39.07]}},{"properties":{"city":"Kansas City","latitude":39.07,"zip":"64128","country":"United States","longitude":-94.54,"id":"a6dup19f8t2p","state":"MO"},"type":"Feature","geometry":{"type":"Point","coordinates":[-94.54,39.07]}},{"properties":{"city":"Kansas City","latitude":39.07,"zip":"64128","country":"United States","longitude":-94.54,"id":"a6dup19xj5ro","state":"MO"},"type":"Feature","geometry":{"type":"Point","coordinates":[-94.54,39.07]}},{"properties":{"city":"Kansas City","latitude":39.07,"zip":"64128","country":"United States","longitude":-94.54,"id":"a6dup15on6qi","state":"MO"},"type":"Feature","geometry":{"type":"Point","coordinates":[-94.54,39.07]}},{"properties":{"city":"Kansas City","latitude":39.07,"zip":"64128","country":"United States","longitude":-94.54,"id":"a6dup191gb6g","state":"MO"},"type":"Feature","geometry":{"type":"Point","coordinates":[-94.54,39.07]}},{"properties":{"city":"Kansas City","latitude":39.07,"zip":"64128","country":"United States","longitude":-94.54,"id":"a6dup1f7znor","state":"MO"},"type":"Feature","geometry":{"type":"Point","coordinates":[-94.54,39.07]}},{"properties":{"city":"Kansas City","latitude":39.07,"zip":"64128","country":"United States","longitude":-94.54,"id":"a6dup0yvsafp","state":"MO"},"type":"Feature","geometry":{"type":"Point","coordinates":[-94.54,39.07]}},{"properties":{"city":"Kansas City","latitude":39.07,"zip":"64128","country":"United States","longitude":-94.54,"id":"a6dup1ev4ry0","state":"MO"},"type":"Feature","geometry":{"type":"Point","coordinates":[-94.54,39.07]}},{"properties":{"city":"Kansas City","latitude":39.07,"zip":"64128","country":"United States","longitude":-94.54,"id":"a6dup139ph8w","state":"MO"},"type":"Feature","geometry":{"type":"Point","coordinates":[-94.54,39.07]}},{"properties":{"city":"Kansas City","latitude":39.07,"zip":"64128","country":"United States","longitude":-94.54,"id":"a6dup1bbcanr","state":"MO"},"type":"Feature","geometry":{"type":"Point","coordinates":[-94.54,39.07]}},{"properties":{"city":"Kansas City","latitude":39.07,"zip":"64128","country":"United States","longitude":-94.54,"id":"a6dup1dtv4h9","state":"MO"},"type":"Feature","geometry":{"type":"Point","coordinates":[-94.54,39.07]}},{"properties":{"city":"Kansas City","latitude":39.07,"zip":"64128","country":"United States","longitude":-94.54,"id":"a6dup17gp5m7","state":"MO"},"type":"Feature","geometry":{"type":"Point","coordinates":[-94.54,39.07]}},{"properties":{"city":"Kansas City","latitude":39.05,"zip":"64129","country":"United States","longitude":-94.5,"id":"a6dup19lwhr1","state":"MO"},"type":"Feature","geometry":{"type":"Point","coordinates":[-94.5,39.05]}},{"properties":{"city":"Kansas City","latitude":39.05,"zip":"64129","country":"United States","longitude":-94.5,"id":"a6dup182g66d","state":"MO"},"type":"Feature","geometry":{"type":"Point","coordinates":[-94.5,39.05]}},{"properties":{"city":"Kansas City","latitude":39.05,"zip":"64129","country":"United States","longitude":-94.5,"id":"a6dup19bb7mh","state":"MO"},"type":"Feature","geometry":{"type":"Point","coordinates":[-94.5,39.05]}},{"properties":{"city":"Kansas City","latitude":39.05,"zip":"64129","country":"United States","longitude":-94.5,"id":"a6dup1eyg1zv","state":"MO"},"type":"Feature","geometry":{"type":"Point","coordinates":[-94.5,39.05]}},{"properties":{"city":"Kansas City","latitude":39.03,"zip":"64130","country":"United States","longitude":-94.55,"id":"a6dup19chqbz","state":"MO"},"type":"Feature","geometry":{"type":"Point","coordinates":[-94.55,39.03]}},{"properties":{"city":"Kansas City","latitude":39.03,"zip":"64130","country":"United States","longitude":-94.55,"id":"a6dup1azxswa","state":"MO"},"type":"Feature","geometry":{"type":"Point","coordinates":[-94.55,39.03]}},{"properties":{"city":"Kansas City","latitude":39.03,"zip":"64130","country":"United States","longitude":-94.55,"id":"a6dup1dwfurr","state":"MO"},"type":"Feature","geometry":{"type":"Point","coordinates":[-94.55,39.03]}},{"properties":{"city":"Kansas City","latitude":39.03,"zip":"64130","country":"United States","longitude":-94.55,"id":"a6dup18unwcl","state":"MO"},"type":"Feature","geometry":{"type":"Point","coordinates":[-94.55,39.03]}},{"properties":{"city":"Kansas City","latitude":39.03,"zip":"64130","country":"United States","longitude":-94.55,"id":"a6dup1em9cym","state":"MO"},"type":"Feature","geometry":{"type":"Point","coordinates":[-94.55,39.03]}},{"properties":{"city":"Kansas City","latitude":39.03,"zip":"64130","country":"United States","longitude":-94.55,"id":"a6dup12p4ahz","state":"MO"},"type":"Feature","geometry":{"type":"Point","coordinates":[-94.55,39.03]}},{"properties":{"city":"Kansas City","latitude":39.03,"zip":"64130","country":"United States","longitude":-94.55,"id":"a6dup19qklau","state":"MO"},"type":"Feature","geometry":{"type":"Point","coordinates":[-94.55,39.03]}},{"properties":{"city":"Kansas City","latitude":39.03,"zip":"64130","country":"United States","longitude":-94.55,"id":"a6dup15q870k","state":"MO"},"type":"Feature","geometry":{"type":"Point","coordinates":[-94.55,39.03]}},{"properties":{"city":"Kansas City","latitude":39.03,"zip":"64130","country":"United States","longitude":-94.55,"id":"a6dup121ci81","state":"MO"},"type":"Feature","geometry":{"type":"Point","coordinates":[-94.55,39.03]}},{"properties":{"city":"Kansas City","latitude":39.03,"zip":"64130","country":"United States","longitude":-94.55,"id":"a6dup15j4dut","state":"MO"},"type":"Feature","geometry":{"type":"Point","coordinates":[-94.55,39.03]}},{"properties":{"city":"Kansas City","latitude":39.03,"zip":"64130","country":"United States","longitude":-94.55,"id":"a6dup14cf1m7","state":"MO"},"type":"Feature","geometry":{"type":"Point","coordinates":[-94.55,39.03]}},{"properties":{"city":"Kansas City","latitude":39.03,"zip":"64130","country":"United States","longitude":-94.55,"id":"a6dup11o2yyn","state":"MO"},"type":"Feature","geometry":{"type":"Point","coordinates":[-94.55,39.03]}},{"properties":{"city":"Kansas City","latitude":39.03,"zip":"64130","country":"United States","longitude":-94.55,"id":"a6dup1c2gy3n","state":"MO"},"type":"Feature","geometry":{"type":"Point","coordinates":[-94.55,39.03]}},{"properties":{"city":"Kansas City","latitude":39.03,"zip":"64130","country":"United States","longitude":-94.55,"id":"a6dup0yv0tns","state":"MO"},"type":"Feature","geometry":{"type":"Point","coordinates":[-94.55,39.03]}},{"properties":{"city":"Kansas City","latitude":39.03,"zip":"64130","country":"United States","longitude":-94.55,"id":"a6dup18wvuoh","state":"MO"},"type":"Feature","geometry":{"type":"Point","coordinates":[-94.55,39.03]}},{"properties":{"city":"Kansas City","latitude":39.03,"zip":"64130","country":"United States","longitude":-94.55,"id":"a6dup11kfit7","state":"MO"},"type":"Feature","geometry":{"type":"Point","coordinates":[-94.55,39.03]}},{"properties":{"city":"Kansas City","latitude":39.03,"zip":"64130","country":"United States","longitude":-94.55,"id":"a6dup159mi87","state":"MO"},"type":"Feature","geometry":{"type":"Point","coordinates":[-94.55,39.03]}},{"properties":{"city":"Kansas City","latitude":39.03,"zip":"64130","country":"United States","longitude":-94.55,"id":"a6dup1e5mhk5","state":"MO"},"type":"Feature","geometry":{"type":"Point","coordinates":[-94.55,39.03]}},{"properties":{"city":"Kansas City","latitude":39.03,"zip":"64130","country":"United States","longitude":-94.55,"id":"a6dup1asdpvc","state":"MO"},"type":"Feature","geometry":{"type":"Point","coordinates":[-94.55,39.03]}},{"properties":{"city":"Kansas City","latitude":39.03,"zip":"64130","country":"United States","longitude":-94.55,"id":"a6dup1duoi9q","state":"MO"},"type":"Feature","geometry":{"type":"Point","coordinates":[-94.55,39.03]}},{"properties":{"city":"Kansas City","latitude":39.03,"zip":"64130","country":"United States","longitude":-94.55,"id":"a6dup19mxtvy","state":"MO"},"type":"Feature","geometry":{"type":"Point","coordinates":[-94.55,39.03]}},{"properties":{"city":"Kansas City","latitude":39.03,"zip":"64130","country":"United States","longitude":-94.55,"id":"a6dup1c3algl","state":"MO"},"type":"Feature","geometry":{"type":"Point","coordinates":[-94.55,39.03]}},{"properties":{"city":"Kansas City","latitude":38.97,"zip":"64131","country":"United States","longitude":-94.58,"id":"a6dup104kzpn","state":"MO"},"type":"Feature","geometry":{"type":"Point","coordinates":[-94.58,38.97]}},{"properties":{"city":"Kansas City","latitude":38.97,"zip":"64131","country":"United States","longitude":-94.58,"id":"a6dup14dkhkk","state":"MO"},"type":"Feature","geometry":{"type":"Point","coordinates":[-94.58,38.97]}},{"properties":{"city":"Kansas City","latitude":38.97,"zip":"64131","country":"United States","longitude":-94.58,"id":"a6dup18aa0yv","state":"MO"},"type":"Feature","geometry":{"type":"Point","coordinates":[-94.58,38.97]}},{"properties":{"city":"Kansas City","latitude":38.97,"zip":"64131","country":"United States","longitude":-94.58,"id":"a6dup189xedl","state":"MO"},"type":"Feature","geometry":{"type":"Point","coordinates":[-94.58,38.97]}},{"properties":{"city":"Kansas City","latitude":38.97,"zip":"64131","country":"United States","longitude":-94.58,"id":"a6dup1awby3f","state":"MO"},"type":"Feature","geometry":{"type":"Point","coordinates":[-94.58,38.97]}},{"properties":{"city":"Kansas City","latitude":38.97,"zip":"64131","country":"United States","longitude":-94.58,"id":"a6dup17enofo","state":"MO"},"type":"Feature","geometry":{"type":"Point","coordinates":[-94.58,38.97]}},{"properties":{"city":"Kansas City","latitude":38.97,"zip":"64131","country":"United States","longitude":-94.58,"id":"a6dup10r27v6","state":"MO"},"type":"Feature","geometry":{"type":"Point","coordinates":[-94.58,38.97]}},{"properties":{"city":"Kansas City","latitude":38.97,"zip":"64131","country":"United States","longitude":-94.58,"id":"a6dup0zc6jgw","state":"MO"},"type":"Feature","geometry":{"type":"Point","coordinates":[-94.58,38.97]}},{"properties":{"city":"Kansas City","latitude":38.97,"zip":"64131","country":"United States","longitude":-94.58,"id":"a6dup15p6m2z","state":"MO"},"type":"Feature","geometry":{"type":"Point","coordinates":[-94.58,38.97]}},{"properties":{"city":"Kansas City","latitude":38.97,"zip":"64131","country":"United States","longitude":-94.58,"id":"a6dup1bwxm49","state":"MO"},"type":"Feature","geometry":{"type":"Point","coordinates":[-94.58,38.97]}},{"properties":{"city":"Kansas City","latitude":38.97,"zip":"64131","country":"United States","longitude":-94.58,"id":"a6dup1d4hpw2","state":"MO"},"type":"Feature","geometry":{"type":"Point","coordinates":[-94.58,38.97]}},{"properties":{"city":"Kansas City","latitude":38.97,"zip":"64131","country":"United States","longitude":-94.58,"id":"a6dup1c5lv9q","state":"MO"},"type":"Feature","geometry":{"type":"Point","coordinates":[-94.58,38.97]}},{"properties":{"city":"Kansas City","latitude":38.97,"zip":"64131","country":"United States","longitude":-94.58,"id":"a6dup101pavm","state":"MO"},"type":"Feature","geometry":{"type":"Point","coordinates":[-94.58,38.97]}},{"properties":{"city":"Kansas City","latitude":38.97,"zip":"64131","country":"United States","longitude":-94.58,"id":"a6dup1df4svk","state":"MO"},"type":"Feature","geometry":{"type":"Point","coordinates":[-94.58,38.97]}},{"properties":{"city":"Kansas City","latitude":38.97,"zip":"64131","country":"United States","longitude":-94.58,"id":"a6dup0zunocx","state":"MO"},"type":"Feature","geometry":{"type":"Point","coordinates":[-94.58,38.97]}},{"properties":{"city":"Kansas City","latitude":38.97,"zip":"64131","country":"United States","longitude":-94.58,"id":"a6dup0zh58f8","state":"MO"},"type":"Feature","geometry":{"type":"Point","coordinates":[-94.58,38.97]}},{"properties":{"city":"Kansas City","latitude":38.97,"zip":"64131","country":"United States","longitude":-94.58,"id":"a6dup0z8lydm","state":"MO"},"type":"Feature","geometry":{"type":"Point","coordinates":[-94.58,38.97]}},{"properties":{"city":"Kansas City","latitude":38.97,"zip":"64131","country":"United States","longitude":-94.58,"id":"a6dup1e247z2","state":"MO"},"type":"Feature","geometry":{"type":"Point","coordinates":[-94.58,38.97]}},{"properties":{"city":"Kansas City","latitude":38.97,"zip":"64131","country":"United States","longitude":-94.58,"id":"a6dup180xiu3","state":"MO"},"type":"Feature","geometry":{"type":"Point","coordinates":[-94.58,38.97]}},{"properties":{"city":"Kansas City","latitude":38.97,"zip":"64131","country":"United States","longitude":-94.58,"id":"a6dup14hvo53","state":"MO"},"type":"Feature","geometry":{"type":"Point","coordinates":[-94.58,38.97]}},{"properties":{"city":"Kansas City","latitude":38.97,"zip":"64131","country":"United States","longitude":-94.58,"id":"a6dup1d772ds","state":"MO"},"type":"Feature","geometry":{"type":"Point","coordinates":[-94.58,38.97]}},{"properties":{"city":"Kansas City","latitude":38.97,"zip":"64131","country":"United States","longitude":-94.58,"id":"a6dup12pp5i0","state":"MO"},"type":"Feature","geometry":{"type":"Point","coordinates":[-94.58,38.97]}},{"properties":{"city":"Kansas City","latitude":38.97,"zip":"64131","country":"United States","longitude":-94.58,"id":"a6dup1a0l2h8","state":"MO"},"type":"Feature","geometry":{"type":"Point","coordinates":[-94.58,38.97]}},{"properties":{"city":"Kansas City","latitude":38.97,"zip":"64131","country":"United States","longitude":-94.58,"id":"a6dup1czemik","state":"MO"},"type":"Feature","geometry":{"type":"Point","coordinates":[-94.58,38.97]}},{"properties":{"city":"Kansas City","latitude":38.97,"zip":"64131","country":"United States","longitude":-94.58,"id":"a6dup1bs27k8","state":"MO"},"type":"Feature","geometry":{"type":"Point","coordinates":[-94.58,38.97]}},{"properties":{"city":"Kansas City","latitude":38.97,"zip":"64131","country":"United States","longitude":-94.58,"id":"a6dup10ye4nk","state":"MO"},"type":"Feature","geometry":{"type":"Point","coordinates":[-94.58,38.97]}},{"properties":{"city":"Kansas City","latitude":38.97,"zip":"64131","country":"United States","longitude":-94.58,"id":"a6dup1b7q4wp","state":"MO"},"type":"Feature","geometry":{"type":"Point","coordinates":[-94.58,38.97]}},{"properties":{"city":"Kansas City","latitude":38.97,"zip":"64131","country":"United States","longitude":-94.58,"id":"a6dup11swev5","state":"MO"},"type":"Feature","geometry":{"type":"Point","coordinates":[-94.58,38.97]}},{"properties":{"city":"Kansas City","latitude":38.97,"zip":"64131","country":"United States","longitude":-94.58,"id":"a6dup106xl0n","state":"MO"},"type":"Feature","geometry":{"type":"Point","coordinates":[-94.58,38.97]}},{"properties":{"city":"Kansas City","latitude":38.97,"zip":"64131","country":"United States","longitude":-94.58,"id":"a6dup18af82h","state":"MO"},"type":"Feature","geometry":{"type":"Point","coordinates":[-94.58,38.97]}},{"properties":{"city":"Kansas City","latitude":38.97,"zip":"64131","country":"United States","longitude":-94.58,"id":"a6dup14hfbuk","state":"MO"},"type":"Feature","geometry":{"type":"Point","coordinates":[-94.58,38.97]}},{"properties":{"city":"Kansas City","latitude":38.97,"zip":"64131","country":"United States","longitude":-94.58,"id":"a6dup1aunzep","state":"MO"},"type":"Feature","geometry":{"type":"Point","coordinates":[-94.58,38.97]}},{"properties":{"city":"Kansas City","latitude":38.97,"zip":"64131","country":"United States","longitude":-94.58,"id":"a6dup1364uyy","state":"MO"},"type":"Feature","geometry":{"type":"Point","coordinates":[-94.58,38.97]}},{"properties":{"city":"Kansas City","latitude":38.97,"zip":"64131","country":"United States","longitude":-94.58,"id":"a6dup1d9jpry","state":"MO"},"type":"Feature","geometry":{"type":"Point","coordinates":[-94.58,38.97]}},{"properties":{"city":"Kansas City","latitude":38.97,"zip":"64131","country":"United States","longitude":-94.58,"id":"a6dup1e99cqw","state":"MO"},"type":"Feature","geometry":{"type":"Point","coordinates":[-94.58,38.97]}},{"properties":{"city":"Kansas City","latitude":38.97,"zip":"64131","country":"United States","longitude":-94.58,"id":"a6dup1dj2lsw","state":"MO"},"type":"Feature","geometry":{"type":"Point","coordinates":[-94.58,38.97]}},{"properties":{"city":"Kansas City","latitude":38.97,"zip":"64131","country":"United States","longitude":-94.58,"id":"a6dup0zvm9d8","state":"MO"},"type":"Feature","geometry":{"type":"Point","coordinates":[-94.58,38.97]}},{"properties":{"city":"Kansas City","latitude":38.97,"zip":"64131","country":"United States","longitude":-94.58,"id":"a6dup0yruiae","state":"MO"},"type":"Feature","geometry":{"type":"Point","coordinates":[-94.58,38.97]}},{"properties":{"city":"Kansas City","latitude":38.97,"zip":"64131","country":"United States","longitude":-94.58,"id":"a6dup137x2i4","state":"MO"},"type":"Feature","geometry":{"type":"Point","coordinates":[-94.58,38.97]}},{"properties":{"city":"Kansas City","latitude":38.97,"zip":"64131","country":"United States","longitude":-94.58,"id":"a6dup1a4wrn6","state":"MO"},"type":"Feature","geometry":{"type":"Point","coordinates":[-94.58,38.97]}},{"properties":{"city":"Kansas City","latitude":38.97,"zip":"64131","country":"United States","longitude":-94.58,"id":"a6dup119whlj","state":"MO"},"type":"Feature","geometry":{"type":"Point","coordinates":[-94.58,38.97]}},{"properties":{"city":"Kansas City","latitude":38.97,"zip":"64131","country":"United States","longitude":-94.58,"id":"a6dup1d9dgun","state":"MO"},"type":"Feature","geometry":{"type":"Point","coordinates":[-94.58,38.97]}},{"properties":{"city":"Kansas City","latitude":38.97,"zip":"64131","country":"United States","longitude":-94.58,"id":"a6dup12o9ohv","state":"MO"},"type":"Feature","geometry":{"type":"Point","coordinates":[-94.58,38.97]}},{"properties":{"city":"Kansas City","latitude":38.97,"zip":"64131","country":"United States","longitude":-94.58,"id":"a6dup1cpjn99","state":"MO"},"type":"Feature","geometry":{"type":"Point","coordinates":[-94.58,38.97]}},{"properties":{"city":"Kansas City","latitude":38.97,"zip":"64131","country":"United States","longitude":-94.58,"id":"a6dup1drwplz","state":"MO"},"type":"Feature","geometry":{"type":"Point","coordinates":[-94.58,38.97]}},{"properties":{"city":"Kansas City","latitude":38.97,"zip":"64131","country":"United States","longitude":-94.58,"id":"a6dup12rqg30","state":"MO"},"type":"Feature","geometry":{"type":"Point","coordinates":[-94.58,38.97]}},{"properties":{"city":"Kansas City","latitude":38.97,"zip":"64131","country":"United States","longitude":-94.58,"id":"a6dup12vsb6l","state":"MO"},"type":"Feature","geometry":{"type":"Point","coordinates":[-94.58,38.97]}},{"properties":{"city":"Kansas City","latitude":38.97,"zip":"64131","country":"United States","longitude":-94.58,"id":"a6dup15b5o2u","state":"MO"},"type":"Feature","geometry":{"type":"Point","coordinates":[-94.58,38.97]}},{"properties":{"city":"Kansas City","latitude":38.97,"zip":"64131","country":"United States","longitude":-94.58,"id":"a6dup19jxpal","state":"MO"},"type":"Feature","geometry":{"type":"Point","coordinates":[-94.58,38.97]}},{"properties":{"city":"Kansas City","latitude":38.97,"zip":"64131","country":"United States","longitude":-94.58,"id":"a6dup17gyz2y","state":"MO"},"type":"Feature","geometry":{"type":"Point","coordinates":[-94.58,38.97]}},{"properties":{"city":"Kansas City","latitude":38.97,"zip":"64131","country":"United States","longitude":-94.58,"id":"a6dup141wafd","state":"MO"},"type":"Feature","geometry":{"type":"Point","coordinates":[-94.58,38.97]}},{"properties":{"city":"Kansas City","latitude":38.97,"zip":"64131","country":"United States","longitude":-94.58,"id":"a6dup18ei81t","state":"MO"},"type":"Feature","geometry":{"type":"Point","coordinates":[-94.58,38.97]}},{"properties":{"city":"Kansas City","latitude":38.97,"zip":"64131","country":"United States","longitude":-94.58,"id":"a6dup15tcsn1","state":"MO"},"type":"Feature","geometry":{"type":"Point","coordinates":[-94.58,38.97]}},{"properties":{"city":"Kansas City","latitude":38.97,"zip":"64131","country":"United States","longitude":-94.58,"id":"a6dup0ze65v4","state":"MO"},"type":"Feature","geometry":{"type":"Point","coordinates":[-94.58,38.97]}},{"properties":{"city":"Kansas City","latitude":38.97,"zip":"64131","country":"United States","longitude":-94.58,"id":"a6dup12jv9l1","state":"MO"},"type":"Feature","geometry":{"type":"Point","coordinates":[-94.58,38.97]}},{"properties":{"city":"Kansas City","latitude":38.97,"zip":"64131","country":"United States","longitude":-94.58,"id":"a6dup13wau0c","state":"MO"},"type":"Feature","geometry":{"type":"Point","coordinates":[-94.58,38.97]}},{"properties":{"city":"Kansas City","latitude":38.97,"zip":"64131","country":"United States","longitude":-94.58,"id":"a6dup1anj3ab","state":"MO"},"type":"Feature","geometry":{"type":"Point","coordinates":[-94.58,38.97]}},{"properties":{"city":"Kansas City","latitude":38.97,"zip":"64131","country":"United States","longitude":-94.58,"id":"a6dup12jly8a","state":"MO"},"type":"Feature","geometry":{"type":"Point","coordinates":[-94.58,38.97]}},{"properties":{"city":"Kansas City","latitude":38.97,"zip":"64131","country":"United States","longitude":-94.58,"id":"a6dup15wxaxq","state":"MO"},"type":"Feature","geometry":{"type":"Point","coordinates":[-94.58,38.97]}},{"properties":{"city":"Kansas City","latitude":38.97,"zip":"64131","country":"United States","longitude":-94.58,"id":"a6dup0z76y9e","state":"MO"},"type":"Feature","geometry":{"type":"Point","coordinates":[-94.58,38.97]}},{"properties":{"city":"Kansas City","latitude":38.97,"zip":"64131","country":"United States","longitude":-94.58,"id":"a6dup1bmy382","state":"MO"},"type":"Feature","geometry":{"type":"Point","coordinates":[-94.58,38.97]}},{"properties":{"city":"Kansas City","latitude":38.97,"zip":"64131","country":"United States","longitude":-94.58,"id":"a6dup1b9is42","state":"MO"},"type":"Feature","geometry":{"type":"Point","coordinates":[-94.58,38.97]}},{"properties":{"city":"Kansas City","latitude":38.97,"zip":"64131","country":"United States","longitude":-94.58,"id":"a6dup1dyr9gp","state":"MO"},"type":"Feature","geometry":{"type":"Point","coordinates":[-94.58,38.97]}},{"properties":{"city":"Kansas City","latitude":38.97,"zip":"64131","country":"United States","longitude":-94.58,"id":"a6dup1a63sna","state":"MO"},"type":"Feature","geometry":{"type":"Point","coordinates":[-94.58,38.97]}},{"properties":{"city":"Kansas City","latitude":38.97,"zip":"64131","country":"United States","longitude":-94.58,"id":"a6dup1egjqd4","state":"MO"},"type":"Feature","geometry":{"type":"Point","coordinates":[-94.58,38.97]}},{"properties":{"city":"Kansas City","latitude":38.97,"zip":"64131","country":"United States","longitude":-94.58,"id":"a6dup19c61ly","state":"MO"},"type":"Feature","geometry":{"type":"Point","coordinates":[-94.58,38.97]}},{"properties":{"city":"Kansas City","latitude":38.97,"zip":"64131","country":"United States","longitude":-94.58,"id":"a6dup17n8hxc","state":"MO"},"type":"Feature","geometry":{"type":"Point","coordinates":[-94.58,38.97]}},{"properties":{"city":"Kansas City","latitude":38.97,"zip":"64131","country":"United States","longitude":-94.58,"id":"a6dup1809h7k","state":"MO"},"type":"Feature","geometry":{"type":"Point","coordinates":[-94.58,38.97]}},{"properties":{"city":"Kansas City","latitude":38.97,"zip":"64131","country":"United States","longitude":-94.58,"id":"a6dup1bdku7t","state":"MO"},"type":"Feature","geometry":{"type":"Point","coordinates":[-94.58,38.97]}},{"properties":{"city":"Kansas City","latitude":38.97,"zip":"64131","country":"United States","longitude":-94.58,"id":"a6dup1awf3kb","state":"MO"},"type":"Feature","geometry":{"type":"Point","coordinates":[-94.58,38.97]}},{"properties":{"city":"Kansas City","latitude":38.97,"zip":"64131","country":"United States","longitude":-94.58,"id":"a6dup0zsynra","state":"MO"},"type":"Feature","geometry":{"type":"Point","coordinates":[-94.58,38.97]}},{"properties":{"city":"Kansas City","latitude":38.97,"zip":"64131","country":"United States","longitude":-94.58,"id":"a6dup18rkabo","state":"MO"},"type":"Feature","geometry":{"type":"Point","coordinates":[-94.58,38.97]}},{"properties":{"city":"Kansas City","latitude":38.97,"zip":"64131","country":"United States","longitude":-94.58,"id":"a6dup13mkstb","state":"MO"},"type":"Feature","geometry":{"type":"Point","coordinates":[-94.58,38.97]}},{"properties":{"city":"Kansas City","latitude":38.97,"zip":"64131","country":"United States","longitude":-94.58,"id":"a6dup14phc9a","state":"MO"},"type":"Feature","geometry":{"type":"Point","coordinates":[-94.58,38.97]}},{"properties":{"city":"Kansas City","latitude":38.97,"zip":"64131","country":"United States","longitude":-94.58,"id":"a6dup1286fwu","state":"MO"},"type":"Feature","geometry":{"type":"Point","coordinates":[-94.58,38.97]}},{"properties":{"city":"Kansas City","latitude":38.97,"zip":"64131","country":"United States","longitude":-94.58,"id":"a6dup187pjt1","state":"MO"},"type":"Feature","geometry":{"type":"Point","coordinates":[-94.58,38.97]}},{"properties":{"city":"Kansas City","latitude":38.97,"zip":"64131","country":"United States","longitude":-94.58,"id":"a6dup18x97km","state":"MO"},"type":"Feature","geometry":{"type":"Point","coordinates":[-94.58,38.97]}},{"properties":{"city":"Kansas City","latitude":38.99,"zip":"64132","country":"United States","longitude":-94.55,"id":"a6dup1chja8w","state":"MO"},"type":"Feature","geometry":{"type":"Point","coordinates":[-94.55,38.99]}},{"properties":{"city":"Kansas City","latitude":38.99,"zip":"64132","country":"United States","longitude":-94.55,"id":"a6dup16whpat","state":"MO"},"type":"Feature","geometry":{"type":"Point","coordinates":[-94.55,38.99]}},{"properties":{"city":"Kansas City","latitude":38.99,"zip":"64132","country":"United States","longitude":-94.55,"id":"a6dup1dqslzv","state":"MO"},"type":"Feature","geometry":{"type":"Point","coordinates":[-94.55,38.99]}},{"properties":{"city":"Kansas City","latitude":38.99,"zip":"64132","country":"United States","longitude":-94.55,"id":"a6dup1dvy0vk","state":"MO"},"type":"Feature","geometry":{"type":"Point","coordinates":[-94.55,38.99]}},{"properties":{"city":"Kansas City","latitude":38.99,"zip":"64132","country":"United States","longitude":-94.55,"id":"a6dup17u2jbx","state":"MO"},"type":"Feature","geometry":{"type":"Point","coordinates":[-94.55,38.99]}},{"properties":{"city":"Kansas City","latitude":38.99,"zip":"64132","country":"United States","longitude":-94.55,"id":"a6dup1f8nbvp","state":"MO"},"type":"Feature","geometry":{"type":"Point","coordinates":[-94.55,38.99]}},{"properties":{"city":"Kansas City","latitude":38.99,"zip":"64132","country":"United States","longitude":-94.55,"id":"a6dup14s1i0e","state":"MO"},"type":"Feature","geometry":{"type":"Point","coordinates":[-94.55,38.99]}},{"properties":{"city":"Kansas City","latitude":38.99,"zip":"64132","country":"United States","longitude":-94.55,"id":"a6dup15ij1kc","state":"MO"},"type":"Feature","geometry":{"type":"Point","coordinates":[-94.55,38.99]}},{"properties":{"city":"Kansas City","latitude":38.99,"zip":"64132","country":"United States","longitude":-94.55,"id":"a6dup1bzpc2s","state":"MO"},"type":"Feature","geometry":{"type":"Point","coordinates":[-94.55,38.99]}},{"properties":{"city":"Kansas City","latitude":38.99,"zip":"64132","country":"United States","longitude":-94.55,"id":"a6dup18hahmr","state":"MO"},"type":"Feature","geometry":{"type":"Point","coordinates":[-94.55,38.99]}},{"properties":{"city":"Kansas City","latitude":38.99,"zip":"64132","country":"United States","longitude":-94.55,"id":"a6dup1aut23s","state":"MO"},"type":"Feature","geometry":{"type":"Point","coordinates":[-94.55,38.99]}},{"properties":{"city":"Kansas City","latitude":38.99,"zip":"64132","country":"United States","longitude":-94.55,"id":"a6dup1611uor","state":"MO"},"type":"Feature","geometry":{"type":"Point","coordinates":[-94.55,38.99]}},{"properties":{"city":"Kansas City","latitude":38.99,"zip":"64132","country":"United States","longitude":-94.55,"id":"a6dup0yvqaws","state":"MO"},"type":"Feature","geometry":{"type":"Point","coordinates":[-94.55,38.99]}},{"properties":{"city":"Kansas City","latitude":38.99,"zip":"64132","country":"United States","longitude":-94.55,"id":"a6dup17g8o9u","state":"MO"},"type":"Feature","geometry":{"type":"Point","coordinates":[-94.55,38.99]}},{"properties":{"city":"Kansas City","latitude":38.99,"zip":"64132","country":"United States","longitude":-94.55,"id":"a6dup11s8udy","state":"MO"},"type":"Feature","geometry":{"type":"Point","coordinates":[-94.55,38.99]}},{"properties":{"city":"Kansas City","latitude":38.99,"zip":"64132","country":"United States","longitude":-94.55,"id":"a6dup13netxj","state":"MO"},"type":"Feature","geometry":{"type":"Point","coordinates":[-94.55,38.99]}},{"properties":{"city":"Kansas City","latitude":38.99,"zip":"64132","country":"United States","longitude":-94.55,"id":"a6dup17qrx2y","state":"MO"},"type":"Feature","geometry":{"type":"Point","coordinates":[-94.55,38.99]}},{"properties":{"city":"Kansas City","latitude":38.99,"zip":"64132","country":"United States","longitude":-94.55,"id":"a6dup1680ulj","state":"MO"},"type":"Feature","geometry":{"type":"Point","coordinates":[-94.55,38.99]}},{"properties":{"city":"Kansas City","latitude":38.99,"zip":"64132","country":"United States","longitude":-94.55,"id":"a6dup13b1qyj","state":"MO"},"type":"Feature","geometry":{"type":"Point","coordinates":[-94.55,38.99]}},{"properties":{"city":"Kansas City","latitude":38.99,"zip":"64132","country":"United States","longitude":-94.55,"id":"a6dup1dck4kn","state":"MO"},"type":"Feature","geometry":{"type":"Point","coordinates":[-94.55,38.99]}},{"properties":{"city":"Kansas City","latitude":38.99,"zip":"64132","country":"United States","longitude":-94.55,"id":"a6dup19ptv9q","state":"MO"},"type":"Feature","geometry":{"type":"Point","coordinates":[-94.55,38.99]}},{"properties":{"city":"Kansas City","latitude":38.99,"zip":"64132","country":"United States","longitude":-94.55,"id":"a6dup1ew2h37","state":"MO"},"type":"Feature","geometry":{"type":"Point","coordinates":[-94.55,38.99]}},{"properties":{"city":"Kansas City","latitude":38.99,"zip":"64132","country":"United States","longitude":-94.55,"id":"a6dup15clqae","state":"MO"},"type":"Feature","geometry":{"type":"Point","coordinates":[-94.55,38.99]}},{"properties":{"city":"Kansas City","latitude":39.01,"zip":"64133","country":"United States","longitude":-94.46,"id":"a6dup126b60b","state":"MO"},"type":"Feature","geometry":{"type":"Point","coordinates":[-94.46,39.01]}},{"properties":{"city":"Kansas City","latitude":39.01,"zip":"64133","country":"United States","longitude":-94.46,"id":"a6dup1e6mloo","state":"MO"},"type":"Feature","geometry":{"type":"Point","coordinates":[-94.46,39.01]}},{"properties":{"city":"Kansas City","latitude":39.01,"zip":"64133","country":"United States","longitude":-94.46,"id":"a6dup16srxvj","state":"MO"},"type":"Feature","geometry":{"type":"Point","coordinates":[-94.46,39.01]}},{"properties":{"city":"Kansas City","latitude":39.01,"zip":"64133","country":"United States","longitude":-94.46,"id":"a6dup19vtqgp","state":"MO"},"type":"Feature","geometry":{"type":"Point","coordinates":[-94.46,39.01]}},{"properties":{"city":"Kansas City","latitude":38.97,"zip":"64138","country":"United States","longitude":-94.47,"id":"a6dup17nzgmd","state":"MO"},"type":"Feature","geometry":{"type":"Point","coordinates":[-94.47,38.97]}},{"properties":{"city":"Kansas City","latitude":38.97,"zip":"64138","country":"United States","longitude":-94.47,"id":"a6dup1eyparx","state":"MO"},"type":"Feature","geometry":{"type":"Point","coordinates":[-94.47,38.97]}},{"properties":{"city":"Kansas City","latitude":38.97,"zip":"64138","country":"United States","longitude":-94.47,"id":"a6dup10zyp7j","state":"MO"},"type":"Feature","geometry":{"type":"Point","coordinates":[-94.47,38.97]}}],"is_temporal":false,"author":{"url":"","metadata":"","contact_name":"","contact_address":"","source":"","contact_phone":""},"source":"","pagination":{"sort":null,"start":0,"total":484,"limit":1000000},"state":"complete","tags":"","published":"2014-08-11T00:07:35-04:00","id":18363}