{"type":"FeatureCollection","data_type":"Dataset","url_type":null,"permissions":[{"permissions":{"download":true,"view":true},"group_id":"everyone"}],"classification":null,"title":"my student list","count":397,"stream_id":18361,"contributor":{"url":"http://geocommons.com/users/9800","name":"tempalte"},"data_attributes":null,"calculation_params":null,"icon_link":null,"link":"http://geocommons.com/overlays/18361.json","extent":[-94.5986,39.1024,-94.5986,39.1024],"geometry_types":["point"],"unique_name":null,"name":"my student list","feature_count":397,"description":"","next_feature":null,"is_raster":false,"short_classification":"Y","stats":{"name":{"max":1.0,"mean":1.0,"variance":0.0,"stdev":0.0,"min":1.0,"median":1.0},"geo_score":{"max":0.857,"mean":0.857000000000006,"variance":4.15692096673731e-29,"stdev":6.44741883759486e-15,"min":0.857,"median":0.857}},"features":[{"properties":{"name":1.0,"city":"Kansas City","zip":"641106","geo_score":0.857,"country":"United States","id":"a65isokyc6f7","geo_precision":"city","state":"MO"},"type":"Feature","geometry":{"type":"Point","coordinates":[-94.598583,39.102404]}},{"properties":{"name":1.0,"city":"Kansas City","zip":"641106","geo_score":0.857,"country":"United States","id":"a65isorzvpt5","geo_precision":"city","state":"MO"},"type":"Feature","geometry":{"type":"Point","coordinates":[-94.598583,39.102404]}},{"properties":{"name":1.0,"city":"Kansas City","zip":"641106","geo_score":0.857,"country":"United States","id":"a65isommjy82","geo_precision":"city","state":"MO"},"type":"Feature","geometry":{"type":"Point","coordinates":[-94.598583,39.102404]}},{"properties":{"name":1.0,"city":"Kansas City","zip":"641106","geo_score":0.857,"country":"United States","id":"a65isog1ttwo","geo_precision":"city","state":"MO"},"type":"Feature","geometry":{"type":"Point","coordinates":[-94.598583,39.102404]}},{"properties":{"name":1.0,"city":"Kansas City","zip":"641106","geo_score":0.857,"country":"United States","id":"a65isolkzsec","geo_precision":"city","state":"MO"},"type":"Feature","geometry":{"type":"Point","coordinates":[-94.598583,39.102404]}},{"properties":{"name":1.0,"city":"Kansas City","zip":"641106","geo_score":0.857,"country":"United States","id":"a65isocvibgp","geo_precision":"city","state":"MO"},"type":"Feature","geometry":{"type":"Point","coordinates":[-94.598583,39.102404]}},{"properties":{"name":1.0,"city":"Kansas City","zip":"641106","geo_score":0.857,"country":"United States","id":"a65isoghinyy","geo_precision":"city","state":"MO"},"type":"Feature","geometry":{"type":"Point","coordinates":[-94.598583,39.102404]}},{"properties":{"name":1.0,"city":"Kansas City","zip":"641106","geo_score":0.857,"country":"United States","id":"a65isom7du0v","geo_precision":"city","state":"MO"},"type":"Feature","geometry":{"type":"Point","coordinates":[-94.598583,39.102404]}},{"properties":{"name":1.0,"city":"Kansas City","zip":"641106","geo_score":0.857,"country":"United States","id":"a65isohbwwbf","geo_precision":"city","state":"MO"},"type":"Feature","geometry":{"type":"Point","coordinates":[-94.598583,39.102404]}},{"properties":{"name":1.0,"city":"Kansas City","zip":"641106","geo_score":0.857,"country":"United States","id":"a65isojq4dho","geo_precision":"city","state":"MO"},"type":"Feature","geometry":{"type":"Point","coordinates":[-94.598583,39.102404]}},{"properties":{"name":1.0,"city":"Kansas City","zip":"641106","geo_score":0.857,"country":"United States","id":"a65isofq76fw","geo_precision":"city","state":"MO"},"type":"Feature","geometry":{"type":"Point","coordinates":[-94.598583,39.102404]}},{"properties":{"name":1.0,"city":"Kansas City","zip":"641108","geo_score":0.857,"country":"United States","id":"a65isomreoob","geo_precision":"city","state":"MO"},"type":"Feature","geometry":{"type":"Point","coordinates":[-94.598583,39.102404]}},{"properties":{"name":1.0,"city":"Kansas City","zip":"641108","geo_score":0.857,"country":"United States","id":"a65isonz065g","geo_precision":"city","state":"MO"},"type":"Feature","geometry":{"type":"Point","coordinates":[-94.598583,39.102404]}},{"properties":{"name":1.0,"city":"Kansas City","zip":"641108","geo_score":0.857,"country":"United States","id":"a65isoh5yfus","geo_precision":"city","state":"MO"},"type":"Feature","geometry":{"type":"Point","coordinates":[-94.598583,39.102404]}},{"properties":{"name":1.0,"city":"Kansas City","zip":"641108","geo_score":0.857,"country":"United States","id":"a65isohqyxdf","geo_precision":"city","state":"MO"},"type":"Feature","geometry":{"type":"Point","coordinates":[-94.598583,39.102404]}},{"properties":{"name":1.0,"city":"Kansas City","zip":"641108","geo_score":0.857,"country":"United States","id":"a65isoke9o97","geo_precision":"city","state":"MO"},"type":"Feature","geometry":{"type":"Point","coordinates":[-94.598583,39.102404]}},{"properties":{"name":1.0,"city":"Kansas City","zip":"641108","geo_score":0.857,"country":"United States","id":"a65isoq8cbv1","geo_precision":"city","state":"MO"},"type":"Feature","geometry":{"type":"Point","coordinates":[-94.598583,39.102404]}},{"properties":{"name":1.0,"city":"Kansas City","zip":"641108","geo_score":0.857,"country":"United States","id":"a65isomgakjx","geo_precision":"city","state":"MO"},"type":"Feature","geometry":{"type":"Point","coordinates":[-94.598583,39.102404]}},{"properties":{"name":1.0,"city":"Kansas City","zip":"641108","geo_score":0.857,"country":"United States","id":"a65isojjzcsc","geo_precision":"city","state":"MO"},"type":"Feature","geometry":{"type":"Point","coordinates":[-94.598583,39.102404]}},{"properties":{"name":1.0,"city":"Kansas City","zip":"641108","geo_score":0.857,"country":"United States","id":"a65isolzp9kz","geo_precision":"city","state":"MO"},"type":"Feature","geometry":{"type":"Point","coordinates":[-94.598583,39.102404]}},{"properties":{"name":1.0,"city":"Kansas City","zip":"641108","geo_score":0.857,"country":"United States","id":"a65isoevo94a","geo_precision":"city","state":"MO"},"type":"Feature","geometry":{"type":"Point","coordinates":[-94.598583,39.102404]}},{"properties":{"name":1.0,"city":"Kansas City","zip":"641108","geo_score":0.857,"country":"United States","id":"a65isodiyvcv","geo_precision":"city","state":"MO"},"type":"Feature","geometry":{"type":"Point","coordinates":[-94.598583,39.102404]}},{"properties":{"name":1.0,"city":"Kansas City","zip":"641108","geo_score":0.857,"country":"United States","id":"a65isommao87","geo_precision":"city","state":"MO"},"type":"Feature","geometry":{"type":"Point","coordinates":[-94.598583,39.102404]}},{"properties":{"name":1.0,"city":"Kansas City","zip":"641109","geo_score":0.857,"country":"United States","id":"a65isohqfe2u","geo_precision":"city","state":"MO"},"type":"Feature","geometry":{"type":"Point","coordinates":[-94.598583,39.102404]}},{"properties":{"name":1.0,"city":"Kansas City","zip":"641109","geo_score":0.857,"country":"United States","id":"a65isoiyqrhs","geo_precision":"city","state":"MO"},"type":"Feature","geometry":{"type":"Point","coordinates":[-94.598583,39.102404]}},{"properties":{"name":1.0,"city":"Kansas City","zip":"641109","geo_score":0.857,"country":"United States","id":"a65isor64f6m","geo_precision":"city","state":"MO"},"type":"Feature","geometry":{"type":"Point","coordinates":[-94.598583,39.102404]}},{"properties":{"name":1.0,"city":"Kansas City","zip":"641109","geo_score":0.857,"country":"United States","id":"a65isos2xa9g","geo_precision":"city","state":"MO"},"type":"Feature","geometry":{"type":"Point","coordinates":[-94.598583,39.102404]}},{"properties":{"name":1.0,"city":"Kansas City","zip":"641109","geo_score":0.857,"country":"United States","id":"a65isosmnpwo","geo_precision":"city","state":"MO"},"type":"Feature","geometry":{"type":"Point","coordinates":[-94.598583,39.102404]}},{"properties":{"name":1.0,"city":"Kansas City","zip":"641109","geo_score":0.857,"country":"United States","id":"a65isom80o17","geo_precision":"city","state":"MO"},"type":"Feature","geometry":{"type":"Point","coordinates":[-94.598583,39.102404]}},{"properties":{"name":1.0,"city":"Kansas City","zip":"641109","geo_score":0.857,"country":"United States","id":"a65isodbfryv","geo_precision":"city","state":"MO"},"type":"Feature","geometry":{"type":"Point","coordinates":[-94.598583,39.102404]}},{"properties":{"name":1.0,"city":"Kansas City","zip":"641109","geo_score":0.857,"country":"United States","id":"a65isooqhy8s","geo_precision":"city","state":"MO"},"type":"Feature","geometry":{"type":"Point","coordinates":[-94.598583,39.102404]}},{"properties":{"name":1.0,"city":"Kansas City","zip":"641109","geo_score":0.857,"country":"United States","id":"a65isoijeotv","geo_precision":"city","state":"MO"},"type":"Feature","geometry":{"type":"Point","coordinates":[-94.598583,39.102404]}},{"properties":{"name":1.0,"city":"Kansas City","zip":"641109","geo_score":0.857,"country":"United States","id":"a65isokkcimo","geo_precision":"city","state":"MO"},"type":"Feature","geometry":{"type":"Point","coordinates":[-94.598583,39.102404]}},{"properties":{"name":1.0,"city":"Kansas City","zip":"641109","geo_score":0.857,"country":"United States","id":"a65isolvt6yi","geo_precision":"city","state":"MO"},"type":"Feature","geometry":{"type":"Point","coordinates":[-94.598583,39.102404]}},{"properties":{"name":1.0,"city":"Kansas City","zip":"641109","geo_score":0.857,"country":"United States","id":"a65isogqbft9","geo_precision":"city","state":"MO"},"type":"Feature","geometry":{"type":"Point","coordinates":[-94.598583,39.102404]}},{"properties":{"name":1.0,"city":"Kansas City","zip":"641109","geo_score":0.857,"country":"United States","id":"a65isoj8rkkf","geo_precision":"city","state":"MO"},"type":"Feature","geometry":{"type":"Point","coordinates":[-94.598583,39.102404]}},{"properties":{"name":1.0,"city":"Kansas City","zip":"641109","geo_score":0.857,"country":"United States","id":"a65isooz251n","geo_precision":"city","state":"MO"},"type":"Feature","geometry":{"type":"Point","coordinates":[-94.598583,39.102404]}},{"properties":{"name":1.0,"city":"Kansas City","zip":"641109","geo_score":0.857,"country":"United States","id":"a65isoh3ybj0","geo_precision":"city","state":"MO"},"type":"Feature","geometry":{"type":"Point","coordinates":[-94.598583,39.102404]}},{"properties":{"name":1.0,"city":"Kansas City","zip":"641109","geo_score":0.857,"country":"United States","id":"a65isoq95itl","geo_precision":"city","state":"MO"},"type":"Feature","geometry":{"type":"Point","coordinates":[-94.598583,39.102404]}},{"properties":{"name":1.0,"city":"Kansas City","zip":"641109","geo_score":0.857,"country":"United States","id":"a65isofosf4k","geo_precision":"city","state":"MO"},"type":"Feature","geometry":{"type":"Point","coordinates":[-94.598583,39.102404]}},{"properties":{"name":1.0,"city":"Kansas City","zip":"641109","geo_score":0.857,"country":"United States","id":"a65isoediq6k","geo_precision":"city","state":"MO"},"type":"Feature","geometry":{"type":"Point","coordinates":[-94.598583,39.102404]}},{"properties":{"name":1.0,"city":"Kansas City","zip":"641109","geo_score":0.857,"country":"United States","id":"a65isoj9hvzw","geo_precision":"city","state":"MO"},"type":"Feature","geometry":{"type":"Point","coordinates":[-94.598583,39.102404]}},{"properties":{"name":1.0,"city":"Kansas City","zip":"641109","geo_score":0.857,"country":"United States","id":"a65isok5s8lx","geo_precision":"city","state":"MO"},"type":"Feature","geometry":{"type":"Point","coordinates":[-94.598583,39.102404]}},{"properties":{"name":1.0,"city":"Kansas City","zip":"641109","geo_score":0.857,"country":"United States","id":"a65isom02aqj","geo_precision":"city","state":"MO"},"type":"Feature","geometry":{"type":"Point","coordinates":[-94.598583,39.102404]}},{"properties":{"name":1.0,"city":"Kansas City","zip":"641109","geo_score":0.857,"country":"United States","id":"a65isoia6m0o","geo_precision":"city","state":"MO"},"type":"Feature","geometry":{"type":"Point","coordinates":[-94.598583,39.102404]}},{"properties":{"name":1.0,"city":"Kansas City","zip":"641109","geo_score":0.857,"country":"United States","id":"a65isoryhd1b","geo_precision":"city","state":"MO"},"type":"Feature","geometry":{"type":"Point","coordinates":[-94.598583,39.102404]}},{"properties":{"name":1.0,"city":"Kansas City","zip":"641109","geo_score":0.857,"country":"United States","id":"a65isosoz7qd","geo_precision":"city","state":"MO"},"type":"Feature","geometry":{"type":"Point","coordinates":[-94.598583,39.102404]}},{"properties":{"name":1.0,"city":"Kansas City","zip":"641109","geo_score":0.857,"country":"United States","id":"a65isog9ojcj","geo_precision":"city","state":"MO"},"type":"Feature","geometry":{"type":"Point","coordinates":[-94.598583,39.102404]}},{"properties":{"name":1.0,"city":"Kansas City","zip":"641109","geo_score":0.857,"country":"United States","id":"a65isonxw3o9","geo_precision":"city","state":"MO"},"type":"Feature","geometry":{"type":"Point","coordinates":[-94.598583,39.102404]}},{"properties":{"name":1.0,"city":"Kansas City","zip":"641109","geo_score":0.857,"country":"United States","id":"a65isomemsc2","geo_precision":"city","state":"MO"},"type":"Feature","geometry":{"type":"Point","coordinates":[-94.598583,39.102404]}},{"properties":{"name":1.0,"city":"Kansas City","zip":"641109","geo_score":0.857,"country":"United States","id":"a65isoceoll8","geo_precision":"city","state":"MO"},"type":"Feature","geometry":{"type":"Point","coordinates":[-94.598583,39.102404]}},{"properties":{"name":1.0,"city":"Kansas City","zip":"641110","geo_score":0.857,"country":"United States","id":"a65isoqpeuyk","geo_precision":"city","state":"MO"},"type":"Feature","geometry":{"type":"Point","coordinates":[-94.598583,39.102404]}},{"properties":{"name":1.0,"city":"Kansas City","zip":"641110","geo_score":0.857,"country":"United States","id":"a65isol0eghr","geo_precision":"city","state":"MO"},"type":"Feature","geometry":{"type":"Point","coordinates":[-94.598583,39.102404]}},{"properties":{"name":1.0,"city":"Kansas City","zip":"641110","geo_score":0.857,"country":"United States","id":"a65isokv7run","geo_precision":"city","state":"MO"},"type":"Feature","geometry":{"type":"Point","coordinates":[-94.598583,39.102404]}},{"properties":{"name":1.0,"city":"Kansas City","zip":"641110","geo_score":0.857,"country":"United States","id":"a65isog85k3g","geo_precision":"city","state":"MO"},"type":"Feature","geometry":{"type":"Point","coordinates":[-94.598583,39.102404]}},{"properties":{"name":1.0,"city":"Kansas City","zip":"641110","geo_score":0.857,"country":"United States","id":"a65isofxwlcg","geo_precision":"city","state":"MO"},"type":"Feature","geometry":{"type":"Point","coordinates":[-94.598583,39.102404]}},{"properties":{"name":1.0,"city":"Kansas City","zip":"641110","geo_score":0.857,"country":"United States","id":"a65isoqxm0k7","geo_precision":"city","state":"MO"},"type":"Feature","geometry":{"type":"Point","coordinates":[-94.598583,39.102404]}},{"properties":{"name":1.0,"city":"Kansas City","zip":"641110","geo_score":0.857,"country":"United States","id":"a65isoe0nwwf","geo_precision":"city","state":"MO"},"type":"Feature","geometry":{"type":"Point","coordinates":[-94.598583,39.102404]}},{"properties":{"name":1.0,"city":"Kansas City","zip":"641110","geo_score":0.857,"country":"United States","id":"a65isofn4xyv","geo_precision":"city","state":"MO"},"type":"Feature","geometry":{"type":"Point","coordinates":[-94.598583,39.102404]}},{"properties":{"name":1.0,"city":"Kansas City","zip":"641110","geo_score":0.857,"country":"United States","id":"a65isokqm3lt","geo_precision":"city","state":"MO"},"type":"Feature","geometry":{"type":"Point","coordinates":[-94.598583,39.102404]}},{"properties":{"name":1.0,"city":"Kansas City","zip":"641110","geo_score":0.857,"country":"United States","id":"a65isok1ef9n","geo_precision":"city","state":"MO"},"type":"Feature","geometry":{"type":"Point","coordinates":[-94.598583,39.102404]}},{"properties":{"name":1.0,"city":"Kansas City","zip":"641110","geo_score":0.857,"country":"United States","id":"a65ison4ut7d","geo_precision":"city","state":"MO"},"type":"Feature","geometry":{"type":"Point","coordinates":[-94.598583,39.102404]}},{"properties":{"name":1.0,"city":"Kansas City","zip":"641110","geo_score":0.857,"country":"United States","id":"a65isomy6vlg","geo_precision":"city","state":"MO"},"type":"Feature","geometry":{"type":"Point","coordinates":[-94.598583,39.102404]}},{"properties":{"name":1.0,"city":"Kansas City","zip":"641110","geo_score":0.857,"country":"United States","id":"a65isonv5c8x","geo_precision":"city","state":"MO"},"type":"Feature","geometry":{"type":"Point","coordinates":[-94.598583,39.102404]}},{"properties":{"name":1.0,"city":"Kansas City","zip":"641110","geo_score":0.857,"country":"United States","id":"a65isojys9ph","geo_precision":"city","state":"MO"},"type":"Feature","geometry":{"type":"Point","coordinates":[-94.598583,39.102404]}},{"properties":{"name":1.0,"city":"Kansas City","zip":"641110","geo_score":0.857,"country":"United States","id":"a65isof4ch0s","geo_precision":"city","state":"MO"},"type":"Feature","geometry":{"type":"Point","coordinates":[-94.598583,39.102404]}},{"properties":{"name":1.0,"city":"Kansas City","zip":"641110","geo_score":0.857,"country":"United States","id":"a65isomc16il","geo_precision":"city","state":"MO"},"type":"Feature","geometry":{"type":"Point","coordinates":[-94.598583,39.102404]}},{"properties":{"name":1.0,"city":"Kansas City","zip":"641110","geo_score":0.857,"country":"United States","id":"a65isoljvo5h","geo_precision":"city","state":"MO"},"type":"Feature","geometry":{"type":"Point","coordinates":[-94.598583,39.102404]}},{"properties":{"name":1.0,"city":"Kansas City","zip":"641110","geo_score":0.857,"country":"United States","id":"a65isoe2z9ag","geo_precision":"city","state":"MO"},"type":"Feature","geometry":{"type":"Point","coordinates":[-94.598583,39.102404]}},{"properties":{"name":1.0,"city":"Kansas City","zip":"641110","geo_score":0.857,"country":"United States","id":"a65isol8liwg","geo_precision":"city","state":"MO"},"type":"Feature","geometry":{"type":"Point","coordinates":[-94.598583,39.102404]}},{"properties":{"name":1.0,"city":"Kansas City","zip":"641110","geo_score":0.857,"country":"United States","id":"a65isom3pxwl","geo_precision":"city","state":"MO"},"type":"Feature","geometry":{"type":"Point","coordinates":[-94.598583,39.102404]}},{"properties":{"name":1.0,"city":"Kansas City","zip":"641110","geo_score":0.857,"country":"United States","id":"a65isodsltie","geo_precision":"city","state":"MO"},"type":"Feature","geometry":{"type":"Point","coordinates":[-94.598583,39.102404]}},{"properties":{"name":1.0,"city":"Kansas City","zip":"641110","geo_score":0.857,"country":"United States","id":"a65isoot2g3n","geo_precision":"city","state":"MO"},"type":"Feature","geometry":{"type":"Point","coordinates":[-94.598583,39.102404]}},{"properties":{"name":1.0,"city":"Kansas City","zip":"641110","geo_score":0.857,"country":"United States","id":"a65isogm85ka","geo_precision":"city","state":"MO"},"type":"Feature","geometry":{"type":"Point","coordinates":[-94.598583,39.102404]}},{"properties":{"name":1.0,"city":"Kansas City","zip":"641110","geo_score":0.857,"country":"United States","id":"a65isomyxho4","geo_precision":"city","state":"MO"},"type":"Feature","geometry":{"type":"Point","coordinates":[-94.598583,39.102404]}},{"properties":{"name":1.0,"city":"Kansas City","zip":"641110","geo_score":0.857,"country":"United States","id":"a65isornmiw3","geo_precision":"city","state":"MO"},"type":"Feature","geometry":{"type":"Point","coordinates":[-94.598583,39.102404]}},{"properties":{"name":1.0,"city":"Kansas City","zip":"641110","geo_score":0.857,"country":"United States","id":"a65isoorw3av","geo_precision":"city","state":"MO"},"type":"Feature","geometry":{"type":"Point","coordinates":[-94.598583,39.102404]}},{"properties":{"name":1.0,"city":"Kansas City","zip":"641110","geo_score":0.857,"country":"United States","id":"a65isooj7hwp","geo_precision":"city","state":"MO"},"type":"Feature","geometry":{"type":"Point","coordinates":[-94.598583,39.102404]}},{"properties":{"name":1.0,"city":"Kansas City","zip":"641110","geo_score":0.857,"country":"United States","id":"a65isonv9lj9","geo_precision":"city","state":"MO"},"type":"Feature","geometry":{"type":"Point","coordinates":[-94.598583,39.102404]}},{"properties":{"name":1.0,"city":"Kansas City","zip":"641110","geo_score":0.857,"country":"United States","id":"a65isodubw8p","geo_precision":"city","state":"MO"},"type":"Feature","geometry":{"type":"Point","coordinates":[-94.598583,39.102404]}},{"properties":{"name":1.0,"city":"Kansas City","zip":"641110","geo_score":0.857,"country":"United States","id":"a65isoljgfz7","geo_precision":"city","state":"MO"},"type":"Feature","geometry":{"type":"Point","coordinates":[-94.598583,39.102404]}},{"properties":{"name":1.0,"city":"Kansas City","zip":"641110","geo_score":0.857,"country":"United States","id":"a65isof80mw0","geo_precision":"city","state":"MO"},"type":"Feature","geometry":{"type":"Point","coordinates":[-94.598583,39.102404]}},{"properties":{"name":1.0,"city":"Kansas City","zip":"641110","geo_score":0.857,"country":"United States","id":"a65isoimuhrz","geo_precision":"city","state":"MO"},"type":"Feature","geometry":{"type":"Point","coordinates":[-94.598583,39.102404]}},{"properties":{"name":1.0,"city":"Kansas City","zip":"641110","geo_score":0.857,"country":"United States","id":"a65isoloa80w","geo_precision":"city","state":"MO"},"type":"Feature","geometry":{"type":"Point","coordinates":[-94.598583,39.102404]}},{"properties":{"name":1.0,"city":"Kansas City","zip":"641110","geo_score":0.857,"country":"United States","id":"a65isocm9vx5","geo_precision":"city","state":"MO"},"type":"Feature","geometry":{"type":"Point","coordinates":[-94.598583,39.102404]}},{"properties":{"name":1.0,"city":"Kansas City","zip":"641110","geo_score":0.857,"country":"United States","id":"a65isofay96b","geo_precision":"city","state":"MO"},"type":"Feature","geometry":{"type":"Point","coordinates":[-94.598583,39.102404]}},{"properties":{"name":1.0,"city":"Kansas City","zip":"641110","geo_score":0.857,"country":"United States","id":"a65isosbc8yl","geo_precision":"city","state":"MO"},"type":"Feature","geometry":{"type":"Point","coordinates":[-94.598583,39.102404]}},{"properties":{"name":1.0,"city":"Kansas City","zip":"641110","geo_score":0.857,"country":"United States","id":"a65isoreetqs","geo_precision":"city","state":"MO"},"type":"Feature","geometry":{"type":"Point","coordinates":[-94.598583,39.102404]}},{"properties":{"name":1.0,"city":"Kansas City","zip":"641110","geo_score":0.857,"country":"United States","id":"a65isogx8rsb","geo_precision":"city","state":"MO"},"type":"Feature","geometry":{"type":"Point","coordinates":[-94.598583,39.102404]}},{"properties":{"name":1.0,"city":"Kansas City","zip":"641110","geo_score":0.857,"country":"United States","id":"a65isop64ga1","geo_precision":"city","state":"MO"},"type":"Feature","geometry":{"type":"Point","coordinates":[-94.598583,39.102404]}},{"properties":{"name":1.0,"city":"Kansas City","zip":"641110","geo_score":0.857,"country":"United States","id":"a65isogaj9m5","geo_precision":"city","state":"MO"},"type":"Feature","geometry":{"type":"Point","coordinates":[-94.598583,39.102404]}},{"properties":{"name":1.0,"city":"Kansas City","zip":"641110","geo_score":0.857,"country":"United States","id":"a65isocf90dx","geo_precision":"city","state":"MO"},"type":"Feature","geometry":{"type":"Point","coordinates":[-94.598583,39.102404]}},{"properties":{"name":1.0,"city":"Kansas City","zip":"641110","geo_score":0.857,"country":"United States","id":"a65isoslghu6","geo_precision":"city","state":"MO"},"type":"Feature","geometry":{"type":"Point","coordinates":[-94.598583,39.102404]}},{"properties":{"name":1.0,"city":"Kansas City","zip":"641110","geo_score":0.857,"country":"United States","id":"a65isoqtf3x2","geo_precision":"city","state":"MO"},"type":"Feature","geometry":{"type":"Point","coordinates":[-94.598583,39.102404]}},{"properties":{"name":1.0,"city":"Kansas City","zip":"641110","geo_score":0.857,"country":"United States","id":"a65isog9xwkx","geo_precision":"city","state":"MO"},"type":"Feature","geometry":{"type":"Point","coordinates":[-94.598583,39.102404]}},{"properties":{"name":1.0,"city":"Kansas City","zip":"641110","geo_score":0.857,"country":"United States","id":"a65isokddxtf","geo_precision":"city","state":"MO"},"type":"Feature","geometry":{"type":"Point","coordinates":[-94.598583,39.102404]}},{"properties":{"name":1.0,"city":"Kansas City","zip":"641110","geo_score":0.857,"country":"United States","id":"a65isodj18ib","geo_precision":"city","state":"MO"},"type":"Feature","geometry":{"type":"Point","coordinates":[-94.598583,39.102404]}},{"properties":{"name":1.0,"city":"Kansas City","zip":"641110","geo_score":0.857,"country":"United States","id":"a65isoo6e2po","geo_precision":"city","state":"MO"},"type":"Feature","geometry":{"type":"Point","coordinates":[-94.598583,39.102404]}},{"properties":{"name":1.0,"city":"Kansas City","zip":"641110","geo_score":0.857,"country":"United States","id":"a65isodq0e5e","geo_precision":"city","state":"MO"},"type":"Feature","geometry":{"type":"Point","coordinates":[-94.598583,39.102404]}},{"properties":{"name":1.0,"city":"Kansas City","zip":"641110","geo_score":0.857,"country":"United States","id":"a65isop1rzr0","geo_precision":"city","state":"MO"},"type":"Feature","geometry":{"type":"Point","coordinates":[-94.598583,39.102404]}},{"properties":{"name":1.0,"city":"Kansas City","zip":"641110","geo_score":0.857,"country":"United States","id":"a65isor387sj","geo_precision":"city","state":"MO"},"type":"Feature","geometry":{"type":"Point","coordinates":[-94.598583,39.102404]}},{"properties":{"name":1.0,"city":"Kansas City","zip":"641110","geo_score":0.857,"country":"United States","id":"a65isocld68w","geo_precision":"city","state":"MO"},"type":"Feature","geometry":{"type":"Point","coordinates":[-94.598583,39.102404]}},{"properties":{"name":1.0,"city":"Kansas City","zip":"641110","geo_score":0.857,"country":"United States","id":"a65isomkkpo2","geo_precision":"city","state":"MO"},"type":"Feature","geometry":{"type":"Point","coordinates":[-94.598583,39.102404]}},{"properties":{"name":1.0,"city":"Kansas City","zip":"641110","geo_score":0.857,"country":"United States","id":"a65isojbdrrh","geo_precision":"city","state":"MO"},"type":"Feature","geometry":{"type":"Point","coordinates":[-94.598583,39.102404]}},{"properties":{"name":1.0,"city":"Kansas City","zip":"641110","geo_score":0.857,"country":"United States","id":"a65isodowugm","geo_precision":"city","state":"MO"},"type":"Feature","geometry":{"type":"Point","coordinates":[-94.598583,39.102404]}},{"properties":{"name":1.0,"city":"Kansas City","zip":"641110","geo_score":0.857,"country":"United States","id":"a65isodd2x1u","geo_precision":"city","state":"MO"},"type":"Feature","geometry":{"type":"Point","coordinates":[-94.598583,39.102404]}},{"properties":{"name":1.0,"city":"Kansas City","zip":"641110","geo_score":0.857,"country":"United States","id":"a65isokxuhk4","geo_precision":"city","state":"MO"},"type":"Feature","geometry":{"type":"Point","coordinates":[-94.598583,39.102404]}},{"properties":{"name":1.0,"city":"Kansas City","zip":"641110","geo_score":0.857,"country":"United States","id":"a65isodafhn3","geo_precision":"city","state":"MO"},"type":"Feature","geometry":{"type":"Point","coordinates":[-94.598583,39.102404]}},{"properties":{"name":1.0,"city":"Kansas City","zip":"641110","geo_score":0.857,"country":"United States","id":"a65isor49skw","geo_precision":"city","state":"MO"},"type":"Feature","geometry":{"type":"Point","coordinates":[-94.598583,39.102404]}},{"properties":{"name":1.0,"city":"Kansas City","zip":"641110","geo_score":0.857,"country":"United States","id":"a65isordq9tl","geo_precision":"city","state":"MO"},"type":"Feature","geometry":{"type":"Point","coordinates":[-94.598583,39.102404]}},{"properties":{"name":1.0,"city":"Kansas City","zip":"641110","geo_score":0.857,"country":"United States","id":"a65isog4dscu","geo_precision":"city","state":"MO"},"type":"Feature","geometry":{"type":"Point","coordinates":[-94.598583,39.102404]}},{"properties":{"name":1.0,"city":"Kansas City","zip":"641111","geo_score":0.857,"country":"United States","id":"a65isoicl1la","geo_precision":"city","state":"MO"},"type":"Feature","geometry":{"type":"Point","coordinates":[-94.598583,39.102404]}},{"properties":{"name":1.0,"city":"Kansas City","zip":"641111","geo_score":0.857,"country":"United States","id":"a65isormpanw","geo_precision":"city","state":"MO"},"type":"Feature","geometry":{"type":"Point","coordinates":[-94.598583,39.102404]}},{"properties":{"name":1.0,"city":"Kansas City","zip":"641111","geo_score":0.857,"country":"United States","id":"a65isonf5cz2","geo_precision":"city","state":"MO"},"type":"Feature","geometry":{"type":"Point","coordinates":[-94.598583,39.102404]}},{"properties":{"name":1.0,"city":"Kansas City","zip":"641111","geo_score":0.857,"country":"United States","id":"a65isoifzlk4","geo_precision":"city","state":"MO"},"type":"Feature","geometry":{"type":"Point","coordinates":[-94.598583,39.102404]}},{"properties":{"name":1.0,"city":"Kansas City","zip":"641111","geo_score":0.857,"country":"United States","id":"a65isoml2qpv","geo_precision":"city","state":"MO"},"type":"Feature","geometry":{"type":"Point","coordinates":[-94.598583,39.102404]}},{"properties":{"name":1.0,"city":"Kansas City","zip":"641111","geo_score":0.857,"country":"United States","id":"a65isoffin6c","geo_precision":"city","state":"MO"},"type":"Feature","geometry":{"type":"Point","coordinates":[-94.598583,39.102404]}},{"properties":{"name":1.0,"city":"Kansas City","zip":"641111","geo_score":0.857,"country":"United States","id":"a65isoeh0sdw","geo_precision":"city","state":"MO"},"type":"Feature","geometry":{"type":"Point","coordinates":[-94.598583,39.102404]}},{"properties":{"name":1.0,"city":"Kansas City","zip":"641111","geo_score":0.857,"country":"United States","id":"a65isoi8v23l","geo_precision":"city","state":"MO"},"type":"Feature","geometry":{"type":"Point","coordinates":[-94.598583,39.102404]}},{"properties":{"name":1.0,"city":"Kansas City","zip":"641111","geo_score":0.857,"country":"United States","id":"a65isolb98wt","geo_precision":"city","state":"MO"},"type":"Feature","geometry":{"type":"Point","coordinates":[-94.598583,39.102404]}},{"properties":{"name":1.0,"city":"Kansas City","zip":"641111","geo_score":0.857,"country":"United States","id":"a65isoftblis","geo_precision":"city","state":"MO"},"type":"Feature","geometry":{"type":"Point","coordinates":[-94.598583,39.102404]}},{"properties":{"name":1.0,"city":"Kansas City","zip":"641111","geo_score":0.857,"country":"United States","id":"a65isomfy0eq","geo_precision":"city","state":"MO"},"type":"Feature","geometry":{"type":"Point","coordinates":[-94.598583,39.102404]}},{"properties":{"name":1.0,"city":"Kansas City","zip":"641111","geo_score":0.857,"country":"United States","id":"a65isop4j8ox","geo_precision":"city","state":"MO"},"type":"Feature","geometry":{"type":"Point","coordinates":[-94.598583,39.102404]}},{"properties":{"name":1.0,"city":"Kansas City","zip":"641111","geo_score":0.857,"country":"United States","id":"a65isohz0lx6","geo_precision":"city","state":"MO"},"type":"Feature","geometry":{"type":"Point","coordinates":[-94.598583,39.102404]}},{"properties":{"name":1.0,"city":"Kansas City","zip":"641111","geo_score":0.857,"country":"United States","id":"a65isoo1u5v8","geo_precision":"city","state":"MO"},"type":"Feature","geometry":{"type":"Point","coordinates":[-94.598583,39.102404]}},{"properties":{"name":1.0,"city":"Kansas City","zip":"641111","geo_score":0.857,"country":"United States","id":"a65isodrqsg4","geo_precision":"city","state":"MO"},"type":"Feature","geometry":{"type":"Point","coordinates":[-94.598583,39.102404]}},{"properties":{"name":1.0,"city":"Kansas City","zip":"641111","geo_score":0.857,"country":"United States","id":"a65isojgdqpp","geo_precision":"city","state":"MO"},"type":"Feature","geometry":{"type":"Point","coordinates":[-94.598583,39.102404]}},{"properties":{"name":1.0,"city":"Kansas City","zip":"641111","geo_score":0.857,"country":"United States","id":"a65isos0h6j8","geo_precision":"city","state":"MO"},"type":"Feature","geometry":{"type":"Point","coordinates":[-94.598583,39.102404]}},{"properties":{"name":1.0,"city":"Kansas City","zip":"641111","geo_score":0.857,"country":"United States","id":"a65isojofh91","geo_precision":"city","state":"MO"},"type":"Feature","geometry":{"type":"Point","coordinates":[-94.598583,39.102404]}},{"properties":{"name":1.0,"city":"Kansas City","zip":"641111","geo_score":0.857,"country":"United States","id":"a65isosb24rk","geo_precision":"city","state":"MO"},"type":"Feature","geometry":{"type":"Point","coordinates":[-94.598583,39.102404]}},{"properties":{"name":1.0,"city":"Kansas City","zip":"641111","geo_score":0.857,"country":"United States","id":"a65isoixwh4k","geo_precision":"city","state":"MO"},"type":"Feature","geometry":{"type":"Point","coordinates":[-94.598583,39.102404]}},{"properties":{"name":1.0,"city":"Kansas City","zip":"641111","geo_score":0.857,"country":"United States","id":"a65isol8v34p","geo_precision":"city","state":"MO"},"type":"Feature","geometry":{"type":"Point","coordinates":[-94.598583,39.102404]}},{"properties":{"name":1.0,"city":"Kansas City","zip":"641111","geo_score":0.857,"country":"United States","id":"a65isokixc4p","geo_precision":"city","state":"MO"},"type":"Feature","geometry":{"type":"Point","coordinates":[-94.598583,39.102404]}},{"properties":{"name":1.0,"city":"Kansas City","zip":"641111","geo_score":0.857,"country":"United States","id":"a65isoeeauux","geo_precision":"city","state":"MO"},"type":"Feature","geometry":{"type":"Point","coordinates":[-94.598583,39.102404]}},{"properties":{"name":1.0,"city":"Kansas City","zip":"641111","geo_score":0.857,"country":"United States","id":"a65isoqsxyiw","geo_precision":"city","state":"MO"},"type":"Feature","geometry":{"type":"Point","coordinates":[-94.598583,39.102404]}},{"properties":{"name":1.0,"city":"Kansas City","zip":"641111","geo_score":0.857,"country":"United States","id":"a65isopkpq6b","geo_precision":"city","state":"MO"},"type":"Feature","geometry":{"type":"Point","coordinates":[-94.598583,39.102404]}},{"properties":{"name":1.0,"city":"Kansas City","zip":"641111","geo_score":0.857,"country":"United States","id":"a65isod43uf8","geo_precision":"city","state":"MO"},"type":"Feature","geometry":{"type":"Point","coordinates":[-94.598583,39.102404]}},{"properties":{"name":1.0,"city":"Kansas City","zip":"641111","geo_score":0.857,"country":"United States","id":"a65isopcbhg2","geo_precision":"city","state":"MO"},"type":"Feature","geometry":{"type":"Point","coordinates":[-94.598583,39.102404]}},{"properties":{"name":1.0,"city":"Kansas City","zip":"641111","geo_score":0.857,"country":"United States","id":"a65isod9rlwd","geo_precision":"city","state":"MO"},"type":"Feature","geometry":{"type":"Point","coordinates":[-94.598583,39.102404]}},{"properties":{"name":1.0,"city":"Kansas City","zip":"641111","geo_score":0.857,"country":"United States","id":"a65isoqfodad","geo_precision":"city","state":"MO"},"type":"Feature","geometry":{"type":"Point","coordinates":[-94.598583,39.102404]}},{"properties":{"name":1.0,"city":"Kansas City","zip":"641111","geo_score":0.857,"country":"United States","id":"a65isonvmoix","geo_precision":"city","state":"MO"},"type":"Feature","geometry":{"type":"Point","coordinates":[-94.598583,39.102404]}},{"properties":{"name":1.0,"city":"Kansas City","zip":"641111","geo_score":0.857,"country":"United States","id":"a65isoo82mlz","geo_precision":"city","state":"MO"},"type":"Feature","geometry":{"type":"Point","coordinates":[-94.598583,39.102404]}},{"properties":{"name":1.0,"city":"Kansas City","zip":"641111","geo_score":0.857,"country":"United States","id":"a65isoeso5t2","geo_precision":"city","state":"MO"},"type":"Feature","geometry":{"type":"Point","coordinates":[-94.598583,39.102404]}},{"properties":{"name":1.0,"city":"Kansas City","zip":"641111","geo_score":0.857,"country":"United States","id":"a65isod9pduv","geo_precision":"city","state":"MO"},"type":"Feature","geometry":{"type":"Point","coordinates":[-94.598583,39.102404]}},{"properties":{"name":1.0,"city":"Kansas City","zip":"641111","geo_score":0.857,"country":"United States","id":"a65isor16jjw","geo_precision":"city","state":"MO"},"type":"Feature","geometry":{"type":"Point","coordinates":[-94.598583,39.102404]}},{"properties":{"name":1.0,"city":"Kansas City","zip":"641111","geo_score":0.857,"country":"United States","id":"a65isojzpk2r","geo_precision":"city","state":"MO"},"type":"Feature","geometry":{"type":"Point","coordinates":[-94.598583,39.102404]}},{"properties":{"name":1.0,"city":"Kansas City","zip":"641111","geo_score":0.857,"country":"United States","id":"a65isorppgxr","geo_precision":"city","state":"MO"},"type":"Feature","geometry":{"type":"Point","coordinates":[-94.598583,39.102404]}},{"properties":{"name":1.0,"city":"Kansas City","zip":"641111","geo_score":0.857,"country":"United States","id":"a65isojpc7o8","geo_precision":"city","state":"MO"},"type":"Feature","geometry":{"type":"Point","coordinates":[-94.598583,39.102404]}},{"properties":{"name":1.0,"city":"Kansas City","zip":"641111","geo_score":0.857,"country":"United States","id":"a65isogdnz8e","geo_precision":"city","state":"MO"},"type":"Feature","geometry":{"type":"Point","coordinates":[-94.598583,39.102404]}},{"properties":{"name":1.0,"city":"Kansas City","zip":"641111","geo_score":0.857,"country":"United States","id":"a65isor7ne7u","geo_precision":"city","state":"MO"},"type":"Feature","geometry":{"type":"Point","coordinates":[-94.598583,39.102404]}},{"properties":{"name":1.0,"city":"Kansas City","zip":"641111","geo_score":0.857,"country":"United States","id":"a65isoexp4h2","geo_precision":"city","state":"MO"},"type":"Feature","geometry":{"type":"Point","coordinates":[-94.598583,39.102404]}},{"properties":{"name":1.0,"city":"Kansas City","zip":"641111","geo_score":0.857,"country":"United States","id":"a65isonn9ifx","geo_precision":"city","state":"MO"},"type":"Feature","geometry":{"type":"Point","coordinates":[-94.598583,39.102404]}},{"properties":{"name":1.0,"city":"Kansas City","zip":"641111","geo_score":0.857,"country":"United States","id":"a65isoe552os","geo_precision":"city","state":"MO"},"type":"Feature","geometry":{"type":"Point","coordinates":[-94.598583,39.102404]}},{"properties":{"name":1.0,"city":"Kansas City","zip":"641111","geo_score":0.857,"country":"United States","id":"a65isok5ses0","geo_precision":"city","state":"MO"},"type":"Feature","geometry":{"type":"Point","coordinates":[-94.598583,39.102404]}},{"properties":{"name":1.0,"city":"Kansas City","zip":"641111","geo_score":0.857,"country":"United States","id":"a65isojmqbk7","geo_precision":"city","state":"MO"},"type":"Feature","geometry":{"type":"Point","coordinates":[-94.598583,39.102404]}},{"properties":{"name":1.0,"city":"Kansas City","zip":"641112","geo_score":0.857,"country":"United States","id":"a65isos2je5g","geo_precision":"city","state":"MO"},"type":"Feature","geometry":{"type":"Point","coordinates":[-94.598583,39.102404]}},{"properties":{"name":1.0,"city":"Kansas City","zip":"641112","geo_score":0.857,"country":"United States","id":"a65isoltazkb","geo_precision":"city","state":"MO"},"type":"Feature","geometry":{"type":"Point","coordinates":[-94.598583,39.102404]}},{"properties":{"name":1.0,"city":"Kansas City","zip":"641112","geo_score":0.857,"country":"United States","id":"a65isopzwe47","geo_precision":"city","state":"MO"},"type":"Feature","geometry":{"type":"Point","coordinates":[-94.598583,39.102404]}},{"properties":{"name":1.0,"city":"Kansas City","zip":"641112","geo_score":0.857,"country":"United States","id":"a65isoq0rrhw","geo_precision":"city","state":"MO"},"type":"Feature","geometry":{"type":"Point","coordinates":[-94.598583,39.102404]}},{"properties":{"name":1.0,"city":"Kansas City","zip":"641112","geo_score":0.857,"country":"United States","id":"a65isohjdxs6","geo_precision":"city","state":"MO"},"type":"Feature","geometry":{"type":"Point","coordinates":[-94.598583,39.102404]}},{"properties":{"name":1.0,"city":"Kansas City","zip":"641112","geo_score":0.857,"country":"United States","id":"a65isohz1p0f","geo_precision":"city","state":"MO"},"type":"Feature","geometry":{"type":"Point","coordinates":[-94.598583,39.102404]}},{"properties":{"name":1.0,"city":"Kansas City","zip":"641112","geo_score":0.857,"country":"United States","id":"a65isoo2577s","geo_precision":"city","state":"MO"},"type":"Feature","geometry":{"type":"Point","coordinates":[-94.598583,39.102404]}},{"properties":{"name":1.0,"city":"Kansas City","zip":"641112","geo_score":0.857,"country":"United States","id":"a65isof4l3oe","geo_precision":"city","state":"MO"},"type":"Feature","geometry":{"type":"Point","coordinates":[-94.598583,39.102404]}},{"properties":{"name":1.0,"city":"Kansas City","zip":"641112","geo_score":0.857,"country":"United States","id":"a65isojjvkyg","geo_precision":"city","state":"MO"},"type":"Feature","geometry":{"type":"Point","coordinates":[-94.598583,39.102404]}},{"properties":{"name":1.0,"city":"Kansas City","zip":"641112","geo_score":0.857,"country":"United States","id":"a65isofq2cht","geo_precision":"city","state":"MO"},"type":"Feature","geometry":{"type":"Point","coordinates":[-94.598583,39.102404]}},{"properties":{"name":1.0,"city":"Kansas City","zip":"641112","geo_score":0.857,"country":"United States","id":"a65isojhpgns","geo_precision":"city","state":"MO"},"type":"Feature","geometry":{"type":"Point","coordinates":[-94.598583,39.102404]}},{"properties":{"name":1.0,"city":"Kansas City","zip":"641112","geo_score":0.857,"country":"United States","id":"a65isoncq35z","geo_precision":"city","state":"MO"},"type":"Feature","geometry":{"type":"Point","coordinates":[-94.598583,39.102404]}},{"properties":{"name":1.0,"city":"Kansas City","zip":"641113","geo_score":0.857,"country":"United States","id":"a65isohro3j1","geo_precision":"city","state":"MO"},"type":"Feature","geometry":{"type":"Point","coordinates":[-94.598583,39.102404]}},{"properties":{"name":1.0,"city":"Kansas City","zip":"641113","geo_score":0.857,"country":"United States","id":"a65isoe0v2ho","geo_precision":"city","state":"MO"},"type":"Feature","geometry":{"type":"Point","coordinates":[-94.598583,39.102404]}},{"properties":{"name":1.0,"city":"Kansas City","zip":"641113","geo_score":0.857,"country":"United States","id":"a65isojro3j7","geo_precision":"city","state":"MO"},"type":"Feature","geometry":{"type":"Point","coordinates":[-94.598583,39.102404]}},{"properties":{"name":1.0,"city":"Kansas City","zip":"641113","geo_score":0.857,"country":"United States","id":"a65isofqhbq0","geo_precision":"city","state":"MO"},"type":"Feature","geometry":{"type":"Point","coordinates":[-94.598583,39.102404]}},{"properties":{"name":1.0,"city":"Kansas City","zip":"641113","geo_score":0.857,"country":"United States","id":"a65ison4m415","geo_precision":"city","state":"MO"},"type":"Feature","geometry":{"type":"Point","coordinates":[-94.598583,39.102404]}},{"properties":{"name":1.0,"city":"Kansas City","zip":"641113","geo_score":0.857,"country":"United States","id":"a65isofbognv","geo_precision":"city","state":"MO"},"type":"Feature","geometry":{"type":"Point","coordinates":[-94.598583,39.102404]}},{"properties":{"name":1.0,"city":"Kansas City","zip":"641113","geo_score":0.857,"country":"United States","id":"a65isojga6vw","geo_precision":"city","state":"MO"},"type":"Feature","geometry":{"type":"Point","coordinates":[-94.598583,39.102404]}},{"properties":{"name":1.0,"city":"Kansas City","zip":"641113","geo_score":0.857,"country":"United States","id":"a65isorbwei1","geo_precision":"city","state":"MO"},"type":"Feature","geometry":{"type":"Point","coordinates":[-94.598583,39.102404]}},{"properties":{"name":1.0,"city":"Kansas City","zip":"641113","geo_score":0.857,"country":"United States","id":"a65isogsb4ij","geo_precision":"city","state":"MO"},"type":"Feature","geometry":{"type":"Point","coordinates":[-94.598583,39.102404]}},{"properties":{"name":1.0,"city":"Kansas City","zip":"641113","geo_score":0.857,"country":"United States","id":"a65isondja4z","geo_precision":"city","state":"MO"},"type":"Feature","geometry":{"type":"Point","coordinates":[-94.598583,39.102404]}},{"properties":{"name":1.0,"city":"Kansas City","zip":"641113","geo_score":0.857,"country":"United States","id":"a65isomc9vf6","geo_precision":"city","state":"MO"},"type":"Feature","geometry":{"type":"Point","coordinates":[-94.598583,39.102404]}},{"properties":{"name":1.0,"city":"Kansas City","zip":"641113","geo_score":0.857,"country":"United States","id":"a65isoeohy1e","geo_precision":"city","state":"MO"},"type":"Feature","geometry":{"type":"Point","coordinates":[-94.598583,39.102404]}},{"properties":{"name":1.0,"city":"Kansas City","zip":"641113","geo_score":0.857,"country":"United States","id":"a65isocte0cb","geo_precision":"city","state":"MO"},"type":"Feature","geometry":{"type":"Point","coordinates":[-94.598583,39.102404]}},{"properties":{"name":1.0,"city":"Kansas City","zip":"641113","geo_score":0.857,"country":"United States","id":"a65isod83qqf","geo_precision":"city","state":"MO"},"type":"Feature","geometry":{"type":"Point","coordinates":[-94.598583,39.102404]}},{"properties":{"name":1.0,"city":"Kansas City","zip":"641113","geo_score":0.857,"country":"United States","id":"a65isok9eu5d","geo_precision":"city","state":"MO"},"type":"Feature","geometry":{"type":"Point","coordinates":[-94.598583,39.102404]}},{"properties":{"name":1.0,"city":"Kansas City","zip":"641113","geo_score":0.857,"country":"United States","id":"a65isogb0mpw","geo_precision":"city","state":"MO"},"type":"Feature","geometry":{"type":"Point","coordinates":[-94.598583,39.102404]}},{"properties":{"name":1.0,"city":"Kansas City","zip":"641113","geo_score":0.857,"country":"United States","id":"a65isoh6yrwz","geo_precision":"city","state":"MO"},"type":"Feature","geometry":{"type":"Point","coordinates":[-94.598583,39.102404]}},{"properties":{"name":1.0,"city":"Kansas City","zip":"641113","geo_score":0.857,"country":"United States","id":"a65isojillpu","geo_precision":"city","state":"MO"},"type":"Feature","geometry":{"type":"Point","coordinates":[-94.598583,39.102404]}},{"properties":{"name":1.0,"city":"Kansas City","zip":"641113","geo_score":0.857,"country":"United States","id":"a65isoqcv6bk","geo_precision":"city","state":"MO"},"type":"Feature","geometry":{"type":"Point","coordinates":[-94.598583,39.102404]}},{"properties":{"name":1.0,"city":"Kansas City","zip":"641113","geo_score":0.857,"country":"United States","id":"a65isofdnfgv","geo_precision":"city","state":"MO"},"type":"Feature","geometry":{"type":"Point","coordinates":[-94.598583,39.102404]}},{"properties":{"name":1.0,"city":"Kansas City","zip":"641113","geo_score":0.857,"country":"United States","id":"a65isormli6o","geo_precision":"city","state":"MO"},"type":"Feature","geometry":{"type":"Point","coordinates":[-94.598583,39.102404]}},{"properties":{"name":1.0,"city":"Kansas City","zip":"641113","geo_score":0.857,"country":"United States","id":"a65isoci4wkm","geo_precision":"city","state":"MO"},"type":"Feature","geometry":{"type":"Point","coordinates":[-94.598583,39.102404]}},{"properties":{"name":1.0,"city":"Kansas City","zip":"641113","geo_score":0.857,"country":"United States","id":"a65isoj3w9hl","geo_precision":"city","state":"MO"},"type":"Feature","geometry":{"type":"Point","coordinates":[-94.598583,39.102404]}},{"properties":{"name":1.0,"city":"Kansas City","zip":"641113","geo_score":0.857,"country":"United States","id":"a65isohy9z2v","geo_precision":"city","state":"MO"},"type":"Feature","geometry":{"type":"Point","coordinates":[-94.598583,39.102404]}},{"properties":{"name":1.0,"city":"Kansas City","zip":"641113","geo_score":0.857,"country":"United States","id":"a65isooc593p","geo_precision":"city","state":"MO"},"type":"Feature","geometry":{"type":"Point","coordinates":[-94.598583,39.102404]}},{"properties":{"name":1.0,"city":"Kansas City","zip":"641113","geo_score":0.857,"country":"United States","id":"a65isolhv0fo","geo_precision":"city","state":"MO"},"type":"Feature","geometry":{"type":"Point","coordinates":[-94.598583,39.102404]}},{"properties":{"name":1.0,"city":"Kansas City","zip":"641113","geo_score":0.857,"country":"United States","id":"a65isoppeeq9","geo_precision":"city","state":"MO"},"type":"Feature","geometry":{"type":"Point","coordinates":[-94.598583,39.102404]}},{"properties":{"name":1.0,"city":"Kansas City","zip":"641113","geo_score":0.857,"country":"United States","id":"a65isof51uvv","geo_precision":"city","state":"MO"},"type":"Feature","geometry":{"type":"Point","coordinates":[-94.598583,39.102404]}},{"properties":{"name":1.0,"city":"Kansas City","zip":"641113","geo_score":0.857,"country":"United States","id":"a65ison4aw6o","geo_precision":"city","state":"MO"},"type":"Feature","geometry":{"type":"Point","coordinates":[-94.598583,39.102404]}},{"properties":{"name":1.0,"city":"Kansas City","zip":"641113","geo_score":0.857,"country":"United States","id":"a65isoj9mxpi","geo_precision":"city","state":"MO"},"type":"Feature","geometry":{"type":"Point","coordinates":[-94.598583,39.102404]}},{"properties":{"name":1.0,"city":"Kansas City","zip":"641113","geo_score":0.857,"country":"United States","id":"a65isofusnm1","geo_precision":"city","state":"MO"},"type":"Feature","geometry":{"type":"Point","coordinates":[-94.598583,39.102404]}},{"properties":{"name":1.0,"city":"Kansas City","zip":"641113","geo_score":0.857,"country":"United States","id":"a65isoper8d4","geo_precision":"city","state":"MO"},"type":"Feature","geometry":{"type":"Point","coordinates":[-94.598583,39.102404]}},{"properties":{"name":1.0,"city":"Kansas City","zip":"641113","geo_score":0.857,"country":"United States","id":"a65isoecdgi5","geo_precision":"city","state":"MO"},"type":"Feature","geometry":{"type":"Point","coordinates":[-94.598583,39.102404]}},{"properties":{"name":1.0,"city":"Kansas City","zip":"641113","geo_score":0.857,"country":"United States","id":"a65isonqf132","geo_precision":"city","state":"MO"},"type":"Feature","geometry":{"type":"Point","coordinates":[-94.598583,39.102404]}},{"properties":{"name":1.0,"city":"Kansas City","zip":"641113","geo_score":0.857,"country":"United States","id":"a65isorbxk3b","geo_precision":"city","state":"MO"},"type":"Feature","geometry":{"type":"Point","coordinates":[-94.598583,39.102404]}},{"properties":{"name":1.0,"city":"Kansas City","zip":"641113","geo_score":0.857,"country":"United States","id":"a65isoee628p","geo_precision":"city","state":"MO"},"type":"Feature","geometry":{"type":"Point","coordinates":[-94.598583,39.102404]}},{"properties":{"name":1.0,"city":"Kansas City","zip":"641113","geo_score":0.857,"country":"United States","id":"a65ison8d6el","geo_precision":"city","state":"MO"},"type":"Feature","geometry":{"type":"Point","coordinates":[-94.598583,39.102404]}},{"properties":{"name":1.0,"city":"Kansas City","zip":"641113","geo_score":0.857,"country":"United States","id":"a65isocs08f2","geo_precision":"city","state":"MO"},"type":"Feature","geometry":{"type":"Point","coordinates":[-94.598583,39.102404]}},{"properties":{"name":1.0,"city":"Kansas City","zip":"641113","geo_score":0.857,"country":"United States","id":"a65isokqb1qk","geo_precision":"city","state":"MO"},"type":"Feature","geometry":{"type":"Point","coordinates":[-94.598583,39.102404]}},{"properties":{"name":1.0,"city":"Kansas City","zip":"641113","geo_score":0.857,"country":"United States","id":"a65isoj142bn","geo_precision":"city","state":"MO"},"type":"Feature","geometry":{"type":"Point","coordinates":[-94.598583,39.102404]}},{"properties":{"name":1.0,"city":"Kansas City","zip":"641113","geo_score":0.857,"country":"United States","id":"a65isoe70ont","geo_precision":"city","state":"MO"},"type":"Feature","geometry":{"type":"Point","coordinates":[-94.598583,39.102404]}},{"properties":{"name":1.0,"city":"Kansas City","zip":"641113","geo_score":0.857,"country":"United States","id":"a65isopz257p","geo_precision":"city","state":"MO"},"type":"Feature","geometry":{"type":"Point","coordinates":[-94.598583,39.102404]}},{"properties":{"name":1.0,"city":"Kansas City","zip":"641113","geo_score":0.857,"country":"United States","id":"a65isoeub2ps","geo_precision":"city","state":"MO"},"type":"Feature","geometry":{"type":"Point","coordinates":[-94.598583,39.102404]}},{"properties":{"name":1.0,"city":"Kansas City","zip":"641113","geo_score":0.857,"country":"United States","id":"a65isoif9bq8","geo_precision":"city","state":"MO"},"type":"Feature","geometry":{"type":"Point","coordinates":[-94.598583,39.102404]}},{"properties":{"name":1.0,"city":"Kansas City","zip":"641113","geo_score":0.857,"country":"United States","id":"a65isokyiy7w","geo_precision":"city","state":"MO"},"type":"Feature","geometry":{"type":"Point","coordinates":[-94.598583,39.102404]}},{"properties":{"name":1.0,"city":"Kansas City","zip":"641113","geo_score":0.857,"country":"United States","id":"a65isoldc1bg","geo_precision":"city","state":"MO"},"type":"Feature","geometry":{"type":"Point","coordinates":[-94.598583,39.102404]}},{"properties":{"name":1.0,"city":"Kansas City","zip":"641113","geo_score":0.857,"country":"United States","id":"a65ison2ql08","geo_precision":"city","state":"MO"},"type":"Feature","geometry":{"type":"Point","coordinates":[-94.598583,39.102404]}},{"properties":{"name":1.0,"city":"Kansas City","zip":"641113","geo_score":0.857,"country":"United States","id":"a65isoqoi0ox","geo_precision":"city","state":"MO"},"type":"Feature","geometry":{"type":"Point","coordinates":[-94.598583,39.102404]}},{"properties":{"name":1.0,"city":"Kansas City","zip":"641113","geo_score":0.857,"country":"United States","id":"a65isoovi020","geo_precision":"city","state":"MO"},"type":"Feature","geometry":{"type":"Point","coordinates":[-94.598583,39.102404]}},{"properties":{"name":1.0,"city":"Kansas City","zip":"641113","geo_score":0.857,"country":"United States","id":"a65isomlmlhc","geo_precision":"city","state":"MO"},"type":"Feature","geometry":{"type":"Point","coordinates":[-94.598583,39.102404]}},{"properties":{"name":1.0,"city":"Kansas City","zip":"641113","geo_score":0.857,"country":"United States","id":"a65isohovxq8","geo_precision":"city","state":"MO"},"type":"Feature","geometry":{"type":"Point","coordinates":[-94.598583,39.102404]}},{"properties":{"name":1.0,"city":"Kansas City","zip":"641113","geo_score":0.857,"country":"United States","id":"a65isoo9v29o","geo_precision":"city","state":"MO"},"type":"Feature","geometry":{"type":"Point","coordinates":[-94.598583,39.102404]}},{"properties":{"name":1.0,"city":"Kansas City","zip":"641113","geo_score":0.857,"country":"United States","id":"a65isogf5pdo","geo_precision":"city","state":"MO"},"type":"Feature","geometry":{"type":"Point","coordinates":[-94.598583,39.102404]}},{"properties":{"name":1.0,"city":"Kansas City","zip":"641113","geo_score":0.857,"country":"United States","id":"a65isohi9sfn","geo_precision":"city","state":"MO"},"type":"Feature","geometry":{"type":"Point","coordinates":[-94.598583,39.102404]}},{"properties":{"name":1.0,"city":"Kansas City","zip":"641113","geo_score":0.857,"country":"United States","id":"a65isom31d9m","geo_precision":"city","state":"MO"},"type":"Feature","geometry":{"type":"Point","coordinates":[-94.598583,39.102404]}},{"properties":{"name":1.0,"city":"Kansas City","zip":"641113","geo_score":0.857,"country":"United States","id":"a65isogyuh57","geo_precision":"city","state":"MO"},"type":"Feature","geometry":{"type":"Point","coordinates":[-94.598583,39.102404]}},{"properties":{"name":1.0,"city":"Kansas City","zip":"641113","geo_score":0.857,"country":"United States","id":"a65isoivwlub","geo_precision":"city","state":"MO"},"type":"Feature","geometry":{"type":"Point","coordinates":[-94.598583,39.102404]}},{"properties":{"name":1.0,"city":"Kansas City","zip":"641113","geo_score":0.857,"country":"United States","id":"a65isond0d3d","geo_precision":"city","state":"MO"},"type":"Feature","geometry":{"type":"Point","coordinates":[-94.598583,39.102404]}},{"properties":{"name":1.0,"city":"Kansas City","zip":"641113","geo_score":0.857,"country":"United States","id":"a65isodeqdgg","geo_precision":"city","state":"MO"},"type":"Feature","geometry":{"type":"Point","coordinates":[-94.598583,39.102404]}},{"properties":{"name":1.0,"city":"Kansas City","zip":"641113","geo_score":0.857,"country":"United States","id":"a65isosegpbb","geo_precision":"city","state":"MO"},"type":"Feature","geometry":{"type":"Point","coordinates":[-94.598583,39.102404]}},{"properties":{"name":1.0,"city":"Kansas City","zip":"641113","geo_score":0.857,"country":"United States","id":"a65isoiqawnz","geo_precision":"city","state":"MO"},"type":"Feature","geometry":{"type":"Point","coordinates":[-94.598583,39.102404]}},{"properties":{"name":1.0,"city":"Kansas City","zip":"641113","geo_score":0.857,"country":"United States","id":"a65isolwh2y7","geo_precision":"city","state":"MO"},"type":"Feature","geometry":{"type":"Point","coordinates":[-94.598583,39.102404]}},{"properties":{"name":1.0,"city":"Kansas City","zip":"641113","geo_score":0.857,"country":"United States","id":"a65isoleools","geo_precision":"city","state":"MO"},"type":"Feature","geometry":{"type":"Point","coordinates":[-94.598583,39.102404]}},{"properties":{"name":1.0,"city":"Kansas City","zip":"641113","geo_score":0.857,"country":"United States","id":"a65isolyltaa","geo_precision":"city","state":"MO"},"type":"Feature","geometry":{"type":"Point","coordinates":[-94.598583,39.102404]}},{"properties":{"name":1.0,"city":"Kansas City","zip":"641113","geo_score":0.857,"country":"United States","id":"a65isor5m0s1","geo_precision":"city","state":"MO"},"type":"Feature","geometry":{"type":"Point","coordinates":[-94.598583,39.102404]}},{"properties":{"name":1.0,"city":"Kansas City","zip":"641113","geo_score":0.857,"country":"United States","id":"a65isodmpzze","geo_precision":"city","state":"MO"},"type":"Feature","geometry":{"type":"Point","coordinates":[-94.598583,39.102404]}},{"properties":{"name":1.0,"city":"Kansas City","zip":"641113","geo_score":0.857,"country":"United States","id":"a65isojy0kqq","geo_precision":"city","state":"MO"},"type":"Feature","geometry":{"type":"Point","coordinates":[-94.598583,39.102404]}},{"properties":{"name":1.0,"city":"Kansas City","zip":"641113","geo_score":0.857,"country":"United States","id":"a65isoo2jmbc","geo_precision":"city","state":"MO"},"type":"Feature","geometry":{"type":"Point","coordinates":[-94.598583,39.102404]}},{"properties":{"name":1.0,"city":"Kansas City","zip":"641113","geo_score":0.857,"country":"United States","id":"a65isof38p5k","geo_precision":"city","state":"MO"},"type":"Feature","geometry":{"type":"Point","coordinates":[-94.598583,39.102404]}},{"properties":{"name":1.0,"city":"Kansas City","zip":"641113","geo_score":0.857,"country":"United States","id":"a65isok3qjbv","geo_precision":"city","state":"MO"},"type":"Feature","geometry":{"type":"Point","coordinates":[-94.598583,39.102404]}},{"properties":{"name":1.0,"city":"Kansas City","zip":"641113","geo_score":0.857,"country":"United States","id":"a65isofqwytf","geo_precision":"city","state":"MO"},"type":"Feature","geometry":{"type":"Point","coordinates":[-94.598583,39.102404]}},{"properties":{"name":1.0,"city":"Kansas City","zip":"641113","geo_score":0.857,"country":"United States","id":"a65isom7sw1d","geo_precision":"city","state":"MO"},"type":"Feature","geometry":{"type":"Point","coordinates":[-94.598583,39.102404]}},{"properties":{"name":1.0,"city":"Kansas City","zip":"641113","geo_score":0.857,"country":"United States","id":"a65isom2a43e","geo_precision":"city","state":"MO"},"type":"Feature","geometry":{"type":"Point","coordinates":[-94.598583,39.102404]}},{"properties":{"name":1.0,"city":"Kansas City","zip":"641113","geo_score":0.857,"country":"United States","id":"a65isoiqo2yy","geo_precision":"city","state":"MO"},"type":"Feature","geometry":{"type":"Point","coordinates":[-94.598583,39.102404]}},{"properties":{"name":1.0,"city":"Kansas City","zip":"641113","geo_score":0.857,"country":"United States","id":"a65isod0o3qp","geo_precision":"city","state":"MO"},"type":"Feature","geometry":{"type":"Point","coordinates":[-94.598583,39.102404]}},{"properties":{"name":1.0,"city":"Kansas City","zip":"641113","geo_score":0.857,"country":"United States","id":"a65isodwwc18","geo_precision":"city","state":"MO"},"type":"Feature","geometry":{"type":"Point","coordinates":[-94.598583,39.102404]}},{"properties":{"name":1.0,"city":"Kansas City","zip":"641113","geo_score":0.857,"country":"United States","id":"a65isomnhnjz","geo_precision":"city","state":"MO"},"type":"Feature","geometry":{"type":"Point","coordinates":[-94.598583,39.102404]}},{"properties":{"name":1.0,"city":"Kansas City","zip":"641113","geo_score":0.857,"country":"United States","id":"a65isog7fmut","geo_precision":"city","state":"MO"},"type":"Feature","geometry":{"type":"Point","coordinates":[-94.598583,39.102404]}},{"properties":{"name":1.0,"city":"Kansas City","zip":"641113","geo_score":0.857,"country":"United States","id":"a65isop32tb4","geo_precision":"city","state":"MO"},"type":"Feature","geometry":{"type":"Point","coordinates":[-94.598583,39.102404]}},{"properties":{"name":1.0,"city":"Kansas City","zip":"641113","geo_score":0.857,"country":"United States","id":"a65isoecxhi1","geo_precision":"city","state":"MO"},"type":"Feature","geometry":{"type":"Point","coordinates":[-94.598583,39.102404]}},{"properties":{"name":1.0,"city":"Kansas City","zip":"641113","geo_score":0.857,"country":"United States","id":"a65isops8xer","geo_precision":"city","state":"MO"},"type":"Feature","geometry":{"type":"Point","coordinates":[-94.598583,39.102404]}},{"properties":{"name":1.0,"city":"Kansas City","zip":"641114","geo_score":0.857,"country":"United States","id":"a65isocle8sq","geo_precision":"city","state":"MO"},"type":"Feature","geometry":{"type":"Point","coordinates":[-94.598583,39.102404]}},{"properties":{"name":1.0,"city":"Kansas City","zip":"641114","geo_score":0.857,"country":"United States","id":"a65isoqvagqp","geo_precision":"city","state":"MO"},"type":"Feature","geometry":{"type":"Point","coordinates":[-94.598583,39.102404]}},{"properties":{"name":1.0,"city":"Kansas City","zip":"641114","geo_score":0.857,"country":"United States","id":"a65ison6248p","geo_precision":"city","state":"MO"},"type":"Feature","geometry":{"type":"Point","coordinates":[-94.598583,39.102404]}},{"properties":{"name":1.0,"city":"Kansas City","zip":"641114","geo_score":0.857,"country":"United States","id":"a65isor3ynbj","geo_precision":"city","state":"MO"},"type":"Feature","geometry":{"type":"Point","coordinates":[-94.598583,39.102404]}},{"properties":{"name":1.0,"city":"Kansas City","zip":"641114","geo_score":0.857,"country":"United States","id":"a65isolm8dsd","geo_precision":"city","state":"MO"},"type":"Feature","geometry":{"type":"Point","coordinates":[-94.598583,39.102404]}},{"properties":{"name":1.0,"city":"Kansas City","zip":"641114","geo_score":0.857,"country":"United States","id":"a65isoi9t67v","geo_precision":"city","state":"MO"},"type":"Feature","geometry":{"type":"Point","coordinates":[-94.598583,39.102404]}},{"properties":{"name":1.0,"city":"Kansas City","zip":"641114","geo_score":0.857,"country":"United States","id":"a65isoria1hv","geo_precision":"city","state":"MO"},"type":"Feature","geometry":{"type":"Point","coordinates":[-94.598583,39.102404]}},{"properties":{"name":1.0,"city":"Kansas City","zip":"641114","geo_score":0.857,"country":"United States","id":"a65isofs6xjc","geo_precision":"city","state":"MO"},"type":"Feature","geometry":{"type":"Point","coordinates":[-94.598583,39.102404]}},{"properties":{"name":1.0,"city":"Kansas City","zip":"641114","geo_score":0.857,"country":"United States","id":"a65isod3nr6r","geo_precision":"city","state":"MO"},"type":"Feature","geometry":{"type":"Point","coordinates":[-94.598583,39.102404]}},{"properties":{"name":1.0,"city":"Kansas City","zip":"641114","geo_score":0.857,"country":"United States","id":"a65isofere74","geo_precision":"city","state":"MO"},"type":"Feature","geometry":{"type":"Point","coordinates":[-94.598583,39.102404]}},{"properties":{"name":1.0,"city":"Kansas City","zip":"641114","geo_score":0.857,"country":"United States","id":"a65isofgm70g","geo_precision":"city","state":"MO"},"type":"Feature","geometry":{"type":"Point","coordinates":[-94.598583,39.102404]}},{"properties":{"name":1.0,"city":"Kansas City","zip":"641114","geo_score":0.857,"country":"United States","id":"a65isoqnefc6","geo_precision":"city","state":"MO"},"type":"Feature","geometry":{"type":"Point","coordinates":[-94.598583,39.102404]}},{"properties":{"name":1.0,"city":"Kansas City","zip":"641114","geo_score":0.857,"country":"United States","id":"a65isoohngzp","geo_precision":"city","state":"MO"},"type":"Feature","geometry":{"type":"Point","coordinates":[-94.598583,39.102404]}},{"properties":{"name":1.0,"city":"Kansas City","zip":"641114","geo_score":0.857,"country":"United States","id":"a65isoo39gc7","geo_precision":"city","state":"MO"},"type":"Feature","geometry":{"type":"Point","coordinates":[-94.598583,39.102404]}},{"properties":{"name":1.0,"city":"Kansas City","zip":"641114","geo_score":0.857,"country":"United States","id":"a65isockxkmc","geo_precision":"city","state":"MO"},"type":"Feature","geometry":{"type":"Point","coordinates":[-94.598583,39.102404]}},{"properties":{"name":1.0,"city":"Kansas City","zip":"641114","geo_score":0.857,"country":"United States","id":"a65isojmjaop","geo_precision":"city","state":"MO"},"type":"Feature","geometry":{"type":"Point","coordinates":[-94.598583,39.102404]}},{"properties":{"name":1.0,"city":"Kansas City","zip":"641114","geo_score":0.857,"country":"United States","id":"a65isojn35rs","geo_precision":"city","state":"MO"},"type":"Feature","geometry":{"type":"Point","coordinates":[-94.598583,39.102404]}},{"properties":{"name":1.0,"city":"Kansas City","zip":"641114","geo_score":0.857,"country":"United States","id":"a65isop1gryw","geo_precision":"city","state":"MO"},"type":"Feature","geometry":{"type":"Point","coordinates":[-94.598583,39.102404]}},{"properties":{"name":1.0,"city":"Kansas City","zip":"641114","geo_score":0.857,"country":"United States","id":"a65ison9vk3h","geo_precision":"city","state":"MO"},"type":"Feature","geometry":{"type":"Point","coordinates":[-94.598583,39.102404]}},{"properties":{"name":1.0,"city":"Kansas City","zip":"641114","geo_score":0.857,"country":"United States","id":"a65isoe91bec","geo_precision":"city","state":"MO"},"type":"Feature","geometry":{"type":"Point","coordinates":[-94.598583,39.102404]}},{"properties":{"name":1.0,"city":"Kansas City","zip":"641114","geo_score":0.857,"country":"United States","id":"a65isod7yid9","geo_precision":"city","state":"MO"},"type":"Feature","geometry":{"type":"Point","coordinates":[-94.598583,39.102404]}},{"properties":{"name":1.0,"city":"Kansas City","zip":"641114","geo_score":0.857,"country":"United States","id":"a65isop5wmvm","geo_precision":"city","state":"MO"},"type":"Feature","geometry":{"type":"Point","coordinates":[-94.598583,39.102404]}},{"properties":{"name":1.0,"city":"Kansas City","zip":"641114","geo_score":0.857,"country":"United States","id":"a65isojwii7l","geo_precision":"city","state":"MO"},"type":"Feature","geometry":{"type":"Point","coordinates":[-94.598583,39.102404]}},{"properties":{"name":1.0,"city":"Kansas City","zip":"641114","geo_score":0.857,"country":"United States","id":"a65isopqbbl2","geo_precision":"city","state":"MO"},"type":"Feature","geometry":{"type":"Point","coordinates":[-94.598583,39.102404]}},{"properties":{"name":1.0,"city":"Kansas City","zip":"641114","geo_score":0.857,"country":"United States","id":"a65isoh78427","geo_precision":"city","state":"MO"},"type":"Feature","geometry":{"type":"Point","coordinates":[-94.598583,39.102404]}},{"properties":{"name":1.0,"city":"Kansas City","zip":"641114","geo_score":0.857,"country":"United States","id":"a65isogo72oo","geo_precision":"city","state":"MO"},"type":"Feature","geometry":{"type":"Point","coordinates":[-94.598583,39.102404]}},{"properties":{"name":1.0,"city":"Kansas City","zip":"641114","geo_score":0.857,"country":"United States","id":"a65isog56m2a","geo_precision":"city","state":"MO"},"type":"Feature","geometry":{"type":"Point","coordinates":[-94.598583,39.102404]}},{"properties":{"name":1.0,"city":"Kansas City","zip":"641114","geo_score":0.857,"country":"United States","id":"a65isojz61a7","geo_precision":"city","state":"MO"},"type":"Feature","geometry":{"type":"Point","coordinates":[-94.598583,39.102404]}},{"properties":{"name":1.0,"city":"Kansas City","zip":"641114","geo_score":0.857,"country":"United States","id":"a65ison2jxcx","geo_precision":"city","state":"MO"},"type":"Feature","geometry":{"type":"Point","coordinates":[-94.598583,39.102404]}},{"properties":{"name":1.0,"city":"Kansas City","zip":"641114","geo_score":0.857,"country":"United States","id":"a65isoh6kl8c","geo_precision":"city","state":"MO"},"type":"Feature","geometry":{"type":"Point","coordinates":[-94.598583,39.102404]}},{"properties":{"name":1.0,"city":"Kansas City","zip":"641114","geo_score":0.857,"country":"United States","id":"a65isoneaxpw","geo_precision":"city","state":"MO"},"type":"Feature","geometry":{"type":"Point","coordinates":[-94.598583,39.102404]}},{"properties":{"name":1.0,"city":"Kansas City","zip":"641114","geo_score":0.857,"country":"United States","id":"a65isorxnqxe","geo_precision":"city","state":"MO"},"type":"Feature","geometry":{"type":"Point","coordinates":[-94.598583,39.102404]}},{"properties":{"name":1.0,"city":"Kansas City","zip":"641114","geo_score":0.857,"country":"United States","id":"a65isoeafaq6","geo_precision":"city","state":"MO"},"type":"Feature","geometry":{"type":"Point","coordinates":[-94.598583,39.102404]}},{"properties":{"name":1.0,"city":"Kansas City","zip":"641114","geo_score":0.857,"country":"United States","id":"a65isodj9re7","geo_precision":"city","state":"MO"},"type":"Feature","geometry":{"type":"Point","coordinates":[-94.598583,39.102404]}},{"properties":{"name":1.0,"city":"Kansas City","zip":"641114","geo_score":0.857,"country":"United States","id":"a65isonk0xc0","geo_precision":"city","state":"MO"},"type":"Feature","geometry":{"type":"Point","coordinates":[-94.598583,39.102404]}},{"properties":{"name":1.0,"city":"Kansas City","zip":"641114","geo_score":0.857,"country":"United States","id":"a65ison43cve","geo_precision":"city","state":"MO"},"type":"Feature","geometry":{"type":"Point","coordinates":[-94.598583,39.102404]}},{"properties":{"name":1.0,"city":"Kansas City","zip":"641114","geo_score":0.857,"country":"United States","id":"a65isohkxis0","geo_precision":"city","state":"MO"},"type":"Feature","geometry":{"type":"Point","coordinates":[-94.598583,39.102404]}},{"properties":{"name":1.0,"city":"Kansas City","zip":"641114","geo_score":0.857,"country":"United States","id":"a65isoilake0","geo_precision":"city","state":"MO"},"type":"Feature","geometry":{"type":"Point","coordinates":[-94.598583,39.102404]}},{"properties":{"name":1.0,"city":"Kansas City","zip":"641114","geo_score":0.857,"country":"United States","id":"a65isogkxrpt","geo_precision":"city","state":"MO"},"type":"Feature","geometry":{"type":"Point","coordinates":[-94.598583,39.102404]}},{"properties":{"name":1.0,"city":"Kansas City","zip":"641114","geo_score":0.857,"country":"United States","id":"a65isodvrumi","geo_precision":"city","state":"MO"},"type":"Feature","geometry":{"type":"Point","coordinates":[-94.598583,39.102404]}},{"properties":{"name":1.0,"city":"Kansas City","zip":"641114","geo_score":0.857,"country":"United States","id":"a65isoppeiy5","geo_precision":"city","state":"MO"},"type":"Feature","geometry":{"type":"Point","coordinates":[-94.598583,39.102404]}},{"properties":{"name":1.0,"city":"Kansas City","zip":"641114","geo_score":0.857,"country":"United States","id":"a65isosdhqsj","geo_precision":"city","state":"MO"},"type":"Feature","geometry":{"type":"Point","coordinates":[-94.598583,39.102404]}},{"properties":{"name":1.0,"city":"Kansas City","zip":"641114","geo_score":0.857,"country":"United States","id":"a65isokg0q86","geo_precision":"city","state":"MO"},"type":"Feature","geometry":{"type":"Point","coordinates":[-94.598583,39.102404]}},{"properties":{"name":1.0,"city":"Kansas City","zip":"641114","geo_score":0.857,"country":"United States","id":"a65isoixyxus","geo_precision":"city","state":"MO"},"type":"Feature","geometry":{"type":"Point","coordinates":[-94.598583,39.102404]}},{"properties":{"name":1.0,"city":"Kansas City","zip":"641114","geo_score":0.857,"country":"United States","id":"a65isopbsaas","geo_precision":"city","state":"MO"},"type":"Feature","geometry":{"type":"Point","coordinates":[-94.598583,39.102404]}},{"properties":{"name":1.0,"city":"Kansas City","zip":"641114","geo_score":0.857,"country":"United States","id":"a65isolseojc","geo_precision":"city","state":"MO"},"type":"Feature","geometry":{"type":"Point","coordinates":[-94.598583,39.102404]}},{"properties":{"name":1.0,"city":"Kansas City","zip":"641114","geo_score":0.857,"country":"United States","id":"a65isocv32f2","geo_precision":"city","state":"MO"},"type":"Feature","geometry":{"type":"Point","coordinates":[-94.598583,39.102404]}},{"properties":{"name":1.0,"city":"Kansas City","zip":"641114","geo_score":0.857,"country":"United States","id":"a65ison09xw6","geo_precision":"city","state":"MO"},"type":"Feature","geometry":{"type":"Point","coordinates":[-94.598583,39.102404]}},{"properties":{"name":1.0,"city":"Kansas City","zip":"641114","geo_score":0.857,"country":"United States","id":"a65isokxu5cv","geo_precision":"city","state":"MO"},"type":"Feature","geometry":{"type":"Point","coordinates":[-94.598583,39.102404]}},{"properties":{"name":1.0,"city":"Kansas City","zip":"641114","geo_score":0.857,"country":"United States","id":"a65isop5duin","geo_precision":"city","state":"MO"},"type":"Feature","geometry":{"type":"Point","coordinates":[-94.598583,39.102404]}},{"properties":{"name":1.0,"city":"Kansas City","zip":"641114","geo_score":0.857,"country":"United States","id":"a65isoieyw7x","geo_precision":"city","state":"MO"},"type":"Feature","geometry":{"type":"Point","coordinates":[-94.598583,39.102404]}},{"properties":{"name":1.0,"city":"Kansas City","zip":"641114","geo_score":0.857,"country":"United States","id":"a65isoi2vnly","geo_precision":"city","state":"MO"},"type":"Feature","geometry":{"type":"Point","coordinates":[-94.598583,39.102404]}},{"properties":{"name":1.0,"city":"Kansas City","zip":"641114","geo_score":0.857,"country":"United States","id":"a65isocaw716","geo_precision":"city","state":"MO"},"type":"Feature","geometry":{"type":"Point","coordinates":[-94.598583,39.102404]}},{"properties":{"name":1.0,"city":"Kansas City","zip":"641114","geo_score":0.857,"country":"United States","id":"a65isoer8l49","geo_precision":"city","state":"MO"},"type":"Feature","geometry":{"type":"Point","coordinates":[-94.598583,39.102404]}},{"properties":{"name":1.0,"city":"Kansas City","zip":"641114","geo_score":0.857,"country":"United States","id":"a65isopcgro1","geo_precision":"city","state":"MO"},"type":"Feature","geometry":{"type":"Point","coordinates":[-94.598583,39.102404]}},{"properties":{"name":1.0,"city":"Kansas City","zip":"641114","geo_score":0.857,"country":"United States","id":"a65isopwxfqo","geo_precision":"city","state":"MO"},"type":"Feature","geometry":{"type":"Point","coordinates":[-94.598583,39.102404]}},{"properties":{"name":1.0,"city":"Kansas City","zip":"641114","geo_score":0.857,"country":"United States","id":"a65isopg6dby","geo_precision":"city","state":"MO"},"type":"Feature","geometry":{"type":"Point","coordinates":[-94.598583,39.102404]}},{"properties":{"name":1.0,"city":"Kansas City","zip":"641114","geo_score":0.857,"country":"United States","id":"a65isoqhxxob","geo_precision":"city","state":"MO"},"type":"Feature","geometry":{"type":"Point","coordinates":[-94.598583,39.102404]}},{"properties":{"name":1.0,"city":"Kansas City","zip":"641114","geo_score":0.857,"country":"United States","id":"a65isoe0mwiy","geo_precision":"city","state":"MO"},"type":"Feature","geometry":{"type":"Point","coordinates":[-94.598583,39.102404]}},{"properties":{"name":1.0,"city":"Kansas City","zip":"641114","geo_score":0.857,"country":"United States","id":"a65isoddkktq","geo_precision":"city","state":"MO"},"type":"Feature","geometry":{"type":"Point","coordinates":[-94.598583,39.102404]}},{"properties":{"name":1.0,"city":"Kansas City","zip":"641114","geo_score":0.857,"country":"United States","id":"a65isofjpr6d","geo_precision":"city","state":"MO"},"type":"Feature","geometry":{"type":"Point","coordinates":[-94.598583,39.102404]}},{"properties":{"name":1.0,"city":"Kansas City","zip":"641114","geo_score":0.857,"country":"United States","id":"a65isohoqee7","geo_precision":"city","state":"MO"},"type":"Feature","geometry":{"type":"Point","coordinates":[-94.598583,39.102404]}},{"properties":{"name":1.0,"city":"Kansas City","zip":"641123","geo_score":0.857,"country":"United States","id":"a65isoc88lwk","geo_precision":"city","state":"MO"},"type":"Feature","geometry":{"type":"Point","coordinates":[-94.598583,39.102404]}},{"properties":{"name":1.0,"city":"Kansas City","zip":"641123","geo_score":0.857,"country":"United States","id":"a65isosog6c7","geo_precision":"city","state":"MO"},"type":"Feature","geometry":{"type":"Point","coordinates":[-94.598583,39.102404]}},{"properties":{"name":1.0,"city":"Kansas City","zip":"641123","geo_score":0.857,"country":"United States","id":"a65isokoob3n","geo_precision":"city","state":"MO"},"type":"Feature","geometry":{"type":"Point","coordinates":[-94.598583,39.102404]}},{"properties":{"name":1.0,"city":"Kansas City","zip":"641123","geo_score":0.857,"country":"United States","id":"a65isofuvdjz","geo_precision":"city","state":"MO"},"type":"Feature","geometry":{"type":"Point","coordinates":[-94.598583,39.102404]}},{"properties":{"name":1.0,"city":"Kansas City","zip":"641124","geo_score":0.857,"country":"United States","id":"a65isoniuvvz","geo_precision":"city","state":"MO"},"type":"Feature","geometry":{"type":"Point","coordinates":[-94.598583,39.102404]}},{"properties":{"name":1.0,"city":"Kansas City","zip":"641124","geo_score":0.857,"country":"United States","id":"a65isodd682z","geo_precision":"city","state":"MO"},"type":"Feature","geometry":{"type":"Point","coordinates":[-94.598583,39.102404]}},{"properties":{"name":1.0,"city":"Kansas City","zip":"641124","geo_score":0.857,"country":"United States","id":"a65isoce8107","geo_precision":"city","state":"MO"},"type":"Feature","geometry":{"type":"Point","coordinates":[-94.598583,39.102404]}},{"properties":{"name":1.0,"city":"Kansas City","zip":"641124","geo_score":0.857,"country":"United States","id":"a65isofnmyu7","geo_precision":"city","state":"MO"},"type":"Feature","geometry":{"type":"Point","coordinates":[-94.598583,39.102404]}},{"properties":{"name":1.0,"city":"Kansas City","zip":"641126","geo_score":0.857,"country":"United States","id":"a65isormd9o1","geo_precision":"city","state":"MO"},"type":"Feature","geometry":{"type":"Point","coordinates":[-94.598583,39.102404]}},{"properties":{"name":1.0,"city":"Kansas City","zip":"641127","geo_score":0.857,"country":"United States","id":"a65isoqg1zpa","geo_precision":"city","state":"MO"},"type":"Feature","geometry":{"type":"Point","coordinates":[-94.598583,39.102404]}},{"properties":{"name":1.0,"city":"Kansas City","zip":"641127","geo_score":0.857,"country":"United States","id":"a65isodfzlia","geo_precision":"city","state":"MO"},"type":"Feature","geometry":{"type":"Point","coordinates":[-94.598583,39.102404]}},{"properties":{"name":1.0,"city":"Kansas City","zip":"641127","geo_score":0.857,"country":"United States","id":"a65isos7qyf3","geo_precision":"city","state":"MO"},"type":"Feature","geometry":{"type":"Point","coordinates":[-94.598583,39.102404]}},{"properties":{"name":1.0,"city":"Kansas City","zip":"641127","geo_score":0.857,"country":"United States","id":"a65isooq2y1h","geo_precision":"city","state":"MO"},"type":"Feature","geometry":{"type":"Point","coordinates":[-94.598583,39.102404]}},{"properties":{"name":1.0,"city":"Kansas City","zip":"641127","geo_score":0.857,"country":"United States","id":"a65isoq0ygtg","geo_precision":"city","state":"MO"},"type":"Feature","geometry":{"type":"Point","coordinates":[-94.598583,39.102404]}},{"properties":{"name":1.0,"city":"Kansas City","zip":"641127","geo_score":0.857,"country":"United States","id":"a65isodv2n13","geo_precision":"city","state":"MO"},"type":"Feature","geometry":{"type":"Point","coordinates":[-94.598583,39.102404]}},{"properties":{"name":1.0,"city":"Kansas City","zip":"641127","geo_score":0.857,"country":"United States","id":"a65isodv0sky","geo_precision":"city","state":"MO"},"type":"Feature","geometry":{"type":"Point","coordinates":[-94.598583,39.102404]}},{"properties":{"name":1.0,"city":"Kansas City","zip":"641127","geo_score":0.857,"country":"United States","id":"a65isop0mtnh","geo_precision":"city","state":"MO"},"type":"Feature","geometry":{"type":"Point","coordinates":[-94.598583,39.102404]}},{"properties":{"name":1.0,"city":"Kansas City","zip":"641127","geo_score":0.857,"country":"United States","id":"a65isomm8srw","geo_precision":"city","state":"MO"},"type":"Feature","geometry":{"type":"Point","coordinates":[-94.598583,39.102404]}},{"properties":{"name":1.0,"city":"Kansas City","zip":"641127","geo_score":0.857,"country":"United States","id":"a65isoe5kvh2","geo_precision":"city","state":"MO"},"type":"Feature","geometry":{"type":"Point","coordinates":[-94.598583,39.102404]}},{"properties":{"name":1.0,"city":"Kansas City","zip":"641127","geo_score":0.857,"country":"United States","id":"a65isosb2su8","geo_precision":"city","state":"MO"},"type":"Feature","geometry":{"type":"Point","coordinates":[-94.598583,39.102404]}},{"properties":{"name":1.0,"city":"Kansas City","zip":"641127","geo_score":0.857,"country":"United States","id":"a65isogazr65","geo_precision":"city","state":"MO"},"type":"Feature","geometry":{"type":"Point","coordinates":[-94.598583,39.102404]}},{"properties":{"name":1.0,"city":"Kansas City","zip":"641127","geo_score":0.857,"country":"United States","id":"a65isog5v610","geo_precision":"city","state":"MO"},"type":"Feature","geometry":{"type":"Point","coordinates":[-94.598583,39.102404]}},{"properties":{"name":1.0,"city":"Kansas City","zip":"641127","geo_score":0.857,"country":"United States","id":"a65isofjqvrf","geo_precision":"city","state":"MO"},"type":"Feature","geometry":{"type":"Point","coordinates":[-94.598583,39.102404]}},{"properties":{"name":1.0,"city":"Kansas City","zip":"641128","geo_score":0.857,"country":"United States","id":"a65isosiwknu","geo_precision":"city","state":"MO"},"type":"Feature","geometry":{"type":"Point","coordinates":[-94.598583,39.102404]}},{"properties":{"name":1.0,"city":"Kansas City","zip":"641128","geo_score":0.857,"country":"United States","id":"a65isojhzabo","geo_precision":"city","state":"MO"},"type":"Feature","geometry":{"type":"Point","coordinates":[-94.598583,39.102404]}},{"properties":{"name":1.0,"city":"Kansas City","zip":"641128","geo_score":0.857,"country":"United States","id":"a65isoqbeah5","geo_precision":"city","state":"MO"},"type":"Feature","geometry":{"type":"Point","coordinates":[-94.598583,39.102404]}},{"properties":{"name":1.0,"city":"Kansas City","zip":"641128","geo_score":0.857,"country":"United States","id":"a65isod43l0i","geo_precision":"city","state":"MO"},"type":"Feature","geometry":{"type":"Point","coordinates":[-94.598583,39.102404]}},{"properties":{"name":1.0,"city":"Kansas City","zip":"641128","geo_score":0.857,"country":"United States","id":"a65isodgsztr","geo_precision":"city","state":"MO"},"type":"Feature","geometry":{"type":"Point","coordinates":[-94.598583,39.102404]}},{"properties":{"name":1.0,"city":"Kansas City","zip":"641128","geo_score":0.857,"country":"United States","id":"a65ison5fqhr","geo_precision":"city","state":"MO"},"type":"Feature","geometry":{"type":"Point","coordinates":[-94.598583,39.102404]}},{"properties":{"name":1.0,"city":"Kansas City","zip":"641128","geo_score":0.857,"country":"United States","id":"a65isofopywe","geo_precision":"city","state":"MO"},"type":"Feature","geometry":{"type":"Point","coordinates":[-94.598583,39.102404]}},{"properties":{"name":1.0,"city":"Kansas City","zip":"641128","geo_score":0.857,"country":"United States","id":"a65isogrte7t","geo_precision":"city","state":"MO"},"type":"Feature","geometry":{"type":"Point","coordinates":[-94.598583,39.102404]}},{"properties":{"name":1.0,"city":"Kansas City","zip":"641128","geo_score":0.857,"country":"United States","id":"a65isospart6","geo_precision":"city","state":"MO"},"type":"Feature","geometry":{"type":"Point","coordinates":[-94.598583,39.102404]}},{"properties":{"name":1.0,"city":"Kansas City","zip":"641128","geo_score":0.857,"country":"United States","id":"a65isom7t6nv","geo_precision":"city","state":"MO"},"type":"Feature","geometry":{"type":"Point","coordinates":[-94.598583,39.102404]}},{"properties":{"name":1.0,"city":"Kansas City","zip":"641128","geo_score":0.857,"country":"United States","id":"a65isokqd5es","geo_precision":"city","state":"MO"},"type":"Feature","geometry":{"type":"Point","coordinates":[-94.598583,39.102404]}},{"properties":{"name":1.0,"city":"Kansas City","zip":"641128","geo_score":0.857,"country":"United States","id":"a65isoh5bw89","geo_precision":"city","state":"MO"},"type":"Feature","geometry":{"type":"Point","coordinates":[-94.598583,39.102404]}},{"properties":{"name":1.0,"city":"Kansas City","zip":"641128","geo_score":0.857,"country":"United States","id":"a65isol4wy9c","geo_precision":"city","state":"MO"},"type":"Feature","geometry":{"type":"Point","coordinates":[-94.598583,39.102404]}},{"properties":{"name":1.0,"city":"Kansas City","zip":"641128","geo_score":0.857,"country":"United States","id":"a65isok3gvx8","geo_precision":"city","state":"MO"},"type":"Feature","geometry":{"type":"Point","coordinates":[-94.598583,39.102404]}},{"properties":{"name":1.0,"city":"Kansas City","zip":"641128","geo_score":0.857,"country":"United States","id":"a65isogw55tj","geo_precision":"city","state":"MO"},"type":"Feature","geometry":{"type":"Point","coordinates":[-94.598583,39.102404]}},{"properties":{"name":1.0,"city":"Kansas City","zip":"641128","geo_score":0.857,"country":"United States","id":"a65isoj59lll","geo_precision":"city","state":"MO"},"type":"Feature","geometry":{"type":"Point","coordinates":[-94.598583,39.102404]}},{"properties":{"name":1.0,"city":"Kansas City","zip":"641128","geo_score":0.857,"country":"United States","id":"a65isodn5f47","geo_precision":"city","state":"MO"},"type":"Feature","geometry":{"type":"Point","coordinates":[-94.598583,39.102404]}},{"properties":{"name":1.0,"city":"Kansas City","zip":"641128","geo_score":0.857,"country":"United States","id":"a65isod10iii","geo_precision":"city","state":"MO"},"type":"Feature","geometry":{"type":"Point","coordinates":[-94.598583,39.102404]}},{"properties":{"name":1.0,"city":"Kansas City","zip":"641129","geo_score":0.857,"country":"United States","id":"a65isop40eb8","geo_precision":"city","state":"MO"},"type":"Feature","geometry":{"type":"Point","coordinates":[-94.598583,39.102404]}},{"properties":{"name":1.0,"city":"Kansas City","zip":"641129","geo_score":0.857,"country":"United States","id":"a65isoqhzbvm","geo_precision":"city","state":"MO"},"type":"Feature","geometry":{"type":"Point","coordinates":[-94.598583,39.102404]}},{"properties":{"name":1.0,"city":"Kansas City","zip":"641129","geo_score":0.857,"country":"United States","id":"a65isomnfhk5","geo_precision":"city","state":"MO"},"type":"Feature","geometry":{"type":"Point","coordinates":[-94.598583,39.102404]}},{"properties":{"name":1.0,"city":"Kansas City","zip":"641129","geo_score":0.857,"country":"United States","id":"a65isod8usy1","geo_precision":"city","state":"MO"},"type":"Feature","geometry":{"type":"Point","coordinates":[-94.598583,39.102404]}},{"properties":{"name":1.0,"city":"Kansas City","zip":"641130","geo_score":0.857,"country":"United States","id":"a65isoe45zj7","geo_precision":"city","state":"MO"},"type":"Feature","geometry":{"type":"Point","coordinates":[-94.598583,39.102404]}},{"properties":{"name":1.0,"city":"Kansas City","zip":"641130","geo_score":0.857,"country":"United States","id":"a65isoisbgxl","geo_precision":"city","state":"MO"},"type":"Feature","geometry":{"type":"Point","coordinates":[-94.598583,39.102404]}},{"properties":{"name":1.0,"city":"Kansas City","zip":"641130","geo_score":0.857,"country":"United States","id":"a65isoo27bzf","geo_precision":"city","state":"MO"},"type":"Feature","geometry":{"type":"Point","coordinates":[-94.598583,39.102404]}},{"properties":{"name":1.0,"city":"Kansas City","zip":"641130","geo_score":0.857,"country":"United States","id":"a65ison52444","geo_precision":"city","state":"MO"},"type":"Feature","geometry":{"type":"Point","coordinates":[-94.598583,39.102404]}},{"properties":{"name":1.0,"city":"Kansas City","zip":"641130","geo_score":0.857,"country":"United States","id":"a65isorev3p0","geo_precision":"city","state":"MO"},"type":"Feature","geometry":{"type":"Point","coordinates":[-94.598583,39.102404]}},{"properties":{"name":1.0,"city":"Kansas City","zip":"641130","geo_score":0.857,"country":"United States","id":"a65isoegy9q9","geo_precision":"city","state":"MO"},"type":"Feature","geometry":{"type":"Point","coordinates":[-94.598583,39.102404]}},{"properties":{"name":1.0,"city":"Kansas City","zip":"641130","geo_score":0.857,"country":"United States","id":"a65isohddavo","geo_precision":"city","state":"MO"},"type":"Feature","geometry":{"type":"Point","coordinates":[-94.598583,39.102404]}},{"properties":{"name":1.0,"city":"Kansas City","zip":"641130","geo_score":0.857,"country":"United States","id":"a65isol7z8y5","geo_precision":"city","state":"MO"},"type":"Feature","geometry":{"type":"Point","coordinates":[-94.598583,39.102404]}},{"properties":{"name":1.0,"city":"Kansas City","zip":"641130","geo_score":0.857,"country":"United States","id":"a65ison59l9h","geo_precision":"city","state":"MO"},"type":"Feature","geometry":{"type":"Point","coordinates":[-94.598583,39.102404]}},{"properties":{"name":1.0,"city":"Kansas City","zip":"641130","geo_score":0.857,"country":"United States","id":"a65isooaem9r","geo_precision":"city","state":"MO"},"type":"Feature","geometry":{"type":"Point","coordinates":[-94.598583,39.102404]}},{"properties":{"name":1.0,"city":"Kansas City","zip":"641130","geo_score":0.857,"country":"United States","id":"a65isonfd0kw","geo_precision":"city","state":"MO"},"type":"Feature","geometry":{"type":"Point","coordinates":[-94.598583,39.102404]}},{"properties":{"name":1.0,"city":"Kansas City","zip":"641130","geo_score":0.857,"country":"United States","id":"a65isodzbc7s","geo_precision":"city","state":"MO"},"type":"Feature","geometry":{"type":"Point","coordinates":[-94.598583,39.102404]}},{"properties":{"name":1.0,"city":"Kansas City","zip":"641130","geo_score":0.857,"country":"United States","id":"a65isol524o5","geo_precision":"city","state":"MO"},"type":"Feature","geometry":{"type":"Point","coordinates":[-94.598583,39.102404]}},{"properties":{"name":1.0,"city":"Kansas City","zip":"641130","geo_score":0.857,"country":"United States","id":"a65isopxcv8n","geo_precision":"city","state":"MO"},"type":"Feature","geometry":{"type":"Point","coordinates":[-94.598583,39.102404]}},{"properties":{"name":1.0,"city":"Kansas City","zip":"641130","geo_score":0.857,"country":"United States","id":"a65isooa953b","geo_precision":"city","state":"MO"},"type":"Feature","geometry":{"type":"Point","coordinates":[-94.598583,39.102404]}},{"properties":{"name":1.0,"city":"Kansas City","zip":"641130","geo_score":0.857,"country":"United States","id":"a65isohgztgm","geo_precision":"city","state":"MO"},"type":"Feature","geometry":{"type":"Point","coordinates":[-94.598583,39.102404]}},{"properties":{"name":1.0,"city":"Kansas City","zip":"641130","geo_score":0.857,"country":"United States","id":"a65isor49kia","geo_precision":"city","state":"MO"},"type":"Feature","geometry":{"type":"Point","coordinates":[-94.598583,39.102404]}},{"properties":{"name":1.0,"city":"Kansas City","zip":"641130","geo_score":0.857,"country":"United States","id":"a65isocvkc5a","geo_precision":"city","state":"MO"},"type":"Feature","geometry":{"type":"Point","coordinates":[-94.598583,39.102404]}},{"properties":{"name":1.0,"city":"Kansas City","zip":"641130","geo_score":0.857,"country":"United States","id":"a65isonr92co","geo_precision":"city","state":"MO"},"type":"Feature","geometry":{"type":"Point","coordinates":[-94.598583,39.102404]}},{"properties":{"name":1.0,"city":"Kansas City","zip":"641130","geo_score":0.857,"country":"United States","id":"a65isoetsog5","geo_precision":"city","state":"MO"},"type":"Feature","geometry":{"type":"Point","coordinates":[-94.598583,39.102404]}},{"properties":{"name":1.0,"city":"Kansas City","zip":"641130","geo_score":0.857,"country":"United States","id":"a65isontv5bp","geo_precision":"city","state":"MO"},"type":"Feature","geometry":{"type":"Point","coordinates":[-94.598583,39.102404]}},{"properties":{"name":1.0,"city":"Kansas City","zip":"641130","geo_score":0.857,"country":"United States","id":"a65isoq6i3p9","geo_precision":"city","state":"MO"},"type":"Feature","geometry":{"type":"Point","coordinates":[-94.598583,39.102404]}},{"properties":{"name":1.0,"city":"Kansas City","zip":"641131","geo_score":0.857,"country":"United States","id":"a65isoqjnnvt","geo_precision":"city","state":"MO"},"type":"Feature","geometry":{"type":"Point","coordinates":[-94.598583,39.102404]}},{"properties":{"name":1.0,"city":"Kansas City","zip":"641131","geo_score":0.857,"country":"United States","id":"a65isoc9hk93","geo_precision":"city","state":"MO"},"type":"Feature","geometry":{"type":"Point","coordinates":[-94.598583,39.102404]}},{"properties":{"name":1.0,"city":"Kansas City","zip":"641131","geo_score":0.857,"country":"United States","id":"a65isorvxlx8","geo_precision":"city","state":"MO"},"type":"Feature","geometry":{"type":"Point","coordinates":[-94.598583,39.102404]}},{"properties":{"name":1.0,"city":"Kansas City","zip":"641131","geo_score":0.857,"country":"United States","id":"a65isodt28vi","geo_precision":"city","state":"MO"},"type":"Feature","geometry":{"type":"Point","coordinates":[-94.598583,39.102404]}},{"properties":{"name":1.0,"city":"Kansas City","zip":"641131","geo_score":0.857,"country":"United States","id":"a65isofzgifi","geo_precision":"city","state":"MO"},"type":"Feature","geometry":{"type":"Point","coordinates":[-94.598583,39.102404]}},{"properties":{"name":1.0,"city":"Kansas City","zip":"641131","geo_score":0.857,"country":"United States","id":"a65isoco2ylh","geo_precision":"city","state":"MO"},"type":"Feature","geometry":{"type":"Point","coordinates":[-94.598583,39.102404]}},{"properties":{"name":1.0,"city":"Kansas City","zip":"641131","geo_score":0.857,"country":"United States","id":"a65isoqm7e40","geo_precision":"city","state":"MO"},"type":"Feature","geometry":{"type":"Point","coordinates":[-94.598583,39.102404]}},{"properties":{"name":1.0,"city":"Kansas City","zip":"641131","geo_score":0.857,"country":"United States","id":"a65isopdd5of","geo_precision":"city","state":"MO"},"type":"Feature","geometry":{"type":"Point","coordinates":[-94.598583,39.102404]}},{"properties":{"name":1.0,"city":"Kansas City","zip":"641131","geo_score":0.857,"country":"United States","id":"a65isoir1p6o","geo_precision":"city","state":"MO"},"type":"Feature","geometry":{"type":"Point","coordinates":[-94.598583,39.102404]}},{"properties":{"name":1.0,"city":"Kansas City","zip":"641131","geo_score":0.857,"country":"United States","id":"a65isoqbrl8z","geo_precision":"city","state":"MO"},"type":"Feature","geometry":{"type":"Point","coordinates":[-94.598583,39.102404]}},{"properties":{"name":1.0,"city":"Kansas City","zip":"641131","geo_score":0.857,"country":"United States","id":"a65isoipl40c","geo_precision":"city","state":"MO"},"type":"Feature","geometry":{"type":"Point","coordinates":[-94.598583,39.102404]}},{"properties":{"name":1.0,"city":"Kansas City","zip":"641131","geo_score":0.857,"country":"United States","id":"a65isoc72f76","geo_precision":"city","state":"MO"},"type":"Feature","geometry":{"type":"Point","coordinates":[-94.598583,39.102404]}},{"properties":{"name":1.0,"city":"Kansas City","zip":"641131","geo_score":0.857,"country":"United States","id":"a65isoeg02se","geo_precision":"city","state":"MO"},"type":"Feature","geometry":{"type":"Point","coordinates":[-94.598583,39.102404]}},{"properties":{"name":1.0,"city":"Kansas City","zip":"641131","geo_score":0.857,"country":"United States","id":"a65isoiarr68","geo_precision":"city","state":"MO"},"type":"Feature","geometry":{"type":"Point","coordinates":[-94.598583,39.102404]}},{"properties":{"name":1.0,"city":"Kansas City","zip":"641131","geo_score":0.857,"country":"United States","id":"a65isolc3ufx","geo_precision":"city","state":"MO"},"type":"Feature","geometry":{"type":"Point","coordinates":[-94.598583,39.102404]}},{"properties":{"name":1.0,"city":"Kansas City","zip":"641131","geo_score":0.857,"country":"United States","id":"a65isop17l6f","geo_precision":"city","state":"MO"},"type":"Feature","geometry":{"type":"Point","coordinates":[-94.598583,39.102404]}},{"properties":{"name":1.0,"city":"Kansas City","zip":"641131","geo_score":0.857,"country":"United States","id":"a65isoe59eur","geo_precision":"city","state":"MO"},"type":"Feature","geometry":{"type":"Point","coordinates":[-94.598583,39.102404]}},{"properties":{"name":1.0,"city":"Kansas City","zip":"641131","geo_score":0.857,"country":"United States","id":"a65isogpqisc","geo_precision":"city","state":"MO"},"type":"Feature","geometry":{"type":"Point","coordinates":[-94.598583,39.102404]}},{"properties":{"name":1.0,"city":"Kansas City","zip":"641131","geo_score":0.857,"country":"United States","id":"a65isom0xey1","geo_precision":"city","state":"MO"},"type":"Feature","geometry":{"type":"Point","coordinates":[-94.598583,39.102404]}},{"properties":{"name":1.0,"city":"Kansas City","zip":"641131","geo_score":0.857,"country":"United States","id":"a65isoptnahp","geo_precision":"city","state":"MO"},"type":"Feature","geometry":{"type":"Point","coordinates":[-94.598583,39.102404]}}],"is_temporal":false,"author":{"url":"","metadata":"","contact_name":"","contact_address":"","source":"","contact_phone":""},"source":"","pagination":{"sort":null,"start":0,"total":397,"limit":1000000},"state":"complete","tags":"","published":"2014-08-11T00:07:30-04:00","id":18361}