{"type":"FeatureCollection","data_type":"Dataset","url_type":null,"permissions":[{"permissions":{"download":true,"edit":true,"view":true},"group_id":"everyone"}],"classification":null,"title":"Unemployment Rate in Michigan Cities in 2006","count":12,"stream_id":183960,"contributor":{"url":"http://geocommons.com/users/5925","name":"afdomas"},"data_attributes":null,"calculation_params":null,"icon_link":null,"link":"http://geocommons.com/overlays/183960.json","extent":[-86.2389,41.928,-83.0458,43.7122],"geometry_types":["point"],"unique_name":null,"name":"Unemployment Rate in Michigan Cities in 2006","feature_count":12,"description":"","next_feature":null,"is_raster":false,"short_classification":"Y","stats":{"unemployment rate":{"max":8.1,"mean":6.35833333333333,"variance":0.993560606060606,"stdev":0.996775103050134,"min":4.6,"median":6.8}},"features":[{"properties":{"column_4":null,"city":"Battle Creek","column_10":null,"column_5":null,"column_11":null,"column_6":null,"column_12":null,"column_7":null,"geo_score":0.753,"column_13":null,"column_8":null,"column_9":null,"id":"a62ob8qzhs35","geo_precision":"city","unemployment rate":4.6,"state":"Michigan"},"type":"Feature","geometry":{"type":"Point","coordinates":[-85.860379,43.712217]}},{"properties":{"column_4":null,"city":"Bay City","column_10":null,"column_5":null,"column_11":null,"column_6":null,"column_12":null,"column_7":null,"geo_score":0.857,"column_13":"d","column_8":null,"column_9":null,"id":"a62ob8lnktvq","geo_precision":"city","unemployment rate":6.9,"state":"Michigan"},"type":"Feature","geometry":{"type":"Point","coordinates":[-83.953007,43.608773]}},{"properties":{"column_4":null,"city":"Detroit","column_10":null,"column_5":null,"column_11":null,"column_6":null,"column_12":null,"column_7":null,"geo_score":0.857,"column_13":null,"column_8":null,"column_9":null,"id":"a62ob8jhj6wz","geo_precision":"city","unemployment rate":6.8,"state":"Michigan"},"type":"Feature","geometry":{"type":"Point","coordinates":[-83.045754,42.331427]}},{"properties":{"column_4":null,"city":"Flint","column_10":null,"column_5":null,"column_11":null,"column_6":null,"column_12":null,"column_7":null,"geo_score":0.857,"column_13":null,"column_8":null,"column_9":null,"id":"a62ob8mstfmi","geo_precision":"city","unemployment rate":7.2,"state":"Michigan"},"type":"Feature","geometry":{"type":"Point","coordinates":[-83.687456,43.012527]}},{"properties":{"column_4":null,"city":"Grand Rapids","column_10":null,"column_5":null,"column_11":null,"column_6":null,"column_12":null,"column_7":null,"geo_score":0.857,"column_13":null,"column_8":null,"column_9":null,"id":"a62ob8obvlx3","geo_precision":"city","unemployment rate":8.1,"state":"Michigan"},"type":"Feature","geometry":{"type":"Point","coordinates":[-85.668086,42.96336]}},{"properties":{"column_4":null,"city":"Holland","column_10":null,"column_5":null,"column_11":null,"column_6":null,"column_12":null,"column_7":null,"geo_score":0.804,"column_13":null,"column_8":null,"column_9":null,"id":"a62ob8pkky5s","geo_precision":"city","unemployment rate":5.8,"state":"Michigan"},"type":"Feature","geometry":{"type":"Point","coordinates":[-83.422549,42.701111]}},{"properties":{"column_4":null,"city":"Jackson","column_10":null,"column_5":null,"column_11":null,"column_6":null,"column_12":null,"column_7":null,"geo_score":0.857,"column_13":null,"column_8":null,"column_9":null,"id":"a62ob8s88me2","geo_precision":"city","unemployment rate":5.2,"state":"Michigan"},"type":"Feature","geometry":{"type":"Point","coordinates":[-84.421104,42.248979]}},{"properties":{"column_4":null,"city":"Kalamazoo","column_10":null,"column_5":null,"column_11":null,"column_6":null,"column_12":null,"column_7":null,"geo_score":0.857,"column_13":null,"column_8":null,"column_9":null,"id":"a62ob8m6mc9n","geo_precision":"city","unemployment rate":7.2,"state":"Michigan"},"type":"Feature","geometry":{"type":"Point","coordinates":[-85.588195,42.274887]}},{"properties":{"column_4":null,"city":"Lansing","column_10":null,"column_5":null,"column_11":null,"column_6":null,"column_12":null,"column_7":null,"geo_score":0.857,"column_13":null,"column_8":null,"column_9":null,"id":"a62ob8vm1jqc","geo_precision":"city","unemployment rate":5.5,"state":"Michigan"},"type":"Feature","geometry":{"type":"Point","coordinates":[-84.555535,42.732535]}},{"properties":{"column_4":null,"city":"Monroe","column_10":null,"column_5":null,"column_11":null,"column_6":null,"column_12":null,"column_7":null,"geo_score":0.857,"column_13":null,"column_8":null,"column_9":null,"id":"a62ob8k5g6zj","geo_precision":"city","unemployment rate":5.8,"state":"Michigan"},"type":"Feature","geometry":{"type":"Point","coordinates":[-83.430682,41.928024]}},{"properties":{"column_4":null,"city":"Muskegon","column_10":null,"column_5":null,"column_11":null,"column_6":null,"column_12":null,"column_7":null,"geo_score":0.79,"column_13":null,"column_8":null,"column_9":null,"id":"a62ob8p7g9wy","geo_precision":"city","unemployment rate":6.4,"state":"Michigan"},"type":"Feature","geometry":{"type":"Point","coordinates":[-86.238946,43.201126]}},{"properties":{"column_4":null,"city":"Benton Harbor","column_10":null,"column_5":null,"column_11":null,"column_6":null,"column_12":null,"column_7":null,"geo_score":0.786,"column_13":null,"column_8":null,"column_9":null,"id":"a62ob8hz1x35","geo_precision":"city","unemployment rate":6.8,"state":"Michigan"},"type":"Feature","geometry":{"type":"Point","coordinates":[-83.862164,42.12893]}}],"is_temporal":false,"author":{"url":"","metadata":"","contact_name":"","contact_address":"","source":"http://datamarket.com/","contact_phone":""},"source":"","pagination":{"sort":null,"start":0,"total":12,"limit":1000000},"state":"complete","tags":"michigan,unemployment","published":"2014-08-13T03:15:08-04:00","id":183960}