{"type":"FeatureCollection","data_type":"Dataset","url_type":null,"permissions":[{"permissions":{"download":true,"view":true},"group_id":"everyone"}],"classification":null,"title":"Zillow HVI GA by City","count":99,"stream_id":184486,"contributor":{"url":"http://geocommons.com/users/36836","name":"ERaymond"},"data_attributes":null,"calculation_params":null,"icon_link":null,"link":"http://geocommons.com/overlays/184486.json","extent":[-84.9399,30.826,-80.9737,34.7581],"geometry_types":["point"],"unique_name":null,"name":"Zillow HVI GA by City","feature_count":99,"description":"","next_feature":null,"is_raster":false,"short_classification":"Y","stats":{"5 year annualized":{"max":0.0011,"variance":0.00227132292104721,"mean":-0.0825646464646464,"stdev":0.0476583982215853,"min":-0.2188,"median":-0.0729},"quarter over quarter":{"max":0.053330059,"variance":0.0012615347392991,"mean":-0.0410455485454546,"stdev":0.0355180903104193,"min":-0.147236545,"median":-0.04088067},"current":{"max":347800,"variance":4978921412.07998,"mean":129004.04040404,"stdev":70561.4725759035,"min":36700,"median":105900},"10 year annualized":{"max":0.2182,"variance":0.00176669324097938,"mean":-0.013260824742268,"stdev":0.0420320501638854,"min":-0.1044,"median":-0.0128},"year over year":{"max":0.051297258,"variance":0.00565238056885951,"mean":-0.113219717040404,"stdev":0.075182315532707,"min":-0.325496003,"median":-0.112786128}},"features":[{"properties":{"5 year annualized":-0.2188,"city":"Riverdale","quarter over quarter":-0.085450692,"current":36700,"geo_score":0.857,"10 year annualized":-0.1044,"year over year":-0.167714266,"id":"a6ii4aci69c3","geo_precision":"city","month over month":"-0.03183402","state":"GA"},"type":"Feature","geometry":{"type":"Point","coordinates":[-84.413259,33.572611]}},{"properties":{"5 year annualized":-0.2096,"city":"Morrow","quarter over quarter":-0.0755974,"current":40000,"geo_score":0.786,"10 year annualized":-0.0964,"year over year":-0.112786128,"id":"a6ii4amo5k9i","geo_precision":"city","month over month":"-0.031107555","state":"GA"},"type":"Feature","geometry":{"type":"Point","coordinates":[-82.953758,31.414088]}},{"properties":{"5 year annualized":-0.1955,"city":"Rex","quarter over quarter":-0.06576918,"current":42400,"geo_score":0.857,"10 year annualized":-0.0896,"year over year":-0.164693367,"id":"a6ii4agvv9h4","geo_precision":"city","month over month":"-0.026696355","state":"GA"},"type":"Feature","geometry":{"type":"Point","coordinates":[-84.272559,33.577049]}},{"properties":{"5 year annualized":-0.1823,"city":"Covington","quarter over quarter":-0.029914175,"current":70100,"geo_score":0.857,"10 year annualized":-0.0556,"year over year":-0.207439409,"id":"a6ii4ae3tmz1","geo_precision":"city","month over month":"-0.013888498","state":"GA"},"type":"Feature","geometry":{"type":"Point","coordinates":[-83.860183,33.596782]}},{"properties":{"5 year annualized":-0.172,"city":"East Point","quarter over quarter":-0.131727804,"current":56000,"geo_score":0.857,"10 year annualized":-0.0621,"year over year":-0.325496003,"id":"a6ii4abji7od","geo_precision":"city","month over month":"-0.047759063","state":"GA"},"type":"Feature","geometry":{"type":"Point","coordinates":[-84.439372,33.679553]}},{"properties":{"5 year annualized":-0.1675,"city":"Monroe","quarter over quarter":-0.077227147,"current":63500,"geo_score":0.857,"10 year annualized":-0.0208,"year over year":-0.210513882,"id":"a6ii4ac10oej","geo_precision":"city","month over month":"-0.030017873","state":"GA"},"type":"Feature","geometry":{"type":"Point","coordinates":[-83.701264,33.788322]}},{"properties":{"5 year annualized":-0.1597,"city":"College Park","quarter over quarter":-0.072270652,"current":67000,"geo_score":0.857,"10 year annualized":-0.0605,"year over year":-0.23925204,"id":"a6ii4adji0dq","geo_precision":"city","month over month":"-0.026074199","state":"GA"},"type":"Feature","geometry":{"type":"Point","coordinates":[-84.449373,33.653443]}},{"properties":{"5 year annualized":-0.1585,"city":"Union City","quarter over quarter":-0.067913236,"current":55100,"geo_score":0.73,"10 year annualized":-0.0545,"year over year":-0.259655154,"id":"a6ii4am4q9o1","geo_precision":"city","month over month":"-0.024419592","state":"GA"},"type":"Feature","geometry":{"type":"Point","coordinates":[-84.841329,33.867327]}},{"properties":{"5 year annualized":-0.1558,"city":"Candler-Mcafee","quarter over quarter":-0.055803571,"current":61800,"geo_score":0.857,"10 year annualized":-0.059,"year over year":-0.225284444,"id":"a6ii4aagkg6z","geo_precision":"city","month over month":"-0.021376392","state":"GA"},"type":"Feature","geometry":{"type":"Point","coordinates":[-84.272464,33.726721]}},{"properties":{"5 year annualized":-0.1541,"city":"Conley","quarter over quarter":-0.147236545,"current":57700,"geo_score":0.857,"10 year annualized":-0.0564,"year over year":-0.242864264,"id":"a6ii4afv9dww","geo_precision":"city","month over month":"-0.056923454","state":"GA"},"type":"Feature","geometry":{"type":"Point","coordinates":[-84.325757,33.644831]}},{"properties":{"5 year annualized":-0.1522,"city":"Belvedere Park","quarter over quarter":-0.081907732,"current":63000,"geo_score":0.857,"10 year annualized":-0.0472,"year over year":-0.232759775,"id":"a6ii4aholz1b","geo_precision":"city","month over month":"-0.030110374","state":"GA"},"type":"Feature","geometry":{"type":"Point","coordinates":[-84.267422,33.754828]}},{"properties":{"5 year annualized":-0.1511,"city":"Irondale","quarter over quarter":-0.052913303,"current":54000,"geo_score":0.0,"10 year annualized":-0.0703,"year over year":-0.007886899,"id":"a6ii4ai0e8p5","geo_precision":"unmatched","month over month":"-0.019317438","state":"GA"},"type":"Feature","geometry":null},{"properties":{"5 year annualized":-0.15,"city":"Loganville","quarter over quarter":-0.030346291,"current":97800,"geo_score":0.857,"10 year annualized":-0.0211,"year over year":-0.131915045,"id":"a6ii4afy3z0c","geo_precision":"city","month over month":"-0.011001456","state":"GA"},"type":"Feature","geometry":{"type":"Point","coordinates":[-83.900738,33.838998]}},{"properties":{"5 year annualized":-0.1491,"city":"Braselton","quarter over quarter":-0.051904703,"current":253900,"geo_score":0.857,"10 year annualized":-0.0552,"year over year":-0.131510635,"id":"a6ii4an3t821","geo_precision":"city","month over month":"-0.017108243","state":"GA"},"type":"Feature","geometry":{"type":"Point","coordinates":[-83.685149,34.109873]}},{"properties":{"5 year annualized":-0.1349,"city":"Panthersville","quarter over quarter":-0.053821281,"current":62600,"geo_score":0.857,"10 year annualized":-0.0596,"year over year":-0.169760289,"id":"a6ii4aoy45rh","geo_precision":"city","month over month":"-0.020644354","state":"GA"},"type":"Feature","geometry":{"type":"Point","coordinates":[-84.271867,33.707329]}},{"properties":{"5 year annualized":-0.1341,"city":"Oxford","quarter over quarter":0.023300996,"current":80600,"geo_score":0.857,"10 year annualized":-0.0105,"year over year":-0.281147139,"id":"a6ii4aks242d","geo_precision":"city","month over month":"0.009470005","state":"GA"},"type":"Feature","geometry":{"type":"Point","coordinates":[-83.867405,33.619003]}},{"properties":{"5 year annualized":-0.1284,"city":"Fairburn","quarter over quarter":-0.04088067,"current":72400,"geo_score":0.857,"10 year annualized":-0.0485,"year over year":-0.174567344,"id":"a6ii4aow0nc8","geo_precision":"city","month over month":"-0.014107138","state":"GA"},"type":"Feature","geometry":{"type":"Point","coordinates":[-84.608907,33.591462]}},{"properties":{"5 year annualized":-0.1258,"city":"Conyers","quarter over quarter":-0.074979813,"current":80200,"geo_score":0.857,"10 year annualized":-0.0424,"year over year":-0.052989596,"id":"a6ii4alpjxmc","geo_precision":"city","month over month":"-0.027740731","state":"GA"},"type":"Feature","geometry":{"type":"Point","coordinates":[-84.01769,33.66761]}},{"properties":{"5 year annualized":-0.1248,"city":"Lula","quarter over quarter":-0.039402008,"current":78600,"geo_score":0.81,"10 year annualized":-0.0258,"year over year":-0.196124126,"id":"a6ii4aa8m1vm","geo_precision":"city","month over month":"-0.015657267","state":"GA"},"type":"Feature","geometry":{"type":"Point","coordinates":[-84.178531,33.352059]}},{"properties":{"5 year annualized":-0.1231,"city":"Lithia Springs","quarter over quarter":-0.03615191,"current":69700,"geo_score":0.736,"10 year annualized":-0.0411,"year over year":-0.1187598,"id":"a6ii4agkzojq","geo_precision":"city","month over month":"-0.013545839","state":"GA"},"type":"Feature","geometry":{"type":"Point","coordinates":[-84.821051,34.758137]}},{"properties":{"5 year annualized":-0.1226,"city":"Lithonia","quarter over quarter":-0.065884372,"current":72900,"geo_score":0.857,"10 year annualized":-0.053,"year over year":-0.112844159,"id":"a6ii4ahik4mk","geo_precision":"city","month over month":"-0.026708846","state":"GA"},"type":"Feature","geometry":{"type":"Point","coordinates":[-84.144816,33.667509]}},{"properties":{"5 year annualized":-0.117,"city":"Stockbridge","quarter over quarter":-0.041156106,"current":84200,"geo_score":0.857,"10 year annualized":-0.0378,"year over year":-0.210535199,"id":"a6ii4ampya8z","geo_precision":"city","month over month":"-0.012467599","state":"GA"},"type":"Feature","geometry":{"type":"Point","coordinates":[-84.207969,33.549947]}},{"properties":{"5 year annualized":-0.1145,"city":"Social Circle","quarter over quarter":-0.122125512,"current":94100,"geo_score":0.75,"10 year annualized":0.0078,"year over year":-0.076281252,"id":"a6ii4amu7c6x","geo_precision":"city","month over month":"-0.045376617","state":"GA"},"type":"Feature","geometry":{"type":"Point","coordinates":[-83.82712,31.235463]}},{"properties":{"5 year annualized":-0.1139,"city":"Douglasville","quarter over quarter":-0.047458194,"current":79800,"geo_score":0.857,"10 year annualized":-0.0352,"year over year":-0.11240254,"id":"a6ii4ai4ab6z","geo_precision":"city","month over month":"-0.018147592","state":"GA"},"type":"Feature","geometry":{"type":"Point","coordinates":[-84.744595,33.68966]}},{"properties":{"5 year annualized":-0.1106,"city":"Stone Mountain","quarter over quarter":-0.040619511,"current":83600,"geo_score":0.857,"10 year annualized":-0.045,"year over year":-0.107671444,"id":"a6ii4akatlvr","geo_precision":"city","month over month":"-0.015747939","state":"GA"},"type":"Feature","geometry":{"type":"Point","coordinates":[-84.203419,33.786405]}},{"properties":{"5 year annualized":-0.1084,"city":"Winston","quarter over quarter":0.013198822,"current":97700,"geo_score":0.857,"10 year annualized":-0.0229,"year over year":-0.110624704,"id":"a6ii4aie6hnx","geo_precision":"city","month over month":"0.002832367","state":"GA"},"type":"Feature","geometry":{"type":"Point","coordinates":[-84.778163,33.659494]}},{"properties":{"5 year annualized":-0.1072,"city":"Doraville","quarter over quarter":-0.06766872,"current":92800,"geo_score":0.857,"10 year annualized":-0.0433,"year over year":-0.203225086,"id":"a6ii4aaxs66d","geo_precision":"city","month over month":"-0.023899186","state":"GA"},"type":"Feature","geometry":{"type":"Point","coordinates":[-84.283256,33.898158]}},{"properties":{"5 year annualized":-0.1068,"city":"Gainesville","quarter over quarter":-0.004893581,"current":105900,"geo_score":0.812,"10 year annualized":-0.014,"year over year":-0.190715901,"id":"a6ii4aoy7qjx","geo_precision":"city","month over month":"-0.002194428","state":"GA"},"type":"Feature","geometry":{"type":"Point","coordinates":[-83.817677,34.277325]}},{"properties":{"5 year annualized":-0.1047,"city":"Gresham Park","quarter over quarter":-0.013987301,"current":75000,"geo_score":0.857,"10 year annualized":-0.0359,"year over year":-0.136931132,"id":"a6ii4akmidnn","geo_precision":"city","month over month":"-0.005423396","state":"GA"},"type":"Feature","geometry":{"type":"Point","coordinates":[-84.314368,33.703441]}},{"properties":{"5 year annualized":-0.1031,"city":"Atlanta","quarter over quarter":-0.016437567,"current":119500,"geo_score":0.857,"10 year annualized":-0.0264,"year over year":-0.121839908,"id":"a6ii4ai8chzf","geo_precision":"city","month over month":"-0.005294309","state":"GA"},"type":"Feature","geometry":{"type":"Point","coordinates":[-84.387982,33.748995]}},{"properties":{"5 year annualized":-0.1018,"city":"Oakwood","quarter over quarter":-0.076318891,"current":76800,"geo_score":0.857,"10 year annualized":-0.0336,"year over year":-0.305976556,"id":"a6ii4aobssxd","geo_precision":"city","month over month":"-0.028514681","state":"GA"},"type":"Feature","geometry":{"type":"Point","coordinates":[-83.897612,34.239428]}},{"properties":{"5 year annualized":-0.1009,"city":"Clarkston","quarter over quarter":-0.03615878,"current":90800,"geo_score":0.814,"10 year annualized":-0.0336,"year over year":-0.159905219,"id":"a6ii4alvrf8s","geo_precision":"city","month over month":"-0.013134575","state":"GA"},"type":"Feature","geometry":{"type":"Point","coordinates":[-83.498217,34.041223]}},{"properties":{"5 year annualized":-0.0966,"city":"Norcross","quarter over quarter":-0.050226451,"current":95600,"geo_score":0.857,"10 year annualized":-0.0364,"year over year":-0.131271746,"id":"a6ii4abk074p","geo_precision":"city","month over month":"-0.018223445","state":"GA"},"type":"Feature","geometry":{"type":"Point","coordinates":[-84.213531,33.941213]}},{"properties":{"5 year annualized":-0.0964,"city":"Austell","quarter over quarter":-0.047669619,"current":87000,"geo_score":0.857,"10 year annualized":-0.0312,"year over year":-0.167316032,"id":"a6ii4ahci8dq","geo_precision":"city","month over month":"-0.018128662","state":"GA"},"type":"Feature","geometry":{"type":"Point","coordinates":[-84.634378,33.812606]}},{"properties":{"5 year annualized":-0.0929,"city":"Locust Grove","quarter over quarter":-0.014236415,"current":95700,"geo_score":0.727,"10 year annualized":-0.022,"year over year":-0.182509376,"id":"a6ii4anc5rip","geo_precision":"city","month over month":"-0.002428956","state":"GA"},"type":"Feature","geometry":{"type":"Point","coordinates":[-84.335202,33.606499]}},{"properties":{"5 year annualized":-0.0928,"city":"Auburn","quarter over quarter":-0.11875214,"current":82400,"geo_score":0.857,"10 year annualized":-0.0326,"year over year":-0.216973868,"id":"a6ii4anyf1yp","geo_precision":"city","month over month":"-0.044818349","state":"GA"},"type":"Feature","geometry":{"type":"Point","coordinates":[-83.827676,34.013718]}},{"properties":{"5 year annualized":-0.0927,"city":"Adairsville","quarter over quarter":-0.061135957,"current":77000,"geo_score":0.857,"10 year annualized":0.1893,"year over year":-0.131357318,"id":"a6ii4alpqphi","geo_precision":"city","month over month":"-0.027319783","state":"GA"},"type":"Feature","geometry":{"type":"Point","coordinates":[-84.909216,34.296339]}},{"properties":{"5 year annualized":-0.0894,"city":"McDonough","quarter over quarter":-0.03057832,"current":112300,"geo_score":0.857,"10 year annualized":-0.0207,"year over year":-0.139387621,"id":"a6ii4aovwck2","geo_precision":"city","month over month":"-0.009222894","state":"GA"},"type":"Feature","geometry":{"type":"Point","coordinates":[-84.055005,33.476762]}},{"properties":{"5 year annualized":-0.0872,"city":"Snellville","quarter over quarter":-0.062653638,"current":106400,"geo_score":0.857,"10 year annualized":-0.0271,"year over year":-0.106187776,"id":"a6ii4amd195n","geo_precision":"city","month over month":"-0.022564819","state":"GA"},"type":"Feature","geometry":{"type":"Point","coordinates":[-84.019911,33.857328]}},{"properties":{"5 year annualized":-0.0863,"city":"Powder Springs","quarter over quarter":-0.054239254,"current":96200,"geo_score":0.736,"10 year annualized":-0.0254,"year over year":-0.145201706,"id":"a6ii4a9simnm","geo_precision":"city","month over month":"-0.020117343","state":"GA"},"type":"Feature","geometry":{"type":"Point","coordinates":[-84.821051,34.758137]}},{"properties":{"5 year annualized":-0.086,"city":"Lawrenceville","quarter over quarter":-0.058094376,"current":111300,"geo_score":0.857,"10 year annualized":-0.0278,"year over year":-0.117403611,"id":"a6ii4aijr7kw","geo_precision":"city","month over month":"-0.020880426","state":"GA"},"type":"Feature","geometry":{"type":"Point","coordinates":[-83.987963,33.956215]}},{"properties":{"5 year annualized":-0.0853,"city":"Winder","quarter over quarter":-0.083973318,"current":83500,"geo_score":0.857,"10 year annualized":-0.0297,"year over year":-0.178418909,"id":"a6ii4amm6hth","geo_precision":"city","month over month":"-0.031223531","state":"GA"},"type":"Feature","geometry":{"type":"Point","coordinates":[-83.698498,33.987138]}},{"properties":{"5 year annualized":-0.0843,"city":"Bethlehem","quarter over quarter":-0.067666027,"current":91400,"geo_score":0.857,"10 year annualized":-0.0294,"year over year":-0.142016002,"id":"a6ii4a9nhlmq","geo_precision":"city","month over month":"-0.026073701","state":"GA"},"type":"Feature","geometry":{"type":"Point","coordinates":[-83.721536,33.943652]}},{"properties":{"5 year annualized":-0.0807,"city":"Dacula","quarter over quarter":-0.054281955,"current":138700,"geo_score":0.735,"10 year annualized":-0.0172,"year over year":-0.111311823,"id":"a6ii4a8wr3un","geo_precision":"city","month over month":"-0.019464548","state":"GA"},"type":"Feature","geometry":{"type":"Point","coordinates":[-83.366831,34.707595]}},{"properties":{"5 year annualized":-0.0775,"city":"Winterville","quarter over quarter":-0.097351978,"current":89900,"geo_score":0.857,"10 year annualized":-0.0193,"year over year":-0.165877613,"id":"a6ii4ahi0p3p","geo_precision":"city","month over month":"-0.036407507","state":"GA"},"type":"Feature","geometry":{"type":"Point","coordinates":[-83.292152,33.930735]}},{"properties":{"5 year annualized":-0.0768,"city":"Duluth","quarter over quarter":-0.05406682,"current":134200,"geo_score":0.857,"10 year annualized":-0.0221,"year over year":-0.11756659,"id":"a6ii4abri55u","geo_precision":"city","month over month":"-0.018973598","state":"GA"},"type":"Feature","geometry":{"type":"Point","coordinates":[-84.144638,34.002879]}},{"properties":{"5 year annualized":-0.0762,"city":"Statham","quarter over quarter":-0.109449527,"current":84200,"geo_score":0.857,"10 year annualized":-0.0215,"year over year":-0.165500565,"id":"a6ii4a9kflb1","geo_precision":"city","month over month":"-0.041370674","state":"GA"},"type":"Feature","geometry":{"type":"Point","coordinates":[-83.590148,33.980323]}},{"properties":{"5 year annualized":-0.0748,"city":"Lilburn","quarter over quarter":-0.049856184,"current":124900,"geo_score":0.857,"10 year annualized":-0.0226,"year over year":-0.110691698,"id":"a6ii4aotkdfu","geo_precision":"city","month over month":"-0.017947589","state":"GA"},"type":"Feature","geometry":{"type":"Point","coordinates":[-84.142972,33.890104]}},{"properties":{"5 year annualized":-0.0735,"city":"Grayson","quarter over quarter":-0.041301406,"current":141000,"geo_score":0.857,"10 year annualized":-0.0157,"year over year":-0.085134276,"id":"a6ii4ab7ztee","geo_precision":"city","month over month":"-0.014733428","state":"GA"},"type":"Feature","geometry":{"type":"Point","coordinates":[-83.95574,33.894273]}},{"properties":{"5 year annualized":-0.0729,"city":"Dalton","quarter over quarter":0.034254269,"current":81900,"geo_score":0.821,"10 year annualized":null,"year over year":-0.041657408,"id":"a6ii4ae5gk6u","geo_precision":"city","month over month":"0.011217237","state":"GA"},"type":"Feature","geometry":{"type":"Point","coordinates":[-83.863238,33.647336]}},{"properties":{"5 year annualized":-0.0721,"city":"Mableton","quarter over quarter":-0.050107107,"current":110000,"geo_score":0.857,"10 year annualized":-0.0123,"year over year":-0.1425798,"id":"a6ii4ahgh0ta","geo_precision":"city","month over month":"-0.019368128","state":"GA"},"type":"Feature","geometry":{"type":"Point","coordinates":[-84.582433,33.818717]}},{"properties":{"5 year annualized":-0.07,"city":"Cartersville","quarter over quarter":-0.049138344,"current":97300,"geo_score":0.81,"10 year annualized":0.2182,"year over year":-0.137103928,"id":"a6ii4agdytfb","geo_precision":"city","month over month":"-0.020688405","state":"GA"},"type":"Feature","geometry":{"type":"Point","coordinates":[-82.943204,33.69346]}},{"properties":{"5 year annualized":-0.0696,"city":"Suwanee","quarter over quarter":-0.036026409,"current":182200,"geo_score":0.857,"10 year annualized":-0.0128,"year over year":-0.060630274,"id":"a6ii4af5dmhq","geo_precision":"city","month over month":"-0.013352537","state":"GA"},"type":"Feature","geometry":{"type":"Point","coordinates":[-84.0713,34.05149]}},{"properties":{"5 year annualized":-0.0685,"city":"Fayetteville","quarter over quarter":-0.024942141,"current":158800,"geo_score":0.857,"10 year annualized":-0.0105,"year over year":-0.104686425,"id":"a6ii4anehwlo","geo_precision":"city","month over month":"-0.010361564","state":"GA"},"type":"Feature","geometry":{"type":"Point","coordinates":[-84.480626,33.467941]}},{"properties":{"5 year annualized":-0.0663,"city":"Sugar Hill","quarter over quarter":-0.050004328,"current":120700,"geo_score":0.73,"10 year annualized":-0.015,"year over year":-0.095936981,"id":"a6ii4ahytsrv","geo_precision":"city","month over month":"-0.018717947","state":"GA"},"type":"Feature","geometry":{"type":"Point","coordinates":[-82.905139,30.826044]}},{"properties":{"5 year annualized":-0.0657,"city":"Tucker","quarter over quarter":-0.034930836,"current":130000,"geo_score":0.857,"10 year annualized":-0.0207,"year over year":-0.11351893,"id":"a6ii4ak1fvcc","geo_precision":"city","month over month":"-0.014018833","state":"GA"},"type":"Feature","geometry":{"type":"Point","coordinates":[-84.215369,33.853945]}},{"properties":{"5 year annualized":-0.0648,"city":"Canton","quarter over quarter":-0.049813304,"current":171800,"geo_score":0.857,"10 year annualized":0.0017,"year over year":-0.115922859,"id":"a6ii4abxcm2u","geo_precision":"city","month over month":"-0.019510469","state":"GA"},"type":"Feature","geometry":{"type":"Point","coordinates":[-84.49093,34.250547]}},{"properties":{"5 year annualized":-0.0629,"city":"Buford","quarter over quarter":-0.026616238,"current":110200,"geo_score":0.857,"10 year annualized":-0.004,"year over year":-0.075479458,"id":"a6ii4aby8jd5","geo_precision":"city","month over month":"-0.010065425","state":"GA"},"type":"Feature","geometry":{"type":"Point","coordinates":[-84.037859,33.960353]}},{"properties":{"5 year annualized":-0.0623,"city":"Milton","quarter over quarter":-0.022167602,"current":337400,"geo_score":0.0,"10 year annualized":-0.005,"year over year":-0.058967922,"id":"a6ii4afju8bl","geo_precision":"unmatched","month over month":"-0.007379336","state":"GA"},"type":"Feature","geometry":null},{"properties":{"5 year annualized":-0.0592,"city":"Acworth","quarter over quarter":-0.009484385,"current":138100,"geo_score":0.857,"10 year annualized":-0.0048,"year over year":-0.065884996,"id":"a6ii4ahiryc2","geo_precision":"city","month over month":"-0.004858043","state":"GA"},"type":"Feature","geometry":{"type":"Point","coordinates":[-84.673784,34.023398]}},{"properties":{"5 year annualized":-0.0588,"city":"Smyrna","quarter over quarter":-0.054121103,"current":143000,"geo_score":0.857,"10 year annualized":-0.0004,"year over year":-0.149212167,"id":"a6ii4aep0ran","geo_precision":"city","month over month":"-0.01955675","state":"GA"},"type":"Feature","geometry":{"type":"Point","coordinates":[-84.556181,33.864604]}},{"properties":{"5 year annualized":-0.0583,"city":"Tyrone","quarter over quarter":-0.028450465,"current":196700,"geo_score":0.857,"10 year annualized":0.0029,"year over year":-0.099169541,"id":"a6ii4ahmbwns","geo_precision":"city","month over month":"-0.01058028","state":"GA"},"type":"Feature","geometry":{"type":"Point","coordinates":[-82.861256,33.672351]}},{"properties":{"5 year annualized":-0.0582,"city":"Newnan","quarter over quarter":-0.059418017,"current":118800,"geo_score":0.857,"10 year annualized":-0.0086,"year over year":-0.164155153,"id":"a6ii4agv5z0t","geo_precision":"city","month over month":"-0.022326868","state":"GA"},"type":"Feature","geometry":{"type":"Point","coordinates":[-84.819397,33.369595]}},{"properties":{"5 year annualized":-0.0562,"city":"Garden City","quarter over quarter":-0.102088684,"current":84600,"geo_score":0.743,"10 year annualized":0.0026,"year over year":-0.089114987,"id":"a6ii4aka0qfc","geo_precision":"city","month over month":"-0.037957267","state":"GA"},"type":"Feature","geometry":{"type":"Point","coordinates":[-84.841329,33.867327]}},{"properties":{"5 year annualized":-0.0538,"city":"Marietta","quarter over quarter":-0.018136105,"current":162800,"geo_score":0.857,"10 year annualized":-0.0039,"year over year":-0.104038865,"id":"a6ii4ahjatxr","geo_precision":"city","month over month":"-0.006757869","state":"GA"},"type":"Feature","geometry":{"type":"Point","coordinates":[-84.549933,33.952602]}},{"properties":{"5 year annualized":-0.0529,"city":"Vinings","quarter over quarter":-0.000513353,"current":332900,"geo_score":0.857,"10 year annualized":-0.0081,"year over year":-0.065380394,"id":"a6ii4ak13rra","geo_precision":"city","month over month":"-0.001526502","state":"GA"},"type":"Feature","geometry":{"type":"Point","coordinates":[-84.464374,33.864826]}},{"properties":{"5 year annualized":-0.0527,"city":"Kennesaw","quarter over quarter":-0.010380551,"current":143900,"geo_score":0.857,"10 year annualized":-0.0063,"year over year":-0.084994466,"id":"a6ii4abvxaaq","geo_precision":"city","month over month":"-0.004608199","state":"GA"},"type":"Feature","geometry":{"type":"Point","coordinates":[-84.597433,34.03384]}},{"properties":{"5 year annualized":-0.052,"city":"Chamblee","quarter over quarter":-0.011314872,"current":176900,"geo_score":0.857,"10 year annualized":-0.0097,"year over year":-0.038091873,"id":"a6ii4ajreot6","geo_precision":"city","month over month":"-0.004523283","state":"GA"},"type":"Feature","geometry":{"type":"Point","coordinates":[-84.298813,33.892047]}},{"properties":{"5 year annualized":-0.052,"city":"Savannah","quarter over quarter":-0.042847911,"current":91800,"geo_score":0.857,"10 year annualized":0.0176,"year over year":-0.075512916,"id":"a6ii4aj3i5a4","geo_precision":"city","month over month":"-0.015944964","state":"GA"},"type":"Feature","geometry":{"type":"Point","coordinates":[-81.099834,32.083541]}},{"properties":{"5 year annualized":-0.0519,"city":"Cumming","quarter over quarter":-0.020668188,"current":195700,"geo_score":0.857,"10 year annualized":0.0064,"year over year":-0.010722139,"id":"a6ii4aemburc","geo_precision":"city","month over month":"-0.008139888","state":"GA"},"type":"Feature","geometry":{"type":"Point","coordinates":[-84.140193,34.20732]}},{"properties":{"5 year annualized":-0.0518,"city":"Dunwoody","quarter over quarter":-0.020276714,"current":287600,"geo_score":0.804,"10 year annualized":-0.0036,"year over year":-0.054640768,"id":"a6ii4an2wdf3","geo_precision":"city","month over month":"-0.007949921","state":"GA"},"type":"Feature","geometry":{"type":"Point","coordinates":[-82.385409,31.221883]}},{"properties":{"5 year annualized":-0.0515,"city":"Sandy Springs","quarter over quarter":-0.007361851,"current":314600,"geo_score":0.738,"10 year annualized":0.0016,"year over year":-0.026764886,"id":"a6ii4ane3426","geo_precision":"city","month over month":"-0.002030386","state":"GA"},"type":"Feature","geometry":{"type":"Point","coordinates":[-82.120675,33.56569]}},{"properties":{"5 year annualized":-0.0508,"city":"Georgetown","quarter over quarter":-0.022000166,"current":129600,"geo_score":0.857,"10 year annualized":0.0081,"year over year":-0.041503014,"id":"a6ii4agafibs","geo_precision":"city","month over month":"-0.007688302","state":"GA"},"type":"Feature","geometry":{"type":"Point","coordinates":[-81.227333,31.983264]}},{"properties":{"5 year annualized":-0.0499,"city":"Sharpsburg","quarter over quarter":-0.067724589,"current":148800,"geo_score":0.857,"10 year annualized":-0.0061,"year over year":-0.162220157,"id":"a6ii4ac1ith5","geo_precision":"city","month over month":"-0.023937008","state":"GA"},"type":"Feature","geometry":{"type":"Point","coordinates":[-84.659393,33.363069]}},{"properties":{"5 year annualized":-0.0497,"city":"North Druid Hills","quarter over quarter":-0.005423699,"current":227800,"geo_score":0.752,"10 year annualized":-0.0061,"year over year":-0.074772809,"id":"a6ii4amv4jh9","geo_precision":"city","month over month":"-0.002531413","state":"GA"},"type":"Feature","geometry":{"type":"Point","coordinates":[-84.939943,34.298426]}},{"properties":{"5 year annualized":-0.0482,"city":"Johns Creek","quarter over quarter":-0.006488246,"current":262500,"geo_score":0.771,"10 year annualized":0.0006,"year over year":-0.059607585,"id":"a6ii4amgdvd7","geo_precision":"city","month over month":"-0.001483759","state":"GA"},"type":"Feature","geometry":{"type":"Point","coordinates":[-81.480107,31.633829]}},{"properties":{"5 year annualized":-0.0471,"city":"Alpharetta","quarter over quarter":-0.004560412,"current":247700,"geo_score":0.757,"10 year annualized":0.0043,"year over year":-0.068308826,"id":"a6ii4aetsrwm","geo_precision":"city","month over month":"-0.00114905","state":"GA"},"type":"Feature","geometry":{"type":"Point","coordinates":[-83.92379,31.462401]}},{"properties":{"5 year annualized":-0.0469,"city":"Rocky Face","quarter over quarter":0.053330059,"current":107200,"geo_score":0.73,"10 year annualized":null,"year over year":-0.009934906,"id":"a6ii4a9djtcn","geo_precision":"city","month over month":"0.016051547","state":"GA"},"type":"Feature","geometry":{"type":"Point","coordinates":[-83.140989,33.504575]}},{"properties":{"5 year annualized":-0.0465,"city":"Woodstock","quarter over quarter":-0.042256854,"current":145700,"geo_score":0.857,"10 year annualized":-0.0047,"year over year":-0.12687703,"id":"a6ii4agi5kfl","geo_precision":"city","month over month":"-0.016283654","state":"GA"},"type":"Feature","geometry":{"type":"Point","coordinates":[-84.481787,34.127398]}},{"properties":{"5 year annualized":-0.0452,"city":"Druid Hills","quarter over quarter":0.00040271,"current":347800,"geo_score":0.771,"10 year annualized":0.0036,"year over year":-0.010171932,"id":"a6ii4adasyvu","geo_precision":"city","month over month":"-0.001352453","state":"GA"},"type":"Feature","geometry":{"type":"Point","coordinates":[-84.939943,34.298426]}},{"properties":{"5 year annualized":-0.0451,"city":"Athens","quarter over quarter":-0.108255784,"current":104500,"geo_score":0.857,"10 year annualized":-0.0021,"year over year":-0.133108691,"id":"a6ii4a937q2g","geo_precision":"city","month over month":"-0.041276951","state":"GA"},"type":"Feature","geometry":{"type":"Point","coordinates":[-83.353697,33.992902]}},{"properties":{"5 year annualized":-0.0424,"city":"North Decatur","quarter over quarter":-0.05330367,"current":188100,"geo_score":0.857,"10 year annualized":-0.0119,"year over year":-0.106324242,"id":"a6ii4amtvdxr","geo_precision":"city","month over month":"-0.019946746","state":"GA"},"type":"Feature","geometry":{"type":"Point","coordinates":[-84.306035,33.790383]}},{"properties":{"5 year annualized":-0.0419,"city":"Harlem","quarter over quarter":-0.063907652,"current":92900,"geo_score":0.857,"10 year annualized":0.0124,"year over year":-0.125663867,"id":"a6ii4ak8xsd0","geo_precision":"city","month over month":"-0.022106372","state":"GA"},"type":"Feature","geometry":{"type":"Point","coordinates":[-82.307337,33.456131]}},{"properties":{"5 year annualized":-0.0387,"city":"Tunnel Hill","quarter over quarter":-0.016767583,"current":82300,"geo_score":0.729,"10 year annualized":-0.0125,"year over year":-0.011893903,"id":"a6ii4a9mz9im","geo_precision":"city","month over month":"-0.006959689","state":"GA"},"type":"Feature","geometry":{"type":"Point","coordinates":[-82.905139,30.826044]}},{"properties":{"5 year annualized":-0.0385,"city":"Wilmington Island","quarter over quarter":0.02197162,"current":201700,"geo_score":0.857,"10 year annualized":0.033,"year over year":0.04847143,"id":"a6ii4agyr32s","geo_precision":"city","month over month":"0.00558804","state":"GA"},"type":"Feature","geometry":{"type":"Point","coordinates":[-80.973723,32.003548]}},{"properties":{"5 year annualized":-0.0365,"city":"Roswell","quarter over quarter":0.006482477,"current":238800,"geo_score":0.857,"10 year annualized":0.006,"year over year":-0.030730951,"id":"a6ii4a9inuuq","geo_precision":"city","month over month":"0.002636827","state":"GA"},"type":"Feature","geometry":{"type":"Point","coordinates":[-84.370475,34.055198]}},{"properties":{"5 year annualized":-0.0359,"city":"Pooler","quarter over quarter":-0.001463528,"current":146000,"geo_score":0.857,"10 year annualized":0.0225,"year over year":-0.016370471,"id":"a6ii4alot34x","geo_precision":"city","month over month":"-0.002398213","state":"GA"},"type":"Feature","geometry":{"type":"Point","coordinates":[-81.083881,32.071917]}},{"properties":{"5 year annualized":-0.0346,"city":"Holly Springs","quarter over quarter":-0.051077893,"current":131200,"geo_score":0.738,"10 year annualized":0.0006,"year over year":-0.14824119,"id":"a6ii4amx628f","geo_precision":"city","month over month":"-0.019275758","state":"GA"},"type":"Feature","geometry":{"type":"Point","coordinates":[-82.905139,30.826044]}},{"properties":{"5 year annualized":-0.0337,"city":"North Atlanta","quarter over quarter":-0.003124155,"current":280200,"geo_score":0.798,"10 year annualized":0.009,"year over year":-0.013871925,"id":"a6ii4ag11s0u","geo_precision":"city","month over month":"-0.002694765","state":"GA"},"type":"Feature","geometry":{"type":"Point","coordinates":[-84.387982,33.748995]}},{"properties":{"5 year annualized":-0.0275,"city":"Augusta","quarter over quarter":-0.006491674,"current":77400,"geo_score":0.857,"10 year annualized":0.0166,"year over year":-0.042117633,"id":"a6ii4adu7udp","geo_precision":"city","month over month":"-0.0043329","state":"GA"},"type":"Feature","geometry":{"type":"Point","coordinates":[-81.974838,33.47097]}},{"properties":{"5 year annualized":-0.0214,"city":"Peachtree City","quarter over quarter":-0.019833282,"current":227900,"geo_score":0.725,"10 year annualized":0.0112,"year over year":-0.052068687,"id":"a6ii4afkdq5w","geo_precision":"city","month over month":"-0.008316361","state":"GA"},"type":"Feature","geometry":{"type":"Point","coordinates":[-84.841329,33.867327]}},{"properties":{"5 year annualized":-0.0213,"city":"Decatur","quarter over quarter":-0.011381217,"current":265200,"geo_score":0.857,"10 year annualized":0.0077,"year over year":0.018989141,"id":"a6ii4acm7q34","geo_precision":"city","month over month":"-0.005959833","state":"GA"},"type":"Feature","geometry":{"type":"Point","coordinates":[-84.291723,33.772554]}},{"properties":{"5 year annualized":-0.0212,"city":"Evans","quarter over quarter":-0.014794848,"current":195900,"geo_score":0.857,"10 year annualized":0.0241,"year over year":0.01751862,"id":"a6ii4abqt62q","geo_precision":"city","month over month":"-0.005956821","state":"GA"},"type":"Feature","geometry":{"type":"Point","coordinates":[-82.143617,33.551132]}},{"properties":{"5 year annualized":-0.0185,"city":"Martinez","quarter over quarter":-0.032988907,"current":127300,"geo_score":0.857,"10 year annualized":0.0199,"year over year":-0.013692898,"id":"a6ii4afg7grr","geo_precision":"city","month over month":"-0.012284555","state":"GA"},"type":"Feature","geometry":{"type":"Point","coordinates":[-82.075673,33.517358]}},{"properties":{"5 year annualized":-0.0178,"city":"Warner Robins","quarter over quarter":-0.034814625,"current":94400,"geo_score":0.857,"10 year annualized":0.0199,"year over year":-0.066613257,"id":"a6ii4a9n4puj","geo_precision":"city","month over month":"-0.012804017","state":"GA"},"type":"Feature","geometry":{"type":"Point","coordinates":[-83.644751,32.555039]}},{"properties":{"5 year annualized":-0.0176,"city":"Bloomingdale","quarter over quarter":0.005769861,"current":125900,"geo_score":0.857,"10 year annualized":0.0168,"year over year":0.051297258,"id":"a6ii4aalu1a2","geo_precision":"city","month over month":"-8.74E-05","state":"GA"},"type":"Feature","geometry":{"type":"Point","coordinates":[-81.291335,32.107103]}},{"properties":{"5 year annualized":-0.0062,"city":"Perry","quarter over quarter":-0.014285714,"current":103500,"geo_score":0.857,"10 year annualized":0.0291,"year over year":-0.058731516,"id":"a6ii4af4u19n","geo_precision":"city","month over month":"-0.005887833","state":"GA"},"type":"Feature","geometry":{"type":"Point","coordinates":[-83.722649,32.43194]}},{"properties":{"5 year annualized":0.0007,"city":"Bonaire","quarter over quarter":-0.031339592,"current":132800,"geo_score":0.857,"10 year annualized":0.0202,"year over year":-0.062664125,"id":"a6ii4ahcrr5z","geo_precision":"city","month over month":"-0.011391302","state":"GA"},"type":"Feature","geometry":{"type":"Point","coordinates":[-83.662733,32.539506]}},{"properties":{"5 year annualized":0.0011,"city":"Kathleen","quarter over quarter":-0.021667489,"current":162700,"geo_score":0.857,"10 year annualized":0.0315,"year over year":-0.01917245,"id":"a6ii4ah0q956","geo_precision":"city","month over month":"-0.00853831","state":"GA"},"type":"Feature","geometry":{"type":"Point","coordinates":[-83.646436,32.454331]}}],"is_temporal":false,"author":{"url":"","metadata":"","contact_name":"","contact_address":"","source":"","contact_phone":""},"source":"","pagination":{"sort":null,"start":0,"total":99,"limit":1000000},"state":"complete","tags":"","published":"2011-12-05T18:59:53Z","id":184486}