{"type":"FeatureCollection","data_type":"Dataset","url_type":null,"permissions":[{"permissions":{"download":true,"view":true},"group_id":"everyone"}],"classification":null,"title":"Nuevo Leon Churches","count":11,"stream_id":184715,"contributor":{"url":"http://geocommons.com/users/36594","name":"mfain19"},"data_attributes":null,"calculation_params":null,"icon_link":null,"link":"http://geocommons.com/overlays/184715.json","extent":[-100.372,25.188,-99.821,25.76],"geometry_types":["point"],"unique_name":null,"name":"Nuevo Leon Churches","feature_count":11,"description":"This data presents churches located in Nuevo Leon, Mexico.","next_feature":null,"is_raster":false,"short_classification":"Y","stats":{},"features":[{"properties":{"church name":"Iglesia de Cristo","municipality":"Guadalupe","id":"0","address":"Not Applicable","state":"Nuevo Leon"},"type":"Feature","geometry":{"type":"Point","coordinates":[-100.206,25.644]}},{"properties":{"church name":"Iglesia de Cristo Fracc. Cerro de la Silla","municipality":"Guadalupe","id":"1","address":"Not Applicable","state":"Nuevo Leon"},"type":"Feature","geometry":{"type":"Point","coordinates":[-100.144,25.617]}},{"properties":{"church name":"Iglesia de Cristo Tierra Propia","municipality":"Guadalupe","id":"2","address":"Not Applicable","state":"Nuevo Leon"},"type":"Feature","geometry":{"type":"Point","coordinates":[-100.187,25.639]}},{"properties":{"church name":"Iglesia de Cristo Zaragoza","municipality":"Guadalupe","id":"3","address":"Not Applicable","state":"Nuevo Leon"},"type":"Feature","geometry":{"type":"Point","coordinates":[-100.229,25.685]}},{"properties":{"church name":"Iglesia de Cristo","municipality":"Montemorelos","id":"4","address":"Not Applicable","state":"Nuevo Leon"},"type":"Feature","geometry":{"type":"Point","coordinates":[-99.821,25.188]}},{"properties":{"church name":"Iglesia de Cristo","municipality":"Monterrey","id":"5","address":"Not Applicable","state":"Nuevo Leon"},"type":"Feature","geometry":{"type":"Point","coordinates":[-100.28,25.629]}},{"properties":{"church name":"Iglesia de Cristo - Mitras Centro","municipality":"Monterrey","id":"6","address":"Not Applicable","state":"Nuevo Leon"},"type":"Feature","geometry":{"type":"Point","coordinates":[-100.341,25.696]}},{"properties":{"church name":"Iglesia de Cristo en Jardin Español A.R.","municipality":"Monterrey","id":"7","address":"Not Applicable","state":"Nuevo Leon"},"type":"Feature","geometry":{"type":"Point","coordinates":[-100.281,25.664]}},{"properties":{"church name":"Iglesia de Cristo en la Independencia","municipality":"Monterrey","id":"8","address":"Not Applicable","state":"Nuevo Leon"},"type":"Feature","geometry":{"type":"Point","coordinates":[-100.316,25.655]}},{"properties":{"church name":"Iglesia de Cristo en San Bernabé","municipality":"Monterrey","id":"9","address":"Not Applicable","state":"Nuevo Leon"},"type":"Feature","geometry":{"type":"Point","coordinates":[-100.372,25.76]}},{"properties":{"church name":"Iglesia de Cristo Heroes de Mexico","municipality":"San Nicolas de Los Garza","id":"10","address":"Not Applicable","state":"Nuevo Leon"},"type":"Feature","geometry":{"type":"Point","coordinates":[-100.267,25.76]}}],"is_temporal":false,"author":{"url":"","metadata":"","contact_name":"","contact_address":"","source":"","contact_phone":""},"source":"","pagination":{"sort":null,"start":0,"total":11,"limit":1000000},"state":"complete","tags":"","published":"2011-12-06T02:16:43Z","id":184715}