{"type":"FeatureCollection","data_type":"Dataset","url_type":null,"permissions":[{"permissions":{"download":true,"view":true},"group_id":"everyone"}],"classification":null,"title":"San Luis Potosi Churches","count":40,"stream_id":184716,"contributor":{"url":"http://geocommons.com/users/36594","name":"mfain19"},"data_attributes":null,"calculation_params":null,"icon_link":null,"link":"http://geocommons.com/overlays/184716.json","extent":[-101.718,21.999,-99.006,22.626],"geometry_types":["point"],"unique_name":null,"name":"San Luis Potosi Churches","feature_count":40,"description":"This data presents churches located in San Luis Potosi, Mexico.","next_feature":null,"is_raster":false,"short_classification":"Y","stats":{},"features":[{"properties":{"church name":"Iglesia de Cristo","municipality":"Ciudad Valle","id":"0","address":"Not Applicable","state":"San Luis Potosi"},"type":"Feature","geometry":{"type":"Point","coordinates":[-100.986,22.169]}},{"properties":{"church name":"Iglesia de Dios en Mexico","municipality":"Ciudad Valle","id":"1","address":"Callejon Mante 3, Ciudad Valles, San Luis Potosi, 79000, Mexico","state":"San Luis Potosi"},"type":"Feature","geometry":{"type":"Point","coordinates":[-99.006,21.999]}},{"properties":{"church name":"Iglesia de Cristo","municipality":"Salinas de Hidalgo","id":"2","address":"Del General Manuel Doblado 12-16, Salinas de Hildago, San Luis Potosi, Mexico","state":"San Luis Potosi"},"type":"Feature","geometry":{"type":"Point","coordinates":[-101.718,22.626]}},{"properties":{"church name":"Iglesia de Cristo de San Luis Potosi","municipality":"San Luis Potosi","id":"3","address":"Libano 535, San Luis Potosi, San Luis Potosi, Mexico","state":"San Luis Potosi"},"type":"Feature","geometry":{"type":"Point","coordinates":[-100.94,22.143]}},{"properties":{"church name":"Iglesia de Cristo en el Fracc. Espa√±a","municipality":"San Luis Potosi","id":"4","address":"Roble 729, San Luis Potosi, San Luis Potosi, Mexico","state":"San Luis Potosi"},"type":"Feature","geometry":{"type":"Point","coordinates":[-100.962,22.167]}},{"properties":{"church name":"Iglesia de Cristo en San Luis Potosi","municipality":"San Luis Potosi","id":"5","address":"Coronel Ontanon 607, San Luis Potosi, San Luis Potosi, Mexico","state":"San Luis Potosi"},"type":"Feature","geometry":{"type":"Point","coordinates":[-100.977,22.141]}},{"properties":{"church name":"Returnos Iglesia de Cristo","municipality":"San Luis Potosi","id":"6","address":"Not Applicable","state":"San Luis Potosi"},"type":"Feature","geometry":{"type":"Point","coordinates":[-100.962,22.179]}},{"properties":{"church name":"Iglesia de Cristo en Rivas Guillen","municipality":"San Luis Potosi","id":"7","address":"Valentin Soto y Gama, San Luis Potosi, San Luis Potosi, Mexico","state":"San Luis Potosi"},"type":"Feature","geometry":{"type":"Point","coordinates":[-100.933,22.146]}},{"properties":{"church name":"Almazan Juan","municipality":"San Luis Potosi","id":"8","address":"Gral Rocha 19, Morales, San Luis Potosi, San Luis Potosi, 78180, Mexico","state":"San Luis Potosi"},"type":"Feature","geometry":{"type":"Point","coordinates":[-101.021,22.157]}},{"properties":{"church name":"Arquidiocesis de San Luis Potosi","municipality":"San Luis Potosi","id":"9","address":"Comonfort 726, Centro, San Luis Potosi, San Luis Potosi, 78000, Mexico","state":"San Luis Potosi"},"type":"Feature","geometry":{"type":"Point","coordinates":[-100.978,22.148]}},{"properties":{"church name":"Arquidiocesis de San Luis Potosi Ar","municipality":"San Luis Potosi","id":"10","address":"Francisco I Madero 300, San Luis Potosi, San Luis Potosi, 78000, Mexico","state":"San Luis Potosi"},"type":"Feature","geometry":{"type":"Point","coordinates":[-100.978,22.151]}},{"properties":{"church name":"Asistente de Accion Catolica Mexicana","municipality":"San Luis Potosi","id":"11","address":"Independencia 1030, San Luis, San Luis Potosi, San Luis Potosi, 78330, Mexico","state":"San Luis Potosi"},"type":"Feature","geometry":{"type":"Point","coordinates":[-100.979,22.15]}},{"properties":{"church name":"Banuelas Acosta Juan","municipality":"San Luis Potosi","id":"12","address":"Ignacio Martinez 325, Los Angeles, San Luis Potosi, San Luis Potosi, 78230, Mexico","state":"San Luis Potosi"},"type":"Feature","geometry":{"type":"Point","coordinates":[-100.979,22.159]}},{"properties":{"church name":"Capilla de Gpe Casa de Accion Catolica e Slp Ar","municipality":"San Luis Potosi","id":"13","address":"Fco I Madero 405, Centro, San Luis Potosi, San Luis Potosi, 78000, Mexico","state":"San Luis Potosi"},"type":"Feature","geometry":{"type":"Point","coordinates":[-100.98,22.151]}},{"properties":{"church name":"Curato de Tlaxcala","municipality":"San Luis Potosi","id":"14","address":"Ciclon 290, San Luis, San Luis Potosi, San Luis Potosi, 78030, Mexico","state":"San Luis Potosi"},"type":"Feature","geometry":{"type":"Point","coordinates":[-100.974,22.165]}},{"properties":{"church name":"Davalos Morales Francisco Roberto","municipality":"San Luis Potosi","id":"15","address":"Zamarripa 1319, Himno Nacional, San Luis Potosi, San Luis Potosi, 78280, Mexico","state":"San Luis Potosi"},"type":"Feature","geometry":{"type":"Point","coordinates":[-100.98,22.134]}},{"properties":{"church name":"Gomez Ismael","municipality":"San Luis Potosi","id":"16","address":"Calle Galeana 403, San Luis, San Luis Potosi, San Luis Potosi, 78000, Mexico","state":"San Luis Potosi"},"type":"Feature","geometry":{"type":"Point","coordinates":[-100.928,22.179]}},{"properties":{"church name":"Guzman Gonzalez Isidro Sergio","municipality":"San Luis Potosi","id":"17","address":"Fuente de la Lluvia 200, Balcones del Valle, San Luis Potosi, San Luis Potosi, 78280, Mexico","state":"San Luis Potosi"},"type":"Feature","geometry":{"type":"Point","coordinates":[-100.988,22.13]}},{"properties":{"church name":"Hermanas Josefinas","municipality":"San Luis Potosi","id":"18","address":"J Velasquez 107, San Luis Potosi, San Luis Potosi, 78140, Mexico","state":"San Luis Potosi"},"type":"Feature","geometry":{"type":"Point","coordinates":[-100.99,22.171]}},{"properties":{"church name":"I Cristiana Central","municipality":"San Luis Potosi","id":"19","address":"Independencia 1130, San Luis, San Luis Potosi, San Luis Potosi, 78330, Mexico","state":"San Luis Potosi"},"type":"Feature","geometry":{"type":"Point","coordinates":[-100.979,22.149]}},{"properties":{"church name":"Ig De La Mora Ledesma","municipality":"San Luis Potosi","id":"20","address":"Independencia 2210, San Luis, San Luis Potosi, San Luis Potosi, 78330, Mexico","state":"San Luis Potosi"},"type":"Feature","geometry":{"type":"Point","coordinates":[-100.981,22.139]}},{"properties":{"church name":"Iglesia Adventista Septimo Dia Ac","municipality":"San Luis Potosi","id":"21","address":"Morelos 1210, San Luis Potosi, San Luis Potosi, 78000, Mexico","state":"San Luis Potosi"},"type":"Feature","geometry":{"type":"Point","coordinates":[-101.006,22.162]}},{"properties":{"church name":"Iglesia Bautista Emanuel","municipality":"San Luis Potosi","id":"22","address":"Anahuac 145, Los Angeles, San Luis Potosi, San Luis Potosi, 78230, Mexico","state":"San Luis Potosi"},"type":"Feature","geometry":{"type":"Point","coordinates":[-100.99,22.159]}},{"properties":{"church name":"Iglesia Catedral","municipality":"San Luis Potosi","id":"23","address":"Manuel Jose Othon 105, San Luis, San Luis Potosi, San Luis Potosi, 78310, Mexico","state":"San Luis Potosi"},"type":"Feature","geometry":{"type":"Point","coordinates":[-100.938,22.194]}},{"properties":{"church name":"Iglesia de Cristo","municipality":"San Luis Potosi","id":"24","address":"Ontanon 652, San Luis Potosi, San Luis Potosi, 78330, Mexico","state":"San Luis Potosi"},"type":"Feature","geometry":{"type":"Point","coordinates":[-100.978,22.141]}},{"properties":{"church name":"Iglesia de Jesucristo Sudemar","municipality":"San Luis Potosi","id":"25","address":"Calle Alfredo M Terrazas 300, San Luis, San Luis Potosi,San Luis Potosi, 78250, Mexico","state":"San Luis Potosi"},"type":"Feature","geometry":{"type":"Point","coordinates":[-100.995,22.154]}},{"properties":{"church name":"Iglesia Evangelica El Mesias","municipality":"San Luis Potosi","id":"26","address":"Genaro Godina 115, Estadio Slp, San Luis Potosi, San Luis Potosi, 78280, Mexico","state":"San Luis Potosi"},"type":"Feature","geometry":{"type":"Point","coordinates":[-100.988,22.14]}},{"properties":{"church name":"Iglesia Evangelica Luterana","municipality":"San Luis Potosi","id":"27","address":"Alburquerque 152, Polanco, San Luis Potosi, San Luis Potosi, 78220, Mexico","state":"San Luis Potosi"},"type":"Feature","geometry":{"type":"Point","coordinates":[-101.014,22.15]}},{"properties":{"church name":"Iglesia Nal Presb Cristo La Roca","municipality":"San Luis Potosi","id":"28","address":"Jeronimo Mascorro 936, El Paseo, San Luis Potosi, San Luis Potosi, 78320, Mexico","state":"San Luis Potosi"},"type":"Feature","geometry":{"type":"Point","coordinates":[-100.961,22.15]}},{"properties":{"church name":"Iglesia Nal Presbi","municipality":"San Luis Potosi","id":"29","address":"Galeana 400, San Luis Potosi, San Luis Potosi, 78000, Mexico","state":"San Luis Potosi"},"type":"Feature","geometry":{"type":"Point","coordinates":[-100.928,22.179]}},{"properties":{"church name":"Iglesia Presbiteriana A R","municipality":"San Luis Potosi","id":"30","address":"Zacatecas 125, San Luis Potosi, San Luis Potosi, Mexico","state":"San Luis Potosi"},"type":"Feature","geometry":{"type":"Point","coordinates":[-100.984,22.157]}},{"properties":{"church name":"Jasso Lara Jesus","municipality":"San Luis Potosi","id":"31","address":"Manuel Muro 460, Rivera Librado, San Luis Potosi, San Luis Potosi, 78310, Mexico","state":"San Luis Potosi"},"type":"Feature","geometry":{"type":"Point","coordinates":[-100.964,22.153]}},{"properties":{"church name":"La Iglesia de Dios","municipality":"San Luis Potosi","id":"32","address":"De las Artes 136, San Luis Potosi, San Luis Potosi, 78280, Mexico","state":"San Luis Potosi"},"type":"Feature","geometry":{"type":"Point","coordinates":[-100.983,22.134]}},{"properties":{"church name":"Mcmi Asociacion Religiosa","municipality":"San Luis Potosi","id":"33","address":"Cuauhtemoc 920, San Luis Potosi, San Luis Potosi, 78000, Mexico","state":"San Luis Potosi"},"type":"Feature","geometry":{"type":"Point","coordinates":[-101.001,22.148]}},{"properties":{"church name":"Mision Presbiteriana Autonoma Mexicana A R","municipality":"San Luis Potosi","id":"34","address":"Genaro Godina 103 Altos, San Luis Potosi, San Luis Potosi, 78280, Mexico","state":"San Luis Potosi"},"type":"Feature","geometry":{"type":"Point","coordinates":[-100.988,22.14]}},{"properties":{"church name":"Morones Valderrama Moises Pbro","municipality":"San Luis Potosi","id":"35","address":"De La Capilla 120, San Luis Potosi, San Luis Potosi, 78030, Mexico","state":"San Luis Potosi"},"type":"Feature","geometry":{"type":"Point","coordinates":[-100.969,22.181]}},{"properties":{"church name":"Parroquia de Ntra Sra de las Mercedes En San Luis","municipality":"San Luis Potosi","id":"36","address":"Ahuehuete 210, San Luis Potosi, San Luis Potosi, 78300, Mexico","state":"San Luis Potosi"},"type":"Feature","geometry":{"type":"Point","coordinates":[-101.017,22.171]}},{"properties":{"church name":"Parroquia de San Felipe de Jesus","municipality":"San Luis Potosi","id":"37","address":"Pasaje San Luis 604, San Luis Potosi, San Luis Potosi, 78430, Mexico","state":"San Luis Potosi"},"type":"Feature","geometry":{"type":"Point","coordinates":[-100.979,22.156]}},{"properties":{"church name":"Parroquia de Tequis","municipality":"San Luis Potosi","id":"38","address":"Venustiano Carranza 1300, San Luis Potosi, San Luis Potosi, 78250, Mexico","state":"San Luis Potosi"},"type":"Feature","geometry":{"type":"Point","coordinates":[-100.993,22.15]}},{"properties":{"church name":"Parroquia del Sangrario","municipality":"San Luis Potosi","id":"39","address":"Damian Carmona 110, San Luis Potosi, San Luis Potosi, 78040, Mexico","state":"San Luis Potosi"},"type":"Feature","geometry":{"type":"Point","coordinates":[-100.979,22.153]}}],"is_temporal":false,"author":{"url":"","metadata":"","contact_name":"","contact_address":"","source":"","contact_phone":""},"source":"","pagination":{"sort":null,"start":0,"total":40,"limit":1000000},"state":"complete","tags":"","published":"2014-08-13T04:16:28-04:00","id":184716}