{"type":"FeatureCollection","data_type":"Dataset","url_type":null,"permissions":[{"permissions":{"download":true,"view":true},"group_id":"everyone"}],"classification":null,"title":"Healthy Corner Stores","count":29,"stream_id":184849,"contributor":{"url":"http://geocommons.com/users/36141","name":"tfulks"},"data_attributes":null,"calculation_params":null,"icon_link":null,"link":"http://geocommons.com/overlays/184849.json","extent":[-77.1048,38.8343,-76.928,38.9342],"geometry_types":["point"],"unique_name":null,"name":"Healthy Corner Stores","feature_count":29,"description":"","next_feature":null,"is_raster":false,"short_classification":"Y","stats":{},"features":[{"properties":{"city":"Washington","name":"Capitol Food Market","geo_score":0.61,"zip code":"20002","tyle":"corner store","id":"0","geo_precision":"street","address":"1634 N. Capitol St. NW","state":"District of Columbia"},"type":"Feature","geometry":{"type":"Point","coordinates":[-77.002037,38.896946]}},{"properties":{"city":"Washington","name":"Circle 7","geo_score":0.393,"zip code":"20002","tyle":"corner store","id":"1","geo_precision":"street","address":"1211 Mt. Olive Rd.","state":"District of Columbia"},"type":"Feature","geometry":{"type":"Point","coordinates":[-77.104807,38.93421]}},{"properties":{"city":"Washington","name":"Darby's Market","geo_score":0.5,"zip code":"20001","tyle":"corner store","id":"2","geo_precision":"street","address":"1136 Florida Ave. NE","state":"District of Columbia"},"type":"Feature","geometry":{"type":"Point","coordinates":[-77.009817,38.911123]}},{"properties":{"city":"Washington","name":"DC Mini Mart","geo_score":0.587,"zip code":"20001","tyle":"corner store","id":"3","geo_precision":"street","address":"1828 First St. NW","state":"District of Columbia"},"type":"Feature","geometry":{"type":"Point","coordinates":[-77.012172,38.892087]}},{"properties":{"city":"Washington","name":"Dollar Plus Grocery","geo_score":0.511,"zip code":"20018","tyle":"corner store","id":"4","geo_precision":"street","address":"936 Rhode Island Ave. NE","state":"District of Columbia"},"type":"Feature","geometry":{"type":"Point","coordinates":[-76.994767,38.9217]}},{"properties":{"city":"Washington","name":"Neighborhood Market","geo_score":0.511,"zip code":"20018","tyle":"corner store","id":"5","geo_precision":"street","address":"1611 Rhode Island Ave. NE","state":"District of Columbia"},"type":"Feature","geometry":{"type":"Point","coordinates":[-76.994767,38.9217]}},{"properties":{"city":"Washington","name":"North East Super Market","geo_score":0.393,"zip code":"20002","tyle":"corner store","id":"6","geo_precision":"street","address":"1209 Mt. Olive Rd.","state":"District of Columbia"},"type":"Feature","geometry":{"type":"Point","coordinates":[-77.104807,38.93421]}},{"properties":{"city":"Washington","name":"Saba One Stop","geo_score":0.643,"zip code":"20002","tyle":"corner store","id":"7","geo_precision":"street","address":"1364 Florida Ave. NE","state":"District of Columbia"},"type":"Feature","geometry":{"type":"Point","coordinates":[-77.009051,38.910795]}},{"properties":{"city":"Washington","name":"T&amp;G Grocery","geo_score":0.61,"zip code":"20002","tyle":"corner store","id":"8","geo_precision":"street","address":"1727 N. Capitol St.","state":"District of Columbia"},"type":"Feature","geometry":{"type":"Point","coordinates":[-77.002037,38.896946]}},{"properties":{"city":"Washington","name":"Windows Cafe and Market","geo_score":0.625,"zip code":"20002","tyle":"corner store","id":"9","geo_precision":"street","address":"101 Rhode Island Ave. NE","state":"District of Columbia"},"type":"Feature","geometry":{"type":"Point","coordinates":[-77.009042,38.91681]}},{"properties":{"city":"Washington","name":"A-1 Grocery","geo_score":0.537,"zip code":"20019","tyle":"corner store","id":"10","geo_precision":"street","address":"615 Division Ave. NE","state":"District of Columbia"},"type":"Feature","geometry":{"type":"Point","coordinates":[-76.927966,38.889766]}},{"properties":{"city":"Washington","name":"A&amp;S Grocery","geo_score":0.549,"zip code":"20019","tyle":"corner store","id":"11","geo_precision":"street","address":"4748 Sheriff Rd. NE","state":"District of Columbia"},"type":"Feature","geometry":{"type":"Point","coordinates":[-76.941026,38.902931]}},{"properties":{"city":"Washington","name":"Dollar Plus","geo_score":0.549,"zip code":"20019","tyle":"corner store","id":"12","geo_precision":"street","address":"4837 Benning Rd. NE","state":"District of Columbia"},"type":"Feature","geometry":{"type":"Point","coordinates":[-76.961182,38.897011]}},{"properties":{"city":"Washington","name":"G&amp;G Grocery","geo_score":0.533,"zip code":"20019","tyle":"corner store","id":"13","geo_precision":"street","address":"2924 Minnesota Ave. NE","state":"District of Columbia"},"type":"Feature","geometry":{"type":"Point","coordinates":[-76.967775,38.874941]}},{"properties":{"city":"Washington","name":"Menick's Market","geo_score":0.873,"zip code":"20019","tyle":"corner store","id":"14","geo_precision":"range","address":"4401 Nannie Helen Burroughs","state":"District of Columbia"},"type":"Feature","geometry":{"type":"Point","coordinates":[-76.939189,38.90056]}},{"properties":{"city":"Washington","name":"Mike Market and Restaurant","geo_score":0.549,"zip code":"20019","tyle":"corner store","id":"15","geo_precision":"street","address":"4202 Benning Rd. SE","state":"District of Columbia"},"type":"Feature","geometry":{"type":"Point","coordinates":[-76.936881,38.888233]}},{"properties":{"city":"Washington","name":"Penn Way","geo_score":0.508,"zip code":"20020","tyle":"corner store","id":"16","geo_precision":"street","address":"3833 Pennsylvania Ave. SE","state":"District of Columbia"},"type":"Feature","geometry":{"type":"Point","coordinates":[-76.972948,38.874533]}},{"properties":{"city":"Washington","name":"Suburban Market","geo_score":0.549,"zip code":"20019","tyle":"corner store","id":"17","geo_precision":"street","address":"4600 Sheriff Rd. NE","state":"District of Columbia"},"type":"Feature","geometry":{"type":"Point","coordinates":[-76.941026,38.902931]}},{"properties":{"city":"Washington","name":"Toni's Market","geo_score":0.507,"zip code":"20019","tyle":"corner store","id":"18","geo_precision":"street","address":"5319 E. Capitol St. SE","state":"District of Columbia"},"type":"Feature","geometry":{"type":"Point","coordinates":[-76.956764,38.889783]}},{"properties":{"city":"Washington","name":"2nd Chance Convenience Store","geo_score":0.886,"zip code":"20020","tyle":"corner store","id":"19","geo_precision":"zip","address":"2026 MLK Jr. Ave. SE","state":"District of Columbia"},"type":"Feature","geometry":{"type":"Point","coordinates":[-76.983864,38.866501]}},{"properties":{"city":"Washington","name":"Anacostia Market","geo_score":0.529,"zip code":"20020","tyle":"corner store","id":"20","geo_precision":"street","address":"1303 Good Hope Rd. SE","state":"District of Columbia"},"type":"Feature","geometry":{"type":"Point","coordinates":[-76.990805,38.869374]}},{"properties":{"city":"Washington","name":"Corner Market","geo_score":0.543,"zip code":"20020","tyle":"corner store","id":"21","geo_precision":"street","address":"1449 Howard Rd. SE","state":"District of Columbia"},"type":"Feature","geometry":{"type":"Point","coordinates":[-77.000812,38.864968]}},{"properties":{"city":"Washington","name":"Elmira Grocery","geo_score":0.493,"zip code":"20032","tyle":"corner store","id":"22","geo_precision":"street","address":"4401 S. Capitol St. SW","state":"District of Columbia"},"type":"Feature","geometry":{"type":"Point","coordinates":[-77.003807,38.860115]}},{"properties":{"city":"Washington","name":"Holiday Market","geo_score":0.543,"zip code":"20032","tyle":"corner store","id":"23","geo_precision":"street","address":"3501 Wheeler Rd. SE","state":"District of Columbia"},"type":"Feature","geometry":{"type":"Point","coordinates":[-76.990817,38.834339]}},{"properties":{"city":"Washington","name":"Marbury Market","geo_score":0.529,"zip code":"20020","tyle":"corner store","id":"24","geo_precision":"street","address":"2300 Good Hope Rd. SE","state":"District of Columbia"},"type":"Feature","geometry":{"type":"Point","coordinates":[-76.990805,38.869374]}},{"properties":{"city":"Washington","name":"MLK Grocery","geo_score":0.886,"zip code":"20020","tyle":"corner store","id":"25","geo_precision":"zip","address":"2420 MLK Jr. Ave. SE","state":"District of Columbia"},"type":"Feature","geometry":{"type":"Point","coordinates":[-76.983864,38.866501]}},{"properties":{"city":"Washington","name":"Dollar Plus Food Store","geo_score":0.537,"zip code":"20019","tyle":"corner store","id":"26","geo_precision":"street","address":"609 Division Ave. NE","state":"District of Columbia"},"type":"Feature","geometry":{"type":"Point","coordinates":[-76.927966,38.889766]}},{"properties":{"city":"Washington","name":"Dollar Plus Grocery","geo_score":0.529,"zip code":"20020","tyle":"corner store","id":"27","geo_precision":"street","address":"2101 Alabama Ave. SE","state":"District of Columbia"},"type":"Feature","geometry":{"type":"Point","coordinates":[-76.980308,38.846903]}},{"properties":{"city":"Washington","name":"Alabama Convenience Store","geo_score":0.529,"zip code":"20020","tyle":"corner store","id":"28","geo_precision":"street","address":"2209 Alabama Ave. SE","state":"District of Columbia"},"type":"Feature","geometry":{"type":"Point","coordinates":[-76.980308,38.846903]}}],"is_temporal":false,"author":{"url":"http://www.dccentralkitchen.org/","metadata":"","contact_name":"","contact_address":"","source":"DC Central Kitchen","contact_phone":""},"source":"http://www.dccentralkitchen.org/","pagination":{"sort":null,"start":0,"total":29,"limit":1000000},"state":"complete","tags":"","published":"2014-08-13T04:26:09-04:00","id":184849}