{"type":"FeatureCollection","data_type":"Dataset","url_type":null,"permissions":[{"permissions":{"download":true,"view":true},"group_id":"everyone"}],"classification":null,"title":"popular","count":100,"stream_id":185125,"contributor":{"url":"http://geocommons.com/users/32947","name":"sarge130"},"data_attributes":null,"calculation_params":null,"icon_link":null,"link":"http://geocommons.com/overlays/185125.json","extent":[-157.858,21.3069,-68.3055,48.8018],"geometry_types":["point"],"unique_name":null,"name":"popular","feature_count":100,"description":"","next_feature":null,"is_raster":false,"short_classification":"Y","stats":{"rating":{"max":100.0,"mean":93.2136,"variance":5.01725761616162,"stdev":2.23992357373229,"min":90.33,"median":93.33}},"features":[{"properties":{"rating":100.0,"city":"San Marcos","geo_score":0.746,"beer":"Lost Abbey / Port Brewing","id":"a6fznsfzb3ih","geo_precision":"city","state":"California"},"type":"Feature","geometry":{"type":"Point","coordinates":[-123.034604,40.672576]}},{"properties":{"rating":99.44,"city":"Vancouver","geo_score":0.857,"beer":"Salmon Creek Brewery","id":"a6fznslarw09","geo_precision":"city","state":"Washington"},"type":"Feature","geometry":{"type":"Point","coordinates":[-122.661486,45.638728]}},{"properties":{"rating":98.89,"city":"Portland","geo_score":0.857,"beer":"Belmont Station","id":"a6fznsj9pfgp","geo_precision":"city","state":"Oregon"},"type":"Feature","geometry":{"type":"Point","coordinates":[-122.676207,45.523452]}},{"properties":{"rating":98.75,"city":"Washington","geo_score":0.857,"beer":"Birreria Paradiso","id":"a6fznsl04lcg","geo_precision":"city","state":"DC"},"type":"Feature","geometry":{"type":"Point","coordinates":[-77.036366,38.895112]}},{"properties":{"rating":98.33,"city":"Paso Robles","geo_score":0.757,"beer":"Firestone Walker Brewing Co.","id":"a6fznskizj8o","geo_precision":"city","state":"California"},"type":"Feature","geometry":{"type":"Point","coordinates":[-120.376547,35.303584]}},{"properties":{"rating":98.06,"city":"Aurora","geo_score":0.857,"beer":"Dry Dock Brewing Co.","id":"a6fznsk593we","geo_precision":"city","state":"Colorado"},"type":"Feature","geometry":{"type":"Point","coordinates":[-104.83192,39.729432]}},{"properties":{"rating":97.22,"city":"Colorado Springs","geo_score":0.857,"beer":"Trinity Brewing Co","id":"a6fznsev0udm","geo_precision":"city","state":"Colorado"},"type":"Feature","geometry":{"type":"Point","coordinates":[-104.821363,38.833882]}},{"properties":{"rating":96.67,"city":"San Diego","geo_score":0.857,"beer":"AleSmith Brewing Company","id":"a6fznsc2r6cc","geo_precision":"city","state":"California"},"type":"Feature","geometry":{"type":"Point","coordinates":[-117.157255,32.715329]}},{"properties":{"rating":96.67,"city":"Philadelphia","geo_score":0.857,"beer":"Monk's Cafe","id":"a6fznsk5scrs","geo_precision":"city","state":"Pennsylvania"},"type":"Feature","geometry":{"type":"Point","coordinates":[-75.163789,39.952335]}},{"properties":{"rating":96.67,"city":"Bellaire","geo_score":0.857,"beer":"Short's Brewing Company","id":"a6fznsbf01df","geo_precision":"city","state":"Michigan"},"type":"Feature","geometry":{"type":"Point","coordinates":[-85.198742,44.997248]}},{"properties":{"rating":96.67,"city":"Apex","geo_score":0.857,"beer":"Tyler's Taproom - Apex","id":"a6fznska1yiy","geo_precision":"city","state":"North Carolina"},"type":"Feature","geometry":{"type":"Point","coordinates":[-78.860891,35.727018]}},{"properties":{"rating":96.19,"city":"Boulder","geo_score":0.857,"beer":"Avery Brewing Company","id":"a6fznsbgfrsb","geo_precision":"city","state":"Colorado"},"type":"Feature","geometry":{"type":"Point","coordinates":[-105.250597,39.975263]}},{"properties":{"rating":96.11,"city":"Deming","geo_score":0.857,"beer":"North Fork Brewing","id":"a6fznsd3cv7s","geo_precision":"city","state":"Washington"},"type":"Feature","geometry":{"type":"Point","coordinates":[-122.091834,48.80177]}},{"properties":{"rating":96.0,"city":"San Francisco","geo_score":0.857,"beer":"Anchor Brewing Co.","id":"a6fzns9irfdg","geo_precision":"city","state":"California"},"type":"Feature","geometry":{"type":"Point","coordinates":[-122.419416,37.77493]}},{"properties":{"rating":95.42,"city":"Escondido","geo_score":0.857,"beer":"Stone Brewing Co. - World Bistro and Gardens","id":"a6fznslj5m5b","geo_precision":"city","state":"California"},"type":"Feature","geometry":{"type":"Point","coordinates":[-117.086421,33.119207]}},{"properties":{"rating":95.42,"city":"San Francisco","geo_score":0.857,"beer":"City Beer Store and Tasting Room, The","id":"a6fznsh6gm04","geo_precision":"city","state":"California"},"type":"Feature","geometry":{"type":"Point","coordinates":[-122.419416,37.77493]}},{"properties":{"rating":95.0,"city":"Decatur","geo_score":0.857,"beer":"Brick Store Pub, The","id":"a6fznsja8ti8","geo_precision":"city","state":"Georgia"},"type":"Feature","geometry":{"type":"Point","coordinates":[-84.291723,33.772554]}},{"properties":{"rating":95.0,"city":"Portland","geo_score":0.857,"beer":"Full Sail Brewing Company Riverplace","id":"a6fznsctv3i8","geo_precision":"city","state":"Oregon"},"type":"Feature","geometry":{"type":"Point","coordinates":[-122.676207,45.523452]}},{"properties":{"rating":94.58,"city":"Centralia","geo_score":0.802,"beer":"NW Sausage and Deli","id":"a6fznsgr4uzu","geo_precision":"city","state":"Washington"},"type":"Feature","geometry":{"type":"Point","coordinates":[-122.649867,47.66315]}},{"properties":{"rating":94.44,"city":"Lawrence","geo_score":0.857,"beer":"Free State Brewing Co.","id":"a6fznsdhnc2g","geo_precision":"city","state":"Kansas"},"type":"Feature","geometry":{"type":"Point","coordinates":[-95.283982,38.907518]}},{"properties":{"rating":94.44,"city":"Petaluma","geo_score":0.857,"beer":"Lagunitas Brewing Company","id":"a6fznsdox1qm","geo_precision":"city","state":"California"},"type":"Feature","geometry":{"type":"Point","coordinates":[-122.822588,38.265366]}},{"properties":{"rating":94.44,"city":"Alpine","geo_score":0.857,"beer":"Alpine Beer Company","id":"a6fznsmnigrq","geo_precision":"city","state":"California"},"type":"Feature","geometry":{"type":"Point","coordinates":[-116.976341,32.74081]}},{"properties":{"rating":94.17,"city":"Denver","geo_score":0.857,"beer":"Strange Brewing Company","id":"a6fznsbyq7hh","geo_precision":"city","state":"Colorado"},"type":"Feature","geometry":{"type":"Point","coordinates":[-104.984703,39.739154]}},{"properties":{"rating":94.17,"city":"Honolulu","geo_score":0.857,"beer":"Kona Brewing Co - Koko Marina","id":"a6fznscn7fd0","geo_precision":"city","state":"Hawaii"},"type":"Feature","geometry":{"type":"Point","coordinates":[-157.858333,21.306944]}},{"properties":{"rating":94.17,"city":"Arlington","geo_score":0.795,"beer":"Skookum Brewery","id":"a6fznsfnioo1","geo_precision":"city","state":"Washington"},"type":"Feature","geometry":{"type":"Point","coordinates":[-122.062083,48.202046]}},{"properties":{"rating":93.89,"city":"Austin","geo_score":0.857,"beer":"Ginger Man, The - Austin","id":"a6fznskv92kv","geo_precision":"city","state":"Texas"},"type":"Feature","geometry":{"type":"Point","coordinates":[-97.743061,30.267153]}},{"properties":{"rating":93.89,"city":"Denver","geo_score":0.857,"beer":"Breckenridge BBQ and Brew Pub","id":"a6fznsndlvhu","geo_precision":"city","state":"Colorado"},"type":"Feature","geometry":{"type":"Point","coordinates":[-104.984703,39.739154]}},{"properties":{"rating":93.89,"city":"Portland","geo_score":0.857,"beer":"Shipyard Brewing Co.","id":"a6fznscvy8tn","geo_precision":"city","state":"Maine"},"type":"Feature","geometry":{"type":"Point","coordinates":[-70.255326,43.661471]}},{"properties":{"rating":93.89,"city":"Salt Lake City","geo_score":0.857,"beer":"Uinta Brewing Company","id":"a6fznsncjhvu","geo_precision":"city","state":"Utah"},"type":"Feature","geometry":{"type":"Point","coordinates":[-111.891047,40.760779]}},{"properties":{"rating":93.89,"city":"Los Angeles","geo_score":0.857,"beer":"Yard House - Los Angeles","id":"a6fznshbqszx","geo_precision":"city","state":"California"},"type":"Feature","geometry":{"type":"Point","coordinates":[-118.243685,34.052234]}},{"properties":{"rating":93.89,"city":"Coronado","geo_score":0.857,"beer":"Coronado Brewing Company","id":"a6fznsf6s9ao","geo_precision":"city","state":"California"},"type":"Feature","geometry":{"type":"Point","coordinates":[-117.160815,32.656176]}},{"properties":{"rating":93.89,"city":"Bend","geo_score":0.857,"beer":"Deschutes Brewery, Inc.","id":"a6fznsc1hjoh","geo_precision":"city","state":"Oregon"},"type":"Feature","geometry":{"type":"Point","coordinates":[-121.31531,44.058173]}},{"properties":{"rating":93.89,"city":"Durango","geo_score":0.857,"beer":"Steamworks Brewing Co.","id":"a6fznsn8uq4g","geo_precision":"city","state":"Colorado"},"type":"Feature","geometry":{"type":"Point","coordinates":[-107.868991,37.275907]}},{"properties":{"rating":93.67,"city":"Stevenson","geo_score":0.857,"beer":"Walking Man Brewing Co.","id":"a6fznsdjetme","geo_precision":"city","state":"Washington"},"type":"Feature","geometry":{"type":"Point","coordinates":[-121.912581,45.673707]}},{"properties":{"rating":93.67,"city":"Fort Bragg","geo_score":0.746,"beer":"North Coast Brewing Co.","id":"a6fzns8ywcqa","geo_precision":"city","state":"California"},"type":"Feature","geometry":{"type":"Point","coordinates":[-122.449991,39.58988]}},{"properties":{"rating":93.67,"city":"Redmond","geo_score":0.857,"beer":"Black Raven Brewing Company","id":"a6fznsfy48lg","geo_precision":"city","state":"Washington"},"type":"Feature","geometry":{"type":"Point","coordinates":[-122.121512,47.673988]}},{"properties":{"rating":93.67,"city":"Boulder","geo_score":0.857,"beer":"Twisted Pine Brewing Company","id":"a6fznslsanqn","geo_precision":"city","state":"Colorado"},"type":"Feature","geometry":{"type":"Point","coordinates":[-105.250597,39.975263]}},{"properties":{"rating":93.61,"city":"Chicago","geo_score":0.857,"beer":"Map Room, The","id":"a6fzns8e52y1","geo_precision":"city","state":"Illinois"},"type":"Feature","geometry":{"type":"Point","coordinates":[-87.650052,41.850033]}},{"properties":{"rating":93.57,"city":"Longmont","geo_score":0.857,"beer":"Left Hand Brewing Company","id":"a6fznsgxlovg","geo_precision":"city","state":"Colorado"},"type":"Feature","geometry":{"type":"Point","coordinates":[-105.1633,40.165634]}},{"properties":{"rating":93.52,"city":"Boulder","geo_score":0.857,"beer":"Mountain Sun Pub and Brewery","id":"a6fzns9gmb04","geo_precision":"city","state":"Colorado"},"type":"Feature","geometry":{"type":"Point","coordinates":[-105.250597,39.975263]}},{"properties":{"rating":93.33,"city":"Portland","geo_score":0.857,"beer":"Green Dragon Bistro and Brewpub","id":"a6fznsahqrk3","geo_precision":"city","state":"Oregon"},"type":"Feature","geometry":{"type":"Point","coordinates":[-122.676207,45.523452]}},{"properties":{"rating":93.33,"city":"Tucson","geo_score":0.857,"beer":"Barrio Brewing Co.","id":"a6fznsdo1asy","geo_precision":"city","state":"Arizona"},"type":"Feature","geometry":{"type":"Point","coordinates":[-110.926479,32.221743]}},{"properties":{"rating":93.33,"city":"Concord","geo_score":0.857,"beer":"E.J. Phair Alehouse","id":"a6fznsfwok79","geo_precision":"city","state":"California"},"type":"Feature","geometry":{"type":"Point","coordinates":[-122.022872,37.953672]}},{"properties":{"rating":93.33,"city":"Seattle","geo_score":0.857,"beer":"Elysian Tangletown","id":"a6fznscbua8s","geo_precision":"city","state":"Washington"},"type":"Feature","geometry":{"type":"Point","coordinates":[-122.332071,47.60621]}},{"properties":{"rating":93.33,"city":"Portland","geo_score":0.857,"beer":"Horse Brass Pub","id":"a6fznskeyp1h","geo_precision":"city","state":"Oregon"},"type":"Feature","geometry":{"type":"Point","coordinates":[-122.676207,45.523452]}},{"properties":{"rating":93.33,"city":"Pacific City","geo_score":0.857,"beer":"Pelican Pub and Brewery","id":"a6fznskqnvzf","geo_precision":"city","state":"Oregon"},"type":"Feature","geometry":{"type":"Point","coordinates":[-123.95897,45.204976]}},{"properties":{"rating":93.33,"city":"Baltimore","geo_score":0.857,"beer":"Brewer's Art, The","id":"a6fznseg9zof","geo_precision":"city","state":"Maryland"},"type":"Feature","geometry":{"type":"Point","coordinates":[-76.612189,39.290385]}},{"properties":{"rating":93.33,"city":"Millheim","geo_score":0.857,"beer":"Elk Creek Cafe and Aleworks","id":"a6fznsand282","geo_precision":"city","state":"Pennsylvania"},"type":"Feature","geometry":{"type":"Point","coordinates":[-77.473298,40.893455]}},{"properties":{"rating":93.33,"city":"Blue Lake","geo_score":0.768,"beer":"Mad River Brewing Company","id":"a6fznsjhunxk","geo_precision":"city","state":"California"},"type":"Feature","geometry":{"type":"Point","coordinates":[-118.168903,33.976663]}},{"properties":{"rating":93.33,"city":"Raleigh","geo_score":0.857,"beer":"Lonerider Brewing Company","id":"a6fznsg11yey","geo_precision":"city","state":"North Carolina"},"type":"Feature","geometry":{"type":"Point","coordinates":[-78.638615,35.772096]}},{"properties":{"rating":92.78,"city":"New Albany","geo_score":0.762,"beer":"New Albanian Brewing Co - Bank Street Brewhouse","id":"a6fznsjo7pqh","geo_precision":"city","state":"Indiana"},"type":"Feature","geometry":{"type":"Point","coordinates":[-85.413862,41.376028]}},{"properties":{"rating":92.78,"city":"Victoria","geo_score":0.714,"beer":"Spinnakers Brewpub and Guesthouse","id":"a6fznsfxoitd","geo_precision":"city","state":"British Columbia"},"type":"Feature","geometry":{"type":"Point","coordinates":[-85.938278,31.529887]}},{"properties":{"rating":92.78,"city":"Ferguson","geo_score":0.857,"beer":"Hill Brewing Company","id":"a6fznsblxu5e","geo_precision":"city","state":"Missouri"},"type":"Feature","geometry":{"type":"Point","coordinates":[-90.305392,38.744218]}},{"properties":{"rating":92.78,"city":"Indianapolis","geo_score":0.857,"beer":"Great Fermentation of Indiana","id":"a6fznsag5997","geo_precision":"city","state":"Indiana"},"type":"Feature","geometry":{"type":"Point","coordinates":[-86.158042,39.768377]}},{"properties":{"rating":92.78,"city":"Klamath Falls","geo_score":0.857,"beer":"Klamath Basin Brewing Co.","id":"a6fznscrxkc7","geo_precision":"city","state":"Oregon"},"type":"Feature","geometry":{"type":"Point","coordinates":[-121.78167,42.224867]}},{"properties":{"rating":92.67,"city":"Rehoboth Beach","geo_score":0.857,"beer":"Dogfish Head Brewings and Eats","id":"a6fznsj0laws","geo_precision":"city","state":"Delaware"},"type":"Feature","geometry":{"type":"Point","coordinates":[-75.319975,38.629763]}},{"properties":{"rating":92.67,"city":"Portland","geo_score":0.857,"beer":"Bailey's Taproom","id":"a6fznsl3v4n7","geo_precision":"city","state":"Oregon"},"type":"Feature","geometry":{"type":"Point","coordinates":[-122.676207,45.523452]}},{"properties":{"rating":92.5,"city":"Grand Rapids","geo_score":0.857,"beer":"Siciliano's Market","id":"a6fznsgzlkkj","geo_precision":"city","state":"Michigan"},"type":"Feature","geometry":{"type":"Point","coordinates":[-85.668086,42.96336]}},{"properties":{"rating":92.5,"city":"Chicago","geo_score":0.857,"beer":"Publican, The","id":"a6fznsjrd196","geo_precision":"city","state":"Illinois"},"type":"Feature","geometry":{"type":"Point","coordinates":[-87.650052,41.850033]}},{"properties":{"rating":92.33,"city":"Golden","geo_score":0.857,"beer":"Golden City Brewery","id":"a6fznsicmpoa","geo_precision":"city","state":"Colorado"},"type":"Feature","geometry":{"type":"Point","coordinates":[-105.245659,39.718539]}},{"properties":{"rating":92.22,"city":"Scottsdale","geo_score":0.857,"beer":"Papago Brewing","id":"a6fznsmrvqjy","geo_precision":"city","state":"Arizona"},"type":"Feature","geometry":{"type":"Point","coordinates":[-111.899033,33.50921]}},{"properties":{"rating":92.22,"city":"Chico","geo_score":0.857,"beer":"Sierra Nevada Brewing Co.","id":"a6fznsaz1h4a","geo_precision":"city","state":"California"},"type":"Feature","geometry":{"type":"Point","coordinates":[-121.840083,39.746159]}},{"properties":{"rating":92.22,"city":"Bar Harbor","geo_score":0.857,"beer":"Atlantic Brewing Company","id":"a6fzns850x33","geo_precision":"city","state":"Maine"},"type":"Feature","geometry":{"type":"Point","coordinates":[-68.305513,44.362323]}},{"properties":{"rating":92.22,"city":"Breckenridge","geo_score":0.857,"beer":"Breckenridge Brew Pub","id":"a6fznsfbzcb6","geo_precision":"city","state":"Colorado"},"type":"Feature","geometry":{"type":"Point","coordinates":[-106.022472,39.475323]}},{"properties":{"rating":92.08,"city":"Pocatello","geo_score":0.857,"beer":"Portneuf Valley Brewing Company","id":"a6fznsdthh67","geo_precision":"city","state":"Idaho"},"type":"Feature","geometry":{"type":"Point","coordinates":[-112.259807,42.770177]}},{"properties":{"rating":92.0,"city":"Boston","geo_score":0.857,"beer":"Beer Works - Fenway","id":"a6fznsiqj42j","geo_precision":"city","state":"Massachusetts"},"type":"Feature","geometry":{"type":"Point","coordinates":[-71.059773,42.358431]}},{"properties":{"rating":92.0,"city":"Selinsgrove","geo_score":0.857,"beer":"Selin's Grove Brewing Company","id":"a6fzns8e3imz","geo_precision":"city","state":"Pennsylvania"},"type":"Feature","geometry":{"type":"Point","coordinates":[-76.857577,40.825914]}},{"properties":{"rating":91.67,"city":"Baltimore","geo_score":0.857,"beer":"Max's Taphouse","id":"a6fznsanv3da","geo_precision":"city","state":"Maryland"},"type":"Feature","geometry":{"type":"Point","coordinates":[-76.612189,39.290385]}},{"properties":{"rating":91.67,"city":"Boston","geo_score":0.857,"beer":"Beer Works - Canal Street","id":"a6fznseuh8zc","geo_precision":"city","state":"Massachusetts"},"type":"Feature","geometry":{"type":"Point","coordinates":[-71.059773,42.358431]}},{"properties":{"rating":91.67,"city":"Columbia","geo_score":0.857,"beer":"Frisco Grill and Californiantina","id":"a6fzns9x1e5b","geo_precision":"city","state":"Maryland"},"type":"Feature","geometry":{"type":"Point","coordinates":[-76.887905,39.206132]}},{"properties":{"rating":91.67,"city":"Boulder","geo_score":0.857,"beer":"Boulder Beer / Wilderness Pub","id":"a6fznsnaldti","geo_precision":"city","state":"Colorado"},"type":"Feature","geometry":{"type":"Point","coordinates":[-105.250597,39.975263]}},{"properties":{"rating":91.67,"city":"Falls Church","geo_score":0.857,"beer":"Dogfish Head Alehouse - Falls Church","id":"a6fznslyqhtp","geo_precision":"city","state":"Virginia"},"type":"Feature","geometry":{"type":"Point","coordinates":[-77.171091,38.882334]}},{"properties":{"rating":91.67,"city":"Valencia","geo_score":0.857,"beer":"Wolf Creek Brewing","id":"a6fznsj76y8g","geo_precision":"city","state":"California"},"type":"Feature","geometry":{"type":"Point","coordinates":[-118.298662,33.786594]}},{"properties":{"rating":91.67,"city":"Slippery Rock","geo_score":0.821,"beer":"North Country Brewing","id":"a6fznslkngnt","geo_precision":"city","state":"Pennsylvania"},"type":"Feature","geometry":{"type":"Point","coordinates":[-80.015335,41.02423]}},{"properties":{"rating":91.67,"city":"Edmonds","geo_score":0.857,"beer":"Gallaghers' Where U Brew","id":"a6fznsj2pyiz","geo_precision":"city","state":"Washington"},"type":"Feature","geometry":{"type":"Point","coordinates":[-122.372401,47.806068]}},{"properties":{"rating":91.43,"city":"Santa Rosa","geo_score":0.73,"beer":"Russian River Brewing Company","id":"a6fznsle8bbx","geo_precision":"city","state":"California"},"type":"Feature","geometry":{"type":"Point","coordinates":[-114.849692,34.083625]}},{"properties":{"rating":91.33,"city":"Milton","geo_score":0.857,"beer":"Dogfish Head Craft Brewery","id":"a6fzns9pf963","geo_precision":"city","state":"Delaware"},"type":"Feature","geometry":{"type":"Point","coordinates":[-75.322223,38.692714]}},{"properties":{"rating":91.25,"city":"State College","geo_score":0.738,"beer":"Otto's Pub and Brewery","id":"a6fznscisndl","geo_precision":"city","state":"Pennsylvania"},"type":"Feature","geometry":{"type":"Point","coordinates":[-80.446733,40.303681]}},{"properties":{"rating":91.19,"city":"Cleveland","geo_score":0.857,"beer":"Great Lakes Brewing Company","id":"a6fznslsny51","geo_precision":"city","state":"Ohio"},"type":"Feature","geometry":{"type":"Point","coordinates":[-81.695409,41.499495]}},{"properties":{"rating":91.11,"city":"New Albany","geo_score":0.762,"beer":"New Albanian Brewing Co. Pizzeria and Public House","id":"a6fzns9s9axa","geo_precision":"city","state":"Indiana"},"type":"Feature","geometry":{"type":"Point","coordinates":[-85.413862,41.376028]}},{"properties":{"rating":91.11,"city":"Mount Holly","geo_score":0.857,"beer":"High Street Grill","id":"a6fzns779w2g","geo_precision":"city","state":"New Jersey"},"type":"Feature","geometry":{"type":"Point","coordinates":[-74.801869,40.044956]}},{"properties":{"rating":91.11,"city":"Oakland","geo_score":0.857,"beer":"Pacific Coast Brewing Company","id":"a6fznsclom37","geo_precision":"city","state":"California"},"type":"Feature","geometry":{"type":"Point","coordinates":[-122.270803,37.804372]}},{"properties":{"rating":91.11,"city":"Nederland","geo_score":0.857,"beer":"Wild Mountain Smokehouse and Brewery","id":"a6fznsme0ezf","geo_precision":"city","state":"Colorado"},"type":"Feature","geometry":{"type":"Point","coordinates":[-105.495998,40.000686]}},{"properties":{"rating":91.04,"city":"Libertyville","geo_score":0.857,"beer":"Firkin, The","id":"a6fznsflvuxw","geo_precision":"city","state":"Illinois"},"type":"Feature","geometry":{"type":"Point","coordinates":[-87.957724,42.28947]}},{"properties":{"rating":90.83,"city":"Villa Park","geo_score":0.746,"beer":"Lunar Brewing","id":"a6fznsa5czkt","geo_precision":"city","state":"Illinois"},"type":"Feature","geometry":{"type":"Point","coordinates":[-88.167861,42.326133]}},{"properties":{"rating":90.83,"city":"Hays","geo_score":0.857,"beer":"Lb Brewing Co - Gella's Diner","id":"a6fznsg0tocx","geo_precision":"city","state":"Kansas"},"type":"Feature","geometry":{"type":"Point","coordinates":[-99.334803,38.878202]}},{"properties":{"rating":90.83,"city":"Kingston","geo_score":0.81,"beer":"Keegan Ales","id":"a6fzns9seo1z","geo_precision":"city","state":"New York"},"type":"Feature","geometry":{"type":"Point","coordinates":[-73.762898,43.14924]}},{"properties":{"rating":90.83,"city":"Cleveland","geo_score":0.857,"beer":"Tremont Tap House","id":"a6fznsdpkii3","geo_precision":"city","state":"Ohio"},"type":"Feature","geometry":{"type":"Point","coordinates":[-81.695409,41.499495]}},{"properties":{"rating":90.56,"city":"Lynnwood","geo_score":0.857,"beer":"Ellersick Brewing Company","id":"a6fznscwhunt","geo_precision":"city","state":"Washington"},"type":"Feature","geometry":{"type":"Point","coordinates":[-122.315131,47.82093]}},{"properties":{"rating":90.56,"city":"Chicago","geo_score":0.857,"beer":"West Lakeview Liquors","id":"a6fzns76uxoe","geo_precision":"city","state":"Illinois"},"type":"Feature","geometry":{"type":"Point","coordinates":[-87.650052,41.850033]}},{"properties":{"rating":90.56,"city":"Vancouver","geo_score":0.857,"beer":"By The Bottle","id":"a6fzns9jzmqz","geo_precision":"city","state":"Washington"},"type":"Feature","geometry":{"type":"Point","coordinates":[-122.661486,45.638728]}},{"properties":{"rating":90.56,"city":"Eugene","geo_score":0.857,"beer":"Ninkasi Brewing Company","id":"a6fznshdjhak","geo_precision":"city","state":"Oregon"},"type":"Feature","geometry":{"type":"Point","coordinates":[-123.086754,44.052069]}},{"properties":{"rating":90.56,"city":"Austin","geo_score":0.857,"beer":"Uncle Billy's Brew and Que","id":"a6fznsc42d18","geo_precision":"city","state":"Texas"},"type":"Feature","geometry":{"type":"Point","coordinates":[-97.743061,30.267153]}},{"properties":{"rating":90.56,"city":"Lyons","geo_score":0.857,"beer":"Oskar Blues Grill and Brewery","id":"a6fzns7c4hgo","geo_precision":"city","state":"Colorado"},"type":"Feature","geometry":{"type":"Point","coordinates":[-105.35528,40.189788]}},{"properties":{"rating":90.56,"city":"Roseburg","geo_score":0.857,"beer":"Roseburg Station (McMenamins)","id":"a6fzns8srenb","geo_precision":"city","state":"Oregon"},"type":"Feature","geometry":{"type":"Point","coordinates":[-123.360805,43.053573]}},{"properties":{"rating":90.42,"city":"Durham,","geo_score":0.857,"beer":"Sam's Blue Light (Sam's Quik Mart)","id":"a6fzns7wa6y0","geo_precision":"city","state":"North Carolina"},"type":"Feature","geometry":{"type":"Point","coordinates":[-78.898619,35.994033]}},{"properties":{"rating":90.42,"city":"Bend","geo_score":0.857,"beer":"Bend Brewing Company","id":"a6fznsb3pk6f","geo_precision":"city","state":"Oregon"},"type":"Feature","geometry":{"type":"Point","coordinates":[-121.31531,44.058173]}},{"properties":{"rating":90.33,"city":"Olympia","geo_score":0.857,"beer":"Fish Brewing Company - Fish Tail BrewPub","id":"a6fznskkgzl7","geo_precision":"city","state":"Washington"},"type":"Feature","geometry":{"type":"Point","coordinates":[-122.900695,47.037874]}},{"properties":{"rating":90.33,"city":"Hershey","geo_score":0.857,"beer":"Troegs Brewing Company","id":"a6fznsdu5m0j","geo_precision":"city","state":"Pennsylvania"},"type":"Feature","geometry":{"type":"Point","coordinates":[-76.636357,40.269748]}},{"properties":{"rating":90.33,"city":"Portland","geo_score":0.857,"beer":"Hopworks Urban Brewery","id":"a6fzns7a3n6a","geo_precision":"city","state":"Oregon"},"type":"Feature","geometry":{"type":"Point","coordinates":[-122.676207,45.523452]}}],"is_temporal":false,"author":{"url":"","metadata":"","contact_name":"","contact_address":"","source":"","contact_phone":""},"source":"","pagination":{"sort":null,"start":0,"total":100,"limit":1000000},"state":"complete","tags":"","published":"2014-08-13T05:14:49-04:00","id":185125}