{"type":"FeatureCollection","data_type":"Dataset","url_type":null,"permissions":[{"permissions":{"download":true,"view":true},"group_id":"everyone"}],"classification":null,"title":"marketing","count":163,"stream_id":18574,"contributor":{"url":"http://geocommons.com/users/9684","name":"joseph.lam"},"data_attributes":null,"calculation_params":null,"icon_link":null,"link":"http://geocommons.com/overlays/18574.json","extent":[-122.421,25.9779,-72.6371,47.6516],"geometry_types":["point"],"unique_name":null,"name":"marketing","feature_count":163,"description":"","next_feature":null,"is_raster":false,"short_classification":"Y","stats":{"zipcode":{"max":null,"min":null,"median":null},"product rating":{"max":3.9,"mean":2.64171779141104,"variance":0.30466863591608,"stdev":0.551967966385804,"min":1.0,"median":2.6},"geo_score":{"max":0.714,"mean":0.692098159509201,"variance":0.0152517927743695,"stdev":0.123498148870214,"min":0.0,"median":0.714}},"features":[{"properties":{"product rating":2.9,"zipcode":"10012","geo_score":0.714,"id":"a66cvwowmiyb","geo_precision":"zip"},"type":"Feature","geometry":{"type":"Point","coordinates":[-73.991582,40.729124]}},{"properties":{"product rating":2.8,"zipcode":"10013","geo_score":0.714,"id":"a66cvwhfrt2s","geo_precision":"zip"},"type":"Feature","geometry":{"type":"Point","coordinates":[-73.99625,40.716491]}},{"properties":{"product rating":3.7,"zipcode":"10018","geo_score":0.714,"id":"a66cvwrkx53t","geo_precision":"zip"},"type":"Feature","geometry":{"type":"Point","coordinates":[-73.993172,40.755332]}},{"properties":{"product rating":3.3,"zipcode":"10023","geo_score":0.714,"id":"a66cvwou3809","geo_precision":"zip"},"type":"Feature","geometry":{"type":"Point","coordinates":[-73.982213,40.776765]}},{"properties":{"product rating":2.3,"zipcode":"10023","geo_score":0.714,"id":"a66cvwjfka4s","geo_precision":"zip"},"type":"Feature","geometry":{"type":"Point","coordinates":[-73.982213,40.776765]}},{"properties":{"product rating":3.0,"zipcode":"11720","geo_score":0.714,"id":"a66cvwnhis06","geo_precision":"zip"},"type":"Feature","geometry":{"type":"Point","coordinates":[-72.637078,40.922326]}},{"properties":{"product rating":3.0,"zipcode":"11768","geo_score":0.714,"id":"a66cvwl9d0gp","geo_precision":"zip"},"type":"Feature","geometry":{"type":"Point","coordinates":[-73.401507,40.930654]}},{"properties":{"product rating":3.0,"zipcode":"12134","geo_score":0.714,"id":"a66cvwmxqvj4","geo_precision":"zip"},"type":"Feature","geometry":{"type":"Point","coordinates":[-74.153743,43.256183]}},{"properties":{"product rating":2.7,"zipcode":"15061","geo_score":0.714,"id":"a66cvws4wljg","geo_precision":"zip"},"type":"Feature","geometry":{"type":"Point","coordinates":[-80.327814,40.656366]}},{"properties":{"product rating":2.1,"zipcode":"16827","geo_score":0.714,"id":"a66cvwrebrs6","geo_precision":"zip"},"type":"Feature","geometry":{"type":"Point","coordinates":[-77.8025,40.793951]}},{"properties":{"product rating":2.8,"zipcode":"20002","geo_score":0.714,"id":"a66cvwo185tm","geo_precision":"zip"},"type":"Feature","geometry":{"type":"Point","coordinates":[-76.982147,38.908218]}},{"properties":{"product rating":3.6,"zipcode":"20010","geo_score":0.714,"id":"a66cvwir4p9x","geo_precision":"zip"},"type":"Feature","geometry":{"type":"Point","coordinates":[-77.030248,38.932711]}},{"properties":{"product rating":2.8,"zipcode":"20024","geo_score":0.714,"id":"a66cvwmy06lg","geo_precision":"zip"},"type":"Feature","geometry":{"type":"Point","coordinates":[-77.022948,38.876494]}},{"properties":{"product rating":3.2,"zipcode":"20037","geo_score":0.714,"id":"a66cvwpayx6d","geo_precision":"zip"},"type":"Feature","geometry":{"type":"Point","coordinates":[-77.061781,38.918903]}},{"properties":{"product rating":2.3,"zipcode":"20037","geo_score":0.714,"id":"a66cvws8jdga","geo_precision":"zip"},"type":"Feature","geometry":{"type":"Point","coordinates":[-77.061781,38.918903]}},{"properties":{"product rating":2.3,"zipcode":"21046","geo_score":0.714,"id":"a66cvwmtfbqy","geo_precision":"zip"},"type":"Feature","geometry":{"type":"Point","coordinates":[-76.834945,39.175406]}},{"properties":{"product rating":3.1,"zipcode":"22030","geo_score":0.714,"id":"a66cvwrr5qfn","geo_precision":"zip"},"type":"Feature","geometry":{"type":"Point","coordinates":[-77.363875,38.87289]}},{"properties":{"product rating":3.0,"zipcode":"23185","geo_score":0.714,"id":"a66cvwjkrguz","geo_precision":"zip"},"type":"Feature","geometry":{"type":"Point","coordinates":[-76.670511,37.267091]}},{"properties":{"product rating":2.5,"zipcode":"24450","geo_score":0.714,"id":"a66cvwjzqo6g","geo_precision":"zip"},"type":"Feature","geometry":{"type":"Point","coordinates":[-79.364481,37.892076]}},{"properties":{"product rating":2.9,"zipcode":"25314","geo_score":0.714,"id":"a66cvwvnx8oi","geo_precision":"zip"},"type":"Feature","geometry":{"type":"Point","coordinates":[-81.739013,38.241487]}},{"properties":{"product rating":2.9,"zipcode":"27609","geo_score":0.714,"id":"a66cvwtehg5g","geo_precision":"zip"},"type":"Feature","geometry":{"type":"Point","coordinates":[-78.518056,35.96154]}},{"properties":{"product rating":2.9,"zipcode":"28120","geo_score":0.714,"id":"a66cvwlyh1n5","geo_precision":"zip"},"type":"Feature","geometry":{"type":"Point","coordinates":[-81.010631,35.384859]}},{"properties":{"product rating":2.9,"zipcode":"28302","geo_score":0.714,"id":"a66cvwg53te4","geo_precision":"zip"},"type":"Feature","geometry":{"type":"Point","coordinates":[-78.908828,35.034307]}},{"properties":{"product rating":3.1,"zipcode":"30307","geo_score":0.714,"id":"a66cvwgzs0fi","geo_precision":"zip"},"type":"Feature","geometry":{"type":"Point","coordinates":[-84.357375,33.762855]}},{"properties":{"product rating":2.7,"zipcode":"30360","geo_score":0.714,"id":"a66cvwlz4br4","geo_precision":"zip"},"type":"Feature","geometry":{"type":"Point","coordinates":[-84.277772,33.931069]}},{"properties":{"product rating":3.0,"zipcode":"30360","geo_score":0.714,"id":"a66cvwujo97e","geo_precision":"zip"},"type":"Feature","geometry":{"type":"Point","coordinates":[-84.277772,33.931069]}},{"properties":{"product rating":2.5,"zipcode":"30606","geo_score":0.714,"id":"a66cvwh46aak","geo_precision":"zip"},"type":"Feature","geometry":{"type":"Point","coordinates":[-83.43064,33.951348]}},{"properties":{"product rating":2.7,"zipcode":"30683","geo_score":0.714,"id":"a66cvwqxjgaa","geo_precision":"zip"},"type":"Feature","geometry":{"type":"Point","coordinates":[-83.292152,33.930735]}},{"properties":{"product rating":2.8,"zipcode":"31825","geo_score":0.714,"id":"a66cvwvlyjn7","geo_precision":"zip"},"type":"Feature","geometry":{"type":"Point","coordinates":[-84.718627,32.074331]}},{"properties":{"product rating":3.2,"zipcode":"32210","geo_score":0.714,"id":"a66cvwuuoobw","geo_precision":"zip"},"type":"Feature","geometry":{"type":"Point","coordinates":[-81.770099,30.245795]}},{"properties":{"product rating":2.4,"zipcode":"32507","geo_score":0.714,"id":"a66cvwisag22","geo_precision":"zip"},"type":"Feature","geometry":{"type":"Point","coordinates":[-87.345252,30.359088]}},{"properties":{"product rating":2.2,"zipcode":"32940","geo_score":0.714,"id":"a66cvwvvfhjs","geo_precision":"zip"},"type":"Feature","geometry":{"type":"Point","coordinates":[-80.697829,28.216262]}},{"properties":{"product rating":3.4,"zipcode":"33009","geo_score":0.714,"id":"a66cvwplw3b4","geo_precision":"zip"},"type":"Feature","geometry":{"type":"Point","coordinates":[-80.165046,25.977869]}},{"properties":{"product rating":2.3,"zipcode":"33432","geo_score":0.714,"id":"a66cvwfoyirn","geo_precision":"zip"},"type":"Feature","geometry":{"type":"Point","coordinates":[-80.126155,26.353411]}},{"properties":{"product rating":2.2,"zipcode":"33445","geo_score":0.714,"id":"a66cvwigsdd6","geo_precision":"zip"},"type":"Feature","geometry":{"type":"Point","coordinates":[-80.100015,26.548504]}},{"properties":{"product rating":2.3,"zipcode":"33917","geo_score":0.714,"id":"a66cvwg8fl5e","geo_precision":"zip"},"type":"Feature","geometry":{"type":"Point","coordinates":[-81.844716,26.648211]}},{"properties":{"product rating":2.0,"zipcode":"36614","geo_score":0.714,"id":"a66cvwpgu491","geo_precision":"zip"},"type":"Feature","geometry":{"type":"Point","coordinates":[-88.211103,30.601892]}},{"properties":{"product rating":3.4,"zipcode":"39759","geo_score":0.714,"id":"a66cvwp9oqp4","geo_precision":"zip"},"type":"Feature","geometry":{"type":"Point","coordinates":[-88.800053,33.525399]}},{"properties":{"product rating":3.2,"zipcode":"45231","geo_score":0.714,"id":"a66cvwu7m3n6","geo_precision":"zip"},"type":"Feature","geometry":{"type":"Point","coordinates":[-84.494943,39.240336]}},{"properties":{"product rating":2.3,"zipcode":"47458","geo_score":0.714,"id":"a66cvwuyo4o9","geo_precision":"zip"},"type":"Feature","geometry":{"type":"Point","coordinates":[-86.501543,39.173234]}},{"properties":{"product rating":3.2,"zipcode":"53216","geo_score":0.714,"id":"a66cvwmm1hsq","geo_precision":"zip"},"type":"Feature","geometry":{"type":"Point","coordinates":[-87.976988,43.086244]}},{"properties":{"product rating":2.5,"zipcode":"59868","geo_score":0.714,"id":"a66cvwkni7aw","geo_precision":"zip"},"type":"Feature","geometry":{"type":"Point","coordinates":[-113.548481,47.300776]}},{"properties":{"product rating":2.2,"zipcode":"60194","geo_score":0.714,"id":"a66cvwmm8ht9","geo_precision":"zip"},"type":"Feature","geometry":{"type":"Point","coordinates":[-88.116655,42.028926]}},{"properties":{"product rating":2.7,"zipcode":"60610","geo_score":0.714,"id":"a66cvwtocpm3","geo_precision":"zip"},"type":"Feature","geometry":{"type":"Point","coordinates":[-87.68732,41.811929]}},{"properties":{"product rating":3.0,"zipcode":"63105","geo_score":0.714,"id":"a66cvwi0kvoe","geo_precision":"zip"},"type":"Feature","geometry":{"type":"Point","coordinates":[-90.323726,38.642552]}},{"properties":{"product rating":2.6,"zipcode":"70124","geo_score":0.714,"id":"a66cvwi6o6v9","geo_precision":"zip"},"type":"Feature","geometry":{"type":"Point","coordinates":[-90.108128,30.004647]}},{"properties":{"product rating":3.1,"zipcode":"71106","geo_score":0.714,"id":"a66cvwrq29ol","geo_precision":"zip"},"type":"Feature","geometry":{"type":"Point","coordinates":[-93.711612,32.39117]}},{"properties":{"product rating":3.0,"zipcode":"75098","geo_score":0.714,"id":"a66cvwhnqgpj","geo_precision":"zip"},"type":"Feature","geometry":{"type":"Point","coordinates":[-96.528045,32.9579]}},{"properties":{"product rating":1.9,"zipcode":"75209","geo_score":0.714,"id":"a66cvwsb3ezu","geo_precision":"zip"},"type":"Feature","geometry":{"type":"Point","coordinates":[-96.821668,32.93068]}},{"properties":{"product rating":3.3,"zipcode":"75225","geo_score":0.714,"id":"a66cvwu6otej","geo_precision":"zip"},"type":"Feature","geometry":{"type":"Point","coordinates":[-96.771829,32.851127]}},{"properties":{"product rating":3.2,"zipcode":"75225","geo_score":0.714,"id":"a66cvwq3w8av","geo_precision":"zip"},"type":"Feature","geometry":{"type":"Point","coordinates":[-96.771829,32.851127]}},{"properties":{"product rating":2.5,"zipcode":"75238","geo_score":0.714,"id":"a66cvwfykkmv","geo_precision":"zip"},"type":"Feature","geometry":{"type":"Point","coordinates":[-96.704725,32.878923]}},{"properties":{"product rating":2.2,"zipcode":"75246","geo_score":0.714,"id":"a66cvwmw3lbx","geo_precision":"zip"},"type":"Feature","geometry":{"type":"Point","coordinates":[-96.773179,32.793328]}},{"properties":{"product rating":2.6,"zipcode":"77003","geo_score":0.714,"id":"a66cvwmohey9","geo_precision":"zip"},"type":"Feature","geometry":{"type":"Point","coordinates":[-95.434241,29.83399]}},{"properties":{"product rating":2.5,"zipcode":"77003","geo_score":0.714,"id":"a66cvwgdytkm","geo_precision":"zip"},"type":"Feature","geometry":{"type":"Point","coordinates":[-95.434241,29.83399]}},{"properties":{"product rating":2.2,"zipcode":"77004","geo_score":0.714,"id":"a66cvwunsc4m","geo_precision":"zip"},"type":"Feature","geometry":{"type":"Point","coordinates":[-95.434241,29.83399]}},{"properties":{"product rating":2.4,"zipcode":"77004","geo_score":0.714,"id":"a66cvwt5nn2r","geo_precision":"zip"},"type":"Feature","geometry":{"type":"Point","coordinates":[-95.434241,29.83399]}},{"properties":{"product rating":3.7,"zipcode":"77005","geo_score":0.714,"id":"a66cvwjsvgp1","geo_precision":"zip"},"type":"Feature","geometry":{"type":"Point","coordinates":[-95.434241,29.83399]}},{"properties":{"product rating":3.4,"zipcode":"77005","geo_score":0.714,"id":"a66cvwla8r98","geo_precision":"zip"},"type":"Feature","geometry":{"type":"Point","coordinates":[-95.434241,29.83399]}},{"properties":{"product rating":2.2,"zipcode":"77005","geo_score":0.714,"id":"a66cvwhumf7i","geo_precision":"zip"},"type":"Feature","geometry":{"type":"Point","coordinates":[-95.434241,29.83399]}},{"properties":{"product rating":2.4,"zipcode":"77006","geo_score":0.714,"id":"a66cvwiver4j","geo_precision":"zip"},"type":"Feature","geometry":{"type":"Point","coordinates":[-95.434241,29.83399]}},{"properties":{"product rating":2.8,"zipcode":"77006","geo_score":0.714,"id":"a66cvwrvudyc","geo_precision":"zip"},"type":"Feature","geometry":{"type":"Point","coordinates":[-95.434241,29.83399]}},{"properties":{"product rating":2.6,"zipcode":"77007","geo_score":0.714,"id":"a66cvwmrbcbs","geo_precision":"zip"},"type":"Feature","geometry":{"type":"Point","coordinates":[-95.434241,29.83399]}},{"properties":{"product rating":2.3,"zipcode":"77007","geo_score":0.714,"id":"a66cvwt3qopp","geo_precision":"zip"},"type":"Feature","geometry":{"type":"Point","coordinates":[-95.434241,29.83399]}},{"properties":{"product rating":3.2,"zipcode":"77007","geo_score":0.714,"id":"a66cvwu3stsj","geo_precision":"zip"},"type":"Feature","geometry":{"type":"Point","coordinates":[-95.434241,29.83399]}},{"properties":{"product rating":2.9,"zipcode":"77007","geo_score":0.714,"id":"a66cvwr3v4al","geo_precision":"zip"},"type":"Feature","geometry":{"type":"Point","coordinates":[-95.434241,29.83399]}},{"properties":{"product rating":3.7,"zipcode":"77007","geo_score":0.714,"id":"a66cvwfnkasn","geo_precision":"zip"},"type":"Feature","geometry":{"type":"Point","coordinates":[-95.434241,29.83399]}},{"properties":{"product rating":2.4,"zipcode":"77008","geo_score":0.714,"id":"a66cvwq2j8m4","geo_precision":"zip"},"type":"Feature","geometry":{"type":"Point","coordinates":[-95.434241,29.83399]}},{"properties":{"product rating":3.1,"zipcode":"77008","geo_score":0.714,"id":"a66cvwnavld1","geo_precision":"zip"},"type":"Feature","geometry":{"type":"Point","coordinates":[-95.434241,29.83399]}},{"properties":{"product rating":3.4,"zipcode":"77008","geo_score":0.714,"id":"a66cvwjnqhxe","geo_precision":"zip"},"type":"Feature","geometry":{"type":"Point","coordinates":[-95.434241,29.83399]}},{"properties":{"product rating":2.4,"zipcode":"77008","geo_score":0.714,"id":"a66cvwmyxv8l","geo_precision":"zip"},"type":"Feature","geometry":{"type":"Point","coordinates":[-95.434241,29.83399]}},{"properties":{"product rating":3.0,"zipcode":"77009","geo_score":0.714,"id":"a66cvwkqiauh","geo_precision":"zip"},"type":"Feature","geometry":{"type":"Point","coordinates":[-95.434241,29.83399]}},{"properties":{"product rating":2.5,"zipcode":"77019","geo_score":0.714,"id":"a66cvwszkuq6","geo_precision":"zip"},"type":"Feature","geometry":{"type":"Point","coordinates":[-95.434241,29.83399]}},{"properties":{"product rating":2.6,"zipcode":"77019","geo_score":0.714,"id":"a66cvwm474cw","geo_precision":"zip"},"type":"Feature","geometry":{"type":"Point","coordinates":[-95.434241,29.83399]}},{"properties":{"product rating":3.3,"zipcode":"77019","geo_score":0.714,"id":"a66cvwvusa5k","geo_precision":"zip"},"type":"Feature","geometry":{"type":"Point","coordinates":[-95.434241,29.83399]}},{"properties":{"product rating":2.6,"zipcode":"77019","geo_score":0.714,"id":"a66cvwud3abk","geo_precision":"zip"},"type":"Feature","geometry":{"type":"Point","coordinates":[-95.434241,29.83399]}},{"properties":{"product rating":2.7,"zipcode":"77019","geo_score":0.714,"id":"a66cvwuxkb2z","geo_precision":"zip"},"type":"Feature","geometry":{"type":"Point","coordinates":[-95.434241,29.83399]}},{"properties":{"product rating":1.3,"zipcode":"77019","geo_score":0.714,"id":"a66cvwjmerw4","geo_precision":"zip"},"type":"Feature","geometry":{"type":"Point","coordinates":[-95.434241,29.83399]}},{"properties":{"product rating":3.0,"zipcode":"77024","geo_score":0.714,"id":"a66cvwgmmvuc","geo_precision":"zip"},"type":"Feature","geometry":{"type":"Point","coordinates":[-95.503553,29.789672]}},{"properties":{"product rating":3.4,"zipcode":"77024","geo_score":0.714,"id":"a66cvwlw83te","geo_precision":"zip"},"type":"Feature","geometry":{"type":"Point","coordinates":[-95.503553,29.789672]}},{"properties":{"product rating":2.2,"zipcode":"77025","geo_score":0.714,"id":"a66cvwjivnlq","geo_precision":"zip"},"type":"Feature","geometry":{"type":"Point","coordinates":[-95.434241,29.83399]}},{"properties":{"product rating":2.2,"zipcode":"77025","geo_score":0.714,"id":"a66cvwstab0y","geo_precision":"zip"},"type":"Feature","geometry":{"type":"Point","coordinates":[-95.434241,29.83399]}},{"properties":{"product rating":2.2,"zipcode":"77027","geo_score":0.714,"id":"a66cvwick9es","geo_precision":"zip"},"type":"Feature","geometry":{"type":"Point","coordinates":[-95.303129,29.688374]}},{"properties":{"product rating":2.3,"zipcode":"77027","geo_score":0.714,"id":"a66cvwnibqex","geo_precision":"zip"},"type":"Feature","geometry":{"type":"Point","coordinates":[-95.303129,29.688374]}},{"properties":{"product rating":3.3,"zipcode":"77027","geo_score":0.714,"id":"a66cvwol6skf","geo_precision":"zip"},"type":"Feature","geometry":{"type":"Point","coordinates":[-95.303129,29.688374]}},{"properties":{"product rating":1.5,"zipcode":"77030","geo_score":0.714,"id":"a66cvwhpixm7","geo_precision":"zip"},"type":"Feature","geometry":{"type":"Point","coordinates":[-95.434241,29.83399]}},{"properties":{"product rating":2.9,"zipcode":"77030","geo_score":0.714,"id":"a66cvwt6amx7","geo_precision":"zip"},"type":"Feature","geometry":{"type":"Point","coordinates":[-95.434241,29.83399]}},{"properties":{"product rating":2.0,"zipcode":"77030","geo_score":0.714,"id":"a66cvwhga6j8","geo_precision":"zip"},"type":"Feature","geometry":{"type":"Point","coordinates":[-95.434241,29.83399]}},{"properties":{"product rating":1.7,"zipcode":"77030","geo_score":0.714,"id":"a66cvwr01hfb","geo_precision":"zip"},"type":"Feature","geometry":{"type":"Point","coordinates":[-95.434241,29.83399]}},{"properties":{"product rating":2.3,"zipcode":"77030","geo_score":0.714,"id":"a66cvwv34pn5","geo_precision":"zip"},"type":"Feature","geometry":{"type":"Point","coordinates":[-95.434241,29.83399]}},{"properties":{"product rating":3.0,"zipcode":"77036","geo_score":0.714,"id":"a66cvwhunsso","geo_precision":"zip"},"type":"Feature","geometry":{"type":"Point","coordinates":[-95.434241,29.83399]}},{"properties":{"product rating":2.8,"zipcode":"77040","geo_score":0.714,"id":"a66cvwfiioou","geo_precision":"zip"},"type":"Feature","geometry":{"type":"Point","coordinates":[-95.46355,30.006888]}},{"properties":{"product rating":2.4,"zipcode":"77042","geo_score":0.714,"id":"a66cvwfhk86n","geo_precision":"zip"},"type":"Feature","geometry":{"type":"Point","coordinates":[-95.434241,29.83399]}},{"properties":{"product rating":2.3,"zipcode":"77054","geo_score":0.714,"id":"a66cvwswsjsp","geo_precision":"zip"},"type":"Feature","geometry":{"type":"Point","coordinates":[-95.391466,29.67543]}},{"properties":{"product rating":3.0,"zipcode":"77054","geo_score":0.714,"id":"a66cvwg6604u","geo_precision":"zip"},"type":"Feature","geometry":{"type":"Point","coordinates":[-95.391466,29.67543]}},{"properties":{"product rating":1.5,"zipcode":"77055","geo_score":0.714,"id":"a66cvwr7dpqy","geo_precision":"zip"},"type":"Feature","geometry":{"type":"Point","coordinates":[-95.434241,29.83399]}},{"properties":{"product rating":2.1,"zipcode":"77055","geo_score":0.714,"id":"a66cvwlq29io","geo_precision":"zip"},"type":"Feature","geometry":{"type":"Point","coordinates":[-95.434241,29.83399]}},{"properties":{"product rating":2.2,"zipcode":"77055","geo_score":0.714,"id":"a66cvwklo09r","geo_precision":"zip"},"type":"Feature","geometry":{"type":"Point","coordinates":[-95.434241,29.83399]}},{"properties":{"product rating":3.0,"zipcode":"77055","geo_score":0.714,"id":"a66cvws2yt4z","geo_precision":"zip"},"type":"Feature","geometry":{"type":"Point","coordinates":[-95.434241,29.83399]}},{"properties":{"product rating":2.6,"zipcode":"77055","geo_score":0.714,"id":"a66cvwfi3gsd","geo_precision":"zip"},"type":"Feature","geometry":{"type":"Point","coordinates":[-95.434241,29.83399]}},{"properties":{"product rating":2.0,"zipcode":"77056","geo_score":0.714,"id":"a66cvwjt5r69","geo_precision":"zip"},"type":"Feature","geometry":{"type":"Point","coordinates":[-95.207161,29.698579]}},{"properties":{"product rating":2.6,"zipcode":"77056","geo_score":0.714,"id":"a66cvwtazw0p","geo_precision":"zip"},"type":"Feature","geometry":{"type":"Point","coordinates":[-95.207161,29.698579]}},{"properties":{"product rating":2.9,"zipcode":"77057","geo_score":0.714,"id":"a66cvwmbqs8e","geo_precision":"zip"},"type":"Feature","geometry":{"type":"Point","coordinates":[-95.434241,29.83399]}},{"properties":{"product rating":1.8,"zipcode":"77057","geo_score":0.714,"id":"a66cvwqv9h2l","geo_precision":"zip"},"type":"Feature","geometry":{"type":"Point","coordinates":[-95.434241,29.83399]}},{"properties":{"product rating":2.4,"zipcode":"77057","geo_score":0.714,"id":"a66cvwulxwym","geo_precision":"zip"},"type":"Feature","geometry":{"type":"Point","coordinates":[-95.434241,29.83399]}},{"properties":{"product rating":2.9,"zipcode":"77057","geo_score":0.714,"id":"a66cvwrqwxxs","geo_precision":"zip"},"type":"Feature","geometry":{"type":"Point","coordinates":[-95.434241,29.83399]}},{"properties":{"product rating":2.8,"zipcode":"77057","geo_score":0.714,"id":"a66cvwj171zf","geo_precision":"zip"},"type":"Feature","geometry":{"type":"Point","coordinates":[-95.434241,29.83399]}},{"properties":{"product rating":2.7,"zipcode":"77057","geo_score":0.714,"id":"a66cvwn1feq5","geo_precision":"zip"},"type":"Feature","geometry":{"type":"Point","coordinates":[-95.434241,29.83399]}},{"properties":{"product rating":3.2,"zipcode":"77061","geo_score":0.714,"id":"a66cvwtel881","geo_precision":"zip"},"type":"Feature","geometry":{"type":"Point","coordinates":[-95.28316,29.65688]}},{"properties":{"product rating":2.8,"zipcode":"77061","geo_score":0.714,"id":"a66cvwszyqen","geo_precision":"zip"},"type":"Feature","geometry":{"type":"Point","coordinates":[-95.28316,29.65688]}},{"properties":{"product rating":2.1,"zipcode":"77070","geo_score":0.714,"id":"a66cvwlc6z1d","geo_precision":"zip"},"type":"Feature","geometry":{"type":"Point","coordinates":[-95.434241,29.83399]}},{"properties":{"product rating":1.9,"zipcode":"77072","geo_score":0.714,"id":"a66cvwk5sfs1","geo_precision":"zip"},"type":"Feature","geometry":{"type":"Point","coordinates":[-95.434241,29.83399]}},{"properties":{"product rating":2.3,"zipcode":"77077","geo_score":0.714,"id":"a66cvwm1eme2","geo_precision":"zip"},"type":"Feature","geometry":{"type":"Point","coordinates":[-95.434241,29.83399]}},{"properties":{"product rating":2.3,"zipcode":"77077","geo_score":0.714,"id":"a66cvwu6d1rt","geo_precision":"zip"},"type":"Feature","geometry":{"type":"Point","coordinates":[-95.434241,29.83399]}},{"properties":{"product rating":2.2,"zipcode":"77080","geo_score":0.714,"id":"a66cvwlfhro4","geo_precision":"zip"},"type":"Feature","geometry":{"type":"Point","coordinates":[-95.434241,29.83399]}},{"properties":{"product rating":1.4,"zipcode":"77081","geo_score":0.714,"id":"a66cvwrrvgef","geo_precision":"zip"},"type":"Feature","geometry":{"type":"Point","coordinates":[-95.306914,29.68193]}},{"properties":{"product rating":2.5,"zipcode":"77082","geo_score":0.714,"id":"a66cvwmh2916","geo_precision":"zip"},"type":"Feature","geometry":{"type":"Point","coordinates":[-95.434241,29.83399]}},{"properties":{"product rating":3.7,"zipcode":"77083","geo_score":0.714,"id":"a66cvwta1nps","geo_precision":"zip"},"type":"Feature","geometry":{"type":"Point","coordinates":[-95.434241,29.83399]}},{"properties":{"product rating":2.3,"zipcode":"77083","geo_score":0.714,"id":"a66cvwtwrqce","geo_precision":"zip"},"type":"Feature","geometry":{"type":"Point","coordinates":[-95.434241,29.83399]}},{"properties":{"product rating":2.6,"zipcode":"77083","geo_score":0.714,"id":"a66cvwhpjca9","geo_precision":"zip"},"type":"Feature","geometry":{"type":"Point","coordinates":[-95.434241,29.83399]}},{"properties":{"product rating":1.7,"zipcode":"77083","geo_score":0.714,"id":"a66cvwt1u3d8","geo_precision":"zip"},"type":"Feature","geometry":{"type":"Point","coordinates":[-95.434241,29.83399]}},{"properties":{"product rating":2.6,"zipcode":"77094","geo_score":0.714,"id":"a66cvwk5ok5n","geo_precision":"zip"},"type":"Feature","geometry":{"type":"Point","coordinates":[-95.434241,29.83399]}},{"properties":{"product rating":2.9,"zipcode":"77096","geo_score":0.714,"id":"a66cvwtuirv6","geo_precision":"zip"},"type":"Feature","geometry":{"type":"Point","coordinates":[-95.434241,29.83399]}},{"properties":{"product rating":2.9,"zipcode":"77096","geo_score":0.714,"id":"a66cvwu5ab4i","geo_precision":"zip"},"type":"Feature","geometry":{"type":"Point","coordinates":[-95.434241,29.83399]}},{"properties":{"product rating":3.3,"zipcode":"77096","geo_score":0.714,"id":"a66cvwggybpk","geo_precision":"zip"},"type":"Feature","geometry":{"type":"Point","coordinates":[-95.434241,29.83399]}},{"properties":{"product rating":1.8,"zipcode":"77098","geo_score":0.714,"id":"a66cvwkprxa3","geo_precision":"zip"},"type":"Feature","geometry":{"type":"Point","coordinates":[-95.434241,29.83399]}},{"properties":{"product rating":1.0,"zipcode":"77370","geo_score":0.714,"id":"a66cvws5rx1q","geo_precision":"zip"},"type":"Feature","geometry":{"type":"Point","coordinates":[-95.262155,29.998831]}},{"properties":{"product rating":3.9,"zipcode":"77379","geo_score":0.714,"id":"a66cvwiqxw4t","geo_precision":"zip"},"type":"Feature","geometry":{"type":"Point","coordinates":[-95.427994,30.127439]}},{"properties":{"product rating":2.5,"zipcode":"77379","geo_score":0.714,"id":"a66cvwftvplj","geo_precision":"zip"},"type":"Feature","geometry":{"type":"Point","coordinates":[-95.427994,30.127439]}},{"properties":{"product rating":3.6,"zipcode":"77401","geo_score":0.714,"id":"a66cvwu4p40h","geo_precision":"zip"},"type":"Feature","geometry":{"type":"Point","coordinates":[-95.434241,29.83399]}},{"properties":{"product rating":2.3,"zipcode":"77407","geo_score":0.0,"id":"a66cvwmiipma","geo_precision":"unmatched"},"type":"Feature","geometry":null},{"properties":{"product rating":2.4,"zipcode":"77450","geo_score":0.714,"id":"a66cvwj6insn","geo_precision":"zip"},"type":"Feature","geometry":{"type":"Point","coordinates":[-95.434241,29.83399]}},{"properties":{"product rating":3.2,"zipcode":"77478","geo_score":0.714,"id":"a66cvwq1u6sr","geo_precision":"zip"},"type":"Feature","geometry":{"type":"Point","coordinates":[-95.756462,29.525461]}},{"properties":{"product rating":2.5,"zipcode":"77478","geo_score":0.714,"id":"a66cvwfrv9yf","geo_precision":"zip"},"type":"Feature","geometry":{"type":"Point","coordinates":[-95.756462,29.525461]}},{"properties":{"product rating":3.2,"zipcode":"77479","geo_score":0.714,"id":"a66cvwp3bjrh","geo_precision":"zip"},"type":"Feature","geometry":{"type":"Point","coordinates":[-95.666778,29.552921]}},{"properties":{"product rating":3.7,"zipcode":"77479","geo_score":0.714,"id":"a66cvwjui5i5","geo_precision":"zip"},"type":"Feature","geometry":{"type":"Point","coordinates":[-95.666778,29.552921]}},{"properties":{"product rating":2.5,"zipcode":"77479","geo_score":0.714,"id":"a66cvwfl7tuj","geo_precision":"zip"},"type":"Feature","geometry":{"type":"Point","coordinates":[-95.666778,29.552921]}},{"properties":{"product rating":1.6,"zipcode":"77479","geo_score":0.714,"id":"a66cvwnv5tqn","geo_precision":"zip"},"type":"Feature","geometry":{"type":"Point","coordinates":[-95.666778,29.552921]}},{"properties":{"product rating":3.0,"zipcode":"77479","geo_score":0.714,"id":"a66cvwiq2cfr","geo_precision":"zip"},"type":"Feature","geometry":{"type":"Point","coordinates":[-95.666778,29.552921]}},{"properties":{"product rating":2.0,"zipcode":"77494","geo_score":0.714,"id":"a66cvwrs9qaq","geo_precision":"zip"},"type":"Feature","geometry":{"type":"Point","coordinates":[-95.434241,29.83399]}},{"properties":{"product rating":2.8,"zipcode":"77494","geo_score":0.714,"id":"a66cvwi0c7dt","geo_precision":"zip"},"type":"Feature","geometry":{"type":"Point","coordinates":[-95.434241,29.83399]}},{"properties":{"product rating":2.7,"zipcode":"77494","geo_score":0.714,"id":"a66cvwqtjjbf","geo_precision":"zip"},"type":"Feature","geometry":{"type":"Point","coordinates":[-95.434241,29.83399]}},{"properties":{"product rating":2.8,"zipcode":"77498","geo_score":0.0,"id":"a66cvwhpme67","geo_precision":"unmatched"},"type":"Feature","geometry":null},{"properties":{"product rating":3.7,"zipcode":"77498","geo_score":0.0,"id":"a66cvwk56g83","geo_precision":"unmatched"},"type":"Feature","geometry":null},{"properties":{"product rating":1.8,"zipcode":"77659","geo_score":0.714,"id":"a66cvwr1s81x","geo_precision":"zip"},"type":"Feature","geometry":{"type":"Point","coordinates":[-94.411302,30.121046]}},{"properties":{"product rating":2.7,"zipcode":"77845","geo_score":0.714,"id":"a66cvwgp1c66","geo_precision":"zip"},"type":"Feature","geometry":{"type":"Point","coordinates":[-96.293826,30.579234]}},{"properties":{"product rating":2.2,"zipcode":"78056","geo_score":0.714,"id":"a66cvwpm44ff","geo_precision":"zip"},"type":"Feature","geometry":{"type":"Point","coordinates":[-98.938654,29.511723]}},{"properties":{"product rating":1.6,"zipcode":"78703","geo_score":0.714,"id":"a66cvwo3q52n","geo_precision":"zip"},"type":"Feature","geometry":{"type":"Point","coordinates":[-97.766351,30.290107]}},{"properties":{"product rating":3.4,"zipcode":"78703","geo_score":0.714,"id":"a66cvwq6gdvd","geo_precision":"zip"},"type":"Feature","geometry":{"type":"Point","coordinates":[-97.766351,30.290107]}},{"properties":{"product rating":2.0,"zipcode":"78705","geo_score":0.714,"id":"a66cvwrq100w","geo_precision":"zip"},"type":"Feature","geometry":{"type":"Point","coordinates":[-97.736932,30.293057]}},{"properties":{"product rating":2.9,"zipcode":"78705","geo_score":0.714,"id":"a66cvwsyz52i","geo_precision":"zip"},"type":"Feature","geometry":{"type":"Point","coordinates":[-97.736932,30.293057]}},{"properties":{"product rating":3.2,"zipcode":"78759","geo_score":0.714,"id":"a66cvwhfnzpz","geo_precision":"zip"},"type":"Feature","geometry":{"type":"Point","coordinates":[-97.750611,30.395586]}},{"properties":{"product rating":2.4,"zipcode":"78759","geo_score":0.714,"id":"a66cvwtd06va","geo_precision":"zip"},"type":"Feature","geometry":{"type":"Point","coordinates":[-97.750611,30.395586]}},{"properties":{"product rating":2.6,"zipcode":"78950","geo_score":0.714,"id":"a66cvwifdrw6","geo_precision":"zip"},"type":"Feature","geometry":{"type":"Point","coordinates":[-96.546638,29.871061]}},{"properties":{"product rating":3.1,"zipcode":"92057","geo_score":0.714,"id":"a66cvwiwrx7a","geo_precision":"zip"},"type":"Feature","geometry":{"type":"Point","coordinates":[-116.846046,33.016928]}},{"properties":{"product rating":3.2,"zipcode":"92143","geo_score":0.714,"id":"a66cvwus8sxo","geo_precision":"zip"},"type":"Feature","geometry":{"type":"Point","coordinates":[-116.846046,33.016928]}},{"properties":{"product rating":1.8,"zipcode":"93010","geo_score":0.714,"id":"a66cvwmzacfe","geo_precision":"zip"},"type":"Feature","geometry":{"type":"Point","coordinates":[-119.084253,34.307783]}},{"properties":{"product rating":2.9,"zipcode":"94109","geo_score":0.714,"id":"a66cvwo6pe22","geo_precision":"zip"},"type":"Feature","geometry":{"type":"Point","coordinates":[-122.420782,37.795219]}},{"properties":{"product rating":1.6,"zipcode":"94404","geo_score":0.714,"id":"a66cvwltif6e","geo_precision":"zip"},"type":"Feature","geometry":{"type":"Point","coordinates":[-122.269978,37.553774]}},{"properties":{"product rating":3.3,"zipcode":"95826","geo_score":0.714,"id":"a66cvwqd601z","geo_precision":"zip"},"type":"Feature","geometry":{"type":"Point","coordinates":[-121.385459,38.547639]}},{"properties":{"product rating":2.1,"zipcode":"96367","geo_score":0.0,"id":"a66cvwoygtsv","geo_precision":"unmatched"},"type":"Feature","geometry":null},{"properties":{"product rating":2.5,"zipcode":"96367","geo_score":0.0,"id":"a66cvwhd1p0e","geo_precision":"unmatched"},"type":"Feature","geometry":null},{"properties":{"product rating":2.1,"zipcode":"99019","geo_score":0.714,"id":"a66cvwm4wsqb","geo_precision":"zip"},"type":"Feature","geometry":{"type":"Point","coordinates":[-117.085845,47.651635]}}],"is_temporal":false,"author":{"url":"","metadata":"","contact_name":"","contact_address":"","source":"","contact_phone":""},"source":"","pagination":{"sort":null,"start":0,"total":163,"limit":1000000},"state":"complete","tags":"marketing","published":"2014-08-11T00:31:10-04:00","id":18574}