{"type":"FeatureCollection","data_type":"Dataset","url_type":null,"permissions":[{"permissions":{"download":true,"view":true},"group_id":"everyone"}],"classification":null,"title":"arlington construction","count":129,"stream_id":18708,"contributor":{"url":"http://geocommons.com/users/695","name":"Bill"},"data_attributes":null,"calculation_params":null,"icon_link":null,"link":"http://geocommons.com/overlays/18708.json","extent":[-77.3123,37.2864,-77.0554,38.9253],"geometry_types":["point"],"unique_name":null,"name":"arlington construction","feature_count":129,"description":"","next_feature":null,"is_raster":false,"short_classification":"Y","stats":{"residential units":{"max":17.0,"mean":1.13953488372093,"variance":2.01162790697674,"stdev":1.41831869020215,"min":1.0,"median":1.0},"hotel rooms":{"max":0.0,"mean":0.0,"variance":0.0,"stdev":0.0,"min":0.0,"median":0.0},"sf office":{"max":0.0,"mean":0.0,"variance":0.0,"stdev":0.0,"min":0.0,"median":0.0},"sf other":{"max":0.0,"mean":0.0,"variance":0.0,"stdev":0.0,"min":0.0,"median":0.0},"geo_score":{"max":0.827,"mean":0.769031007751937,"variance":0.00839310840600775,"stdev":0.0916139094570674,"min":0.368,"median":0.807},"sf retail":{"max":0.0,"mean":0.0,"variance":0.0,"stdev":0.0,"min":0.0,"median":0.0}},"features":[{"properties":{"city":"Arlington","residential units":1.0,"hotel rooms":0.0,"start date":{"end_time":"2008/10/20 00:00:01 -0400","original":"Mon Oct 20 00:00:00 -0400 2008","granularity":"sec","time":"2008/10/20 00:00:00 -0400"},"sf office":0.0,"sf other":0.0,"geo_score":0.827,"id":"a675rif1oq2e","sf retail":0.0,"address":"3033 N Florida St","geo_precision":"range","state":"Virginia"},"type":"Feature","geometry":{"type":"Point","coordinates":[-77.139517,38.904523]}},{"properties":{"city":"Arlington","residential units":1.0,"hotel rooms":0.0,"start date":{"end_time":"2008/03/12 00:00:01 -0400","original":"Wed Mar 12 00:00:00 -0400 2008","granularity":"sec","time":"2008/03/12 00:00:00 -0400"},"sf office":0.0,"sf other":0.0,"geo_score":0.68,"id":"a675ridvey1w","sf retail":0.0,"address":"2203 N Greenbrier St","geo_precision":"street","state":"Virginia"},"type":"Feature","geometry":{"type":"Point","coordinates":[-77.132497,38.893851]}},{"properties":{"city":"Arlington","residential units":1.0,"hotel rooms":0.0,"start date":{"end_time":"2008/03/12 00:00:01 -0400","original":"Wed Mar 12 00:00:00 -0400 2008","granularity":"sec","time":"2008/03/12 00:00:00 -0400"},"sf office":0.0,"sf other":0.0,"geo_score":0.827,"id":"a675rinav4v2","sf retail":0.0,"address":"823 N Harrison St","geo_precision":"range","state":"Virginia"},"type":"Feature","geometry":{"type":"Point","coordinates":[-77.126083,38.876846]}},{"properties":{"city":"Arlington","residential units":1.0,"hotel rooms":0.0,"start date":{"end_time":"2008/04/11 00:00:01 -0400","original":"Fri Apr 11 00:00:00 -0400 2008","granularity":"sec","time":"2008/04/11 00:00:00 -0400"},"sf office":0.0,"sf other":0.0,"geo_score":0.743,"id":"a675ribmrw5a","sf retail":0.0,"address":"2704 25th St N","geo_precision":"range","state":"Virginia"},"type":"Feature","geometry":{"type":"Point","coordinates":[-77.094148,38.902348]}},{"properties":{"city":"Arlington","residential units":1.0,"hotel rooms":0.0,"start date":{"end_time":"2008/05/07 00:00:01 -0400","original":"Wed May 07 00:00:00 -0400 2008","granularity":"sec","time":"2008/05/07 00:00:00 -0400"},"sf office":0.0,"sf other":0.0,"geo_score":0.743,"id":"a675rifhqwwj","sf retail":0.0,"address":"5624 27th St N","geo_precision":"range","state":"Virginia"},"type":"Feature","geometry":{"type":"Point","coordinates":[-77.143491,38.898545]}},{"properties":{"city":"Arlington","residential units":1.0,"hotel rooms":0.0,"start date":{"end_time":"2008/05/07 00:00:01 -0400","original":"Wed May 07 00:00:00 -0400 2008","granularity":"sec","time":"2008/05/07 00:00:00 -0400"},"sf office":0.0,"sf other":0.0,"geo_score":0.743,"id":"a675ricdsjdt","sf retail":0.0,"address":"6248 23rd St N","geo_precision":"range","state":"Virginia"},"type":"Feature","geometry":{"type":"Point","coordinates":[-77.152335,38.891073]}},{"properties":{"city":"Arlington","residential units":1.0,"hotel rooms":0.0,"start date":{"end_time":"2008/05/22 00:00:01 -0400","original":"Thu May 22 00:00:00 -0400 2008","granularity":"sec","time":"2008/05/22 00:00:00 -0400"},"sf office":0.0,"sf other":0.0,"geo_score":0.743,"id":"a675rick0krs","sf retail":0.0,"address":"4614 36th St N","geo_precision":"range","state":"Virginia"},"type":"Feature","geometry":{"type":"Point","coordinates":[-77.131705,38.915446]}},{"properties":{"city":"Arlington","residential units":1.0,"hotel rooms":0.0,"start date":{"end_time":"2008/06/13 00:00:01 -0400","original":"Fri Jun 13 00:00:00 -0400 2008","granularity":"sec","time":"2008/06/13 00:00:00 -0400"},"sf office":0.0,"sf other":0.0,"geo_score":0.827,"id":"a675ridi0ica","sf retail":0.0,"address":"1048 S Edison St","geo_precision":"range","state":"Virginia"},"type":"Feature","geometry":{"type":"Point","coordinates":[-77.112477,38.853003]}},{"properties":{"city":"Arlington","residential units":1.0,"hotel rooms":0.0,"start date":{"end_time":"2008/06/13 00:00:01 -0400","original":"Fri Jun 13 00:00:00 -0400 2008","granularity":"sec","time":"2008/06/13 00:00:00 -0400"},"sf office":0.0,"sf other":0.0,"geo_score":0.743,"id":"a675rikb5efr","sf retail":0.0,"address":"4614 19th St N","geo_precision":"range","state":"Virginia"},"type":"Feature","geometry":{"type":"Point","coordinates":[-77.118606,38.89347]}},{"properties":{"city":"Arlington","residential units":1.0,"hotel rooms":0.0,"start date":{"end_time":"2008/06/26 00:00:01 -0400","original":"Thu Jun 26 00:00:00 -0400 2008","granularity":"sec","time":"2008/06/26 00:00:00 -0400"},"sf office":0.0,"sf other":0.0,"geo_score":0.827,"id":"a675ridwzvms","sf retail":0.0,"address":"2139 N Rolfe St","geo_precision":"range","state":"Virginia"},"type":"Feature","geometry":{"type":"Point","coordinates":[-77.080702,38.899516]}},{"properties":{"city":"Arlington","residential units":1.0,"hotel rooms":0.0,"start date":{"end_time":"2008/06/27 00:00:01 -0400","original":"Fri Jun 27 00:00:00 -0400 2008","granularity":"sec","time":"2008/06/27 00:00:00 -0400"},"sf office":0.0,"sf other":0.0,"geo_score":0.827,"id":"a675riqojq10","sf retail":0.0,"address":"2143 N Rolfe St","geo_precision":"range","state":"Virginia"},"type":"Feature","geometry":{"type":"Point","coordinates":[-77.080704,38.899535]}},{"properties":{"city":"Arlington","residential units":1.0,"hotel rooms":0.0,"start date":{"end_time":"2008/06/27 00:00:01 -0400","original":"Fri Jun 27 00:00:00 -0400 2008","granularity":"sec","time":"2008/06/27 00:00:00 -0400"},"sf office":0.0,"sf other":0.0,"geo_score":0.743,"id":"a675rihcrgw2","sf retail":0.0,"address":"5027 35th St N","geo_precision":"range","state":"Virginia"},"type":"Feature","geometry":{"type":"Point","coordinates":[-77.140251,38.913393]}},{"properties":{"city":"Arlington","residential units":1.0,"hotel rooms":0.0,"start date":{"end_time":"2008/07/09 00:00:01 -0400","original":"Wed Jul 09 00:00:00 -0400 2008","granularity":"sec","time":"2008/07/09 00:00:00 -0400"},"sf office":0.0,"sf other":0.0,"geo_score":0.827,"id":"a675rippg9nm","sf retail":0.0,"address":"1504 N Johnson St","geo_precision":"range","state":"Virginia"},"type":"Feature","geometry":{"type":"Point","coordinates":[-77.099973,38.889239]}},{"properties":{"city":"Arlington","residential units":1.0,"hotel rooms":0.0,"start date":{"end_time":"2008/07/11 00:00:01 -0400","original":"Fri Jul 11 00:00:00 -0400 2008","granularity":"sec","time":"2008/07/11 00:00:00 -0400"},"sf office":0.0,"sf other":0.0,"geo_score":0.827,"id":"a675rigoyay5","sf retail":0.0,"address":"3328 N Vermont St","geo_precision":"range","state":"Virginia"},"type":"Feature","geometry":{"type":"Point","coordinates":[-77.124635,38.914435]}},{"properties":{"city":"Arlington","residential units":1.0,"hotel rooms":0.0,"start date":{"end_time":"2008/07/14 00:00:01 -0400","original":"Mon Jul 14 00:00:00 -0400 2008","granularity":"sec","time":"2008/07/14 00:00:00 -0400"},"sf office":0.0,"sf other":0.0,"geo_score":0.827,"id":"a675rif9eabe","sf retail":0.0,"address":"3101 N Taylor St","geo_precision":"range","state":"Virginia"},"type":"Feature","geometry":{"type":"Point","coordinates":[-77.117812,38.911485]}},{"properties":{"city":"Arlington","residential units":1.0,"hotel rooms":0.0,"start date":{"end_time":"2008/07/24 00:00:01 -0400","original":"Thu Jul 24 00:00:00 -0400 2008","granularity":"sec","time":"2008/07/24 00:00:00 -0400"},"sf office":0.0,"sf other":0.0,"geo_score":0.412,"id":"a675rim9ieo7","sf retail":0.0,"address":"5730 2","geo_precision":"city","state":"Virginia"},"type":"Feature","geometry":{"type":"Point","coordinates":[-77.099113,38.885484]}},{"properties":{"city":"Arlington","residential units":1.0,"hotel rooms":0.0,"start date":{"end_time":"2008/07/28 00:00:01 -0400","original":"Mon Jul 28 00:00:00 -0400 2008","granularity":"sec","time":"2008/07/28 00:00:00 -0400"},"sf office":0.0,"sf other":0.0,"geo_score":0.743,"id":"a675rilnsixy","sf retail":0.0,"address":"5324 27th St N","geo_precision":"range","state":"Virginia"},"type":"Feature","geometry":{"type":"Point","coordinates":[-77.139891,38.899725]}},{"properties":{"city":"Arlington","residential units":1.0,"hotel rooms":0.0,"start date":{"end_time":"2008/08/05 00:00:01 -0400","original":"Tue Aug 05 00:00:00 -0400 2008","granularity":"sec","time":"2008/08/05 00:00:00 -0400"},"sf office":0.0,"sf other":0.0,"geo_score":0.827,"id":"a675riolf789","sf retail":0.0,"address":"2125 N Rolfe St","geo_precision":"range","state":"Virginia"},"type":"Feature","geometry":{"type":"Point","coordinates":[-77.080692,38.899448]}},{"properties":{"city":"Arlington","residential units":1.0,"hotel rooms":0.0,"start date":{"end_time":"2008/08/08 00:00:01 -0400","original":"Fri Aug 08 00:00:00 -0400 2008","granularity":"sec","time":"2008/08/08 00:00:00 -0400"},"sf office":0.0,"sf other":0.0,"geo_score":0.743,"id":"a675rikiwzju","sf retail":0.0,"address":"2822 12th St S","geo_precision":"range","state":"Virginia"},"type":"Feature","geometry":{"type":"Point","coordinates":[-77.086116,38.860896]}},{"properties":{"city":"Arlington","residential units":1.0,"hotel rooms":0.0,"start date":{"end_time":"2008/08/25 00:00:01 -0400","original":"Mon Aug 25 00:00:00 -0400 2008","granularity":"sec","time":"2008/08/25 00:00:00 -0400"},"sf office":0.0,"sf other":0.0,"geo_score":0.827,"id":"a675ric9t7y4","sf retail":0.0,"address":"1149 N Ivanhoe St","geo_precision":"range","state":"Virginia"},"type":"Feature","geometry":{"type":"Point","coordinates":[-77.132253,38.883043]}},{"properties":{"city":"Arlington","residential units":1.0,"hotel rooms":0.0,"start date":{"end_time":"2008/08/27 00:00:01 -0400","original":"Wed Aug 27 00:00:00 -0400 2008","granularity":"sec","time":"2008/08/27 00:00:00 -0400"},"sf office":0.0,"sf other":0.0,"geo_score":0.827,"id":"a675rinxv694","sf retail":0.0,"address":"3427 N Utah St","geo_precision":"range","state":"Virginia"},"type":"Feature","geometry":{"type":"Point","coordinates":[-77.123608,38.91557]}},{"properties":{"city":"Arlington","residential units":1.0,"hotel rooms":0.0,"start date":{"end_time":"2008/09/04 00:00:01 -0400","original":"Thu Sep 04 00:00:00 -0400 2008","granularity":"sec","time":"2008/09/04 00:00:00 -0400"},"sf office":0.0,"sf other":0.0,"geo_score":0.743,"id":"a675riqtaznm","sf retail":0.0,"address":"5115 22nd St N","geo_precision":"range","state":"Virginia"},"type":"Feature","geometry":{"type":"Point","coordinates":[-77.130678,38.895238]}},{"properties":{"city":"Arlington","residential units":1.0,"hotel rooms":0.0,"start date":{"end_time":"2008/09/04 00:00:01 -0400","original":"Thu Sep 04 00:00:00 -0400 2008","granularity":"sec","time":"2008/09/04 00:00:00 -0400"},"sf office":0.0,"sf other":0.0,"geo_score":0.743,"id":"a675rifazviw","sf retail":0.0,"address":"5119 22nd St N","geo_precision":"range","state":"Virginia"},"type":"Feature","geometry":{"type":"Point","coordinates":[-77.130974,38.895165]}},{"properties":{"city":"Arlington","residential units":1.0,"hotel rooms":0.0,"start date":{"end_time":"2008/09/10 00:00:01 -0400","original":"Wed Sep 10 00:00:00 -0400 2008","granularity":"sec","time":"2008/09/10 00:00:00 -0400"},"sf office":0.0,"sf other":0.0,"geo_score":0.827,"id":"a675rilhdiuo","sf retail":0.0,"address":"1614 N Jackson St","geo_precision":"range","state":"Virginia"},"type":"Feature","geometry":{"type":"Point","coordinates":[-77.099537,38.890412]}},{"properties":{"city":"Arlington","residential units":1.0,"hotel rooms":0.0,"start date":{"end_time":"2008/09/12 00:00:01 -0400","original":"Fri Sep 12 00:00:00 -0400 2008","granularity":"sec","time":"2008/09/12 00:00:00 -0400"},"sf office":0.0,"sf other":0.0,"geo_score":0.827,"id":"a675rirkm91j","sf retail":0.0,"address":"2700 N Buchanan St","geo_precision":"range","state":"Virginia"},"type":"Feature","geometry":{"type":"Point","coordinates":[-77.129533,38.903254]}},{"properties":{"city":"Arlington","residential units":1.0,"hotel rooms":0.0,"start date":{"end_time":"2008/09/18 00:00:01 -0400","original":"Thu Sep 18 00:00:00 -0400 2008","granularity":"sec","time":"2008/09/18 00:00:00 -0400"},"sf office":0.0,"sf other":0.0,"geo_score":0.827,"id":"a675rij4zvpt","sf retail":0.0,"address":"2755 N Quincy St","geo_precision":"range","state":"Virginia"},"type":"Feature","geometry":{"type":"Point","coordinates":[-77.102124,38.907824]}},{"properties":{"city":"Arlington","residential units":1.0,"hotel rooms":0.0,"start date":{"end_time":"2008/09/24 00:00:01 -0400","original":"Wed Sep 24 00:00:00 -0400 2008","granularity":"sec","time":"2008/09/24 00:00:00 -0400"},"sf office":0.0,"sf other":0.0,"geo_score":0.743,"id":"a675rigo5ob0","sf retail":0.0,"address":"4722 33rd St N","geo_precision":"range","state":"Virginia"},"type":"Feature","geometry":{"type":"Point","coordinates":[-77.131805,38.910084]}},{"properties":{"city":"Arlington","residential units":1.0,"hotel rooms":0.0,"start date":{"end_time":"2008/09/25 00:00:01 -0400","original":"Thu Sep 25 00:00:00 -0400 2008","granularity":"sec","time":"2008/09/25 00:00:00 -0400"},"sf office":0.0,"sf other":0.0,"geo_score":0.827,"id":"a675riphozc7","sf retail":0.0,"address":"1326 S Quincy St","geo_precision":"range","state":"Virginia"},"type":"Feature","geometry":{"type":"Point","coordinates":[-77.097762,38.856742]}},{"properties":{"city":"Arlington","residential units":1.0,"hotel rooms":0.0,"start date":{"end_time":"2008/10/06 00:00:01 -0400","original":"Mon Oct 06 00:00:00 -0400 2008","granularity":"sec","time":"2008/10/06 00:00:00 -0400"},"sf office":0.0,"sf other":0.0,"geo_score":0.827,"id":"a675rii92jf0","sf retail":0.0,"address":"127 S Highland St","geo_precision":"range","state":"Virginia"},"type":"Feature","geometry":{"type":"Point","coordinates":[-77.091332,38.871152]}},{"properties":{"city":"Arlington","residential units":1.0,"hotel rooms":0.0,"start date":{"end_time":"2008/10/06 00:00:01 -0400","original":"Mon Oct 06 00:00:00 -0400 2008","granularity":"sec","time":"2008/10/06 00:00:00 -0400"},"sf office":0.0,"sf other":0.0,"geo_score":0.827,"id":"a675rihb6oux","sf retail":0.0,"address":"131 S Highland St","geo_precision":"range","state":"Virginia"},"type":"Feature","geometry":{"type":"Point","coordinates":[-77.091315,38.871099]}},{"properties":{"city":"Arlington","residential units":1.0,"hotel rooms":0.0,"start date":{"end_time":"2008/10/10 00:00:01 -0400","original":"Fri Oct 10 00:00:00 -0400 2008","granularity":"sec","time":"2008/10/10 00:00:00 -0400"},"sf office":0.0,"sf other":0.0,"geo_score":0.806,"id":"a675rimxau6g","sf retail":0.0,"address":"4910 Little Falls Rd","geo_precision":"range","state":"Virginia"},"type":"Feature","geometry":{"type":"Point","coordinates":[-77.13746,38.908889]}},{"properties":{"city":"Arlington","residential units":1.0,"hotel rooms":0.0,"start date":{"end_time":"2004/09/21 00:00:01 -0400","original":"Tue Sep 21 00:00:00 -0400 2004","granularity":"sec","time":"2004/09/21 00:00:00 -0400"},"sf office":0.0,"sf other":0.0,"geo_score":0.827,"id":"a675riqsqqaw","sf retail":0.0,"address":"2354 N Kensington St","geo_precision":"range","state":"Virginia"},"type":"Feature","geometry":{"type":"Point","coordinates":[-77.141207,38.893787]}},{"properties":{"city":"Arlington","residential units":1.0,"hotel rooms":0.0,"start date":{"end_time":"2008/10/15 00:00:01 -0400","original":"Wed Oct 15 00:00:00 -0400 2008","granularity":"sec","time":"2008/10/15 00:00:00 -0400"},"sf office":0.0,"sf other":0.0,"geo_score":0.412,"id":"a675rimc3bj3","sf retail":0.0,"address":"3805 2","geo_precision":"city","state":"Virginia"},"type":"Feature","geometry":{"type":"Point","coordinates":[-77.099113,38.885484]}},{"properties":{"city":"Arlington","residential units":1.0,"hotel rooms":0.0,"start date":{"end_time":"2008/10/16 00:00:01 -0400","original":"Thu Oct 16 00:00:00 -0400 2008","granularity":"sec","time":"2008/10/16 00:00:00 -0400"},"sf office":0.0,"sf other":0.0,"geo_score":0.827,"id":"a675ril2lf2m","sf retail":0.0,"address":"1609 N Roosevelt St","geo_precision":"range","state":"Virginia"},"type":"Feature","geometry":{"type":"Point","coordinates":[-77.154857,38.882325]}},{"properties":{"city":"Arlington","residential units":1.0,"hotel rooms":0.0,"start date":{"end_time":"2008/03/12 00:00:01 -0400","original":"Wed Mar 12 00:00:00 -0400 2008","granularity":"sec","time":"2008/03/12 00:00:00 -0400"},"sf office":0.0,"sf other":0.0,"geo_score":0.827,"id":"a675rilqgdoh","sf retail":0.0,"address":"1163 N Ivanhoe St","geo_precision":"range","state":"Virginia"},"type":"Feature","geometry":{"type":"Point","coordinates":[-77.132385,38.883292]}},{"properties":{"city":"Arlington","residential units":1.0,"hotel rooms":0.0,"start date":{"end_time":"2008/10/31 00:00:01 -0400","original":"Fri Oct 31 00:00:00 -0400 2008","granularity":"sec","time":"2008/10/31 00:00:00 -0400"},"sf office":0.0,"sf other":0.0,"geo_score":0.827,"id":"a675ridmlcn4","sf retail":0.0,"address":"2712 N Buchanan St","geo_precision":"range","state":"Virginia"},"type":"Feature","geometry":{"type":"Point","coordinates":[-77.129554,38.903297]}},{"properties":{"city":"Arlington","residential units":1.0,"hotel rooms":0.0,"start date":{"end_time":"2008/11/18 00:00:01 -0500","original":"Tue Nov 18 00:00:00 -0500 2008","granularity":"sec","time":"2008/11/18 00:00:00 -0500"},"sf office":0.0,"sf other":0.0,"geo_score":0.743,"id":"a675rijmyy7k","sf retail":0.0,"address":"3815 14th St S","geo_precision":"range","state":"Virginia"},"type":"Feature","geometry":{"type":"Point","coordinates":[-77.09492,38.856417]}},{"properties":{"city":"Arlington","residential units":1.0,"hotel rooms":0.0,"start date":{"end_time":"2008/11/19 00:00:01 -0500","original":"Wed Nov 19 00:00:00 -0500 2008","granularity":"sec","time":"2008/11/19 00:00:00 -0500"},"sf office":0.0,"sf other":0.0,"geo_score":0.827,"id":"a675ric736id","sf retail":0.0,"address":"515 N Lincoln St","geo_precision":"range","state":"Virginia"},"type":"Feature","geometry":{"type":"Point","coordinates":[-77.099937,38.878144]}},{"properties":{"city":"Arlington","residential units":1.0,"hotel rooms":0.0,"start date":{"end_time":"2008/11/20 00:00:01 -0500","original":"Thu Nov 20 00:00:00 -0500 2008","granularity":"sec","time":"2008/11/20 00:00:00 -0500"},"sf office":0.0,"sf other":0.0,"geo_score":0.368,"id":"a675ririejef","sf retail":0.0,"address":"412 Chain Bridge Rd","geo_precision":"street","state":"Virginia"},"type":"Feature","geometry":{"type":"Point","coordinates":[-77.312285,37.286387]}},{"properties":{"city":"Arlington","residential units":1.0,"hotel rooms":0.0,"start date":{"end_time":"2008/11/26 00:00:01 -0500","original":"Wed Nov 26 00:00:00 -0500 2008","granularity":"sec","time":"2008/11/26 00:00:00 -0500"},"sf office":0.0,"sf other":0.0,"geo_score":0.743,"id":"a675rihew6o9","sf retail":0.0,"address":"2507 11th St N","geo_precision":"range","state":"Virginia"},"type":"Feature","geometry":{"type":"Point","coordinates":[-77.08818,38.886171]}},{"properties":{"city":"Arlington","residential units":1.0,"hotel rooms":0.0,"start date":{"end_time":"2008/12/01 00:00:01 -0500","original":"Mon Dec 01 00:00:00 -0500 2008","granularity":"sec","time":"2008/12/01 00:00:00 -0500"},"sf office":0.0,"sf other":0.0,"geo_score":0.827,"id":"a675rin7stqd","sf retail":0.0,"address":"1200 N Irving St","geo_precision":"range","state":"Virginia"},"type":"Feature","geometry":{"type":"Point","coordinates":[-77.097342,38.886656]}},{"properties":{"city":"Arlington","residential units":1.0,"hotel rooms":0.0,"start date":{"end_time":"2008/12/02 00:00:01 -0500","original":"Tue Dec 02 00:00:00 -0500 2008","granularity":"sec","time":"2008/12/02 00:00:00 -0500"},"sf office":0.0,"sf other":0.0,"geo_score":0.827,"id":"a675riesj8kq","sf retail":0.0,"address":"2032 S Lowell St","geo_precision":"range","state":"Virginia"},"type":"Feature","geometry":{"type":"Point","coordinates":[-77.087994,38.850999]}},{"properties":{"city":"Arlington","residential units":1.0,"hotel rooms":0.0,"start date":{"end_time":"2008/12/02 00:00:01 -0500","original":"Tue Dec 02 00:00:00 -0500 2008","granularity":"sec","time":"2008/12/02 00:00:00 -0500"},"sf office":0.0,"sf other":0.0,"geo_score":0.827,"id":"a675rigeqg6w","sf retail":0.0,"address":"2034 S Lowell St","geo_precision":"range","state":"Virginia"},"type":"Feature","geometry":{"type":"Point","coordinates":[-77.087996,38.850974]}},{"properties":{"city":"Arlington","residential units":1.0,"hotel rooms":0.0,"start date":{"end_time":"2008/12/05 00:00:01 -0500","original":"Fri Dec 05 00:00:00 -0500 2008","granularity":"sec","time":"2008/12/05 00:00:00 -0500"},"sf office":0.0,"sf other":0.0,"geo_score":0.807,"id":"a675riqwavkj","sf retail":0.0,"address":"2915 John Marshall Dr","geo_precision":"range","state":"Virginia"},"type":"Feature","geometry":{"type":"Point","coordinates":[-77.148578,38.900696]}},{"properties":{"city":"Arlington","residential units":1.0,"hotel rooms":0.0,"start date":{"end_time":"2008/12/10 00:00:01 -0500","original":"Wed Dec 10 00:00:00 -0500 2008","granularity":"sec","time":"2008/12/10 00:00:00 -0500"},"sf office":0.0,"sf other":0.0,"geo_score":0.827,"id":"a675rilyw59b","sf retail":0.0,"address":"145 S Cleveland St","geo_precision":"range","state":"Virginia"},"type":"Feature","geometry":{"type":"Point","coordinates":[-77.086644,38.871783]}},{"properties":{"city":"Arlington","residential units":1.0,"hotel rooms":0.0,"start date":{"end_time":"2008/12/19 00:00:01 -0500","original":"Fri Dec 19 00:00:00 -0500 2008","granularity":"sec","time":"2008/12/19 00:00:00 -0500"},"sf office":0.0,"sf other":0.0,"geo_score":0.827,"id":"a675ricrhgig","sf retail":0.0,"address":"1730 N Harrison St","geo_precision":"range","state":"Virginia"},"type":"Feature","geometry":{"type":"Point","coordinates":[-77.131558,38.889223]}},{"properties":{"city":"Arlington","residential units":1.0,"hotel rooms":0.0,"start date":{"end_time":"2009/01/05 00:00:01 -0500","original":"Mon Jan 05 00:00:00 -0500 2009","granularity":"sec","time":"2009/01/05 00:00:00 -0500"},"sf office":0.0,"sf other":0.0,"geo_score":0.827,"id":"a675riin5m7v","sf retail":0.0,"address":"407 N Fillmore St","geo_precision":"range","state":"Virginia"},"type":"Feature","geometry":{"type":"Point","coordinates":[-77.091618,38.878837]}},{"properties":{"city":"Arlington","residential units":1.0,"hotel rooms":0.0,"start date":{"end_time":"2009/01/09 00:00:01 -0500","original":"Fri Jan 09 00:00:00 -0500 2009","granularity":"sec","time":"2009/01/09 00:00:00 -0500"},"sf office":0.0,"sf other":0.0,"geo_score":0.743,"id":"a675rickhidg","sf retail":0.0,"address":"4211 15th St N","geo_precision":"range","state":"Virginia"},"type":"Feature","geometry":{"type":"Point","coordinates":[-77.11161,38.889163]}},{"properties":{"city":"Arlington","residential units":1.0,"hotel rooms":0.0,"start date":{"end_time":"2009/01/09 00:00:01 -0500","original":"Fri Jan 09 00:00:00 -0500 2009","granularity":"sec","time":"2009/01/09 00:00:00 -0500"},"sf office":0.0,"sf other":0.0,"geo_score":0.743,"id":"a675rim6hc2b","sf retail":0.0,"address":"4215 15th St N","geo_precision":"range","state":"Virginia"},"type":"Feature","geometry":{"type":"Point","coordinates":[-77.111708,38.88914]}},{"properties":{"city":"Arlington","residential units":1.0,"hotel rooms":0.0,"start date":{"end_time":"2009/01/13 00:00:01 -0500","original":"Tue Jan 13 00:00:00 -0500 2009","granularity":"sec","time":"2009/01/13 00:00:00 -0500"},"sf office":0.0,"sf other":0.0,"geo_score":0.827,"id":"a675rioxkfww","sf retail":0.0,"address":"3518 N Dickerson St","geo_precision":"range","state":"Virginia"},"type":"Feature","geometry":{"type":"Point","coordinates":[-77.141311,38.914043]}},{"properties":{"city":"Arlington","residential units":1.0,"hotel rooms":0.0,"start date":{"end_time":"2009/01/13 00:00:01 -0500","original":"Tue Jan 13 00:00:00 -0500 2009","granularity":"sec","time":"2009/01/13 00:00:00 -0500"},"sf office":0.0,"sf other":0.0,"geo_score":0.827,"id":"a675ridzbsjy","sf retail":0.0,"address":"3547 N Nottingham St","geo_precision":"range","state":"Virginia"},"type":"Feature","geometry":{"type":"Point","coordinates":[-77.153998,38.905766]}},{"properties":{"city":"Arlington","residential units":1.0,"hotel rooms":0.0,"start date":{"end_time":"2009/01/13 00:00:01 -0500","original":"Tue Jan 13 00:00:00 -0500 2009","granularity":"sec","time":"2009/01/13 00:00:00 -0500"},"sf office":0.0,"sf other":0.0,"geo_score":0.743,"id":"a675riez4wq8","sf retail":0.0,"address":"5116 27th St N","geo_precision":"range","state":"Virginia"},"type":"Feature","geometry":{"type":"Point","coordinates":[-77.136887,38.901301]}},{"properties":{"city":"Arlington","residential units":1.0,"hotel rooms":0.0,"start date":{"end_time":"2009/02/06 00:00:01 -0500","original":"Fri Feb 06 00:00:00 -0500 2009","granularity":"sec","time":"2009/02/06 00:00:00 -0500"},"sf office":0.0,"sf other":0.0,"geo_score":0.729,"id":"a675rift7po2","sf retail":0.0,"address":"5716 5th St N","geo_precision":"range","state":"Virginia"},"type":"Feature","geometry":{"type":"Point","coordinates":[-77.128777,38.871572]}},{"properties":{"city":"Arlington","residential units":1.0,"hotel rooms":0.0,"start date":{"end_time":"2009/02/06 00:00:01 -0500","original":"Fri Feb 06 00:00:00 -0500 2009","granularity":"sec","time":"2009/02/06 00:00:00 -0500"},"sf office":0.0,"sf other":0.0,"geo_score":0.729,"id":"a675rifbtfy1","sf retail":0.0,"address":"5718 5th St N","geo_precision":"range","state":"Virginia"},"type":"Feature","geometry":{"type":"Point","coordinates":[-77.128787,38.871567]}},{"properties":{"city":"Arlington","residential units":1.0,"hotel rooms":0.0,"start date":{"end_time":"2009/02/11 00:00:01 -0500","original":"Wed Feb 11 00:00:00 -0500 2009","granularity":"sec","time":"2009/02/11 00:00:00 -0500"},"sf office":0.0,"sf other":0.0,"geo_score":0.827,"id":"a675rifx9por","sf retail":0.0,"address":"3800 N Albemarle St","geo_precision":"range","state":"Virginia"},"type":"Feature","geometry":{"type":"Point","coordinates":[-77.138541,38.918424]}},{"properties":{"city":"Arlington","residential units":1.0,"hotel rooms":0.0,"start date":{"end_time":"2009/02/23 00:00:01 -0500","original":"Mon Feb 23 00:00:00 -0500 2009","granularity":"sec","time":"2009/02/23 00:00:00 -0500"},"sf office":0.0,"sf other":0.0,"geo_score":0.743,"id":"a675riq30sui","sf retail":0.0,"address":"4802 37th St N","geo_precision":"range","state":"Virginia"},"type":"Feature","geometry":{"type":"Point","coordinates":[-77.137704,38.916599]}},{"properties":{"city":"Arlington","residential units":1.0,"hotel rooms":0.0,"start date":{"end_time":"2009/03/04 00:00:01 -0500","original":"Wed Mar 04 00:00:00 -0500 2009","granularity":"sec","time":"2009/03/04 00:00:00 -0500"},"sf office":0.0,"sf other":0.0,"geo_score":0.827,"id":"a675rih26ju2","sf retail":0.0,"address":"1331 N Irving St","geo_precision":"range","state":"Virginia"},"type":"Feature","geometry":{"type":"Point","coordinates":[-77.098481,38.887537]}},{"properties":{"city":"Arlington","residential units":1.0,"hotel rooms":0.0,"start date":{"end_time":"2009/03/04 00:00:01 -0500","original":"Wed Mar 04 00:00:00 -0500 2009","granularity":"sec","time":"2009/03/04 00:00:00 -0500"},"sf office":0.0,"sf other":0.0,"geo_score":0.807,"id":"a675rijgerbw","sf retail":0.0,"address":"3101 John Marshall Dr","geo_precision":"range","state":"Virginia"},"type":"Feature","geometry":{"type":"Point","coordinates":[-77.149652,38.902662]}},{"properties":{"city":"Arlington","residential units":1.0,"hotel rooms":0.0,"start date":{"end_time":"2009/03/12 00:00:01 -0400","original":"Thu Mar 12 00:00:00 -0400 2009","granularity":"sec","time":"2009/03/12 00:00:00 -0400"},"sf office":0.0,"sf other":0.0,"geo_score":0.743,"id":"a675rid3pcr9","sf retail":0.0,"address":"5008 15th St N","geo_precision":"range","state":"Virginia"},"type":"Feature","geometry":{"type":"Point","coordinates":[-77.12407,38.887243]}},{"properties":{"city":"Arlington","residential units":1.0,"hotel rooms":0.0,"start date":{"end_time":"2009/03/13 00:00:01 -0400","original":"Fri Mar 13 00:00:00 -0400 2009","granularity":"sec","time":"2009/03/13 00:00:00 -0400"},"sf office":0.0,"sf other":0.0,"geo_score":0.743,"id":"a675rildp4bl","sf retail":0.0,"address":"2608 24th St N","geo_precision":"range","state":"Virginia"},"type":"Feature","geometry":{"type":"Point","coordinates":[-77.091988,38.900711]}},{"properties":{"city":"Arlington","residential units":1.0,"hotel rooms":0.0,"start date":{"end_time":"2009/03/13 00:00:01 -0400","original":"Fri Mar 13 00:00:00 -0400 2009","granularity":"sec","time":"2009/03/13 00:00:00 -0400"},"sf office":0.0,"sf other":0.0,"geo_score":0.743,"id":"a675rifj84sc","sf retail":0.0,"address":"2612 24th St N","geo_precision":"range","state":"Virginia"},"type":"Feature","geometry":{"type":"Point","coordinates":[-77.092044,38.900709]}},{"properties":{"city":"Arlington","residential units":1.0,"hotel rooms":0.0,"start date":{"end_time":"2009/03/16 00:00:01 -0400","original":"Mon Mar 16 00:00:00 -0400 2009","granularity":"sec","time":"2009/03/16 00:00:00 -0400"},"sf office":0.0,"sf other":0.0,"geo_score":0.827,"id":"a675ric81m30","sf retail":0.0,"address":"936 N Danville St","geo_precision":"range","state":"Virginia"},"type":"Feature","geometry":{"type":"Point","coordinates":[-77.089782,38.883516]}},{"properties":{"city":"Arlington","residential units":1.0,"hotel rooms":0.0,"start date":{"end_time":"2009/03/17 00:00:01 -0400","original":"Tue Mar 17 00:00:00 -0400 2009","granularity":"sec","time":"2009/03/17 00:00:00 -0400"},"sf office":0.0,"sf other":0.0,"geo_score":0.827,"id":"a675riiag7p1","sf retail":0.0,"address":"1736 N Quebec St","geo_precision":"range","state":"Virginia"},"type":"Feature","geometry":{"type":"Point","coordinates":[-77.109035,38.892104]}},{"properties":{"city":"Arlington","residential units":1.0,"hotel rooms":0.0,"start date":{"end_time":"2009/03/19 00:00:01 -0400","original":"Thu Mar 19 00:00:00 -0400 2009","granularity":"sec","time":"2009/03/19 00:00:00 -0400"},"sf office":0.0,"sf other":0.0,"geo_score":0.827,"id":"a675rilrgyxs","sf retail":0.0,"address":"635 N Jackson St","geo_precision":"range","state":"Virginia"},"type":"Feature","geometry":{"type":"Point","coordinates":[-77.098648,38.880341]}},{"properties":{"city":"Arlington","residential units":1.0,"hotel rooms":0.0,"start date":{"end_time":"1969/12/31 19:00:01 -0500","original":"Fri Mar 20 00:00:00 -0400 2009","granularity":"usec","time":"1969/12/31 19:00:00 -0500"},"sf office":0.0,"sf other":0.0,"geo_score":0.743,"id":"a675rifr692w","sf retail":0.0,"address":"4650 35th St N","geo_precision":"range","state":"Virginia"},"type":"Feature","geometry":{"type":"Point","coordinates":[-77.129062,38.913834]}},{"properties":{"city":"Arlington","residential units":1.0,"hotel rooms":0.0,"start date":{"end_time":"2009/03/24 00:00:01 -0400","original":"Tue Mar 24 00:00:00 -0400 2009","granularity":"sec","time":"2009/03/24 00:00:00 -0400"},"sf office":0.0,"sf other":0.0,"geo_score":0.827,"id":"a675rifuzqxm","sf retail":0.0,"address":"1611 N Taylor St","geo_precision":"range","state":"Virginia"},"type":"Feature","geometry":{"type":"Point","coordinates":[-77.112973,38.890588]}},{"properties":{"city":"Arlington","residential units":1.0,"hotel rooms":0.0,"start date":{"end_time":"2009/03/24 00:00:01 -0400","original":"Tue Mar 24 00:00:00 -0400 2009","granularity":"sec","time":"2009/03/24 00:00:00 -0400"},"sf office":0.0,"sf other":0.0,"geo_score":0.743,"id":"a675rilaa9yy","sf retail":0.0,"address":"6719 19th rd N","geo_precision":"range","state":"Virginia"},"type":"Feature","geometry":{"type":"Point","coordinates":[-77.158484,38.885614]}},{"properties":{"city":"Arlington","residential units":1.0,"hotel rooms":0.0,"start date":{"end_time":"2009/03/25 00:00:01 -0400","original":"Wed Mar 25 00:00:00 -0400 2009","granularity":"sec","time":"2009/03/25 00:00:00 -0400"},"sf office":0.0,"sf other":0.0,"geo_score":0.743,"id":"a675ripogiao","sf retail":0.0,"address":"628 25th St S","geo_precision":"range","state":"Virginia"},"type":"Feature","geometry":{"type":"Point","coordinates":[-77.055846,38.851467]}},{"properties":{"city":"Arlington","residential units":1.0,"hotel rooms":0.0,"start date":{"end_time":"2008/03/12 00:00:01 -0400","original":"Wed Mar 12 00:00:00 -0400 2008","granularity":"sec","time":"2008/03/12 00:00:00 -0400"},"sf office":0.0,"sf other":0.0,"geo_score":0.827,"id":"a675ridvc530","sf retail":0.0,"address":"1159 N Ivanhoe St","geo_precision":"range","state":"Virginia"},"type":"Feature","geometry":{"type":"Point","coordinates":[-77.132349,38.883222]}},{"properties":{"city":"Arlington","residential units":1.0,"hotel rooms":0.0,"start date":{"end_time":"2008/02/26 00:00:01 -0500","original":"Tue Feb 26 00:00:00 -0500 2008","granularity":"sec","time":"2008/02/26 00:00:00 -0500"},"sf office":0.0,"sf other":0.0,"geo_score":0.743,"id":"a675rirmb9be","sf retail":0.0,"address":"5330 27th St N","geo_precision":"range","state":"Virginia"},"type":"Feature","geometry":{"type":"Point","coordinates":[-77.140025,38.899667]}},{"properties":{"city":"Arlington","residential units":1.0,"hotel rooms":0.0,"start date":{"end_time":"2008/02/21 00:00:01 -0500","original":"Thu Feb 21 00:00:00 -0500 2008","granularity":"sec","time":"2008/02/21 00:00:00 -0500"},"sf office":0.0,"sf other":0.0,"geo_score":0.656,"id":"a675rimqeqob","sf retail":0.0,"address":"2207 N Greenbrier St","geo_precision":"street","state":"Virginia"},"type":"Feature","geometry":{"type":"Point","coordinates":[-77.132497,38.893851]}},{"properties":{"city":"Arlington","residential units":1.0,"hotel rooms":0.0,"start date":{"end_time":"2004/09/21 00:00:01 -0400","original":"Tue Sep 21 00:00:00 -0400 2004","granularity":"sec","time":"2004/09/21 00:00:00 -0400"},"sf office":0.0,"sf other":0.0,"geo_score":0.827,"id":"a675rio81xll","sf retail":0.0,"address":"2358 N Kensington St","geo_precision":"range","state":"Virginia"},"type":"Feature","geometry":{"type":"Point","coordinates":[-77.141223,38.893821]}},{"properties":{"city":"Arlington","residential units":1.0,"hotel rooms":0.0,"start date":{"end_time":"2007/10/31 00:00:01 -0400","original":"Wed Oct 31 00:00:00 -0400 2007","granularity":"sec","time":"2007/10/31 00:00:00 -0400"},"sf office":0.0,"sf other":0.0,"geo_score":0.743,"id":"a675ripox8nt","sf retail":0.0,"address":"1110 18th St S","geo_precision":"range","state":"Virginia"},"type":"Feature","geometry":{"type":"Point","coordinates":[-77.065293,38.856856]}},{"properties":{"city":"Arlington","residential units":1.0,"hotel rooms":0.0,"start date":{"end_time":"1969/12/31 19:00:01 -0500","original":"Thu Oct 25 00:00:00 -0400 2007","granularity":"usec","time":"1969/12/31 19:00:00 -0500"},"sf office":0.0,"sf other":0.0,"geo_score":0.743,"id":"a675rir82qri","sf retail":0.0,"address":"700 24th St S","geo_precision":"range","state":"Virginia"},"type":"Feature","geometry":{"type":"Point","coordinates":[-77.057535,38.852326]}},{"properties":{"city":"Arlington","residential units":1.0,"hotel rooms":0.0,"start date":{"end_time":"2007/10/17 00:00:01 -0400","original":"Wed Oct 17 00:00:00 -0400 2007","granularity":"sec","time":"2007/10/17 00:00:00 -0400"},"sf office":0.0,"sf other":0.0,"geo_score":0.743,"id":"a675ridd3d3w","sf retail":0.0,"address":"3104 19th St S","geo_precision":"range","state":"Virginia"},"type":"Feature","geometry":{"type":"Point","coordinates":[-77.086288,38.853641]}},{"properties":{"city":"Arlington","residential units":1.0,"hotel rooms":0.0,"start date":{"end_time":"2007/10/09 00:00:01 -0400","original":"Tue Oct 09 00:00:00 -0400 2007","granularity":"sec","time":"2007/10/09 00:00:00 -0400"},"sf office":0.0,"sf other":0.0,"geo_score":0.827,"id":"a675rip71tp6","sf retail":0.0,"address":"2008 S Monroe St","geo_precision":"range","state":"Virginia"},"type":"Feature","geometry":{"type":"Point","coordinates":[-77.090143,38.851233]}},{"properties":{"city":"Arlington","residential units":1.0,"hotel rooms":0.0,"start date":{"end_time":"2007/09/26 00:00:01 -0400","original":"Wed Sep 26 00:00:00 -0400 2007","granularity":"sec","time":"2007/09/26 00:00:00 -0400"},"sf office":0.0,"sf other":0.0,"geo_score":0.827,"id":"a675riioxd4v","sf retail":0.0,"address":"1504 N Hancock St","geo_precision":"range","state":"Virginia"},"type":"Feature","geometry":{"type":"Point","coordinates":[-77.095896,38.889885]}},{"properties":{"city":"Arlington","residential units":1.0,"hotel rooms":0.0,"start date":{"end_time":"2007/09/05 00:00:01 -0400","original":"Wed Sep 05 00:00:00 -0400 2007","granularity":"sec","time":"2007/09/05 00:00:00 -0400"},"sf office":0.0,"sf other":0.0,"geo_score":0.827,"id":"a675rigw7eb1","sf retail":0.0,"address":"1901 N Stafford St","geo_precision":"range","state":"Virginia"},"type":"Feature","geometry":{"type":"Point","coordinates":[-77.111987,38.89402]}},{"properties":{"city":"Arlington","residential units":1.0,"hotel rooms":0.0,"start date":{"end_time":"2007/08/29 00:00:01 -0400","original":"Wed Aug 29 00:00:00 -0400 2007","granularity":"sec","time":"2007/08/29 00:00:00 -0400"},"sf office":0.0,"sf other":0.0,"geo_score":0.412,"id":"a675rikspvy5","sf retail":0.0,"address":"928 2","geo_precision":"city","state":"Virginia"},"type":"Feature","geometry":{"type":"Point","coordinates":[-77.099113,38.885484]}},{"properties":{"city":"Arlington","residential units":1.0,"hotel rooms":0.0,"start date":{"end_time":"2007/07/11 00:00:01 -0400","original":"Wed Jul 11 00:00:00 -0400 2007","granularity":"sec","time":"2007/07/11 00:00:00 -0400"},"sf office":0.0,"sf other":0.0,"geo_score":0.827,"id":"a675rid44lhe","sf retail":0.0,"address":"1226 N Abingdon St","geo_precision":"range","state":"Virginia"},"type":"Feature","geometry":{"type":"Point","coordinates":[-77.11946,38.88585]}},{"properties":{"city":"Arlington","residential units":1.0,"hotel rooms":0.0,"start date":{"end_time":"2007/07/10 00:00:01 -0400","original":"Tue Jul 10 00:00:00 -0400 2007","granularity":"sec","time":"2007/07/10 00:00:00 -0400"},"sf office":0.0,"sf other":0.0,"geo_score":0.827,"id":"a675rioulrn7","sf retail":0.0,"address":"711 N Barton St","geo_precision":"range","state":"Virginia"},"type":"Feature","geometry":{"type":"Point","coordinates":[-77.087309,38.880782]}},{"properties":{"city":"Arlington","residential units":1.0,"hotel rooms":0.0,"start date":{"end_time":"2007/06/22 00:00:01 -0400","original":"Fri Jun 22 00:00:00 -0400 2007","granularity":"sec","time":"2007/06/22 00:00:00 -0400"},"sf office":0.0,"sf other":0.0,"geo_score":0.729,"id":"a675rip9z02n","sf retail":0.0,"address":"2507 9th St N","geo_precision":"range","state":"Virginia"},"type":"Feature","geometry":{"type":"Point","coordinates":[-77.087604,38.882965]}},{"properties":{"city":"Arlington","residential units":1.0,"hotel rooms":0.0,"start date":{"end_time":"2007/05/30 00:00:01 -0400","original":"Wed May 30 00:00:00 -0400 2007","granularity":"sec","time":"2007/05/30 00:00:00 -0400"},"sf office":0.0,"sf other":0.0,"geo_score":0.743,"id":"a675riknhho7","sf retail":0.0,"address":"3507 16th St S","geo_precision":"range","state":"Virginia"},"type":"Feature","geometry":{"type":"Point","coordinates":[-77.089405,38.856166]}},{"properties":{"city":"Arlington","residential units":1.0,"hotel rooms":0.0,"start date":{"end_time":"2007/05/10 00:00:01 -0400","original":"Thu May 10 00:00:00 -0400 2007","granularity":"sec","time":"2007/05/10 00:00:00 -0400"},"sf office":0.0,"sf other":0.0,"geo_score":0.743,"id":"a675riiohxpm","sf retail":0.0,"address":"3106 12th St S","geo_precision":"range","state":"Virginia"},"type":"Feature","geometry":{"type":"Point","coordinates":[-77.088642,38.860384]}},{"properties":{"city":"Arlington","residential units":1.0,"hotel rooms":0.0,"start date":{"end_time":"2007/02/01 00:00:01 -0500","original":"Thu Feb 01 00:00:00 -0500 2007","granularity":"sec","time":"2007/02/01 00:00:00 -0500"},"sf office":0.0,"sf other":0.0,"geo_score":0.827,"id":"a675rih9ke6c","sf retail":0.0,"address":"2207 N Rolfe St","geo_precision":"range","state":"Virginia"},"type":"Feature","geometry":{"type":"Point","coordinates":[-77.080755,38.899843]}},{"properties":{"city":"Arlington","residential units":1.0,"hotel rooms":0.0,"start date":{"end_time":"2006/12/27 00:00:01 -0500","original":"Wed Dec 27 00:00:00 -0500 2006","granularity":"sec","time":"2006/12/27 00:00:00 -0500"},"sf office":0.0,"sf other":0.0,"geo_score":0.827,"id":"a675rioj7410","sf retail":0.0,"address":"1707 S Oakland St","geo_precision":"range","state":"Virginia"},"type":"Feature","geometry":{"type":"Point","coordinates":[-77.093606,38.853756]}},{"properties":{"city":"Arlington","residential units":1.0,"hotel rooms":0.0,"start date":{"end_time":"2006/12/20 00:00:01 -0500","original":"Wed Dec 20 00:00:00 -0500 2006","granularity":"sec","time":"2006/12/20 00:00:00 -0500"},"sf office":0.0,"sf other":0.0,"geo_score":0.729,"id":"a675rigj5lbj","sf retail":0.0,"address":"4640 5th St S","geo_precision":"range","state":"Virginia"},"type":"Feature","geometry":{"type":"Point","coordinates":[-77.112753,38.863193]}},{"properties":{"city":"Arlington","residential units":1.0,"hotel rooms":0.0,"start date":{"end_time":"2006/12/15 00:00:01 -0500","original":"Fri Dec 15 00:00:00 -0500 2006","granularity":"sec","time":"2006/12/15 00:00:00 -0500"},"sf office":0.0,"sf other":0.0,"geo_score":0.743,"id":"a675rikos3rc","sf retail":0.0,"address":"3515 22nd St S","geo_precision":"range","state":"Virginia"},"type":"Feature","geometry":{"type":"Point","coordinates":[-77.087504,38.849138]}},{"properties":{"city":"Arlington","residential units":1.0,"hotel rooms":0.0,"start date":{"end_time":"2006/12/15 00:00:01 -0500","original":"Fri Dec 15 00:00:00 -0500 2006","granularity":"sec","time":"2006/12/15 00:00:00 -0500"},"sf office":0.0,"sf other":0.0,"geo_score":0.743,"id":"a675rin0x5sb","sf retail":0.0,"address":"3513 22nd St S","geo_precision":"range","state":"Virginia"},"type":"Feature","geometry":{"type":"Point","coordinates":[-77.087432,38.849173]}},{"properties":{"city":"Arlington","residential units":1.0,"hotel rooms":0.0,"start date":{"end_time":"2006/12/15 00:00:01 -0500","original":"Fri Dec 15 00:00:00 -0500 2006","granularity":"sec","time":"2006/12/15 00:00:00 -0500"},"sf office":0.0,"sf other":0.0,"geo_score":0.743,"id":"a675ridjg7qc","sf retail":0.0,"address":"3511 22nd St S","geo_precision":"range","state":"Virginia"},"type":"Feature","geometry":{"type":"Point","coordinates":[-77.087359,38.849207]}},{"properties":{"city":"Arlington","residential units":1.0,"hotel rooms":0.0,"start date":{"end_time":"2006/11/28 00:00:01 -0500","original":"Tue Nov 28 00:00:00 -0500 2006","granularity":"sec","time":"2006/11/28 00:00:00 -0500"},"sf office":0.0,"sf other":0.0,"geo_score":0.743,"id":"a675rihi0xuy","sf retail":0.0,"address":"1720 22nd St N","geo_precision":"range","state":"Virginia"},"type":"Feature","geometry":{"type":"Point","coordinates":[-77.079484,38.899985]}},{"properties":{"city":"Arlington","residential units":1.0,"hotel rooms":0.0,"start date":{"end_time":"2006/11/07 00:00:01 -0500","original":"Tue Nov 07 00:00:00 -0500 2006","granularity":"sec","time":"2006/11/07 00:00:00 -0500"},"sf office":0.0,"sf other":0.0,"geo_score":0.743,"id":"a675riiwgdpd","sf retail":0.0,"address":"5221 31st Rd N","geo_precision":"range","state":"Virginia"},"type":"Feature","geometry":{"type":"Point","coordinates":[-77.143204,38.905036]}},{"properties":{"city":"Arlington","residential units":1.0,"hotel rooms":0.0,"start date":{"end_time":"2006/10/25 00:00:01 -0400","original":"Wed Oct 25 00:00:00 -0400 2006","granularity":"sec","time":"2006/10/25 00:00:00 -0400"},"sf office":0.0,"sf other":0.0,"geo_score":0.827,"id":"a675rikjajrh","sf retail":0.0,"address":"201 N Fillmore St","geo_precision":"range","state":"Virginia"},"type":"Feature","geometry":{"type":"Point","coordinates":[-77.09074,38.876581]}},{"properties":{"city":"Arlington","residential units":1.0,"hotel rooms":0.0,"start date":{"end_time":"2006/10/10 00:00:01 -0400","original":"Tue Oct 10 00:00:00 -0400 2006","granularity":"sec","time":"2006/10/10 00:00:00 -0400"},"sf office":0.0,"sf other":0.0,"geo_score":0.827,"id":"a675ril8dn5p","sf retail":0.0,"address":"2235 N Upton St","geo_precision":"range","state":"Virginia"},"type":"Feature","geometry":{"type":"Point","coordinates":[-77.117602,38.899286]}},{"properties":{"city":"Arlington","residential units":1.0,"hotel rooms":0.0,"start date":{"end_time":"2006/09/26 00:00:01 -0400","original":"Tue Sep 26 00:00:00 -0400 2006","granularity":"sec","time":"2006/09/26 00:00:00 -0400"},"sf office":0.0,"sf other":0.0,"geo_score":0.743,"id":"a675rich0ydn","sf retail":0.0,"address":"2711 19th St S","geo_precision":"range","state":"Virginia"},"type":"Feature","geometry":{"type":"Point","coordinates":[-77.082859,38.854426]}},{"properties":{"city":"Arlington","residential units":1.0,"hotel rooms":0.0,"start date":{"end_time":"2006/09/21 00:00:01 -0400","original":"Thu Sep 21 00:00:00 -0400 2006","granularity":"sec","time":"2006/09/21 00:00:00 -0400"},"sf office":0.0,"sf other":0.0,"geo_score":0.827,"id":"a675rilq8vuq","sf retail":0.0,"address":"3131 N Piedmont St","geo_precision":"range","state":"Virginia"},"type":"Feature","geometry":{"type":"Point","coordinates":[-77.115719,38.91635]}},{"properties":{"city":"Arlington","residential units":1.0,"hotel rooms":0.0,"start date":{"end_time":"2004/12/17 00:00:01 -0500","original":"Fri Dec 17 00:00:00 -0500 2004","granularity":"sec","time":"2004/12/17 00:00:00 -0500"},"sf office":0.0,"sf other":0.0,"geo_score":0.807,"id":"a675rig8ym2b","sf retail":0.0,"address":"2138 Patrick Henry Dr","geo_precision":"range","state":"Virginia"},"type":"Feature","geometry":{"type":"Point","coordinates":[-77.132927,38.893679]}},{"properties":{"city":"Arlington","residential units":1.0,"hotel rooms":0.0,"start date":{"end_time":"2006/07/19 00:00:01 -0400","original":"Wed Jul 19 00:00:00 -0400 2006","granularity":"sec","time":"2006/07/19 00:00:00 -0400"},"sf office":0.0,"sf other":0.0,"geo_score":0.509,"id":"a675rinqiewu","sf retail":0.0,"address":"928","geo_precision":"city","state":"Virginia"},"type":"Feature","geometry":{"type":"Point","coordinates":[-77.099113,38.885484]}},{"properties":{"city":"Arlington","residential units":1.0,"hotel rooms":0.0,"start date":{"end_time":"2006/06/15 00:00:01 -0400","original":"Thu Jun 15 00:00:00 -0400 2006","granularity":"sec","time":"2006/06/15 00:00:00 -0400"},"sf office":0.0,"sf other":0.0,"geo_score":0.827,"id":"a675rid5z4qg","sf retail":0.0,"address":"2117 S Monroe St","geo_precision":"range","state":"Virginia"},"type":"Feature","geometry":{"type":"Point","coordinates":[-77.089568,38.849779]}},{"properties":{"city":"Arlington","residential units":1.0,"hotel rooms":0.0,"start date":{"end_time":"2006/06/09 00:00:01 -0400","original":"Fri Jun 09 00:00:00 -0400 2006","granularity":"sec","time":"2006/06/09 00:00:00 -0400"},"sf office":0.0,"sf other":0.0,"geo_score":0.827,"id":"a675rie6c4xt","sf retail":0.0,"address":"601 N Abingdon St","geo_precision":"range","state":"Virginia"},"type":"Feature","geometry":{"type":"Point","coordinates":[-77.116581,38.876639]}},{"properties":{"city":"Arlington","residential units":1.0,"hotel rooms":0.0,"start date":{"end_time":"2006/06/06 00:00:01 -0400","original":"Tue Jun 06 00:00:00 -0400 2006","granularity":"sec","time":"2006/06/06 00:00:00 -0400"},"sf office":0.0,"sf other":0.0,"geo_score":0.743,"id":"a675rirgb4el","sf retail":0.0,"address":"3602 13th St N","geo_precision":"range","state":"Virginia"},"type":"Feature","geometry":{"type":"Point","coordinates":[-77.104512,38.887519]}},{"properties":{"city":"Arlington","residential units":1.0,"hotel rooms":0.0,"start date":{"end_time":"2006/06/06 00:00:01 -0400","original":"Tue Jun 06 00:00:00 -0400 2006","granularity":"sec","time":"2006/06/06 00:00:00 -0400"},"sf office":0.0,"sf other":0.0,"geo_score":0.827,"id":"a675riku5i7d","sf retail":0.0,"address":"1320 N Hudson St","geo_precision":"range","state":"Virginia"},"type":"Feature","geometry":{"type":"Point","coordinates":[-77.097597,38.887909]}},{"properties":{"city":"Arlington","residential units":1.0,"hotel rooms":0.0,"start date":{"end_time":"2006/05/25 00:00:01 -0400","original":"Thu May 25 00:00:00 -0400 2006","granularity":"sec","time":"2006/05/25 00:00:00 -0400"},"sf office":0.0,"sf other":0.0,"geo_score":0.729,"id":"a675rim1igjq","sf retail":0.0,"address":"3616 8th St S","geo_precision":"range","state":"Virginia"},"type":"Feature","geometry":{"type":"Point","coordinates":[-77.095427,38.863868]}},{"properties":{"city":"Arlington","residential units":1.0,"hotel rooms":0.0,"start date":{"end_time":"2006/05/16 00:00:01 -0400","original":"Tue May 16 00:00:00 -0400 2006","granularity":"sec","time":"2006/05/16 00:00:00 -0400"},"sf office":0.0,"sf other":0.0,"geo_score":0.827,"id":"a675rih7m49w","sf retail":0.0,"address":"920 S Taylor St","geo_precision":"range","state":"Virginia"},"type":"Feature","geometry":{"type":"Point","coordinates":[-77.104399,38.859736]}},{"properties":{"city":"Arlington","residential units":1.0,"hotel rooms":0.0,"start date":{"end_time":"2006/05/09 00:00:01 -0400","original":"Tue May 09 00:00:00 -0400 2006","granularity":"sec","time":"2006/05/09 00:00:00 -0400"},"sf office":0.0,"sf other":0.0,"geo_score":0.827,"id":"a675ridct85z","sf retail":0.0,"address":"1706 N Randolph St","geo_precision":"range","state":"Virginia"},"type":"Feature","geometry":{"type":"Point","coordinates":[-77.11027,38.892048]}},{"properties":{"city":"Arlington","residential units":1.0,"hotel rooms":0.0,"start date":{"end_time":"2006/04/24 00:00:01 -0400","original":"Mon Apr 24 00:00:00 -0400 2006","granularity":"sec","time":"2006/04/24 00:00:00 -0400"},"sf office":0.0,"sf other":0.0,"geo_score":0.827,"id":"a675ripblrwn","sf retail":0.0,"address":"920 N Daniel St","geo_precision":"range","state":"Virginia"},"type":"Feature","geometry":{"type":"Point","coordinates":[-77.09069,38.883233]}},{"properties":{"city":"Arlington","residential units":1.0,"hotel rooms":0.0,"start date":{"end_time":"2006/04/17 00:00:01 -0400","original":"Mon Apr 17 00:00:00 -0400 2006","granularity":"sec","time":"2006/04/17 00:00:00 -0400"},"sf office":0.0,"sf other":0.0,"geo_score":0.743,"id":"a675rigxuer1","sf retail":0.0,"address":"2823 23rd Rd N","geo_precision":"range","state":"Virginia"},"type":"Feature","geometry":{"type":"Point","coordinates":[-77.097669,38.897552]}},{"properties":{"city":"Arlington","residential units":1.0,"hotel rooms":0.0,"start date":{"end_time":"2006/04/13 00:00:01 -0400","original":"Thu Apr 13 00:00:00 -0400 2006","granularity":"sec","time":"2006/04/13 00:00:00 -0400"},"sf office":0.0,"sf other":0.0,"geo_score":0.827,"id":"a675rij7mz8q","sf retail":0.0,"address":"2326 N Vermont St","geo_precision":"range","state":"Virginia"},"type":"Feature","geometry":{"type":"Point","coordinates":[-77.118606,38.902179]}},{"properties":{"city":"Arlington","residential units":1.0,"hotel rooms":0.0,"start date":{"end_time":"2006/03/14 00:00:01 -0500","original":"Tue Mar 14 00:00:00 -0500 2006","granularity":"sec","time":"2006/03/14 00:00:00 -0500"},"sf office":0.0,"sf other":0.0,"geo_score":0.827,"id":"a675rio4zl26","sf retail":0.0,"address":"2636 N Sycamore St","geo_precision":"range","state":"Virginia"},"type":"Feature","geometry":{"type":"Point","coordinates":[-77.157469,38.895418]}},{"properties":{"city":"Arlington","residential units":1.0,"hotel rooms":0.0,"start date":{"end_time":"2006/02/27 00:00:01 -0500","original":"Mon Feb 27 00:00:00 -0500 2006","granularity":"sec","time":"2006/02/27 00:00:00 -0500"},"sf office":0.0,"sf other":0.0,"geo_score":0.827,"id":"a675rip09ox3","sf retail":0.0,"address":"2203 N Rolfe St","geo_precision":"range","state":"Virginia"},"type":"Feature","geometry":{"type":"Point","coordinates":[-77.080753,38.899823]}},{"properties":{"city":"Arlington","residential units":1.0,"hotel rooms":0.0,"start date":{"end_time":"2006/02/21 00:00:01 -0500","original":"Tue Feb 21 00:00:00 -0500 2006","granularity":"sec","time":"2006/02/21 00:00:00 -0500"},"sf office":0.0,"sf other":0.0,"geo_score":0.743,"id":"a675rig0qh13","sf retail":0.0,"address":"609 24th St S","geo_precision":"range","state":"Virginia"},"type":"Feature","geometry":{"type":"Point","coordinates":[-77.055398,38.852357]}},{"properties":{"city":"Arlington","residential units":1.0,"hotel rooms":0.0,"start date":{"end_time":"2006/02/09 00:00:01 -0500","original":"Thu Feb 09 00:00:00 -0500 2006","granularity":"sec","time":"2006/02/09 00:00:00 -0500"},"sf office":0.0,"sf other":0.0,"geo_score":0.827,"id":"a675rie2yhjk","sf retail":0.0,"address":"1026 S Queen St","geo_precision":"range","state":"Virginia"},"type":"Feature","geometry":{"type":"Point","coordinates":[-77.073856,38.865474]}},{"properties":{"city":"Arlington","residential units":1.0,"hotel rooms":0.0,"start date":{"end_time":"2005/12/29 00:00:01 -0500","original":"Thu Dec 29 00:00:00 -0500 2005","granularity":"sec","time":"2005/12/29 00:00:00 -0500"},"sf office":0.0,"sf other":0.0,"geo_score":0.368,"id":"a675ripf0r4u","sf retail":0.0,"address":"404 Chain Bridge Rd","geo_precision":"street","state":"Virginia"},"type":"Feature","geometry":{"type":"Point","coordinates":[-77.312285,37.286387]}},{"properties":{"city":"Arlington","residential units":1.0,"hotel rooms":0.0,"start date":{"end_time":"2005/11/21 00:00:01 -0500","original":"Mon Nov 21 00:00:00 -0500 2005","granularity":"sec","time":"2005/11/21 00:00:00 -0500"},"sf office":0.0,"sf other":0.0,"geo_score":0.729,"id":"a675rina1kxd","sf retail":0.0,"address":"4640 5th St S","geo_precision":"range","state":"Virginia"},"type":"Feature","geometry":{"type":"Point","coordinates":[-77.112753,38.863193]}},{"properties":{"city":"Arlington","residential units":1.0,"hotel rooms":0.0,"start date":{"end_time":"2005/11/16 00:00:01 -0500","original":"Wed Nov 16 00:00:00 -0500 2005","granularity":"sec","time":"2005/11/16 00:00:00 -0500"},"sf office":0.0,"sf other":0.0,"geo_score":0.743,"id":"a675riphwo0u","sf retail":0.0,"address":"4502 32nd Rd N","geo_precision":"range","state":"Virginia"},"type":"Feature","geometry":{"type":"Point","coordinates":[-77.125161,38.912271]}},{"properties":{"city":"Arlington","residential units":1.0,"hotel rooms":0.0,"start date":{"end_time":"2005/10/24 00:00:01 -0400","original":"Mon Oct 24 00:00:00 -0400 2005","granularity":"sec","time":"2005/10/24 00:00:00 -0400"},"sf office":0.0,"sf other":0.0,"geo_score":0.827,"id":"a675ribv51sb","sf retail":0.0,"address":"1920 S Lowell St","geo_precision":"range","state":"Virginia"},"type":"Feature","geometry":{"type":"Point","coordinates":[-77.087826,38.852387]}},{"properties":{"city":"Arlington","residential units":1.0,"hotel rooms":0.0,"start date":{"end_time":"2005/10/04 00:00:01 -0400","original":"Tue Oct 04 00:00:00 -0400 2005","granularity":"sec","time":"2005/10/04 00:00:00 -0400"},"sf office":0.0,"sf other":0.0,"geo_score":0.743,"id":"a675rid0jk87","sf retail":0.0,"address":"6312 28th St N","geo_precision":"range","state":"Virginia"},"type":"Feature","geometry":{"type":"Point","coordinates":[-77.154446,38.897704]}},{"properties":{"city":"Arlington","residential units":1.0,"hotel rooms":0.0,"start date":{"end_time":"2005/09/09 00:00:01 -0400","original":"Fri Sep 09 00:00:00 -0400 2005","granularity":"sec","time":"2005/09/09 00:00:00 -0400"},"sf office":0.0,"sf other":0.0,"geo_score":0.743,"id":"a675ridg9488","sf retail":0.0,"address":"3971 26th St N","geo_precision":"range","state":"Virginia"},"type":"Feature","geometry":{"type":"Point","coordinates":[-77.108214,38.90731]}},{"properties":{"city":"Arlington","residential units":1.0,"hotel rooms":0.0,"start date":{"end_time":"2005/08/29 00:00:01 -0400","original":"Mon Aug 29 00:00:00 -0400 2005","granularity":"sec","time":"2005/08/29 00:00:00 -0400"},"sf office":0.0,"sf other":0.0,"geo_score":0.827,"id":"a675ripziky5","sf retail":0.0,"address":"511 N Lombardy St","geo_precision":"range","state":"Virginia"},"type":"Feature","geometry":{"type":"Point","coordinates":[-77.138786,38.870153]}},{"properties":{"city":"Arlington","residential units":1.0,"hotel rooms":0.0,"start date":{"end_time":"2005/08/29 00:00:01 -0400","original":"Mon Aug 29 00:00:00 -0400 2005","granularity":"sec","time":"2005/08/29 00:00:00 -0400"},"sf office":0.0,"sf other":0.0,"geo_score":0.632,"id":"a675rimeo5jz","sf retail":0.0,"address":"4101 N Randolph Ct","geo_precision":"street","state":"Virginia"},"type":"Feature","geometry":{"type":"Point","coordinates":[-77.124066,38.925293]}},{"properties":{"city":"Arlington","residential units":1.0,"hotel rooms":0.0,"start date":{"end_time":"2005/08/11 00:00:01 -0400","original":"Thu Aug 11 00:00:00 -0400 2005","granularity":"sec","time":"2005/08/11 00:00:00 -0400"},"sf office":0.0,"sf other":0.0,"geo_score":0.827,"id":"a675rimx79lh","sf retail":0.0,"address":"505 N Lombardy St","geo_precision":"range","state":"Virginia"},"type":"Feature","geometry":{"type":"Point","coordinates":[-77.138782,38.87007]}},{"properties":{"city":"Arlington","residential units":1.0,"hotel rooms":0.0,"start date":{"end_time":"2005/08/08 00:00:01 -0400","original":"Mon Aug 08 00:00:00 -0400 2005","granularity":"sec","time":"2005/08/08 00:00:00 -0400"},"sf office":0.0,"sf other":0.0,"geo_score":0.827,"id":"a675rilpaxq6","sf retail":0.0,"address":"2515 N Nelson St","geo_precision":"range","state":"Virginia"},"type":"Feature","geometry":{"type":"Point","coordinates":[-77.101692,38.903866]}},{"properties":{"city":"Arlington","residential units":1.0,"hotel rooms":0.0,"start date":{"end_time":"2005/08/03 00:00:01 -0400","original":"Wed Aug 03 00:00:00 -0400 2005","granularity":"sec","time":"2005/08/03 00:00:00 -0400"},"sf office":0.0,"sf other":0.0,"geo_score":0.743,"id":"a675rijcbr0u","sf retail":0.0,"address":"5149 22nd St N","geo_precision":"range","state":"Virginia"},"type":"Feature","geometry":{"type":"Point","coordinates":[-77.131741,38.894923]}},{"properties":{"city":"Arlington","residential units":1.0,"hotel rooms":0.0,"start date":{"end_time":"2005/04/13 00:00:01 -0400","original":"Wed Apr 13 00:00:00 -0400 2005","granularity":"sec","time":"2005/04/13 00:00:00 -0400"},"sf office":0.0,"sf other":0.0,"geo_score":0.743,"id":"a675rijycmuw","sf retail":0.0,"address":"5123 27th Rd N","geo_precision":"range","state":"Virginia"},"type":"Feature","geometry":{"type":"Point","coordinates":[-77.137517,38.90204]}},{"properties":{"city":"Arlington","residential units":1.0,"hotel rooms":0.0,"start date":{"end_time":"2005/03/31 00:00:01 -0500","original":"Thu Mar 31 00:00:00 -0500 2005","granularity":"sec","time":"2005/03/31 00:00:00 -0500"},"sf office":0.0,"sf other":0.0,"geo_score":0.806,"id":"a675ril2qsif","sf retail":0.0,"address":"4733 Old Dominion Dr","geo_precision":"range","state":"Virginia"},"type":"Feature","geometry":{"type":"Point","coordinates":[-77.125077,38.901383]}},{"properties":{"city":"Arlington","residential units":1.0,"hotel rooms":0.0,"start date":{"end_time":"2005/03/23 00:00:01 -0500","original":"Wed Mar 23 00:00:00 -0500 2005","granularity":"sec","time":"2005/03/23 00:00:00 -0500"},"sf office":0.0,"sf other":0.0,"geo_score":0.743,"id":"a675rilnn27r","sf retail":0.0,"address":"4732 25th St N","geo_precision":"range","state":"Virginia"},"type":"Feature","geometry":{"type":"Point","coordinates":[-77.125782,38.901833]}},{"properties":{"city":"Arlington","residential units":1.0,"hotel rooms":0.0,"start date":{"end_time":"2006/09/20 00:00:01 -0400","original":"Wed Sep 20 00:00:00 -0400 2006","granularity":"sec","time":"2006/09/20 00:00:00 -0400"},"sf office":0.0,"sf other":0.0,"geo_score":0.827,"id":"a675rioh475h","sf retail":0.0,"address":"855 N Jefferson St","geo_precision":"range","state":"Virginia"},"type":"Feature","geometry":{"type":"Point","coordinates":[-77.128501,38.877025]}},{"properties":{"city":"Arlington","residential units":3.0,"hotel rooms":0.0,"start date":{"end_time":"2008/01/15 00:00:01 -0500","original":"Tue Jan 15 00:00:00 -0500 2008","granularity":"sec","time":"2008/01/15 00:00:00 -0500"},"sf office":0.0,"sf other":0.0,"geo_score":0.827,"id":"a675ridb8o09","sf retail":0.0,"address":"2126 S Oakland St","geo_precision":"range","state":"Virginia"},"type":"Feature","geometry":{"type":"Point","coordinates":[-77.091146,38.84932]}},{"properties":{"city":"Arlington","residential units":17.0,"hotel rooms":0.0,"start date":{"end_time":"2008/10/15 00:00:01 -0400","original":"Wed Oct 15 00:00:00 -0400 2008","granularity":"sec","time":"2008/10/15 00:00:00 -0400"},"sf office":0.0,"sf other":0.0,"geo_score":0.729,"id":"a675rib9ykus","sf retail":0.0,"address":"3131 9th Rd N","geo_precision":"range","state":"Virginia"},"type":"Feature","geometry":{"type":"Point","coordinates":[-77.095218,38.883627]}}],"is_temporal":true,"author":{"url":"","metadata":"","contact_name":"","contact_address":"","source":"","contact_phone":""},"source":"","pagination":{"sort":null,"start":0,"total":129,"limit":1000000},"state":"complete","tags":"arlington,construction,estate,real","published":"2014-08-11T00:35:50-04:00","id":18708}