{"type":"FeatureCollection","data_type":"Dataset","url_type":null,"permissions":[{"permissions":{"download":true,"view":true},"group_id":"everyone"}],"classification":null,"title":"PollingLocations","count":31,"stream_id":187070,"contributor":{"url":"http://geocommons.com/users/27467","name":"MegatronCupcakes"},"data_attributes":null,"calculation_params":null,"icon_link":null,"link":"http://geocommons.com/overlays/187070.json","extent":[-80.4856,26.9805,-80.1087,27.246],"geometry_types":["point"],"unique_name":null,"name":"PollingLocations","feature_count":31,"description":"","next_feature":null,"is_raster":false,"short_classification":"Y","stats":{"VOTING_DIS":{"max":31,"variance":82.6666666666667,"mean":16.0,"stdev":9.0921211313239,"min":1,"median":16}},"features":[{"properties":{"CITY":"Jensen Beach","NAME":"V.F.W. Post 10066","VOTING_DIS":3,"id":"a6aqwce2dzj6","ADDRESS":"1805 NE Savannah Rd"},"type":"Feature","geometry":{"type":"Point","coordinates":[-80.2356759138037,27.2270886702538]}},{"properties":{"CITY":"Hobe Sound","NAME":"Jupiter Island Town Hall","VOTING_DIS":28,"id":"a6aqwcjd4agw","ADDRESS":"2 Bridge Rd"},"type":"Feature","geometry":{"type":"Point","coordinates":[-80.1162283026189,27.0646621499186]}},{"properties":{"CITY":"Stuart","NAME":"Stuart/Blake Library","VOTING_DIS":5,"id":"a6aqwcllsd6p","ADDRESS":"2351 SE Monterey Rd"},"type":"Feature","geometry":{"type":"Point","coordinates":[-80.2235486869991,27.194733650518]}},{"properties":{"CITY":"Stuart","NAME":"Knights of Columbus","VOTING_DIS":22,"id":"a6aqwcp94bt3","ADDRESS":"7251 SW Gaines Ave"},"type":"Feature","geometry":{"type":"Point","coordinates":[-80.2529348247776,27.1163144230005]}},{"properties":{"CITY":"Stuart","NAME":"The Grace Place","VOTING_DIS":18,"id":"a6aqwcm5zhpl","ADDRESS":"1550 SE Salerno Rd"},"type":"Feature","geometry":{"type":"Point","coordinates":[-80.2319603315422,27.1302743428474]}},{"properties":{"CITY":"Stuart","NAME":"Sewalls Point Town Hall","VOTING_DIS":10,"id":"a6aqwcezy5qs","ADDRESS":"1 S Sewalls Point Rd"},"type":"Feature","geometry":{"type":"Point","coordinates":[-80.2005523237925,27.2022982425059]}},{"properties":{"CITY":"Hobe Sound","NAME":"Ridgeway Clubhouse","VOTING_DIS":31,"id":"a6aqwcjqsmxi","ADDRESS":"8347 SE Swan Ave"},"type":"Feature","geometry":{"type":"Point","coordinates":[-80.1560774204992,27.1027685483057]}},{"properties":{"CITY":"Indiantown","NAME":"Indiantown Govermental Annex","VOTING_DIS":29,"id":"a6aqwcnava3d","ADDRESS":"16550 SW Warfield Blvd"},"type":"Feature","geometry":{"type":"Point","coordinates":[-80.4794610582462,27.0284828649225]}},{"properties":{"CITY":"Hobe Sound","NAME":"First United Methodist Church","VOTING_DIS":19,"id":"a6aqwcg0rgtn","ADDRESS":"10100 SE Federal Hwy"},"type":"Feature","geometry":{"type":"Point","coordinates":[-80.1473154104124,27.0811248812256]}},{"properties":{"CITY":"Palm City","NAME":"Cummings Library (Palm City)","VOTING_DIS":26,"id":"a6aqwco0l2za","ADDRESS":"2551 SW Matheson Ave"},"type":"Feature","geometry":{"type":"Point","coordinates":[-80.2768600354479,27.1732243299254]}},{"properties":{"CITY":"Hobe Sound","NAME":"Hobe Sound Library","VOTING_DIS":12,"id":"a6aqwcmd401e","ADDRESS":"10595 SE Federal Hwy"},"type":"Feature","geometry":{"type":"Point","coordinates":[-80.1425906584547,27.0756606243972]}},{"properties":{"CITY":"Stuart","NAME":"Tropical Farms Baptist Church","VOTING_DIS":23,"id":"a6aqwcrtzfey","ADDRESS":"1555 SW Kanner Hwy"},"type":"Feature","geometry":{"type":"Point","coordinates":[-80.2760705939744,27.0957412059012]}},{"properties":{"CITY":"Palm City","NAME":"Immanuel Lutheran Church","VOTING_DIS":25,"id":"a6aqwcnmobvz","ADDRESS":"2655 SW Immanuel Dr."},"type":"Feature","geometry":{"type":"Point","coordinates":[-80.2708907030924,27.1731466656732]}},{"properties":{"CITY":"Hobe Sound","NAME":"Bethel Lutheran Church","VOTING_DIS":15,"id":"a6aqwcm6so7l","ADDRESS":"7905 SE Federal Hwy"},"type":"Feature","geometry":{"type":"Point","coordinates":[-80.1682930801846,27.1088875769258]}},{"properties":{"CITY":"Stuart","NAME":"10th Street Recreation Center","VOTING_DIS":8,"id":"a6aqwcjdm23y","ADDRESS":"724 SE 10th St"},"type":"Feature","geometry":{"type":"Point","coordinates":[-80.2415258561407,27.189773404558]}},{"properties":{"CITY":"Stuart","NAME":"V.F.W. Post 10132","VOTING_DIS":20,"id":"a6aqwcfz5qbw","ADDRESS":"6101 SE Dixie Hwy"},"type":"Feature","geometry":{"type":"Point","coordinates":[-80.1687565607041,27.1301894955296]}},{"properties":{"CITY":"Stuart","NAME":"Port Salerno Church of God","VOTING_DIS":14,"id":"a6aqwcdoa4jy","ADDRESS":"4605 SE Cove Rd"},"type":"Feature","geometry":{"type":"Point","coordinates":[-80.1919874770573,27.1403819050482]}},{"properties":{"CITY":"Tequesta","NAME":"South County Fire Station","VOTING_DIS":17,"id":"a6aqwcqw9zxv","ADDRESS":"18405 SE County Line Rd"},"type":"Feature","geometry":{"type":"Point","coordinates":[-80.1086492687569,26.980468060614]}},{"properties":{"CITY":"Stuart","NAME":"Covenant Fellowship Church","VOTING_DIS":6,"id":"a6aqwcjh5kch","ADDRESS":"2880 SE Aster Lane"},"type":"Feature","geometry":{"type":"Point","coordinates":[-80.2393237581764,27.1679451169945]}},{"properties":{"CITY":"Stuart","NAME":"North Stuart Baptist Church","VOTING_DIS":2,"id":"a6aqwci4nce7","ADDRESS":"1950 NW Federal Hwy"},"type":"Feature","geometry":{"type":"Point","coordinates":[-80.2672069170562,27.2285362678014]}},{"properties":{"CITY":"Stuart","NAME":"Woman's Club of Stuart","VOTING_DIS":7,"id":"a6aqwcqme9cm","ADDRESS":"729 SE Ocean Blvd"},"type":"Feature","geometry":{"type":"Point","coordinates":[-80.2408869776564,27.1978104331052]}},{"properties":{"CITY":"Stuart","NAME":"Florida Oceanographic Center","VOTING_DIS":9,"id":"a6aqwcfxtuy9","ADDRESS":"890 NE Ocean Blvd"},"type":"Feature","geometry":{"type":"Point","coordinates":[-80.1780936913706,27.2154103869234]}},{"properties":{"CITY":"Stuart","NAME":"Martin County Fairgrounds","VOTING_DIS":16,"id":"a6aqwcomqm74","ADDRESS":"2616 SE Dixie Hwy"},"type":"Feature","geometry":{"type":"Point","coordinates":[-80.227395528257,27.1726277592389]}},{"properties":{"CITY":"Indiantown","NAME":"Mt Zion Baptist Church","VOTING_DIS":30,"id":"a6aqwcj6j3j1","ADDRESS":"14789 SW Dr MLK Jr Dr"},"type":"Feature","geometry":{"type":"Point","coordinates":[-80.4855717651957,27.0262495831363]}},{"properties":{"CITY":"Jensen Beach","NAME":"Llangford Park","VOTING_DIS":4,"id":"a6aqwco5km3y","ADDRESS":"2369 NE Dixie Hwy"},"type":"Feature","geometry":{"type":"Point","coordinates":[-80.2218805959801,27.2245232950956]}},{"properties":{"CITY":"Jensen Beach","NAME":"Hoke Library","VOTING_DIS":1,"id":"a6aqwcqvbuz2","ADDRESS":"1150 jack Williams Way"},"type":"Feature","geometry":{"type":"Point","coordinates":[-80.2684003122259,27.2460345774895]}},{"properties":{"CITY":"Palm City","NAME":"Palm City Presbyterian Church","VOTING_DIS":27,"id":"a6aqwcmxg8tf","ADDRESS":"2700 SW Martin Hwy"},"type":"Feature","geometry":{"type":"Point","coordinates":[-80.2906073131698,27.1607151504983]}},{"properties":{"CITY":"Palm City","NAME":"Palm City Community Center","VOTING_DIS":24,"id":"a6aqwcqcycyy","ADDRESS":"2701  SW  Cornell  Ave"},"type":"Feature","geometry":{"type":"Point","coordinates":[-80.2642532805295,27.1717668757728]}},{"properties":{"CITY":"Stuart","NAME":"Peace Presbyterian Church","VOTING_DIS":13,"id":"a6aqwcl8i4v3","ADDRESS":"4881 SE Cove Rd"},"type":"Feature","geometry":{"type":"Point","coordinates":[-80.1876500784949,27.1419413134801]}},{"properties":{"CITY":"Stuart","NAME":"Robert Morgade Library","VOTING_DIS":11,"id":"a6aqwcnyf2oo","ADDRESS":"5851 SE Community Dr"},"type":"Feature","geometry":{"type":"Point","coordinates":[-80.2207608649798,27.1341545089651]}},{"properties":{"CITY":"Tequesta","NAME":"County Line Civic Center","VOTING_DIS":21,"id":"a6aqwckq6ulp","ADDRESS":"18530 SE County Line Rd"},"type":"Feature","geometry":{"type":"Point","coordinates":[-80.1098651677404,26.9851438395373]}}],"is_temporal":false,"author":{"url":"","metadata":null,"contact_name":"Frank Veldhuis","contact_address":"PO Box 2371, Stuart, FL, 34995","source":"NorthStar Geomatics, Inc.","contact_phone":"(772) 781-6400"},"source":"","pagination":{"sort":null,"start":0,"total":31,"limit":1000000},"state":"complete","tags":"","published":"2014-08-13T08:00:42-04:00","id":187070}