{"type":"FeatureCollection","data_type":"Dataset","url_type":null,"permissions":[{"permissions":{"download":true,"view":true},"group_id":"everyone"}],"classification":null,"title":"Airports - Medium Hubs","count":35,"stream_id":187837,"contributor":{"url":"http://geocommons.com/users/37491","name":"mdslosky"},"data_attributes":null,"calculation_params":null,"icon_link":null,"link":"http://geocommons.com/overlays/187837.json","extent":[-155.969,18.4663,-66.1057,61.2181],"geometry_types":["point"],"unique_name":null,"name":"Airports - Medium Hubs","feature_count":35,"description":"","next_feature":null,"is_raster":false,"short_classification":"Y","stats":{},"features":[{"properties":{"city":"Albuquerque","name":"Albuquerque International Sunport","code":"ABQ","geo_score":0.857,"id":"a66csrsmkzd1","geo_precision":"city","state":"NM"},"type":"Feature","geometry":{"type":"Point","coordinates":[-106.651137,35.084491]}},{"properties":{"city":"Anchorage","name":"Anchorage International Airport","code":"ANC","geo_score":0.857,"id":"a66csrl0n0dr","geo_precision":"city","state":"AK"},"type":"Feature","geometry":{"type":"Point","coordinates":[-149.900278,61.218056]}},{"properties":{"city":"Austin","name":"Austin-Bergstrom International Airport","code":"AUS","geo_score":0.857,"id":"a66csrr2tb4s","geo_precision":"city","state":"TX"},"type":"Feature","geometry":{"type":"Point","coordinates":[-97.743061,30.267153]}},{"properties":{"city":"Windsor Locks","name":"Bradley International Airport","code":"BDL","geo_score":0.798,"id":"a66csrsxg9vn","geo_precision":"city","state":"CT"},"type":"Feature","geometry":{"type":"Point","coordinates":[-72.535365,41.890931]}},{"properties":{"city":"Nashville","name":"Nashville International Airport","code":"BNA","geo_score":0.857,"id":"a66csrseorf5","geo_precision":"city","state":"TN"},"type":"Feature","geometry":{"type":"Point","coordinates":[-86.784443,36.16589]}},{"properties":{"city":"Buffalo","name":"Buffalo Niagara International Airport","code":"BUF","geo_score":0.857,"id":"a66csrt06zmz","geo_precision":"city","state":"NY"},"type":"Feature","geometry":{"type":"Point","coordinates":[-78.878369,42.886447]}},{"properties":{"city":"Burbank","name":"Burbank Bob Hope Airport","code":"BUR","geo_score":0.857,"id":"a66csroth69l","geo_precision":"city","state":"CA"},"type":"Feature","geometry":{"type":"Point","coordinates":[-118.308966,34.180839]}},{"properties":{"city":"Cleveland","name":"Cleveland Hopkins International Airport","code":"CLE","geo_score":0.857,"id":"a66csrqa0m12","geo_precision":"city","state":"OH"},"type":"Feature","geometry":{"type":"Point","coordinates":[-81.695409,41.499495]}},{"properties":{"city":"Columbus","name":"Port Columbus International Airport","code":"CMH","geo_score":0.776,"id":"a66csrj47t54","geo_precision":"city","state":"OH"},"type":"Feature","geometry":{"type":"Point","coordinates":[-82.695724,39.998397]}},{"properties":{"city":"Dallas","name":"Dallas Love Field","code":"DAL","geo_score":0.857,"id":"a66csrmyvxam","geo_precision":"city","state":"TX"},"type":"Feature","geometry":{"type":"Point","coordinates":[-96.806667,32.783056]}},{"properties":{"city":"Houston","name":"Hobby Airport","code":"HOU","geo_score":0.816,"id":"a66csrruq6of","geo_precision":"city","state":"TX"},"type":"Feature","geometry":{"type":"Point","coordinates":[-96.919704,29.845783]}},{"properties":{"city":"Indianapolis","name":"Indianapolis International Airport","code":"IND","geo_score":0.857,"id":"a66csrq82mgt","geo_precision":"city","state":"IN"},"type":"Feature","geometry":{"type":"Point","coordinates":[-86.158042,39.768377]}},{"properties":{"city":"Jacksonville","name":"Jacksonville International Airport","code":"JAX","geo_score":0.857,"id":"a66csrial2oc","geo_precision":"city","state":"FL"},"type":"Feature","geometry":{"type":"Point","coordinates":[-81.655651,30.332184]}},{"properties":{"city":"Kansas City","name":"Kansas City International Airport","code":"MCI","geo_score":0.857,"id":"a66csrjc8a0n","geo_precision":"city","state":"MO"},"type":"Feature","geometry":{"type":"Point","coordinates":[-94.598583,39.102404]}},{"properties":{"city":"Memphis","name":"Memphis Airport","code":"MEM","geo_score":0.857,"id":"a66csrg8l2ww","geo_precision":"city","state":"TN"},"type":"Feature","geometry":{"type":"Point","coordinates":[-90.04898,35.149534]}},{"properties":{"city":"Manchester","name":"Manchester Airport","code":"MHT","geo_score":0.857,"id":"a66csrptx018","geo_precision":"city","state":"NH"},"type":"Feature","geometry":{"type":"Point","coordinates":[-71.454789,42.99564]}},{"properties":{"city":"Milwaukee","name":"General Mitchell International Airport","code":"MKE","geo_score":0.857,"id":"a66csrppd0o7","geo_precision":"city","state":"WI"},"type":"Feature","geometry":{"type":"Point","coordinates":[-87.906474,43.038903]}},{"properties":{"city":"New Orleans","name":"New Orleans International Airport","code":"MSY","geo_score":0.857,"id":"a66csru40clp","geo_precision":"city","state":"LA"},"type":"Feature","geometry":{"type":"Point","coordinates":[-89.930956,30.068812]}},{"properties":{"city":"Kahului","name":"Kahului Airport","code":"OGG","geo_score":0.816,"id":"a66csrsci2wf","geo_precision":"city","state":"HI"},"type":"Feature","geometry":{"type":"Point","coordinates":[-155.969167,19.583333]}},{"properties":{"city":"Omaha","name":"Eppley Airfield","code":"OMA","geo_score":0.857,"id":"a66csrufn3b2","geo_precision":"city","state":"NE"},"type":"Feature","geometry":{"type":"Point","coordinates":[-95.937792,41.25861]}},{"properties":{"city":"Ontario","name":"Ontario International Airport","code":"ONT","geo_score":0.857,"id":"a66csrv412x5","geo_precision":"city","state":"CA"},"type":"Feature","geometry":{"type":"Point","coordinates":[-117.650888,34.063344]}},{"properties":{"city":"Norfolk","name":"Norfolk International Airport","code":"ORF","geo_score":0.857,"id":"a66csrs7kb2a","geo_precision":"city","state":"VA"},"type":"Feature","geometry":{"type":"Point","coordinates":[-76.285218,36.846815]}},{"properties":{"city":"West Palm Beach","name":"Palm Beach International Airport","code":"PBI","geo_score":0.762,"id":"a66csrsx4r1n","geo_precision":"city","state":"FL"},"type":"Feature","geometry":{"type":"Point","coordinates":[-80.035596,26.778118]}},{"properties":{"city":"Portland","name":"Portland International Airport","code":"PDX","geo_score":0.857,"id":"a66csro85le1","geo_precision":"city","state":"OR"},"type":"Feature","geometry":{"type":"Point","coordinates":[-122.676207,45.523452]}},{"properties":{"city":"Providence","name":"T.F. Green Airport","code":"PVD","geo_score":0.857,"id":"a66csrt5fdqy","geo_precision":"city","state":"RI"},"type":"Feature","geometry":{"type":"Point","coordinates":[-71.412834,41.823989]}},{"properties":{"city":"Rdu Airport","name":"Raleigh-Durham International Airport","code":"RDU","geo_score":0.814,"id":"a66csrga6r2j","geo_precision":"city","state":"NC"},"type":"Feature","geometry":{"type":"Point","coordinates":[-83.290731,35.475594]}},{"properties":{"city":"Reno","name":"Reno-Tahoe International Airport","code":"RNO","geo_score":0.857,"id":"a66csrtgiho6","geo_precision":"city","state":"NV"},"type":"Feature","geometry":{"type":"Point","coordinates":[-119.813803,39.529633]}},{"properties":{"city":"Fort Myers","name":"Southwest Florida International Airport","code":"RSW","geo_score":0.746,"id":"a66csro5diyl","geo_precision":"city","state":"FL"},"type":"Feature","geometry":{"type":"Point","coordinates":[-81.92122,30.435237]}},{"properties":{"city":"San Antonio","name":"San Antonio International Airport","code":"SAT","geo_score":0.857,"id":"a66csrf4s38m","geo_precision":"city","state":"TX"},"type":"Feature","geometry":{"type":"Point","coordinates":[-98.493628,29.424122]}},{"properties":{"city":"Louisville","name":"Louisville International Airport","code":"SDF","geo_score":0.857,"id":"a66csrrozkr1","geo_precision":"city","state":"KY"},"type":"Feature","geometry":{"type":"Point","coordinates":[-85.759407,38.254238]}},{"properties":{"city":"San Jose","name":"San Jose International Airport","code":"SJC","geo_score":0.857,"id":"a66csriub0ym","geo_precision":"city","state":"CA"},"type":"Feature","geometry":{"type":"Point","coordinates":[-121.894956,37.339386]}},{"properties":{"city":"San Juan","name":"Luis Munoz Marin International Airport","code":"SJU","geo_score":0.857,"id":"a66csrot9wi5","geo_precision":"city","state":"PR"},"type":"Feature","geometry":{"type":"Point","coordinates":[-66.105722,18.466334]}},{"properties":{"city":"Sacramento","name":"Sacramento International Airport","code":"SMF","geo_score":0.857,"id":"a66csrs3qvxm","geo_precision":"city","state":"CA"},"type":"Feature","geometry":{"type":"Point","coordinates":[-121.4944,38.581572]}},{"properties":{"city":"Orange County","name":"John Wayne Airport","code":"SNA","geo_score":0.786,"id":"a66csrmies0h","geo_precision":"city","state":"CA"},"type":"Feature","geometry":{"type":"Point","coordinates":[-117.853112,33.787795]}},{"properties":{"city":"Tucson","name":"Tucson International Airport","code":"TUS","geo_score":0.857,"id":"a66csrfdtvf0","geo_precision":"city","state":"AZ"},"type":"Feature","geometry":{"type":"Point","coordinates":[-110.926479,32.221743]}}],"is_temporal":false,"author":{"url":"","metadata":"","contact_name":"","contact_address":"","source":"","contact_phone":""},"source":"","pagination":{"sort":null,"start":0,"total":35,"limit":1000000},"state":"complete","tags":"","published":"2014-08-13T09:09:54-04:00","id":187837}