{"type":"FeatureCollection","data_type":"Dataset","url_type":null,"permissions":[{"permissions":{"download":true,"view":true},"group_id":"everyone"}],"classification":null,"title":"Essential Air Service Dat","count":109,"stream_id":187859,"contributor":{"url":"http://geocommons.com/users/37491","name":"mdslosky"},"data_attributes":null,"calculation_params":null,"icon_link":null,"link":"http://geocommons.com/overlays/187859.json","extent":[-124.057,18.002,-66.6074,48.663],"geometry_types":["point"],"unique_name":null,"name":"Essential Air Service Dat","feature_count":109,"description":"","next_feature":null,"is_raster":false,"short_classification":"Y","stats":{"seats":{"max":50,"mean":21.5045871559633,"variance":118.011552837241,"stdev":10.8633122406217,"min":7,"median":19}},"features":[{"properties":{"city":"Muscle Shoals","carrier":"Mesaba","seats":34,"geo_score":0.857,"aircraft":"SAAB 340","id":"a66ztwg2y0xp","geo_precision":"city","hub":"MEM","state":"AL"},"type":"Feature","geometry":{"type":"Point","coordinates":[-87.70004,34.758537]}},{"properties":{"city":"El Dorado/Camden","carrier":"SeaPort","seats":9,"geo_score":0.735,"aircraft":"PC-12","id":"a66ztw3uemgj","geo_precision":"city","hub":"MEM","state":"AR"},"type":"Feature","geometry":{"type":"Point","coordinates":[-92.896003,35.902299]}},{"properties":{"city":"Harrison","carrier":"SeaPort","seats":9,"geo_score":0.857,"aircraft":"PC-12","id":"a66ztwc2fv5d","geo_precision":"city","hub":"MEM/MCI","state":"AR"},"type":"Feature","geometry":{"type":"Point","coordinates":[-93.092861,36.295086]}},{"properties":{"city":"Hot Springs","carrier":"SeaPort","seats":9,"geo_score":0.857,"aircraft":"PC-12","id":"a66ztw9c7mdx","geo_precision":"city","hub":"MEM","state":"AR"},"type":"Feature","geometry":{"type":"Point","coordinates":[-93.05518,34.5037]}},{"properties":{"city":"Jonesboro","carrier":"SeaPort","seats":9,"geo_score":0.857,"aircraft":"PC-12","id":"a66ztw7mjv63","geo_precision":"city","hub":"MEM","state":"AR"},"type":"Feature","geometry":{"type":"Point","coordinates":[-90.623071,35.835847]}},{"properties":{"city":"Kingman","carrier":"Great Lakes","seats":19,"geo_score":0.857,"aircraft":"B-1900","id":"a66ztwago575","geo_precision":"city","hub":"LAS","state":"AZ"},"type":"Feature","geometry":{"type":"Point","coordinates":[-114.017106,35.341456]}},{"properties":{"city":"Page","carrier":"Great Lakes","seats":19,"geo_score":0.857,"aircraft":"B-1900","id":"a66ztw3vuyea","geo_precision":"city","hub":"PHX","state":"AZ"},"type":"Feature","geometry":{"type":"Point","coordinates":[-111.502009,36.910804]}},{"properties":{"city":"Prescott","carrier":"Great Lakes","seats":19,"geo_score":0.857,"aircraft":"B-1900","id":"a66ztwhvvylz","geo_precision":"city","hub":"ONT/DEN","state":"AZ"},"type":"Feature","geometry":{"type":"Point","coordinates":[-112.567165,34.620826]}},{"properties":{"city":"Show Low","carrier":"Great Lakes","seats":19,"geo_score":0.857,"aircraft":"B-1900","id":"a66ztw3mzcjh","geo_precision":"city","hub":"PHX","state":"AZ"},"type":"Feature","geometry":{"type":"Point","coordinates":[-110.032025,34.570811]}},{"properties":{"city":"Crescent City","carrier":"SkyWest","seats":30,"geo_score":0.857,"aircraft":"BRASILIA","id":"a66ztwdcoox6","geo_precision":"city","hub":"SFO/SMF","state":"CA"},"type":"Feature","geometry":{"type":"Point","coordinates":[-124.056897,41.744452]}},{"properties":{"city":"El Centro","carrier":"SkyWest","seats":30,"geo_score":0.857,"aircraft":"BRASILIA","id":"a66ztwhqda5y","geo_precision":"city","hub":"LAX","state":"CA"},"type":"Feature","geometry":{"type":"Point","coordinates":[-115.503842,32.900509]}},{"properties":{"city":"Merced","carrier":"Great Lakes","seats":19,"geo_score":0.857,"aircraft":"B-1900","id":"a66ztw3jahjh","geo_precision":"city","hub":"LAS","state":"CA"},"type":"Feature","geometry":{"type":"Point","coordinates":[-120.475427,37.338191]}},{"properties":{"city":"Visalia","carrier":"Great Lakes","seats":19,"geo_score":0.857,"aircraft":"B-1900","id":"a66ztw74xltu","geo_precision":"city","hub":"ONT","state":"CA"},"type":"Feature","geometry":{"type":"Point","coordinates":[-119.292059,36.330228]}},{"properties":{"city":"Alamosa","carrier":"Great Lakes","seats":19,"geo_score":0.857,"aircraft":"B-1900","id":"a66ztwfm8g1b","geo_precision":"city","hub":"DEN","state":"CO"},"type":"Feature","geometry":{"type":"Point","coordinates":[-105.790967,37.479933]}},{"properties":{"city":"Cortez","carrier":"Great Lakes","seats":19,"geo_score":0.857,"aircraft":"B-1900","id":"a66ztw8395rk","geo_precision":"city","hub":"DEN","state":"CO"},"type":"Feature","geometry":{"type":"Point","coordinates":[-108.662826,37.373594]}},{"properties":{"city":"Pueblo","carrier":"Great Lakes","seats":19,"geo_score":0.857,"aircraft":"B-1900","id":"a66ztwdoawf3","geo_precision":"city","hub":"DEN","state":"CO"},"type":"Feature","geometry":{"type":"Point","coordinates":[-104.609141,38.254447]}},{"properties":{"city":"Athens","carrier":"Pacific Wings","seats":9,"geo_score":0.857,"aircraft":"C-208B","id":"a66ztwe24n94","geo_precision":"city","hub":"ATL","state":"GA"},"type":"Feature","geometry":{"type":"Point","coordinates":[-83.353697,33.992902]}},{"properties":{"city":"Macon","carrier":"Pacific Wings","seats":9,"geo_score":0.857,"aircraft":"C-208B","id":"a66ztwfdr2vd","geo_precision":"city","hub":"ATL","state":"GA"},"type":"Feature","geometry":{"type":"Point","coordinates":[-83.632402,32.840695]}},{"properties":{"city":"Burlington","carrier":"Air Choice One","seats":9,"geo_score":0.857,"aircraft":"Caravan","id":"a66ztw73v7ld","geo_precision":"city","hub":"STL/ORD","state":"IA"},"type":"Feature","geometry":{"type":"Point","coordinates":[-91.164393,40.898412]}},{"properties":{"city":"Fort Dodge","carrier":"Mesaba","seats":34,"geo_score":0.857,"aircraft":"SAAB 340","id":"a66ztwe45f4r","geo_precision":"city","hub":"MSP","state":"IA"},"type":"Feature","geometry":{"type":"Point","coordinates":[-94.166587,42.438596]}},{"properties":{"city":"Mason City","carrier":"Mesaba","seats":34,"geo_score":0.73,"aircraft":"SAAB 340","id":"a66ztw988sok","geo_precision":"city","hub":"MSP","state":"IA"},"type":"Feature","geometry":{"type":"Point","coordinates":[-92.161281,43.198027]}},{"properties":{"city":"Decatur","carrier":"Air Choice One","seats":9,"geo_score":0.857,"aircraft":"Caravan","id":"a66ztw5cidpt","geo_precision":"city","hub":"STL/ORD","state":"IL"},"type":"Feature","geometry":{"type":"Point","coordinates":[-88.946486,39.839477]}},{"properties":{"city":"Marion/Herrin","carrier":"Cape Air","seats":9,"geo_score":0.0,"aircraft":"C-402","id":"a66ztwa4ozmc","geo_precision":"unmatched","hub":"STL","state":"IL"},"type":"Feature","geometry":null},{"properties":{"city":"Quincy","carrier":"Cape Air","seats":9,"geo_score":0.857,"aircraft":"C-402","id":"a66ztwbu4wfh","geo_precision":"city","hub":"STL","state":"IL"},"type":"Feature","geometry":{"type":"Point","coordinates":[-91.200676,39.952413]}},{"properties":{"city":"Dodge City","carrier":"Great Lakes","seats":19,"geo_score":0.857,"aircraft":"B-1900","id":"a66ztw3scfgn","geo_precision":"city","hub":"DEN/MCI","state":"KS"},"type":"Feature","geometry":{"type":"Point","coordinates":[-99.902421,37.690531]}},{"properties":{"city":"Garden City","carrier":"Great Lakes","seats":19,"geo_score":0.757,"aircraft":"B-1900","id":"a66ztwfhhjzq","geo_precision":"city","hub":"DEN/MCI","state":"KS"},"type":"Feature","geometry":{"type":"Point","coordinates":[-99.21287,39.765288]}},{"properties":{"city":"Great Bend","carrier":"Great Lakes","seats":19,"geo_score":0.73,"aircraft":"B-1900","id":"a66ztwgwqlwe","geo_precision":"city","hub":"MCI","state":"KS"},"type":"Feature","geometry":{"type":"Point","coordinates":[-94.814683,38.811119]}},{"properties":{"city":"Hays","carrier":"Great Lakes","seats":19,"geo_score":0.857,"aircraft":"B-1900","id":"a66ztwe7kmi4","geo_precision":"city","hub":"DEN","state":"KS"},"type":"Feature","geometry":{"type":"Point","coordinates":[-99.334803,38.878202]}},{"properties":{"city":"Liberal/Guymon, OK","carrier":"Great Lakes","seats":19,"geo_score":0.0,"aircraft":"B-1900","id":"a66ztwgqxmbc","geo_precision":"unmatched","hub":"DEN","state":"KS"},"type":"Feature","geometry":null},{"properties":{"city":"Salina","carrier":"SeaPort","seats":9,"geo_score":0.857,"aircraft":"PC-12","id":"a66ztw7anebs","geo_precision":"city","hub":"MCI","state":"KS"},"type":"Feature","geometry":{"type":"Point","coordinates":[-97.642113,38.823673]}},{"properties":{"city":"Owensboro","carrier":"Pacific Wings","seats":9,"geo_score":0.857,"aircraft":"C-208","id":"a66ztwdwuqp5","geo_precision":"city","hub":"BNA","state":"KY"},"type":"Feature","geometry":{"type":"Point","coordinates":[-87.257303,37.751818]}},{"properties":{"city":"Paducah","carrier":"SkyWest","seats":50,"geo_score":0.857,"aircraft":"CRJ-200","id":"a66ztwan3hf1","geo_precision":"city","hub":"ORD","state":"KY"},"type":"Feature","geometry":{"type":"Point","coordinates":[-88.713292,37.031586]}},{"properties":{"city":"Hagerstown","carrier":"Cape Air","seats":9,"geo_score":0.857,"aircraft":"C-402","id":"a66ztw4n26vy","geo_precision":"city","hub":"BWI","state":"MD"},"type":"Feature","geometry":{"type":"Point","coordinates":[-77.700213,39.58887]}},{"properties":{"city":"Augusta/Waterville","carrier":"Colgan","seats":34,"geo_score":0.0,"aircraft":"SAAB 340","id":"a66ztwd7vnbx","geo_precision":"unmatched","hub":"BOS","state":"ME"},"type":"Feature","geometry":null},{"properties":{"city":"Bar Harbor","carrier":"Colgan","seats":34,"geo_score":0.857,"aircraft":"SAAB 340","id":"a66ztw46k0uc","geo_precision":"city","hub":"BOS","state":"ME"},"type":"Feature","geometry":{"type":"Point","coordinates":[-68.305513,44.362323]}},{"properties":{"city":"Presque Isle/Houlton","carrier":"Colgan","seats":34,"geo_score":0.802,"aircraft":"SAAB 340","id":"a66ztw3rsrls","geo_precision":"city","hub":"BOS","state":"ME"},"type":"Feature","geometry":{"type":"Point","coordinates":[-68.012557,46.715072]}},{"properties":{"city":"Rockland","carrier":"Cape Air","seats":9,"geo_score":0.857,"aircraft":"C-402","id":"a66ztw9zdias","geo_precision":"city","hub":"BOS","state":"ME"},"type":"Feature","geometry":{"type":"Point","coordinates":[-69.068648,44.128607]}},{"properties":{"city":"Escanaba","carrier":"Mesaba","seats":34,"geo_score":0.857,"aircraft":"SAAB 340","id":"a66ztw92x5h6","geo_precision":"city","hub":"DTW/MSP","state":"MI"},"type":"Feature","geometry":{"type":"Point","coordinates":[-87.057049,45.851343]}},{"properties":{"city":"Hancock/Houghton","carrier":"SkyWest","seats":50,"geo_score":0.781,"aircraft":"CRJ-200","id":"a66ztw6gwsz2","geo_precision":"city","hub":"ORD","state":"MI"},"type":"Feature","geometry":{"type":"Point","coordinates":[-88.558554,47.156614]}},{"properties":{"city":"Iron Mountain/Kingsford","carrier":"Mesaba","seats":34,"geo_score":0.796,"aircraft":"SAAB 340","id":"a66ztw5gocl5","geo_precision":"city","hub":"DTW/MSP","state":"MI"},"type":"Feature","geometry":{"type":"Point","coordinates":[-87.874496,46.021627]}},{"properties":{"city":"Ironwood/Ashland, WI","carrier":"Great Lakes","seats":19,"geo_score":0.782,"aircraft":"B-1900","id":"a66ztwhb4atl","geo_precision":"city","hub":"MKE","state":"MI"},"type":"Feature","geometry":{"type":"Point","coordinates":[-90.167111,46.479574]}},{"properties":{"city":"Manistee","carrier":"Great Lakes","seats":19,"geo_score":0.857,"aircraft":"B-1900","id":"a66ztwetzg5x","geo_precision":"city","hub":"MKE","state":"MI"},"type":"Feature","geometry":{"type":"Point","coordinates":[-86.182473,44.263534]}},{"properties":{"city":"Muskegon","carrier":"SkyWest","seats":50,"geo_score":0.79,"aircraft":"CRJ-200","id":"a66ztw70t2xg","geo_precision":"city","hub":"ORD","state":"MI"},"type":"Feature","geometry":{"type":"Point","coordinates":[-86.238946,43.201126]}},{"properties":{"city":"Chisholm/Hibbing","carrier":"Mesaba","seats":34,"geo_score":0.0,"aircraft":"SAAB 340","id":"a66ztw8oxzbn","geo_precision":"unmatched","hub":"MSP","state":"MN"},"type":"Feature","geometry":null},{"properties":{"city":"Thief River Falls","carrier":"Mesaba","seats":34,"geo_score":0.857,"aircraft":"SAAB 340","id":"a66ztwcc4o80","geo_precision":"city","hub":"MSP","state":"MN"},"type":"Feature","geometry":{"type":"Point","coordinates":[-96.149002,48.076333]}},{"properties":{"city":"Cape Girardeau","carrier":"Cape Air","seats":19,"geo_score":0.857,"aircraft":"B-1900","id":"a66ztwhrsfrd","geo_precision":"city","hub":"STL","state":"MO"},"type":"Feature","geometry":{"type":"Point","coordinates":[-89.611016,37.341398]}},{"properties":{"city":"Columbia/Jefferson City","carrier":"Mesaba","seats":34,"geo_score":0.0,"aircraft":"SAAB 340","id":"a66ztw63c5yy","geo_precision":"unmatched","hub":"MEM","state":"MO"},"type":"Feature","geometry":null},{"properties":{"city":"Fort Leonard Wood","carrier":"Great Lakes","seats":19,"geo_score":0.752,"aircraft":"B-1900","id":"a66ztwg1mq2j","geo_precision":"city","hub":"STL","state":"MO"},"type":"Feature","geometry":{"type":"Point","coordinates":[-89.638708,37.448661]}},{"properties":{"city":"Joplin","carrier":"Great Lakes","seats":19,"geo_score":0.857,"aircraft":"B-1900","id":"a66ztwb08bmf","geo_precision":"city","hub":"MCI","state":"MO"},"type":"Feature","geometry":{"type":"Point","coordinates":[-94.502663,37.113343]}},{"properties":{"city":"Kirksville","carrier":"Air Choice One","seats":7,"geo_score":0.857,"aircraft":"Navajo","id":"a66ztwby0hvy","geo_precision":"city","hub":"STL","state":"MO"},"type":"Feature","geometry":{"type":"Point","coordinates":[-92.609514,40.165717]}},{"properties":{"city":"Greenville","carrier":"Mesaba","seats":34,"geo_score":0.814,"aircraft":"SAAB 340","id":"a66ztwh5q123","geo_precision":"city","hub":"MEM","state":"MS"},"type":"Feature","geometry":{"type":"Point","coordinates":[-90.052862,32.249314]}},{"properties":{"city":"Laurel/Hattiesburg","carrier":"Mesaba","seats":34,"geo_score":0.0,"aircraft":"SAAB 340","id":"a66ztw2fi76x","geo_precision":"unmatched","hub":"MEM","state":"MS"},"type":"Feature","geometry":null},{"properties":{"city":"Meridian","carrier":"ASA","seats":50,"geo_score":0.857,"aircraft":"CRJ-200","id":"a66ztw6gh2lp","geo_precision":"city","hub":"ATL","state":"MS"},"type":"Feature","geometry":{"type":"Point","coordinates":[-88.703656,32.36431]}},{"properties":{"city":"Glasgow","carrier":"Great Lakes","seats":19,"geo_score":0.857,"aircraft":"B-1900","id":"a66ztw2bwzit","geo_precision":"city","hub":"BIL","state":"MT"},"type":"Feature","geometry":{"type":"Point","coordinates":[-106.474987,48.43923]}},{"properties":{"city":"Glendive","carrier":"Great Lakes","seats":19,"geo_score":0.857,"aircraft":"B-1900","id":"a66ztwcf9odq","geo_precision":"city","hub":"BIL","state":"MT"},"type":"Feature","geometry":{"type":"Point","coordinates":[-104.774873,47.180623]}},{"properties":{"city":"Havre","carrier":"Great Lakes","seats":19,"geo_score":0.857,"aircraft":"B-1900","id":"a66ztw6dbtoi","geo_precision":"city","hub":"BIL","state":"MT"},"type":"Feature","geometry":{"type":"Point","coordinates":[-110.09437,48.663002]}},{"properties":{"city":"Lewistown","carrier":"Great Lakes","seats":19,"geo_score":0.857,"aircraft":"B-1900","id":"a66ztw8pni17","geo_precision":"city","hub":"DEN","state":"MT"},"type":"Feature","geometry":{"type":"Point","coordinates":[-109.381996,47.250047]}},{"properties":{"city":"Miles City","carrier":"Great Lakes","seats":19,"geo_score":0.857,"aircraft":"B-1900","id":"a66ztw5jxh0c","geo_precision":"city","hub":"DEN","state":"MT"},"type":"Feature","geometry":{"type":"Point","coordinates":[-105.795343,46.447808]}},{"properties":{"city":"Sidney","carrier":"Great Lakes","seats":19,"geo_score":0.762,"aircraft":"B-1900","id":"a66ztw3p53eh","geo_precision":"city","hub":"DEN","state":"MT"},"type":"Feature","geometry":{"type":"Point","coordinates":[-110.851051,45.95882]}},{"properties":{"city":"West Yellowstone","carrier":"SkyWest","seats":30,"geo_score":0.857,"aircraft":"BRASILIA","id":"a66ztwf5ardy","geo_precision":"city","hub":"SLC","state":"MT"},"type":"Feature","geometry":{"type":"Point","coordinates":[-111.237705,44.763016]}},{"properties":{"city":"Wolf Point","carrier":"Great Lakes","seats":19,"geo_score":0.857,"aircraft":"B-1900","id":"a66ztwdtzrwy","geo_precision":"city","hub":"BIL","state":"MT"},"type":"Feature","geometry":{"type":"Point","coordinates":[-105.072426,48.2088]}},{"properties":{"city":"Devils Lake","carrier":"Mesaba","seats":34,"geo_score":0.729,"aircraft":"SAAB 340","id":"a66ztw59bpfl","geo_precision":"city","hub":"MSP","state":"ND"},"type":"Feature","geometry":{"type":"Point","coordinates":[-97.719825,46.70692]}},{"properties":{"city":"Dickinson","carrier":"Great Lakes","seats":30,"geo_score":0.857,"aircraft":"BRASILIA","id":"a66ztwc9muxo","geo_precision":"city","hub":"DEN","state":"ND"},"type":"Feature","geometry":{"type":"Point","coordinates":[-102.756514,46.805716]}},{"properties":{"city":"Jamestown","carrier":"Mesaba","seats":34,"geo_score":0.857,"aircraft":"SAAB 340","id":"a66ztwe8tye2","geo_precision":"city","hub":"MSP","state":"ND"},"type":"Feature","geometry":{"type":"Point","coordinates":[-98.745485,46.921005]}},{"properties":{"city":"Alliance","carrier":"Great Lakes","seats":19,"geo_score":0.857,"aircraft":"B-1900","id":"a66ztwc8yhqz","geo_precision":"city","hub":"DEN","state":"NE"},"type":"Feature","geometry":{"type":"Point","coordinates":[-103.073327,42.219844]}},{"properties":{"city":"Chadron","carrier":"Great Lakes","seats":19,"geo_score":0.857,"aircraft":"B-1900","id":"a66ztw5uywcb","geo_precision":"city","hub":"DEN","state":"NE"},"type":"Feature","geometry":{"type":"Point","coordinates":[-103.138479,42.774479]}},{"properties":{"city":"Grand Island","carrier":"Great Lakes","seats":19,"geo_score":0.74,"aircraft":"B-1900","id":"a66ztweptydp","geo_precision":"city","hub":"DEN","state":"NE"},"type":"Feature","geometry":{"type":"Point","coordinates":[-96.528909,40.138612]}},{"properties":{"city":"Kearney","carrier":"Great Lakes","seats":19,"geo_score":0.857,"aircraft":"B-1900","id":"a66ztw5d255n","geo_precision":"city","hub":"DEN","state":"NE"},"type":"Feature","geometry":{"type":"Point","coordinates":[-99.129054,40.75141]}},{"properties":{"city":"McCook","carrier":"Great Lakes","seats":19,"geo_score":0.857,"aircraft":"B-1900","id":"a66ztwf8h8v6","geo_precision":"city","hub":"DEN","state":"NE"},"type":"Feature","geometry":{"type":"Point","coordinates":[-100.620628,40.207969]}},{"properties":{"city":"North Platte","carrier":"Great Lakes","seats":19,"geo_score":0.857,"aircraft":"B-1900","id":"a66ztwf7vf9n","geo_precision":"city","hub":"DEN","state":"NE"},"type":"Feature","geometry":{"type":"Point","coordinates":[-100.74907,41.102555]}},{"properties":{"city":"Scottsbluff","carrier":"Great Lakes","seats":19,"geo_score":0.857,"aircraft":"B-1900","id":"a66ztw6nse9t","geo_precision":"city","hub":"DEN","state":"NE"},"type":"Feature","geometry":{"type":"Point","coordinates":[-103.77023,41.872005]}},{"properties":{"city":"Lebanon/White River Junction,VT","carrier":"Cape Air","seats":9,"geo_score":0.0,"aircraft":"C-402","id":"a66ztwh5nqcj","geo_precision":"unmatched","hub":"BOS/HPN","state":"NH"},"type":"Feature","geometry":null},{"properties":{"city":"Alamogordo/Holloman AFB","carrier":"Pacific Wings","seats":9,"geo_score":0.782,"aircraft":"C-208B","id":"a66ztwi6awxy","geo_precision":"city","hub":"ABQ","state":"NM"},"type":"Feature","geometry":{"type":"Point","coordinates":[-105.948967,32.870046]}},{"properties":{"city":"Carlsbad","carrier":"Pacific Wings","seats":19,"geo_score":0.802,"aircraft":"B-1900","id":"a66ztw4xef8g","geo_precision":"city","hub":"ABQ","state":"NM"},"type":"Feature","geometry":{"type":"Point","coordinates":[-104.22263,32.448984]}},{"properties":{"city":"Clovis","carrier":"Great Lakes","seats":19,"geo_score":0.857,"aircraft":"B-1900","id":"a66ztwgm9nq0","geo_precision":"city","hub":"ABQ","state":"NM"},"type":"Feature","geometry":{"type":"Point","coordinates":[-103.294978,34.497241]}},{"properties":{"city":"Silver City/Hurley/Deming","carrier":"Great Lakes","seats":19,"geo_score":0.779,"aircraft":"B-1900","id":"a66ztwh96sdz","geo_precision":"city","hub":"ABQ","state":"NM"},"type":"Feature","geometry":{"type":"Point","coordinates":[-108.330764,32.853738]}},{"properties":{"city":"Ely","carrier":"Great Lakes","seats":19,"geo_score":0.857,"aircraft":"B-1900","id":"a66ztw6jwdcz","geo_precision":"city","hub":"DEN","state":"NV"},"type":"Feature","geometry":{"type":"Point","coordinates":[-114.840433,39.314155]}},{"properties":{"city":"Jamestown","carrier":"Gulfstream","seats":19,"geo_score":0.857,"aircraft":"B-1900","id":"a66ztwb8550t","geo_precision":"city","hub":"CLE","state":"NY"},"type":"Feature","geometry":{"type":"Point","coordinates":[-79.432256,42.196125]}},{"properties":{"city":"Massena","carrier":"Cape Air","seats":9,"geo_score":0.857,"aircraft":"C-402","id":"a66ztwel26jm","geo_precision":"city","hub":"ALB","state":"NY"},"type":"Feature","geometry":{"type":"Point","coordinates":[-75.152249,44.57026]}},{"properties":{"city":"Ogdensburg","carrier":"Cape Air","seats":9,"geo_score":0.857,"aircraft":"C-402","id":"a66ztw5hs30h","geo_precision":"city","hub":"ALB","state":"NY"},"type":"Feature","geometry":{"type":"Point","coordinates":[-75.249795,44.509143]}},{"properties":{"city":"Plattsburgh","carrier":"Cape Air","seats":9,"geo_score":0.857,"aircraft":"C-402","id":"a66ztwd2soag","geo_precision":"city","hub":"BOS","state":"NY"},"type":"Feature","geometry":{"type":"Point","coordinates":[-73.637104,44.71187]}},{"properties":{"city":"Saranac Lake/Lake Placid","carrier":"Cape Air","seats":9,"geo_score":0.762,"aircraft":"C-402","id":"a66ztw780sg5","geo_precision":"city","hub":"BOS","state":"NY"},"type":"Feature","geometry":{"type":"Point","coordinates":[-73.809266,44.624413]}},{"properties":{"city":"Watertown","carrier":"Cape Air","seats":9,"geo_score":0.857,"aircraft":"C-402","id":"a66ztwcy99o8","geo_precision":"city","hub":"ALB","state":"NY"},"type":"Feature","geometry":{"type":"Point","coordinates":[-76.016589,44.072542]}},{"properties":{"city":"Pendleton","carrier":"SeaPort","seats":9,"geo_score":0.857,"aircraft":"PC-12","id":"a66ztwf7d3jo","geo_precision":"city","hub":"PDX","state":"OR"},"type":"Feature","geometry":{"type":"Point","coordinates":[-118.637974,45.711814]}},{"properties":{"city":"Altoona","carrier":"Colgan","seats":34,"geo_score":0.776,"aircraft":"SAAB 340","id":"a66ztw6i7en5","geo_precision":"city","hub":"IAD","state":"PA"},"type":"Feature","geometry":{"type":"Point","coordinates":[-76.012424,41.182027]}},{"properties":{"city":"Bradford","carrier":"Gulfstream","seats":19,"geo_score":0.841,"aircraft":"B-1900","id":"a66ztwa3au0d","geo_precision":"city","hub":"CLE","state":"PA"},"type":"Feature","geometry":{"type":"Point","coordinates":[-79.608372,40.047296]}},{"properties":{"city":"DuBois","carrier":"Gulfstream","seats":19,"geo_score":0.857,"aircraft":"B-1900","id":"a66ztwbc8821","geo_precision":"city","hub":"CLE","state":"PA"},"type":"Feature","geometry":{"type":"Point","coordinates":[-78.720302,41.118045]}},{"properties":{"city":"Johnstown","carrier":"Colgan","seats":34,"geo_score":0.857,"aircraft":"SAAB 340","id":"a66ztwh6h73z","geo_precision":"city","hub":"IAD","state":"PA"},"type":"Feature","geometry":{"type":"Point","coordinates":[-78.92197,40.326741]}},{"properties":{"city":"Lancaster","carrier":"Cape Air","seats":9,"geo_score":0.762,"aircraft":"C-402","id":"a66ztwhdus5t","geo_precision":"city","hub":"BWI","state":"PA"},"type":"Feature","geometry":{"type":"Point","coordinates":[-76.658856,39.960376]}},{"properties":{"city":"Oil City/Franklin","carrier":"Gulfstream","seats":19,"geo_score":0.733,"aircraft":"B-1900","id":"a66ztw93p6y5","geo_precision":"city","hub":"CLE","state":"PA"},"type":"Feature","geometry":{"type":"Point","coordinates":[-79.160871,41.083398]}},{"properties":{"city":"Mayaguez","carrier":"Cape Air","seats":9,"geo_score":0.857,"aircraft":"C-402","id":"a66ztw6rogaq","geo_precision":"city","hub":"SJU","state":"PR"},"type":"Feature","geometry":{"type":"Point","coordinates":[-67.508068,18.219023]}},{"properties":{"city":"Ponce","carrier":"Cape Air","seats":9,"geo_score":0.857,"aircraft":"C-402","id":"a66ztwh0ocv8","geo_precision":"city","hub":"SJU","state":"PR"},"type":"Feature","geometry":{"type":"Point","coordinates":[-66.607429,18.001995]}},{"properties":{"city":"Huron","carrier":"Great Lakes","seats":19,"geo_score":0.857,"aircraft":"B-1900","id":"a66ztw2xjast","geo_precision":"city","hub":"DEN","state":"SD"},"type":"Feature","geometry":{"type":"Point","coordinates":[-98.180113,44.398874]}},{"properties":{"city":"Watertown","carrier":"Mesaba","seats":34,"geo_score":0.857,"aircraft":"SAAB 340","id":"a66ztw4mrbme","geo_precision":"city","hub":"MSP","state":"SD"},"type":"Feature","geometry":{"type":"Point","coordinates":[-97.177954,44.955643]}},{"properties":{"city":"Jackson","carrier":"Pacific Wings","seats":9,"geo_score":0.857,"aircraft":"C-208","id":"a66ztwc0vf2d","geo_precision":"city","hub":"BNA","state":"TN"},"type":"Feature","geometry":{"type":"Point","coordinates":[-88.813947,35.614517]}},{"properties":{"city":"Victoria","carrier":"Colgan","seats":34,"geo_score":0.857,"aircraft":"SAAB 340","id":"a66ztw6wx6qg","geo_precision":"city","hub":"IAH","state":"TX"},"type":"Feature","geometry":{"type":"Point","coordinates":[-96.776656,31.597946]}},{"properties":{"city":"Cedar City","carrier":"SkyWest","seats":30,"geo_score":0.746,"aircraft":"BRASILIA","id":"a66ztw82zcso","geo_precision":"city","hub":"SLC","state":"UT"},"type":"Feature","geometry":{"type":"Point","coordinates":[-111.855213,39.868288]}},{"properties":{"city":"Moab","carrier":"Great Lakes","seats":19,"geo_score":0.857,"aircraft":"B-1900","id":"a66ztw6h6v1j","geo_precision":"city","hub":"DEN","state":"UT"},"type":"Feature","geometry":{"type":"Point","coordinates":[-109.54019,38.5804]}},{"properties":{"city":"Vernal","carrier":"Great Lakes","seats":19,"geo_score":0.857,"aircraft":"B-1900","id":"a66ztwbb1w3v","geo_precision":"city","hub":"DEN","state":"UT"},"type":"Feature","geometry":{"type":"Point","coordinates":[-109.556103,40.368246]}},{"properties":{"city":"Staunton","carrier":"Colgan","seats":19,"geo_score":0.81,"aircraft":"B-1900","id":"a66ztw7xi39z","geo_precision":"city","hub":"IAD","state":"VA"},"type":"Feature","geometry":{"type":"Point","coordinates":[-79.09253,38.16402]}},{"properties":{"city":"Rutland","carrier":"Cape Air","seats":9,"geo_score":0.857,"aircraft":"C-402","id":"a66ztwgrsckr","geo_precision":"city","hub":"BOS","state":"VT"},"type":"Feature","geometry":{"type":"Point","coordinates":[-72.93586,43.630346]}},{"properties":{"city":"Eau Claire","carrier":"SkyWest","seats":50,"geo_score":0.857,"aircraft":"CRJ-200","id":"a66ztwc5a7f8","geo_precision":"city","hub":"ORD","state":"WI"},"type":"Feature","geometry":{"type":"Point","coordinates":[-91.473097,44.75653]}},{"properties":{"city":"Beckley","carrier":"Colgan","seats":34,"geo_score":0.857,"aircraft":"SAAB 340","id":"a66ztw3r4neq","geo_precision":"city","hub":"IAD","state":"WV"},"type":"Feature","geometry":{"type":"Point","coordinates":[-81.216446,37.767248]}},{"properties":{"city":"Clarksburg","carrier":"Colgan","seats":34,"geo_score":0.857,"aircraft":"SAAB 340","id":"a66ztw47h8ks","geo_precision":"city","hub":"IAD","state":"WV"},"type":"Feature","geometry":{"type":"Point","coordinates":[-80.341883,39.287434]}},{"properties":{"city":"Greenbrier/White Sulphur Spr./Lewisburg","carrier":"Gulfstream","seats":19,"geo_score":0.739,"aircraft":"B-1900","id":"a66ztw6bn2ej","geo_precision":"city","hub":"CLE","state":"WV"},"type":"Feature","geometry":{"type":"Point","coordinates":[-81.195101,37.82178]}},{"properties":{"city":"Morgantown","carrier":"Colgan","seats":34,"geo_score":0.857,"aircraft":"SAAB 340","id":"a66ztwhdbogv","geo_precision":"city","hub":"IAD","state":"WV"},"type":"Feature","geometry":{"type":"Point","coordinates":[-79.983141,39.609911]}},{"properties":{"city":"Parkersburg/Marietta","carrier":"Colgan","seats":34,"geo_score":0.797,"aircraft":"SAAB 340","id":"a66ztw6luym6","geo_precision":"city","hub":"IAD","state":"WV"},"type":"Feature","geometry":{"type":"Point","coordinates":[-81.55477,39.286315]}},{"properties":{"city":"Laramie","carrier":"Great Lakes","seats":19,"geo_score":0.857,"aircraft":"B-1900","id":"a66ztw3knfx3","geo_precision":"city","hub":"DEN","state":"WY"},"type":"Feature","geometry":{"type":"Point","coordinates":[-105.801022,41.43902]}},{"properties":{"city":"Worland","carrier":"Great Lakes","seats":19,"geo_score":0.857,"aircraft":"B-1900","id":"a66ztw9fcbt9","geo_precision":"city","hub":"DEN","state":"WY"},"type":"Feature","geometry":{"type":"Point","coordinates":[-108.141457,44.008105]}}],"is_temporal":false,"author":{"url":"","metadata":"","contact_name":"","contact_address":"","source":"","contact_phone":""},"source":"","pagination":{"sort":null,"start":0,"total":109,"limit":1000000},"state":"complete","tags":"","published":"2014-08-13T09:11:28-04:00","id":187859}