{"type":"FeatureCollection","data_type":"Dataset","url_type":null,"permissions":[{"permissions":{"download":true,"view":true},"group_id":"everyone"}],"classification":null,"title":"Airports - Small Hubs (1)","count":247,"stream_id":187857,"contributor":{"url":"http://geocommons.com/users/37491","name":"mdslosky"},"data_attributes":null,"calculation_params":null,"icon_link":null,"link":"http://geocommons.com/overlays/187857.json","extent":[-170.605,-14.275,-64.7347,70.2056],"geometry_types":["point"],"unique_name":null,"name":"Airports - Small Hubs (1)","feature_count":247,"description":"","next_feature":null,"is_raster":false,"short_classification":"Y","stats":{},"features":[{"properties":{"city":"Allentown","name":"Lehigh Valley International Airport","code":"ABE","geo_score":0.857,"id":"a6dl1rfv5khu","geo_precision":"city","state":"PA"},"type":"Feature","geometry":{"type":"Point","coordinates":[-75.490183,40.608431]}},{"properties":{"city":"Egg Harbor Twp","name":"Atlantic City International Airport","code":"ACY","geo_score":0.786,"id":"a6dl1r1viia9","geo_precision":"city","state":"NJ"},"type":"Feature","geometry":{"type":"Point","coordinates":[-74.852109,40.352329]}},{"properties":{"city":"Albany","name":"Albany International Airport","code":"ALB","geo_score":0.857,"id":"a6dl1r1hkpz6","geo_precision":"city","state":"NY"},"type":"Feature","geometry":{"type":"Point","coordinates":[-73.756232,42.652579]}},{"properties":{"city":"Amarillo","name":"Amarillo International Airport","code":"AMA","geo_score":0.857,"id":"a6dl1r4ryn3x","geo_precision":"city","state":"TX"},"type":"Feature","geometry":{"type":"Point","coordinates":[-101.831297,35.221997]}},{"properties":{"city":"Birmingham","name":"Birmingham International Airport","code":"BHM","geo_score":0.857,"id":"a6dl1rai3gow","geo_precision":"city","state":"AL"},"type":"Feature","geometry":{"type":"Point","coordinates":[-86.80249,33.520661]}},{"properties":{"city":"Billings","name":"Billings Logan International Airport","code":"BIL","geo_score":0.857,"id":"a6dl1r4fwfuy","geo_precision":"city","state":"MT"},"type":"Feature","geometry":{"type":"Point","coordinates":[-108.50069,45.783286]}},{"properties":{"city":"Boise","name":"Boise Airport","code":"BOI","geo_score":0.857,"id":"a6dl1rek6ym6","geo_precision":"city","state":"ID"},"type":"Feature","geometry":{"type":"Point","coordinates":[-116.203451,43.6135]}},{"properties":{"city":"Baton Rouge","name":"Baton Rouge International Airport","code":"BTR","geo_score":0.857,"id":"a6dl1reh67tr","geo_precision":"city","state":"LA"},"type":"Feature","geometry":{"type":"Point","coordinates":[-91.154551,30.450746]}},{"properties":{"city":"South Burlington","name":"Burlington International Airport","code":"BTV","geo_score":0.743,"id":"a6dl1rd3reae","geo_precision":"city","state":"VT"},"type":"Feature","geometry":{"type":"Point","coordinates":[-72.575941,44.21006]}},{"properties":{"city":"Columbia","name":"Columbia Metropolitan Airport","code":"CAE","geo_score":0.857,"id":"a6dl1r2gwm4e","geo_precision":"city","state":"SC"},"type":"Feature","geometry":{"type":"Point","coordinates":[-81.024864,33.987454]}},{"properties":{"city":"North Canton","name":"Akron-Canton Airport","code":"CAK","geo_score":0.792,"id":"a6dl1r7k0t1r","geo_precision":"city","state":"OH"},"type":"Feature","geometry":{"type":"Point","coordinates":[-81.378447,40.798947]}},{"properties":{"city":"Charleston","name":"Charleston International Airport","code":"CHS","geo_score":0.798,"id":"a6dl1r7bj8q6","geo_precision":"city","state":"SC"},"type":"Feature","geometry":{"type":"Point","coordinates":[-79.970643,32.85712]}},{"properties":{"city":"Cedar Rapids","name":"Cedar Rapids Eastern Iowa Airport","code":"CID","geo_score":0.857,"id":"a6dl1r2gbkuz","geo_precision":"city","state":"IA"},"type":"Feature","geometry":{"type":"Point","coordinates":[-91.644068,42.008333]}},{"properties":{"city":"Colorado Springs","name":"Colorado Springs Airport","code":"COS","geo_score":0.857,"id":"a6dl1r9gn8nc","geo_precision":"city","state":"CO"},"type":"Feature","geometry":{"type":"Point","coordinates":[-104.821363,38.833882]}},{"properties":{"city":"Corpus Christi","name":"Corpus Christi International Airport","code":"CRP","geo_score":0.857,"id":"a6dl1repzptn","geo_precision":"city","state":"TX"},"type":"Feature","geometry":{"type":"Point","coordinates":[-97.396381,27.800583]}},{"properties":{"city":"Dayton","name":"Dayton International Airport","code":"DAY","geo_score":0.857,"id":"a6dl1rf0fluh","geo_precision":"city","state":"OH"},"type":"Feature","geometry":{"type":"Point","coordinates":[-84.191607,39.758948]}},{"properties":{"city":"Des Moines","name":"Des Moines International Airport","code":"DSM","geo_score":0.857,"id":"a6dl1rezvugu","geo_precision":"city","state":"IA"},"type":"Feature","geometry":{"type":"Point","coordinates":[-93.609106,41.600545]}},{"properties":{"city":"El Paso","name":"El Paso International Airport","code":"ELP","geo_score":0.857,"id":"a6dl1r2u938e","geo_precision":"city","state":"TX"},"type":"Feature","geometry":{"type":"Point","coordinates":[-106.486931,31.75872]}},{"properties":{"city":"Fairbanks","name":"Fairbanks International Airport","code":"FAI","geo_score":0.857,"id":"a6dl1rcn5585","geo_precision":"city","state":"AK"},"type":"Feature","geometry":{"type":"Point","coordinates":[-147.522052,64.644047]}},{"properties":{"city":"Fresno","name":"Fresno Air Terminal","code":"FAT","geo_score":0.857,"id":"a6dl1ra935av","geo_precision":"city","state":"CA"},"type":"Feature","geometry":{"type":"Point","coordinates":[-119.772366,36.747727]}},{"properties":{"city":"Flint","name":"Bishop International Airport","code":"FNT","geo_score":0.857,"id":"a6dl1r4ba9we","geo_precision":"city","state":"MI"},"type":"Feature","geometry":{"type":"Point","coordinates":[-83.687456,43.012527]}},{"properties":{"city":"Grand Canyon","name":"Grand Canyon National Park Airport","code":"GCN","geo_score":0.802,"id":"a6dl1r73zksj","geo_precision":"city","state":"AZ"},"type":"Feature","geometry":{"type":"Point","coordinates":[-113.231316,35.528327]}},{"properties":{"city":"Spokane","name":"Spokane International Airport","code":"GEG","geo_score":0.857,"id":"a6dl1r6jy8zx","geo_precision":"city","state":"WA"},"type":"Feature","geometry":{"type":"Point","coordinates":[-117.426047,47.65878]}},{"properties":{"city":"Gulfport","name":"Gulfport-Biloxi International Airport","code":"GPT","geo_score":0.857,"id":"a6dl1r56vykc","geo_precision":"city","state":"MS"},"type":"Feature","geometry":{"type":"Point","coordinates":[-89.092816,30.36742]}},{"properties":{"city":"Green Bay","name":"Austin Straubel International Airport","code":"GRB","geo_score":0.857,"id":"a6dl1rdm8t1q","geo_precision":"city","state":"WI"},"type":"Feature","geometry":{"type":"Point","coordinates":[-88.019826,44.519159]}},{"properties":{"city":"Grand Rapids","name":"Gerald R. Ford International Airport","code":"GRR","geo_score":0.857,"id":"a6dl1r6jh6tx","geo_precision":"city","state":"MI"},"type":"Feature","geometry":{"type":"Point","coordinates":[-85.668086,42.96336]}},{"properties":{"city":"Saipan Island","name":"Saipan International Airport","code":"GSN","geo_score":0.0,"id":"a6dl1r7qc4f4","geo_precision":"unmatched","state":"CQ"},"type":"Feature","geometry":null},{"properties":{"city":"Greensboro","name":"Piedmont Triad International Airport","code":"GSO","geo_score":0.857,"id":"a6dl1rb2zoeg","geo_precision":"city","state":"NC"},"type":"Feature","geometry":{"type":"Point","coordinates":[-79.791975,36.072636]}},{"properties":{"city":"Greenville","name":"Greenville/Spartanburg Airport","code":"GSP","geo_score":0.857,"id":"a6dl1r8g1ai7","geo_precision":"city","state":"SC"},"type":"Feature","geometry":{"type":"Point","coordinates":[-82.402871,34.848567]}},{"properties":{"city":"Agana","name":"Guam International Airport","code":"GUM","geo_score":0.0,"id":"a6dl1r57kpya","geo_precision":"unmatched","state":"GU"},"type":"Feature","geometry":null},{"properties":{"city":"White Plains","name":"Westchester County Airport","code":"HPN","geo_score":0.857,"id":"a6dl1re50ykc","geo_precision":"city","state":"NY"},"type":"Feature","geometry":{"type":"Point","coordinates":[-73.769626,41.031397]}},{"properties":{"city":"Harlingen","name":"Valley International Airport","code":"HRL","geo_score":0.857,"id":"a6dl1r3ia2vu","geo_precision":"city","state":"TX"},"type":"Feature","geometry":{"type":"Point","coordinates":[-97.536807,26.185202]}},{"properties":{"city":"Huntsville","name":"Huntsville International Airport","code":"HSV","geo_score":0.857,"id":"a6dl1r5031t1","geo_precision":"city","state":"AL"},"type":"Feature","geometry":{"type":"Point","coordinates":[-86.556439,34.718428]}},{"properties":{"city":"Wichita","name":"Wichita Mid-Continent Airport","code":"ICT","geo_score":0.857,"id":"a6dl1r9jv73v","geo_precision":"city","state":"KS"},"type":"Feature","geometry":{"type":"Point","coordinates":[-97.337545,37.692236]}},{"properties":{"city":"Islip","name":"Macarthur Airport","code":"ISP","geo_score":0.857,"id":"a6dl1r2zogi6","geo_precision":"city","state":"NY"},"type":"Feature","geometry":{"type":"Point","coordinates":[-73.217871,40.72813]}},{"properties":{"city":"Hilo","name":"Hilo International Airport","code":"ITO","geo_score":0.8,"id":"a6dl1raeill5","geo_precision":"city","state":"HI"},"type":"Feature","geometry":{"type":"Point","coordinates":[-156.2275,20.908333]}},{"properties":{"city":"Jackson","name":"Jackson-Evers International Airport","code":"JAN","geo_score":0.857,"id":"a6dl1r2ig6si","geo_precision":"city","state":"MS"},"type":"Feature","geometry":{"type":"Point","coordinates":[-90.18481,32.298757]}},{"properties":{"city":"Juneau","name":"Juneau International Airport","code":"JNU","geo_score":0.857,"id":"a6dl1rafphtz","geo_precision":"city","state":"AK"},"type":"Feature","geometry":{"type":"Point","coordinates":[-134.523946,58.373561]}},{"properties":{"city":"Keahole","name":"Kona International Airport","code":"KOA","geo_score":0.776,"id":"a6dl1r3z0u6x","geo_precision":"city","state":"HI"},"type":"Feature","geometry":{"type":"Point","coordinates":[-155.969167,19.583333]}},{"properties":{"city":"Lubbock","name":"Lubbock International Airport","code":"LBB","geo_score":0.857,"id":"a6dl1rdty35t","geo_precision":"city","state":"TX"},"type":"Feature","geometry":{"type":"Point","coordinates":[-101.855167,33.577863]}},{"properties":{"city":"Lexington","name":"Blue Grass Airport","code":"LEX","geo_score":0.857,"id":"a6dl1r1f033c","geo_precision":"city","state":"KY"},"type":"Feature","geometry":{"type":"Point","coordinates":[-84.477715,37.988689]}},{"properties":{"city":"Long Beach","name":"Long Beach Airport","code":"LGB","geo_score":0.857,"id":"a6dl1r76mulj","geo_precision":"city","state":"CA"},"type":"Feature","geometry":{"type":"Point","coordinates":[-118.189235,33.766962]}},{"properties":{"city":"Lihue","name":"Lihue Airport","code":"LIH","geo_score":0.857,"id":"a6dl1rb6hvks","geo_precision":"city","state":"HI"},"type":"Feature","geometry":{"type":"Point","coordinates":[-159.430328,22.070553]}},{"properties":{"city":"Little Rock","name":"Little Rock National Airport","code":"LIT","geo_score":0.857,"id":"a6dl1r5xlfux","geo_precision":"city","state":"AR"},"type":"Feature","geometry":{"type":"Point","coordinates":[-92.289595,34.746481]}},{"properties":{"city":"Midland","name":"Midland International Airport","code":"MAF","geo_score":0.857,"id":"a6dl1rc14lz8","geo_precision":"city","state":"TX"},"type":"Feature","geometry":{"type":"Point","coordinates":[-102.091276,31.861876]}},{"properties":{"city":"Harrisburg","name":"Harrisburg International Airport","code":"MDT","geo_score":0.857,"id":"a6dl1ranbtqo","geo_precision":"city","state":"PA"},"type":"Feature","geometry":{"type":"Point","coordinates":[-76.884418,40.2737]}},{"properties":{"city":"Moline","name":"Quad City International Airport","code":"MLI","geo_score":0.786,"id":"a6dl1r4qiarp","geo_precision":"city","state":"IL"},"type":"Feature","geometry":{"type":"Point","coordinates":[-90.595736,41.420305]}},{"properties":{"city":"Madison","name":"Dane County Regional Airport","code":"MSN","geo_score":0.857,"id":"a6dl1r19zi30","geo_precision":"city","state":"WI"},"type":"Feature","geometry":{"type":"Point","coordinates":[-89.40123,43.073052]}},{"properties":{"city":"Myrtle Beach","name":"Myrtle Beach Airport","code":"MYR","geo_score":0.857,"id":"a6dl1r7ltbtl","geo_precision":"city","state":"SC"},"type":"Feature","geometry":{"type":"Point","coordinates":[-78.852005,33.711741]}},{"properties":{"city":"Oklahoma City","name":"Will Rogers World Airport","code":"OKC","geo_score":0.857,"id":"a6dl1r61tw9j","geo_precision":"city","state":"OK"},"type":"Feature","geometry":{"type":"Point","coordinates":[-97.516428,35.46756]}},{"properties":{"city":"Newport News","name":"Newport News/Williamsburg International Airport","code":"PHF","geo_score":0.857,"id":"a6dl1r48nusr","geo_precision":"city","state":"VA"},"type":"Feature","geometry":{"type":"Point","coordinates":[-76.428003,36.978759]}},{"properties":{"city":"Saint Petersburg","name":"St. Petersburg-Clearwater International Airport","code":"PIE","geo_score":0.857,"id":"a6dl1r3uw8fn","geo_precision":"city","state":"FL"},"type":"Feature","geometry":{"type":"Point","coordinates":[-82.679266,27.770861]}},{"properties":{"city":"Pensacola","name":"Pensacola Regional Airport","code":"PNS","geo_score":0.857,"id":"a6dl1rg6eb7i","geo_precision":"city","state":"FL"},"type":"Feature","geometry":{"type":"Point","coordinates":[-87.216915,30.421309]}},{"properties":{"city":"Palm Springs","name":"Palm Springs International Airport","code":"PSP","geo_score":0.857,"id":"a6dl1r4o40l0","geo_precision":"city","state":"CA"},"type":"Feature","geometry":{"type":"Point","coordinates":[-116.545292,33.830296]}},{"properties":{"city":"Portland","name":"Portland International Jetport","code":"PWM","geo_score":0.857,"id":"a6dl1r3mrmgn","geo_precision":"city","state":"ME"},"type":"Feature","geometry":{"type":"Point","coordinates":[-70.255326,43.661471]}},{"properties":{"city":"Richmond","name":"Richmond International Airport","code":"RIC","geo_score":0.857,"id":"a6dl1r4uevo4","geo_precision":"city","state":"VA"},"type":"Feature","geometry":{"type":"Point","coordinates":[-77.460262,37.553758]}},{"properties":{"city":"Rochester","name":"Greater Rochester International Airport","code":"ROC","geo_score":0.857,"id":"a6dl1rastd7e","geo_precision":"city","state":"NY"},"type":"Feature","geometry":{"type":"Point","coordinates":[-77.615557,43.154785]}},{"properties":{"city":"Savannah","name":"Savannah/Hilton Head International Airport","code":"SAV","geo_score":0.857,"id":"a6dl1r3pq9lv","geo_precision":"city","state":"GA"},"type":"Feature","geometry":{"type":"Point","coordinates":[-81.099834,32.083541]}},{"properties":{"city":"Santa Barbara","name":"Santa Barbara Airport","code":"SBA","geo_score":0.857,"id":"a6dl1rcajpbn","geo_precision":"city","state":"CA"},"type":"Feature","geometry":{"type":"Point","coordinates":[-119.69819,34.420831]}},{"properties":{"city":"South Bend","name":"South Bend Regional Airport","code":"SBN","geo_score":0.857,"id":"a6dl1r7uiatq","geo_precision":"city","state":"IN"},"type":"Feature","geometry":{"type":"Point","coordinates":[-86.250007,41.683381]}},{"properties":{"city":"Sanford","name":"Orlando Sanford International Airport","code":"SFB","geo_score":0.857,"id":"a6dl1r9goca5","geo_precision":"city","state":"FL"},"type":"Feature","geometry":{"type":"Point","coordinates":[-81.299169,28.793491]}},{"properties":{"city":"Sarasota","name":"Sarasota-Bradenton International Airport","code":"SRQ","geo_score":0.857,"id":"a6dl1reuv1t1","geo_precision":"city","state":"FL"},"type":"Feature","geometry":{"type":"Point","coordinates":[-82.530653,27.336435]}},{"properties":{"city":"Charlotte Amalie","name":"Cyril E King Airport","code":"STT","geo_score":0.827,"id":"a6dl1r9bv8x5","geo_precision":"city","state":"VI"},"type":"Feature","geometry":{"type":"Point","coordinates":[-64.913403,18.335469]}},{"properties":{"city":"Syracuse","name":"Syracuse Hancock International Airport","code":"SYR","geo_score":0.857,"id":"a6dl1rfza81o","geo_precision":"city","state":"NY"},"type":"Feature","geometry":{"type":"Point","coordinates":[-76.147424,43.048122]}},{"properties":{"city":"Tallahassee","name":"Tallahassee Regional Airport","code":"TLH","geo_score":0.857,"id":"a6dl1r63cns9","geo_precision":"city","state":"FL"},"type":"Feature","geometry":{"type":"Point","coordinates":[-84.280733,30.438256]}},{"properties":{"city":"Tulsa","name":"Tulsa International Airport","code":"TUL","geo_score":0.857,"id":"a6dl1r16v0lh","geo_precision":"city","state":"OK"},"type":"Feature","geometry":{"type":"Point","coordinates":[-95.992775,36.153982]}},{"properties":{"city":"Knoxville","name":"Mcghee Tyson Airport","code":"TYS","geo_score":0.794,"id":"a6dl1r7w2j0g","geo_precision":"city","state":"TN"},"type":"Feature","geometry":{"type":"Point","coordinates":[-86.784443,36.16589]}},{"properties":{"city":"Valparaiso","name":"Fort Walton Beach Airport","code":"VPS","geo_score":0.857,"id":"a6dl1rfdfzwi","geo_precision":"city","state":"FL"},"type":"Feature","geometry":{"type":"Point","coordinates":[-86.49706,30.50821]}},{"properties":{"city":"Fayetteville","name":"Northwest Arkansas Regional Airport","code":"XNA","geo_score":0.857,"id":"a6dl1revhsbn","geo_precision":"city","state":"AR"},"type":"Feature","geometry":{"type":"Point","coordinates":[-94.190997,35.974602]}},{"properties":{"city":"Eau Claire","name":"Chippewa Valley Regional Airport","code":"EAU","geo_score":0.857,"id":"a6dl1r28qwmr","geo_precision":"city","state":"WI"},"type":"Feature","geometry":{"type":"Point","coordinates":[-91.473097,44.75653]}},{"properties":{"city":"Houston","name":"Ellington Field","code":"EFD","geo_score":0.816,"id":"a6dl1rgp2zff","geo_precision":"city","state":"TX"},"type":"Feature","geometry":{"type":"Point","coordinates":[-96.919704,29.845783]}},{"properties":{"city":"Eagle","name":"Eagle County Regional Airport","code":"EGE","geo_score":0.857,"id":"a6dl1rfugj1y","geo_precision":"city","state":"CO"},"type":"Feature","geometry":{"type":"Point","coordinates":[-106.805111,39.607401]}},{"properties":{"city":"Elko","name":"Elko Regional Airport","code":"EKO","geo_score":0.857,"id":"a6dl1r6923px","geo_precision":"city","state":"NV"},"type":"Feature","geometry":{"type":"Point","coordinates":[-115.534429,40.905583]}},{"properties":{"city":"Elmira/Corning","name":"Elmira/Corning Regional Airport","code":"ELM","geo_score":0.0,"id":"a6dl1racrhen","geo_precision":"unmatched","state":"NY"},"type":"Feature","geometry":null},{"properties":{"city":"Kenai","name":"Kenai Municipal Airport","code":"ENA","geo_score":0.857,"id":"a6dl1r1u8fsz","geo_precision":"city","state":"AK"},"type":"Feature","geometry":{"type":"Point","coordinates":[-150.407958,60.422041]}},{"properties":{"city":"Erie","name":"Erie International Airport","code":"ERI","geo_score":0.857,"id":"a6dl1ra8wj2d","geo_precision":"city","state":"PA"},"type":"Feature","geometry":{"type":"Point","coordinates":[-80.085059,42.129224]}},{"properties":{"city":"Escanaba","name":"Delta County Airport","code":"ESC","geo_score":0.857,"id":"a6dl1r5sguis","geo_precision":"city","state":"MI"},"type":"Feature","geometry":{"type":"Point","coordinates":[-87.057049,45.851343]}},{"properties":{"city":"Eugene","name":"Eugene Airport","code":"EUG","geo_score":0.857,"id":"a6dl1rakk0qn","geo_precision":"city","state":"OR"},"type":"Feature","geometry":{"type":"Point","coordinates":[-123.086754,44.052069]}},{"properties":{"city":"Evansville","name":"Evansville Regional Airport","code":"EVV","geo_score":0.857,"id":"a6dl1r2hbmou","geo_precision":"city","state":"IN"},"type":"Feature","geometry":{"type":"Point","coordinates":[-87.555848,37.974764]}},{"properties":{"city":"New Bedford","name":"New Bedford Regional Airport","code":"EWB","geo_score":0.755,"id":"a6dl1rbplx3l","geo_precision":"city","state":"MA"},"type":"Feature","geometry":{"type":"Point","coordinates":[-71.270891,42.516205]}},{"properties":{"city":"New Bern","name":"Craven County Regional Airport","code":"EWN","geo_score":0.857,"id":"a6dl1rdspawc","geo_precision":"city","state":"NC"},"type":"Feature","geometry":{"type":"Point","coordinates":[-77.178429,35.098109]}},{"properties":{"city":"Key West","name":"Key West International Airport","code":"EYW","geo_score":0.857,"id":"a6dl1r54zz8d","geo_precision":"city","state":"FL"},"type":"Feature","geometry":{"type":"Point","coordinates":[-81.382372,24.655692]}},{"properties":{"city":"Fargo","name":"Hector International Airport","code":"FAR","geo_score":0.857,"id":"a6dl1rgm5cmg","geo_precision":"city","state":"ND"},"type":"Feature","geometry":{"type":"Point","coordinates":[-96.990615,46.92536]}},{"properties":{"city":"Fayetteville","name":"Fayetteville Regional/Grannis Field Airport","code":"FAY","geo_score":0.857,"id":"a6dl1rd90uxa","geo_precision":"city","state":"NC"},"type":"Feature","geometry":{"type":"Point","coordinates":[-78.878359,35.052664]}},{"properties":{"city":"Friday Harbor","name":"Friday Harbor Airport","code":"FHR","geo_score":0.738,"id":"a6dl1rfkazui","geo_precision":"city","state":"WA"},"type":"Feature","geometry":{"type":"Point","coordinates":[-117.797447,47.913372]}},{"properties":{"city":"Flagstaff","name":"Flagstaff Pulliam Airport","code":"FLG","geo_score":0.857,"id":"a6dl1rc0duz9","geo_precision":"city","state":"AZ"},"type":"Feature","geometry":{"type":"Point","coordinates":[-111.597853,35.932116]}},{"properties":{"city":"Florence","name":"Florence Regional Airport","code":"FLO","geo_score":0.857,"id":"a6dl1razbozd","geo_precision":"city","state":"SC"},"type":"Feature","geometry":{"type":"Point","coordinates":[-79.685361,34.049849]}},{"properties":{"city":"Farmington","name":"Four Corners Regional Airport","code":"FMN","geo_score":0.857,"id":"a6dl1r7xauj1","geo_precision":"city","state":"NM"},"type":"Feature","geometry":{"type":"Point","coordinates":[-108.100535,36.826248]}},{"properties":{"city":"Fort Collins/Loveland","name":"Fort Collins-Loveland Municipal Airport","code":"FNL","geo_score":0.744,"id":"a6dl1re8uoyb","geo_precision":"city","state":"CO"},"type":"Feature","geometry":{"type":"Point","coordinates":[-105.509723,39.408878]}},{"properties":{"city":"Topeka","name":"Forbes Field Airport","code":"FOE","geo_score":0.857,"id":"a6dl1rbbku5c","geo_precision":"city","state":"KS"},"type":"Feature","geometry":{"type":"Point","coordinates":[-95.678037,39.048334]}},{"properties":{"city":"Sioux Falls","name":"Sioux Falls Regional Airport","code":"FSD","geo_score":0.857,"id":"a6dl1r2zjyem","geo_precision":"city","state":"SD"},"type":"Feature","geometry":{"type":"Point","coordinates":[-96.730328,43.546642]}},{"properties":{"city":"Fort Smith","name":"Fort Smith Airport","code":"FSM","geo_score":0.857,"id":"a6dl1r6t5m8x","geo_precision":"city","state":"AR"},"type":"Feature","geometry":{"type":"Point","coordinates":[-94.398548,35.385924]}},{"properties":{"city":"Fort Wayne","name":"Fort Wayne International Airport","code":"FWA","geo_score":0.857,"id":"a6dl1r1gvn5d","geo_precision":"city","state":"IN"},"type":"Feature","geometry":{"type":"Point","coordinates":[-85.12886,41.130604]}},{"properties":{"city":"Galena","name":"Edward G. Pitka Sr Airport","code":"GAL","geo_score":0.857,"id":"a6dl1rgl3683","geo_precision":"city","state":"AK"},"type":"Feature","geometry":{"type":"Point","coordinates":[-151.025085,65.226375]}},{"properties":{"city":"Gillette","name":"Gillette-Campbell County Airport","code":"GCC","geo_score":0.857,"id":"a6dl1r4p2l06","geo_precision":"city","state":"WY"},"type":"Feature","geometry":{"type":"Point","coordinates":[-105.550237,44.377283]}},{"properties":{"city":"Grand Forks","name":"Grand Forks International Airport","code":"GFK","geo_score":0.779,"id":"a6dl1r36uuyp","geo_precision":"city","state":"ND"},"type":"Feature","geometry":{"type":"Point","coordinates":[-97.386642,47.954932]}},{"properties":{"city":"Longview","name":"East Texas Regional Airport","code":"GGG","geo_score":0.857,"id":"a6dl1r1424qz","geo_precision":"city","state":"TX"},"type":"Feature","geometry":{"type":"Point","coordinates":[-94.740489,32.500704]}},{"properties":{"city":"Grand Junction","name":"Walker Field Airport","code":"GJT","geo_score":0.857,"id":"a6dl1rbo5djh","geo_precision":"city","state":"CO"},"type":"Feature","geometry":{"type":"Point","coordinates":[-108.550649,39.063871]}},{"properties":{"city":"Greenville","name":"Mid Delta Regional Airport","code":"GLH","geo_score":0.814,"id":"a6dl1rcny8o0","geo_precision":"city","state":"MS"},"type":"Feature","geometry":{"type":"Point","coordinates":[-90.052862,32.249314]}},{"properties":{"city":"Gainesville","name":"Gainesville Regional Airport","code":"GNV","geo_score":0.818,"id":"a6dl1r37cv6o","geo_precision":"city","state":"FL"},"type":"Feature","geometry":{"type":"Point","coordinates":[-85.354651,30.731305]}},{"properties":{"city":"Kalispell","name":"Glacier Park International Airport","code":"GPI","geo_score":0.857,"id":"a6dl1ra72rkz","geo_precision":"city","state":"MT"},"type":"Feature","geometry":{"type":"Point","coordinates":[-114.303919,48.202765]}},{"properties":{"city":"Fort Hood/Killeen","name":"Killeen-Fort Hood Regional Airport","code":"GRK","geo_score":0.743,"id":"a6dl1rfhh3xj","geo_precision":"city","state":"TX"},"type":"Feature","geometry":{"type":"Point","coordinates":[-95.262161,31.108239]}},{"properties":{"city":"Rota Island","name":"Rota International Airport","code":"GRO","geo_score":0.0,"id":"a6dl1r4h9llz","geo_precision":"unmatched","state":"CQ"},"type":"Feature","geometry":null},{"properties":{"city":"Gustavus","name":"Gustavus Airport","code":"GST","geo_score":0.857,"id":"a6dl1r5x3ow7","geo_precision":"city","state":"AK"},"type":"Feature","geometry":{"type":"Point","coordinates":[-135.181256,58.331798]}},{"properties":{"city":"Great Falls","name":"Great Falls International Airport","code":"GTF","geo_score":0.857,"id":"a6dl1r9tjdmg","geo_precision":"city","state":"MT"},"type":"Feature","geometry":{"type":"Point","coordinates":[-111.300808,47.500235]}},{"properties":{"city":"Columbus","name":"Golden Triangle Regional Airport","code":"GTR","geo_score":0.771,"id":"a6dl1rgf8qrd","geo_precision":"city","state":"MS"},"type":"Feature","geometry":{"type":"Point","coordinates":[-88.450638,33.641516]}},{"properties":{"city":"Gunnison","name":"Gunnison-Crested Butte Regional Airport","code":"GUC","geo_score":0.857,"id":"a6dl1r8xwlls","geo_precision":"city","state":"CO"},"type":"Feature","geometry":{"type":"Point","coordinates":[-107.037294,38.528323]}},{"properties":{"city":"Gary","name":"Gary Regional Airport","code":"GYY","geo_score":0.771,"id":"a6dl1rbpdxin","geo_precision":"city","state":"IN"},"type":"Feature","geometry":{"type":"Point","coordinates":[-86.924734,40.540869]}},{"properties":{"city":"Hayden","name":"Yampa Valley Regional Airport","code":"HDN","geo_score":0.857,"id":"a6dl1r57gqpo","geo_precision":"city","state":"CO"},"type":"Feature","geometry":{"type":"Point","coordinates":[-107.277181,40.438195]}},{"properties":{"city":"Hagerstown","name":"Hagerstown Regional Airport","code":"HGR","geo_score":0.857,"id":"a6dl1rcjt6k2","geo_precision":"city","state":"MD"},"type":"Feature","geometry":{"type":"Point","coordinates":[-77.700213,39.58887]}},{"properties":{"city":"Helena","name":"Helena Regional Airport","code":"HLN","geo_score":0.857,"id":"a6dl1r61fy1q","geo_precision":"city","state":"MT"},"type":"Feature","geometry":{"type":"Point","coordinates":[-112.197616,46.70934]}},{"properties":{"city":"Las Vegas","name":"Henderson Executive Airport","code":"HND","geo_score":0.857,"id":"a6dl1rbdj70h","geo_precision":"city","state":"NV"},"type":"Feature","geometry":{"type":"Point","coordinates":[-115.137223,36.174971]}},{"properties":{"city":"Hoonah","name":"Hoonah Airport","code":"HNH","geo_score":0.857,"id":"a6dl1re8wobm","geo_precision":"city","state":"AK"},"type":"Feature","geometry":{"type":"Point","coordinates":[-135.431561,58.097655]}},{"properties":{"city":"Homer","name":"Homer Airport","code":"HOM","geo_score":0.857,"id":"a6dl1ra5tvnt","geo_precision":"city","state":"AK"},"type":"Feature","geometry":{"type":"Point","coordinates":[-151.362422,60.056453]}},{"properties":{"city":"Huntington","name":"Tri-State Airport","code":"HTS","geo_score":0.857,"id":"a6dl1rbhifut","geo_precision":"city","state":"WV"},"type":"Feature","geometry":{"type":"Point","coordinates":[-82.445154,38.41925]}},{"properties":{"city":"New Haven","name":"Tweed New Haven Regional Airport","code":"HVN","geo_score":0.857,"id":"a6dl1r88gsgo","geo_precision":"city","state":"CT"},"type":"Feature","geometry":{"type":"Point","coordinates":[-72.928158,41.308153]}},{"properties":{"city":"Hilton Head Island","name":"Hilton Head Airport","code":"HXD","geo_score":0.768,"id":"a6dl1raa8lon","geo_precision":"city","state":"SC"},"type":"Feature","geometry":{"type":"Point","coordinates":[-81.306209,34.137092]}},{"properties":{"city":"Hyannis","name":"Barnstable Municipal Airport","code":"HYA","geo_score":0.857,"id":"a6dl1r33g2t4","geo_precision":"city","state":"MA"},"type":"Feature","geometry":{"type":"Point","coordinates":[-70.138834,41.829813]}},{"properties":{"city":"Idaho Falls","name":"Idaho Falls Regional Airport","code":"IDA","geo_score":0.857,"id":"a6dl1rbhcxm4","geo_precision":"city","state":"ID"},"type":"Feature","geometry":{"type":"Point","coordinates":[-111.691535,43.516701]}},{"properties":{"city":"Bullhead City","name":"Laughlin/Bullhead International Airport","code":"IFP","geo_score":0.857,"id":"a6dl1r2b3ljh","geo_precision":"city","state":"AZ"},"type":"Feature","geometry":{"type":"Point","coordinates":[-114.538599,35.171497]}},{"properties":{"city":"Killeen","name":"Skylark Field","code":"ILE","geo_score":0.735,"id":"a6dl1r3hlufm","geo_precision":"city","state":"TX"},"type":"Feature","geometry":{"type":"Point","coordinates":[-97.181657,28.705548]}},{"properties":{"city":"Wilmington","name":"Wilmington International Airport","code":"ILM","geo_score":0.857,"id":"a6dl1r0z81ao","geo_precision":"city","state":"NC"},"type":"Feature","geometry":{"type":"Point","coordinates":[-77.94471,34.225726]}},{"properties":{"city":"International Falls","name":"Falls International Airport","code":"INL","geo_score":0.857,"id":"a6dl1rd66c6w","geo_precision":"city","state":"MN"},"type":"Feature","geometry":{"type":"Point","coordinates":[-93.640382,48.232494]}},{"properties":{"city":"Williamsport","name":"Williamsport Regional Airport","code":"IPT","geo_score":0.857,"id":"a6dl1r3shvbz","geo_precision":"city","state":"PA"},"type":"Feature","geometry":{"type":"Point","coordinates":[-76.958314,41.266716]}},{"properties":{"city":"Ithaca","name":"Ithaca Tompkins Regional Airport","code":"ITH","geo_score":0.857,"id":"a6dl1rcc9afk","geo_precision":"city","state":"NY"},"type":"Feature","geometry":{"type":"Point","coordinates":[-76.483999,42.402794]}},{"properties":{"city":"Inyokern","name":"Inyokern Airport","code":"IYK","geo_score":0.857,"id":"a6dl1r6zfdou","geo_precision":"city","state":"CA"},"type":"Feature","geometry":{"type":"Point","coordinates":[-117.857026,35.639715]}},{"properties":{"city":"Jackson","name":"Jackson Hole Airport","code":"JAC","geo_score":0.857,"id":"a6dl1r5tohbp","geo_precision":"city","state":"WY"},"type":"Feature","geometry":{"type":"Point","coordinates":[-110.739266,43.452793]}},{"properties":{"city":"Jamestown","name":"Chautauqua County/Jamestown Airport","code":"JHW","geo_score":0.857,"id":"a6dl1r4jb5xl","geo_precision":"city","state":"NY"},"type":"Feature","geometry":{"type":"Point","coordinates":[-79.432256,42.196125]}},{"properties":{"city":"Joplin","name":"Joplin Regional Airport","code":"JLN","geo_score":0.857,"id":"a6dl1r8afux6","geo_precision":"city","state":"MO"},"type":"Feature","geometry":{"type":"Point","coordinates":[-94.502663,37.113343]}},{"properties":{"city":"Johnstown","name":"Johnstown-Cambria County Airport","code":"JST","geo_score":0.857,"id":"a6dl1ran00m2","geo_precision":"city","state":"PA"},"type":"Feature","geometry":{"type":"Point","coordinates":[-78.92197,40.326741]}},{"properties":{"city":"Ketchikan","name":"Ketchikan International Airport","code":"KTN","geo_score":0.857,"id":"a6dl1r28k58o","geo_precision":"city","state":"AK"},"type":"Feature","geometry":{"type":"Point","coordinates":[-131.67409,55.400674]}},{"properties":{"city":"Lansing","name":"Lansing Capital City Airport","code":"LAN","geo_score":0.857,"id":"a6dl1r713vsj","geo_precision":"city","state":"MI"},"type":"Feature","geometry":{"type":"Point","coordinates":[-84.555535,42.732535]}},{"properties":{"city":"Laramie","name":"Laramie Regional Airport","code":"LAR","geo_score":0.857,"id":"a6dl1rf931px","geo_precision":"city","state":"WY"},"type":"Feature","geometry":{"type":"Point","coordinates":[-105.801022,41.43902]}},{"properties":{"city":"Lawton","name":"Lawton-Fort Sill Regional Airport","code":"LAW","geo_score":0.857,"id":"a6dl1rd7hfs0","geo_precision":"city","state":"OK"},"type":"Feature","geometry":{"type":"Point","coordinates":[-98.390331,34.608685]}},{"properties":{"city":"Latrobe","name":"Arnold Palmer Regional Airport","code":"LBE","geo_score":0.857,"id":"a6dl1rg8q1og","geo_precision":"city","state":"PA"},"type":"Feature","geometry":{"type":"Point","coordinates":[-79.421969,40.35577]}},{"properties":{"city":"Lake Charles","name":"Lake Charles Regional Airport","code":"LCH","geo_score":0.857,"id":"a6dl1r8yuxpy","geo_precision":"city","state":"LA"},"type":"Feature","geometry":{"type":"Point","coordinates":[-93.217376,30.226595]}},{"properties":{"city":"Columbus","name":"Rickenbacker International Airport","code":"LCK","geo_score":0.776,"id":"a6dl1rdw5umc","geo_precision":"city","state":"OH"},"type":"Feature","geometry":{"type":"Point","coordinates":[-82.695724,39.998397]}},{"properties":{"city":"Lebanon","name":"Lebanon Municipal Airport","code":"LEB","geo_score":0.857,"id":"a6dl1r9hyr59","geo_precision":"city","state":"NH"},"type":"Feature","geometry":{"type":"Point","coordinates":[-71.840883,43.967542]}},{"properties":{"city":"Louisiana","name":"Lafayette Regional Airport","code":"LFT","geo_score":0.0,"id":"a6dl1rffyw27","geo_precision":"unmatched","state":"LA"},"type":"Feature","geometry":null},{"properties":{"city":"Anchorage","name":"Lake Hood Airport","code":"LHD","geo_score":0.857,"id":"a6dl1raskdwr","geo_precision":"city","state":"AK"},"type":"Feature","geometry":{"type":"Point","coordinates":[-149.900278,61.218056]}},{"properties":{"city":"Klamath Falls","name":"Klamath Falls Airport","code":"LMT","geo_score":0.857,"id":"a6dl1rb76yav","geo_precision":"city","state":"OR"},"type":"Feature","geometry":{"type":"Point","coordinates":[-121.78167,42.224867]}},{"properties":{"city":"Lincoln","name":"Lincoln Airport","code":"LNK","geo_score":0.857,"id":"a6dl1r4us6ye","geo_precision":"city","state":"NE"},"type":"Feature","geometry":{"type":"Point","coordinates":[-96.66696,40.800001]}},{"properties":{"city":"Lanai City","name":"Lanai Airport","code":"LNY","geo_score":0.857,"id":"a6dl1rg6rdqr","geo_precision":"city","state":"HI"},"type":"Feature","geometry":{"type":"Point","coordinates":[-156.95283,20.812854]}},{"properties":{"city":"Laredo","name":"Laredo International Airport","code":"LRD","geo_score":0.786,"id":"a6dl1rdncx8v","geo_precision":"city","state":"TX"},"type":"Feature","geometry":{"type":"Point","coordinates":[-102.907999,34.330354]}},{"properties":{"city":"La Crosse","name":"La Crosse Municipal Airport","code":"LSE","geo_score":0.857,"id":"a6dl1r1rtc52","geo_precision":"city","state":"WI"},"type":"Feature","geometry":{"type":"Point","coordinates":[-91.132072,43.85456]}},{"properties":{"city":"Lewisburg","name":"Greenbrier Valley Airport","code":"LWB","geo_score":0.857,"id":"a6dl1r9gmj5e","geo_precision":"city","state":"WV"},"type":"Feature","geometry":{"type":"Point","coordinates":[-80.538781,37.844155]}},{"properties":{"city":"Lewiston","name":"Lewiston-Nez Perce County Airport","code":"LWS","geo_score":0.786,"id":"a6dl1r8xd4pr","geo_precision":"city","state":"ID"},"type":"Feature","geometry":{"type":"Point","coordinates":[-116.975432,46.38044]}},{"properties":{"city":"Lynchburg","name":"Lynchburg Regional Airport","code":"LYH","geo_score":0.857,"id":"a6dl1r24s5dj","geo_precision":"city","state":"VA"},"type":"Feature","geometry":{"type":"Point","coordinates":[-79.178326,37.383112]}},{"properties":{"city":"Mayaguez","name":"Mayaquez Airport","code":"MAZ","geo_score":0.857,"id":"a6dl1r1mfvnz","geo_precision":"city","state":"PR"},"type":"Feature","geometry":{"type":"Point","coordinates":[-67.508068,18.219023]}},{"properties":{"city":"Saginaw","name":"Saginaw International Airport","code":"MBS","geo_score":0.857,"id":"a6dl1r3lqm07","geo_precision":"city","state":"MI"},"type":"Feature","geometry":{"type":"Point","coordinates":[-83.886873,43.41242]}},{"properties":{"city":"Macon","name":"Middle Georgia Regional Airport","code":"MCN","geo_score":0.857,"id":"a6dl1r57yny2","geo_precision":"city","state":"GA"},"type":"Feature","geometry":{"type":"Point","coordinates":[-83.632402,32.840695]}},{"properties":{"city":"Mason City","name":"Mason City Municipal Airport","code":"MCW","geo_score":0.73,"id":"a6dl1rd6figm","geo_precision":"city","state":"IA"},"type":"Feature","geometry":{"type":"Point","coordinates":[-92.161281,43.198027]}},{"properties":{"city":"Meridian","name":"Key Field Airport","code":"MEI","geo_score":0.857,"id":"a6dl1rc2ffsp","geo_precision":"city","state":"MS"},"type":"Feature","geometry":{"type":"Point","coordinates":[-88.703656,32.36431]}},{"properties":{"city":"Mcallen","name":"Mcallen-Miller International Airport","code":"MFE","geo_score":0.857,"id":"a6dl1rexc0z9","geo_precision":"city","state":"TX"},"type":"Feature","geometry":{"type":"Point","coordinates":[-98.244679,26.219199]}},{"properties":{"city":"Medford","name":"Medford Rogue Valley International Airport","code":"MFR","geo_score":0.857,"id":"a6dl1r9f5dht","geo_precision":"city","state":"OR"},"type":"Feature","geometry":{"type":"Point","coordinates":[-122.72255,42.482623]}},{"properties":{"city":"Montgomery","name":"Montgomery Regional Airport","code":"MGM","geo_score":0.857,"id":"a6dl1rau0yor","geo_precision":"city","state":"AL"},"type":"Feature","geometry":{"type":"Point","coordinates":[-86.299969,32.366805]}},{"properties":{"city":"Morgantown","name":"Morgantown Municipal Airport","code":"MGW","geo_score":0.857,"id":"a6dl1r9rmc8n","geo_precision":"city","state":"WV"},"type":"Feature","geometry":{"type":"Point","coordinates":[-79.983141,39.609911]}},{"properties":{"city":"Manhattan","name":"Manhattan Regional Airport","code":"MHK","geo_score":0.857,"id":"a6dl1r3hnrce","geo_precision":"city","state":"KS"},"type":"Feature","geometry":{"type":"Point","coordinates":[-96.564589,39.209375]}},{"properties":{"city":"Muskegon","name":"Muskegon County Airport","code":"MKG","geo_score":0.79,"id":"a6dl1r7v5ghn","geo_precision":"city","state":"MI"},"type":"Feature","geometry":{"type":"Point","coordinates":[-86.238946,43.201126]}},{"properties":{"city":"Kaunakakai","name":"Molokai Airport","code":"MKK","geo_score":0.857,"id":"a6dl1rdvslta","geo_precision":"city","state":"HI"},"type":"Feature","geometry":{"type":"Point","coordinates":[-157.012533,21.092266]}},{"properties":{"city":"Melbourne","name":"Melbourne International Airport","code":"MLB","geo_score":0.857,"id":"a6dl1r4boxyt","geo_precision":"city","state":"FL"},"type":"Feature","geometry":{"type":"Point","coordinates":[-80.608109,28.083627]}},{"properties":{"city":"Monroe","name":"Monroe Regional Airport","code":"MLU","geo_score":0.857,"id":"a6dl1r9zjj89","geo_precision":"city","state":"LA"},"type":"Feature","geometry":{"type":"Point","coordinates":[-92.119301,32.509311]}},{"properties":{"city":"Mobile","name":"Mobile Regional Airport","code":"MOB","geo_score":0.857,"id":"a6dl1r2g2prz","geo_precision":"city","state":"AL"},"type":"Feature","geometry":{"type":"Point","coordinates":[-88.043054,30.694357]}},{"properties":{"city":"Modesto","name":"Modesto City-County Airport","code":"MOD","geo_score":0.857,"id":"a6dl1r4df23f","geo_precision":"city","state":"CA"},"type":"Feature","geometry":{"type":"Point","coordinates":[-121.016796,37.669463]}},{"properties":{"city":"Minot","name":"Minot International Airport","code":"MOT","geo_score":0.776,"id":"a6dl1r2txfbp","geo_precision":"city","state":"ND"},"type":"Feature","geometry":{"type":"Point","coordinates":[-102.636569,48.331131]}},{"properties":{"city":"Anchorage","name":"Merrill Field","code":"MRI","geo_score":0.857,"id":"a6dl1r12if3f","geo_precision":"city","state":"AK"},"type":"Feature","geometry":{"type":"Point","coordinates":[-149.900278,61.218056]}},{"properties":{"city":"Monterey","name":"Monterey Peninsula Airport","code":"MRY","geo_score":0.857,"id":"a6dl1r15lxq1","geo_precision":"city","state":"CA"},"type":"Feature","geometry":{"type":"Point","coordinates":[-121.688623,36.521811]}},{"properties":{"city":"Missoula","name":"Missoula International Airport","code":"MSO","geo_score":0.857,"id":"a6dl1r940g3a","geo_precision":"city","state":"MT"},"type":"Feature","geometry":{"type":"Point","coordinates":[-113.993998,46.872146]}},{"properties":{"city":"Montrose","name":"Montrose Regional Airport","code":"MTJ","geo_score":0.857,"id":"a6dl1rdy6afb","geo_precision":"city","state":"CO"},"type":"Feature","geometry":{"type":"Point","coordinates":[-108.050689,38.443069]}},{"properties":{"city":"Vineyard Haven","name":"Martha's Vineyard Airport","code":"MVY","geo_score":0.798,"id":"a6dl1r93rzr3","geo_precision":"city","state":"MA"},"type":"Feature","geometry":{"type":"Point","coordinates":[-70.566139,41.464001]}},{"properties":{"city":"Marion","name":"Williamson County Regional Airport","code":"MWA","geo_score":0.762,"id":"a6dl1r3foce4","geo_precision":"city","state":"IL"},"type":"Feature","geometry":{"type":"Point","coordinates":[-88.864303,40.519236]}},{"properties":{"city":"Jacksonville","name":"Jacksonville/Albert J Ellis Airport","code":"OAJ","geo_score":0.833,"id":"a6dl1r34d4an","geo_precision":"city","state":"NC"},"type":"Feature","geometry":{"type":"Point","coordinates":[-80.150051,35.572639]}},{"properties":{"city":"Nome","name":"Nome Airport","code":"OME","geo_score":0.857,"id":"a6dl1rexc2os","geo_precision":"city","state":"AK"},"type":"Feature","geometry":{"type":"Point","coordinates":[-163.80076,63.888671]}},{"properties":{"city":"North Bend","name":"North Bend Municipal Airport","code":"OTH","geo_score":0.778,"id":"a6dl1rarkt73","geo_precision":"city","state":"OR"},"type":"Feature","geometry":{"type":"Point","coordinates":[-121.31531,44.058173]}},{"properties":{"city":"Kotzebue","name":"Ralph Wien Memorial Airport","code":"OTZ","geo_score":0.857,"id":"a6dl1r1953hv","geo_precision":"city","state":"AK"},"type":"Feature","geometry":{"type":"Point","coordinates":[-161.780844,66.865256]}},{"properties":{"city":"Oxnard","name":"Oxnard Airport","code":"OXR","geo_score":0.792,"id":"a6dl1r8pxdbx","geo_precision":"city","state":"CA"},"type":"Feature","geometry":{"type":"Point","coordinates":[-119.227886,34.163338]}},{"properties":{"city":"Paducah","name":"Paducah Barkley Regional Airport","code":"PAH","geo_score":0.857,"id":"a6dl1r1iwq7f","geo_precision":"city","state":"KY"},"type":"Feature","geometry":{"type":"Point","coordinates":[-88.713292,37.031586]}},{"properties":{"city":"Port Clinton","name":"Carl R Keller Field","code":"PCW","geo_score":0.766,"id":"a6dl1rgak74f","geo_precision":"city","state":"OH"},"type":"Feature","geometry":{"type":"Point","coordinates":[-82.338486,40.200344]}},{"properties":{"city":"Panama City","name":"Panama City-Bay County International Airport","code":"PFN","geo_score":0.857,"id":"a6dl1rb8iozy","geo_precision":"city","state":"FL"},"type":"Feature","geometry":{"type":"Point","coordinates":[-85.660206,30.158813]}},{"properties":{"city":"Page","name":"Page Municipal Airport","code":"PGA","geo_score":0.857,"id":"a6dl1rftbch6","geo_precision":"city","state":"AZ"},"type":"Feature","geometry":{"type":"Point","coordinates":[-111.502009,36.910804]}},{"properties":{"city":"Greenville","name":"Pitt-Greenville Airport","code":"PGV","geo_score":0.831,"id":"a6dl1rb7vban","geo_precision":"city","state":"NC"},"type":"Feature","geometry":{"type":"Point","coordinates":[-81.703445,36.408734]}},{"properties":{"city":"Peoria","name":"Peoria Regional Airport","code":"PIA","geo_score":0.857,"id":"a6dl1rcpjumf","geo_precision":"city","state":"IL"},"type":"Feature","geometry":{"type":"Point","coordinates":[-89.588986,40.693649]}},{"properties":{"city":"Hattiesburg/Laurel","name":"Hattiesburg-Laurel Regional Airport","code":"PIB","geo_score":0.807,"id":"a6dl1rd8osqs","geo_precision":"city","state":"MS"},"type":"Feature","geometry":{"type":"Point","coordinates":[-89.28071,31.245138]}},{"properties":{"city":"Pocatello","name":"Pocatello Regional Airport","code":"PIH","geo_score":0.857,"id":"a6dl1r399ia2","geo_precision":"city","state":"ID"},"type":"Feature","geometry":{"type":"Point","coordinates":[-112.259807,42.770177]}},{"properties":{"city":"Pierre","name":"Pierre Regional Airport","code":"PIR","geo_score":0.857,"id":"a6dl1r9y1q6d","geo_precision":"city","state":"SD"},"type":"Feature","geometry":{"type":"Point","coordinates":[-100.094195,44.334073]}},{"properties":{"city":"Parkersburg","name":"Mid-Ohio Valley Regional Airport","code":"PKB","geo_score":0.857,"id":"a6dl1r9nhsyk","geo_precision":"city","state":"WV"},"type":"Feature","geometry":{"type":"Point","coordinates":[-81.55477,39.286315]}},{"properties":{"city":"Pellston","name":"Pellston Regional Airport","code":"PLN","geo_score":0.857,"id":"a6dl1rgvkfwz","geo_precision":"city","state":"MI"},"type":"Feature","geometry":{"type":"Point","coordinates":[-84.863241,45.566112]}},{"properties":{"city":"Pago Pago","name":"Pago Pago International Airport","code":"PPG","geo_score":0.786,"id":"a6dl1rgcb1y7","geo_precision":"city","state":"AS"},"type":"Feature","geometry":{"type":"Point","coordinates":[-170.605278,-14.275]}},{"properties":{"city":"Presque Isle","name":"Northern Maine Regional Airport","code":"PQI","geo_score":0.857,"id":"a6dl1r7435f5","geo_precision":"city","state":"ME"},"type":"Feature","geometry":{"type":"Point","coordinates":[-68.012557,46.715072]}},{"properties":{"city":"Pasco","name":"Tri-Cities Airport","code":"PSC","geo_score":0.857,"id":"a6dl1r9kidx5","geo_precision":"city","state":"WA"},"type":"Feature","geometry":{"type":"Point","coordinates":[-118.899447,46.42066]}},{"properties":{"city":"Petersburg","name":"Petersburg Airport","code":"PSG","geo_score":0.857,"id":"a6dl1r8f2xcq","geo_precision":"city","state":"AK"},"type":"Feature","geometry":{"type":"Point","coordinates":[-132.93195,56.767056]}},{"properties":{"city":"Portsmouth","name":"Pease International Airport","code":"PSM","geo_score":0.857,"id":"a6dl1r7sojqj","geo_precision":"city","state":"NH"},"type":"Feature","geometry":{"type":"Point","coordinates":[-71.013202,43.005895]}},{"properties":{"city":"Pullman/Moscow, ID","name":"Pullman/Moscow Regional Airport","code":"PUW","geo_score":0.0,"id":"a6dl1rgt5w97","geo_precision":"unmatched","state":"WA"},"type":"Feature","geometry":null},{"properties":{"city":"Provincetown","name":"Provincetown Municipal Airport","code":"PVC","geo_score":0.857,"id":"a6dl1reuam2l","geo_precision":"city","state":"MA"},"type":"Feature","geometry":{"type":"Point","coordinates":[-70.091057,41.888775]}},{"properties":{"city":"Rapid City","name":"Rapid City Regional Airport","code":"RAP","geo_score":0.857,"id":"a6dl1r6rikfy","geo_precision":"city","state":"SD"},"type":"Feature","geometry":{"type":"Point","coordinates":[-103.231015,44.080543]}},{"properties":{"city":"Redding","name":"Redding Municipal Airport","code":"RDD","geo_score":0.857,"id":"a6dl1r7o1jvv","geo_precision":"city","state":"CA"},"type":"Feature","geometry":{"type":"Point","coordinates":[-122.391675,40.58654]}},{"properties":{"city":"Redmond","name":"Roberts Field","code":"RDM","geo_score":0.857,"id":"a6dl1r9u1mxp","geo_precision":"city","state":"OR"},"type":"Feature","geometry":{"type":"Point","coordinates":[-121.266414,44.268862]}},{"properties":{"city":"Rockford","name":"Greater Rockford Airport","code":"RFD","geo_score":0.857,"id":"a6dl1r2qfmii","geo_precision":"city","state":"IL"},"type":"Feature","geometry":{"type":"Point","coordinates":[-89.093995,42.271131]}},{"properties":{"city":"Rhinelander","name":"Rhinelander-Oneida County Airport","code":"RHI","geo_score":0.857,"id":"a6dl1r0zko5t","geo_precision":"city","state":"WI"},"type":"Feature","geometry":{"type":"Point","coordinates":[-89.386562,45.704474]}},{"properties":{"city":"Riverton","name":"Riverton Regional Airport","code":"RIW","geo_score":0.857,"id":"a6dl1r9r6qnn","geo_precision":"city","state":"WY"},"type":"Feature","geometry":{"type":"Point","coordinates":[-108.925734,43.180647]}},{"properties":{"city":"Rockland","name":"Knox County Regional Airport","code":"RKD","geo_score":0.857,"id":"a6dl1r9nl6dm","geo_precision":"city","state":"ME"},"type":"Feature","geometry":{"type":"Point","coordinates":[-69.068648,44.128607]}},{"properties":{"city":"Rock Springs","name":"Rock Springs-Sweetwater County Airport","code":"RKS","geo_score":0.857,"id":"a6dl1rfs7fo6","geo_precision":"city","state":"WY"},"type":"Feature","geometry":{"type":"Point","coordinates":[-109.149045,41.634515]}},{"properties":{"city":"Roanoke","name":"Roanoke Regional Airport","code":"ROA","geo_score":0.857,"id":"a6dl1r2v66z0","geo_precision":"city","state":"VA"},"type":"Feature","geometry":{"type":"Point","coordinates":[-79.941427,37.27097]}},{"properties":{"city":"Rochester","name":"Rochester International Airport","code":"RST","geo_score":0.857,"id":"a6dl1r2l0ir7","geo_precision":"city","state":"MN"},"type":"Feature","geometry":{"type":"Point","coordinates":[-92.516916,44.075285]}},{"properties":{"city":"Santa Fe","name":"Santa Fe Municipal Airport","code":"SAF","geo_score":0.857,"id":"a6dl1r7sg4iu","geo_precision":"city","state":"NM"},"type":"Feature","geometry":{"type":"Point","coordinates":[-106.073414,35.625075]}},{"properties":{"city":"Marquette","name":"Sawyer International Airport","code":"SAW","geo_score":0.857,"id":"a6dl1r4ah349","geo_precision":"city","state":"MI"},"type":"Feature","geometry":{"type":"Point","coordinates":[-87.615282,46.593435]}},{"properties":{"city":"San Luis Obispo","name":"San Luis County Regional Airport","code":"SBP","geo_score":0.736,"id":"a6dl1r6e90ld","geo_precision":"city","state":"CA"},"type":"Feature","geometry":{"type":"Point","coordinates":[-118.345664,37.400762]}},{"properties":{"city":"Salisbury","name":"Salisbury-Ocean City Wicomico Regional Airport","code":"SBY","geo_score":0.857,"id":"a6dl1re99bsj","geo_precision":"city","state":"MD"},"type":"Feature","geometry":{"type":"Point","coordinates":[-75.633621,38.382445]}},{"properties":{"city":"Deadhorse","name":"Deadhorse Airport","code":"SCC","geo_score":0.857,"id":"a6dl1r6ciza5","geo_precision":"city","state":"AK"},"type":"Feature","geometry":{"type":"Point","coordinates":[-148.511667,70.205556]}},{"properties":{"city":"Sidney","name":"Sidney-Richland Municipal Airport","code":"SDY","geo_score":0.762,"id":"a6dl1reykbd5","geo_precision":"city","state":"MT"},"type":"Feature","geometry":{"type":"Point","coordinates":[-110.851051,45.95882]}},{"properties":{"city":"Springfield","name":"Springfield Branson Regional Airport","code":"SGF","geo_score":0.792,"id":"a6dl1r57js9n","geo_precision":"city","state":"MO"},"type":"Feature","geometry":{"type":"Point","coordinates":[-91.237925,38.295605]}},{"properties":{"city":"St George","name":"St George Municipal Airport","code":"SGU","geo_score":0.0,"id":"a6dl1rby3557","geo_precision":"unmatched","state":"UT"},"type":"Feature","geometry":null},{"properties":{"city":"Sheridan","name":"Sheridan County Airport","code":"SHR","geo_score":0.857,"id":"a6dl1re80abb","geo_precision":"city","state":"WY"},"type":"Feature","geometry":{"type":"Point","coordinates":[-106.837563,44.780378]}},{"properties":{"city":"Shreveport","name":"Shreveport Regional Airport","code":"SHV","geo_score":0.857,"id":"a6dl1r7q8ytd","geo_precision":"city","state":"LA"},"type":"Feature","geometry":{"type":"Point","coordinates":[-93.750179,32.525152]}},{"properties":{"city":"San Juan","name":"Fernando Luis Ribas Dominicci Airport","code":"SIG","geo_score":0.857,"id":"a6dl1r6hsmzd","geo_precision":"city","state":"PR"},"type":"Feature","geometry":{"type":"Point","coordinates":[-66.105722,18.466334]}},{"properties":{"city":"Sitka","name":"Sitka Rocky Gutierrez Airport","code":"SIT","geo_score":0.857,"id":"a6dl1r1gdrue","geo_precision":"city","state":"AK"},"type":"Feature","geometry":{"type":"Point","coordinates":[-135.318348,57.080818]}},{"properties":{"city":"San Angelo","name":"San Angelo Regional Airport/Mathis Field","code":"SJT","geo_score":0.857,"id":"a6dl1r3q2tnj","geo_precision":"city","state":"TX"},"type":"Feature","geometry":{"type":"Point","coordinates":[-100.437038,31.463772]}},{"properties":{"city":"Santa Maria","name":"Santa Maria Public Airport","code":"SMX","geo_score":0.743,"id":"a6dl1rf7qzar","geo_precision":"city","state":"CA"},"type":"Feature","geometry":{"type":"Point","coordinates":[-123.34501,39.398219]}},{"properties":{"city":"Springfield","name":"Abraham Lincoln Capital Airport","code":"SPI","geo_score":0.818,"id":"a6dl1rc7m8fa","geo_precision":"city","state":"IL"},"type":"Feature","geometry":{"type":"Point","coordinates":[-90.045117,41.612532]}},{"properties":{"city":"Wichita Falls","name":"Wichita Falls Municipal Airport","code":"SPS","geo_score":0.857,"id":"a6dl1re1m30i","geo_precision":"city","state":"TX"},"type":"Feature","geometry":{"type":"Point","coordinates":[-98.493387,33.913709]}},{"properties":{"city":"St Cloud","name":"St Cloud Regional Airport","code":"STC","geo_score":0.755,"id":"a6dl1r52bchp","geo_precision":"city","state":"MN"},"type":"Feature","geometry":{"type":"Point","coordinates":[-91.979323,43.894685]}},{"properties":{"city":"Christiansted","name":"Henry E Rohlsen Airport","code":"STX","geo_score":0.857,"id":"a6dl1r1dt1ew","geo_precision":"city","state":"VI"},"type":"Feature","geometry":{"type":"Point","coordinates":[-64.734694,17.734211]}},{"properties":{"city":"Hailey","name":"Friedman Memorial Airport","code":"SUN","geo_score":0.857,"id":"a6dl1rgme3xn","geo_precision":"city","state":"ID"},"type":"Feature","geometry":{"type":"Point","coordinates":[-114.31008,43.54195]}},{"properties":{"city":"Sioux City","name":"Sioux Gateway Airport","code":"SUX","geo_score":0.857,"id":"a6dl1r3cszhw","geo_precision":"city","state":"IA"},"type":"Feature","geometry":{"type":"Point","coordinates":[-96.400307,42.499994]}},{"properties":{"city":"Newburgh","name":"Stewart International Airport","code":"SWF","geo_score":0.857,"id":"a6dl1r23rxe2","geo_precision":"city","state":"NY"},"type":"Feature","geometry":{"type":"Point","coordinates":[-74.185363,41.38537]}},{"properties":{"city":"Telluride","name":"Telluride Regional Airport","code":"TEX","geo_score":0.857,"id":"a6dl1r430cy8","geo_precision":"city","state":"CO"},"type":"Feature","geometry":{"type":"Point","coordinates":[-107.956606,37.983589]}},{"properties":{"city":"Tinian Island","name":"Tinian International Airport","code":"TNI","geo_score":0.0,"id":"a6dl1r9fvtj4","geo_precision":"unmatched","state":"CQ"},"type":"Feature","geometry":null},{"properties":{"city":"Toledo","name":"Toledo Express Airport","code":"TOL","geo_score":0.857,"id":"a6dl1rfl600j","geo_precision":"city","state":"OH"},"type":"Feature","geometry":{"type":"Point","coordinates":[-83.555212,41.663938]}},{"properties":{"city":"Blountville","name":"Tri-Cities Regional Airport","code":"TRI","geo_score":0.857,"id":"a6dl1rbc4qvf","geo_precision":"city","state":"TN"},"type":"Feature","geometry":{"type":"Point","coordinates":[-82.369895,36.525039]}},{"properties":{"city":"Trenton","name":"Trenton Mercer Airport","code":"TTN","geo_score":0.857,"id":"a6dl1r3rq408","geo_precision":"city","state":"NJ"},"type":"Feature","geometry":{"type":"Point","coordinates":[-74.742939,40.217053]}},{"properties":{"city":"Tupelo","name":"Tupelo Regional Airport","code":"TUP","geo_score":0.857,"id":"a6dl1raak9se","geo_precision":"city","state":"MS"},"type":"Feature","geometry":{"type":"Point","coordinates":[-88.683828,34.291889]}},{"properties":{"city":"Traverse City","name":"Cherry Capital Airport","code":"TVC","geo_score":0.821,"id":"a6dl1r4df8gi","geo_precision":"city","state":"MI"},"type":"Feature","geometry":{"type":"Point","coordinates":[-88.234001,47.194369]}},{"properties":{"city":"Twin Falls","name":"Magic Valley Regional Airport","code":"TWF","geo_score":0.857,"id":"a6dl1r1rzd24","geo_precision":"city","state":"ID"},"type":"Feature","geometry":{"type":"Point","coordinates":[-114.629497,42.443224]}},{"properties":{"city":"Texarkana","name":"Texarkana Regional Airport","code":"TXK","geo_score":0.857,"id":"a6dl1rfbii6k","geo_precision":"city","state":"AR"},"type":"Feature","geometry":{"type":"Point","coordinates":[-93.876485,33.431043]}},{"properties":{"city":"Tyler","name":"Tyler Pounds Regional Airport","code":"TYR","geo_score":0.738,"id":"a6dl1r5j41ai","geo_precision":"city","state":"TX"},"type":"Feature","geometry":{"type":"Point","coordinates":[-94.459924,32.153495]}},{"properties":{"city":"State College","name":"University Park Airport","code":"UNV","geo_score":0.738,"id":"a6dl1r7pmh3a","geo_precision":"city","state":"PA"},"type":"Feature","geometry":{"type":"Point","coordinates":[-80.446733,40.303681]}},{"properties":{"city":"Victoria","name":"Victoria Regional Airport","code":"VCT","geo_score":0.857,"id":"a6dl1r34ly4r","geo_precision":"city","state":"TX"},"type":"Feature","geometry":{"type":"Point","coordinates":[-96.776656,31.597946]}},{"properties":{"city":"Victorville","name":"Southern California Logistics Airport","code":"VCV","geo_score":0.857,"id":"a6dl1r3pioap","geo_precision":"city","state":"CA"},"type":"Feature","geometry":{"type":"Point","coordinates":[-114.754916,34.491985]}},{"properties":{"city":"Valdez","name":"Valdez Pioneer Field","code":"VDZ","geo_score":0.857,"id":"a6dl1rcdpyzk","geo_precision":"city","state":"AK"},"type":"Feature","geometry":{"type":"Point","coordinates":[-145.775152,61.68557]}},{"properties":{"city":"Las Vegas","name":"North Las Vegas Air Terminal","code":"VGT","geo_score":0.857,"id":"a6dl1ra8h2oq","geo_precision":"city","state":"NV"},"type":"Feature","geometry":{"type":"Point","coordinates":[-115.137223,36.174971]}},{"properties":{"city":"Valdosta","name":"Valdosta Regional Airport","code":"VLD","geo_score":0.857,"id":"a6dl1r1tkn3s","geo_precision":"city","state":"GA"},"type":"Feature","geometry":{"type":"Point","coordinates":[-83.332068,30.753904]}},{"properties":{"city":"Isla De Vieques","name":"Vieques Airport","code":"VQS","geo_score":0.791,"id":"a6dl1rdto264","geo_precision":"city","state":"PR"},"type":"Feature","geometry":{"type":"Point","coordinates":[-65.460356,18.123347]}},{"properties":{"city":"Wrangell","name":"Wrangell Airport","code":"WRG","geo_score":0.857,"id":"a6dl1rcigqm3","geo_precision":"city","state":"AK"},"type":"Feature","geometry":{"type":"Point","coordinates":[-132.364407,56.449893]}},{"properties":{"city":"Fajardo","name":"Diego Jimenez Torres Airport","code":"X95","geo_score":0.857,"id":"a6dl1rf01y34","geo_precision":"city","state":"PR"},"type":"Feature","geometry":{"type":"Point","coordinates":[-65.611361,18.359381]}},{"properties":{"city":"Yakutat","name":"Yakutat Airport","code":"YAK","geo_score":0.857,"id":"a6dl1r64yr2q","geo_precision":"city","state":"AK"},"type":"Feature","geometry":{"type":"Point","coordinates":[-139.727222,59.546944]}},{"properties":{"city":"Yakima","name":"Yakima Air Terminal/Mcallister Field","code":"YKM","geo_score":0.857,"id":"a6dl1r6fpeb3","geo_precision":"city","state":"WA"},"type":"Feature","geometry":{"type":"Point","coordinates":[-120.505899,46.602071]}},{"properties":{"city":"Yuma","name":"Yuma International Airport","code":"YUM","geo_score":0.857,"id":"a6dl1r6dj1b0","geo_precision":"city","state":"AZ"},"type":"Feature","geometry":{"type":"Point","coordinates":[-114.624397,32.725325]}}],"is_temporal":false,"author":{"url":"","metadata":"","contact_name":"","contact_address":"","source":"","contact_phone":""},"source":"","pagination":{"sort":null,"start":0,"total":247,"limit":1000000},"state":"complete","tags":"","published":"2014-08-13T09:11:20-04:00","id":187857}