{"type":"FeatureCollection","data_type":"Dataset Analysis","url_type":null,"permissions":[{"permissions":{"download":true,"view":true},"group_id":"everyone"}],"classification":null,"title":"Filtered Features of 'Zayo-VZW-IFN' based on 'Merge of 'Blue' into 'Merge of 'Orange' into 'IFN Core Network'''","count":84,"stream_id":189232,"contributor":{"url":"http://geocommons.com/users/12008","name":"pantheon"},"data_attributes":null,"calculation_params":[{"calculation":"buffer_intersect","input":{"ds1":"189231","min_distance":"0","ds2":"184567","unit":"miles","include_distance":"1","distance":"1"}}],"icon_link":null,"link":"http://geocommons.com/overlays/189232.json","extent":[-84.7148,39.746,-82.8977,41.7266],"geometry_types":["point"],"unique_name":null,"name":"Filtered Features of 'Zayo-VZW-IFN' based on 'Merge of 'Blue' into 'Merge of 'Orange' into 'IFN Core Network'''","feature_count":84,"description":"Dataset created by filtering features of 'Zayo-VZW-IFN' that are within a buffer of 0 to 1 miles around the features in 'Merge of 'Blue' into 'Merge of 'Orange' into 'IFN Core Network'''","next_feature":null,"is_raster":false,"short_classification":"Y","stats":{"geo_score":{"max":1.0,"mean":0.872797619047619,"variance":0.0179009826448652,"stdev":0.133794553868478,"min":0.482,"median":0.912},"distance":{"max":0.997992569080006,"mean":0.499519525015037,"variance":0.113512117660864,"stdev":0.336915594267858,"min":0.000641214160946313,"median":0.512115400013062}},"features":[{"properties":{"lon":"-84 12 32","city":"DAYTON","zip":"45408","county":"Montgomery","geo_score":1.0,"site name":"OH BURKHAM PARK","id":"254","geo_precision":"range","column_2":null,"lat":"39 44 48","address":"755 ALBANY ST","state":"OH","distance":0.534532997208024},"type":"Feature","geometry":{"type":"Point","coordinates":[-84.208704,39.746006]}},{"properties":{"lon":"-84 15 17","city":"DAYTON","zip":"45417","county":"Montgomery","geo_score":0.902,"site name":"OH WEST DAYTON","id":"259","geo_precision":"range","column_2":null,"lat":"39 45 03","address":"4219 WEST 3RD ST","state":"OH","distance":0.0037899325976215},"type":"Feature","geometry":{"type":"Point","coordinates":[-84.254616,39.749132]}},{"properties":{"lon":"-84 23 42.49","city":"NEW LEBANON","zip":"45345","county":"Montgomery","geo_score":0.902,"site name":"OH GREEN ACRES","id":"280","geo_precision":"range","column_2":null,"lat":"39 44 57.87","address":"301 NORTH CLAYTON RD","state":"OH","distance":0.746693351482125},"type":"Feature","geometry":{"type":"Point","coordinates":[-84.394848,39.749213]}},{"properties":{"lon":"-84 27 52","city":"WEST ALEXANDRIA","zip":"45381","county":"Montgomery","geo_score":0.882,"site name":"OH NEW LEBANON","id":"245","geo_precision":"range","column_2":null,"lat":"39 45 11","address":"599 NORTH SULPHUR SPRINGS","state":"OH","distance":0.403264578594361},"type":"Feature","geometry":{"type":"Point","coordinates":[-84.460531,39.753625]}},{"properties":{"lon":"-84 10 55.90","city":"DAYTON","zip":"45410","county":"Montgomery","geo_score":1.0,"site name":"OH WYOMING","id":"255","geo_precision":"range","column_2":null,"lat":"39 45 16.43","address":"222 PARK MANOR DR","state":"OH","distance":0.555556995961706},"type":"Feature","geometry":{"type":"Point","coordinates":[-84.182745,39.753788]}},{"properties":{"lon":"-84 11 32","city":"DAYTON","zip":"45402","county":"Montgomery","geo_score":0.824,"site name":"OH DAYTON POP","id":"247","geo_precision":"range","column_2":null,"lat":"39 45 28","address":"40 WEST 4TH ST SUITE M30","state":"OH","distance":0.139654303378595},"type":"Feature","geometry":{"type":"Point","coordinates":[-84.191966,39.75801]}},{"properties":{"lon":"-84 19 00","city":"GERMANTOWN","zip":"45422","county":"Montgomery","geo_score":0.624,"site name":"OH ELLERTON","id":"271","geo_precision":"zip","column_2":null,"lat":"39 39 56","address":"7494 DAYTON-GERMANTOWN PIKE","state":"OH","distance":0.997884615040193},"type":"Feature","geometry":{"type":"Point","coordinates":[-84.20009,39.758058]}},{"properties":{"lon":"-84 38 21","city":"EATON","zip":"45320","county":"Preble","geo_score":0.935,"site name":"OH EATON","id":"291","geo_precision":"range","column_2":null,"lat":"39 45 29","address":"201 W LEXINGTON RD","state":"OH","distance":0.000641214160946313},"type":"Feature","geometry":{"type":"Point","coordinates":[-84.638221,39.758522]}},{"properties":{"lon":"-84 03 05","city":"FAIRBORN","zip":"45324","county":"Greene","geo_score":0.91,"site name":"OH SOUTH FAIRBORN","id":"149","geo_precision":"range","column_2":null,"lat":"39 46 33","address":"2993 WARNER DR","state":"OH","distance":0.336638580986575},"type":"Feature","geometry":{"type":"Point","coordinates":[-84.047386,39.777059]}},{"properties":{"lon":"-84 01 02.06","city":"FAIRBORN","zip":"45324","county":"Greene","geo_score":0.91,"site name":"OH CHADWICK","id":"151","geo_precision":"range","column_2":null,"lat":"39 47 04.51","address":"2088 BEAVER VALLEY RD","state":"OH","distance":0.400641999905887},"type":"Feature","geometry":{"type":"Point","coordinates":[-84.021421,39.784905]}},{"properties":{"lon":"-84 02 31.37","city":"FAIRBORN","zip":"45324","county":"Greene","geo_score":0.75,"site name":"OH WPAFB","id":"150","geo_precision":"range","column_2":null,"lat":"39 47 50.25","address":"3664 SR 444","state":"OH","distance":0.835003847764441},"type":"Feature","geometry":{"type":"Point","coordinates":[-84.043455,39.796337]}},{"properties":{"lon":"-83 43 26","city":"SPRINGFIELD (SPRINGFIELD TOWNSHIP)","zip":"45502","county":"Clark","geo_score":0.919,"site name":"OH SOUTHEAST SPRINGFIELD","id":"19","geo_precision":"range","column_2":null,"lat":"39 53 39","address":"1839 RIDGE RD","state":"OH","distance":0.0134915999118957},"type":"Feature","geometry":{"type":"Point","coordinates":[-83.720976,39.893375]}},{"properties":{"lon":"-84 00 05","city":"NEW CARLISLE","zip":"45344","county":"Clark","geo_score":0.493,"site name":"OH BIRD","id":"12","geo_precision":"street","column_2":null,"lat":"39 59 38","address":"4015 DAYTON-LAKEVIEW ROAD (SR-235)","state":"OH","distance":0.700527405677469},"type":"Feature","geometry":{"type":"Point","coordinates":[-84.047422,39.898134]}},{"properties":{"lon":"-84 05 15","city":"TIPP CITY","zip":"45371","county":"Miami","geo_score":0.916,"site name":"OH BETHEL TOWNSHIP","id":"239","geo_precision":"range","column_2":null,"lat":"39 53 48","address":"8975 SOUTH STATE ROUTE 201","state":"OH","distance":0.876916804551516},"type":"Feature","geometry":{"type":"Point","coordinates":[-84.088225,39.898507]}},{"properties":{"lon":"-84 19 15","city":"UNION","zip":"45322","county":"Montgomery","geo_score":0.911,"site name":"OH UNION OHIO","id":"283","geo_precision":"range","column_2":null,"lat":"39 54 11","address":"216 SHAW RD","state":"OH","distance":0.233111594964064},"type":"Feature","geometry":{"type":"Point","coordinates":[-84.321889,39.902278]}},{"properties":{"lon":"-83 57 55","city":"NEW CARLISLE","zip":"45344","county":"Clark","geo_score":0.515,"site name":"OH I675 &amp; I70","id":"10","geo_precision":"street","column_2":null,"lat":"39 52 40","address":"3030 SNIDER ROAD\n\nSBC ADDR: BETHEL TWP.","state":"OH","distance":0.00783254063543071},"type":"Feature","geometry":{"type":"Point","coordinates":[-83.968418,39.91538]}},{"properties":{"lon":"-83 48 31.85","city":"SPRINGFIELD","zip":"45502","county":"Clark","geo_score":0.805,"site name":"OH SIMPSON","id":"16","geo_precision":"range","column_2":null,"lat":"39 55 27.43","address":"1 SOUTH LIMESTONE ST","state":"OH","distance":0.983431150031365},"type":"Feature","geometry":{"type":"Point","coordinates":[-83.808463,39.924484]}},{"properties":{"lon":"-83 38 13","city":"SOUTH VIENNA","zip":"45369","county":"Clark","geo_score":0.699,"site name":"OH SOUTH VIENNA","id":"14","geo_precision":"street","column_2":null,"lat":"39 55 37","address":"8932 EAST NATIONAL ROAD (RT 40)","state":"OH","distance":0.0745616307626796},"type":"Feature","geometry":{"type":"Point","coordinates":[-83.613098,39.927746]}},{"properties":{"lon":"-83 51 24","city":"SPRINGFIELD","zip":"45504","county":"Clark","geo_score":0.87,"site name":"OH SOUTHWEST SPRINGFIELD","id":"18","geo_precision":"street","column_2":null,"lat":"39 56 33","address":"1115 UPPER VALLEY PIKE\nSBC - 1110 HOLLY DR, GERMAN TWP","state":"OH","distance":0.0952037936915046},"type":"Feature","geometry":{"type":"Point","coordinates":[-83.856237,39.94367]}},{"properties":{"lon":"-83 09 10.14","city":"GALLOWAY","zip":"43119","county":"Franklin","geo_score":0.939,"site name":"OH NEW ROME","id":"110","geo_precision":"range","column_2":null,"lat":"39 56 52.53","address":"136 GALLOWAY ROAD","state":"OH","distance":0.152568283010367},"type":"Feature","geometry":{"type":"Point","coordinates":[-83.154351,39.94884]}},{"properties":{"lon":"-83 48 05","city":"SPRINGFIELD","zip":"45504","county":"Clark","geo_score":0.805,"site name":"OH SPRINGFIELD (DYTN)","id":"17","geo_precision":"range","column_2":null,"lat":"39 57 02","address":"2122 NORTH LIMESTONE ST","state":"OH","distance":0.864496880955909},"type":"Feature","geometry":{"type":"Point","coordinates":[-83.80413,39.951077]}},{"properties":{"lon":"-83 07 10.16","city":"COLUMBUS","zip":"43228","county":"Franklin","geo_score":0.482,"site name":"OH WESTLAND","id":"75","geo_precision":"street","column_2":null,"lat":"39 56 50.30","address":"1000 SHERWOOD FOREST WEST\n(ASR HAS ADDRESS AS: 4431 W. BROAD ST.)","state":"OH","distance":0.000660811292738872},"type":"Feature","geometry":{"type":"Point","coordinates":[-83.094962,39.953953]}},{"properties":{"lon":"-83 00 59","city":"COLUMBUS","zip":"43215","county":"Franklin","geo_score":1.0,"site name":"OH LOWER SCIOTO PARK","id":"53","geo_precision":"range","column_2":null,"lat":"39 57 09","address":"669 SULLIVANT AVE","state":"OH","distance":0.443834919907281},"type":"Feature","geometry":{"type":"Point","coordinates":[-83.017582,39.953964]}},{"properties":{"lon":"-83 16 14.05","city":"WEST JEFFERSON","zip":"43162","county":"Madison","geo_score":0.902,"site name":"OH WEST JEFFERSON","id":"235","geo_precision":"range","column_2":null,"lat":"39 57 28.91","address":"751 MIDDLE PIKE","state":"OH","distance":0.731731084429156},"type":"Feature","geometry":{"type":"Point","coordinates":[-83.271735,39.955338]}},{"properties":{"lon":"-83 00 01","city":"COLUMBUS","zip":"43215","county":"Franklin","geo_score":1.0,"site name":"OH DOWNTOWN CENTRAL (CLMB)","id":"55","geo_precision":"range","column_2":null,"lat":"39 57 44","address":"8 E BROAD ST","state":"OH","distance":0.0072941755434045},"type":"Feature","geometry":{"type":"Point","coordinates":[-83.000482,39.962248]}},{"properties":{"lon":"-83 03 06","city":"COLUMBUS","zip":"43222","county":"Franklin","geo_score":1.0,"site name":"OH SOUTH GRANDVIEW","id":"68","geo_precision":"range","column_2":null,"lat":"39 57 51","address":"1829 MCKINLEY AVE","state":"OH","distance":0.551128215223841},"type":"Feature","geometry":{"type":"Point","coordinates":[-83.050885,39.964271]}},{"properties":{"lon":"-82 59 38","city":"COLUMBUS","zip":"43215","county":"Franklin","geo_score":0.614,"site name":"OH SHADEVILLE","id":"51","geo_precision":"street","column_2":null,"lat":"39 50 08","address":"6089 PARSONS AVENUE\n6085 PARSONS AV  \nHAMILTON TWP   43137    (SBC)","state":"OH","distance":0.960553924012338},"type":"Feature","geometry":{"type":"Point","coordinates":[-82.981627,39.964394]}},{"properties":{"lon":"-83 01 10","city":"COLUMBUS","zip":"43215","county":"Franklin","geo_score":1.0,"site name":"OH CONFLUENCE","id":"52","geo_precision":"range","column_2":null,"lat":"39 58 10","address":"566 WEST NATIONWIDE BLVD","state":"OH","distance":0.0933490102911123},"type":"Feature","geometry":{"type":"Point","coordinates":[-83.016163,39.967333]}},{"properties":{"lon":"-83 00 16.89","city":"COLUMBUS","zip":"43201","county":"Franklin","geo_score":1.0,"site name":"OH VICTORIAN VILLAGE","id":"31","geo_precision":"range","column_2":null,"lat":"39 59 11.44","address":"1180 N PEARL ST","state":"OH","distance":0.363100412398474},"type":"Feature","geometry":{"type":"Point","coordinates":[-83.004731,39.986534]}},{"properties":{"lon":"-82 59 08","city":"COLUMBUS","zip":"43211","county":"Franklin","geo_score":0.927,"site name":"OH FAIRGROUNDS","id":"43","geo_precision":"range","column_2":null,"lat":"39 59 45","address":"781 EAST 12 AVE","state":"OH","distance":0.873841230384056},"type":"Feature","geometry":{"type":"Point","coordinates":[-82.986291,39.996234]}},{"properties":{"lon":"-83 00 25","city":"COLUMBUS","zip":"43201","county":"Franklin","geo_score":1.0,"site name":"OH OSU CENTRAL CAMPUS","id":"28","geo_precision":"range","column_2":null,"lat":"39 59 53","address":"1758 N HIGH ST","state":"OH","distance":0.609031662976925},"type":"Feature","geometry":{"type":"Point","coordinates":[-83.007702,39.998285]}},{"properties":{"lon":"-82 57 50.0","city":"COLUMBUS","zip":"43219","county":"Franklin","geo_score":1.0,"site name":"OH DUXBERRY PARK","id":"61","geo_precision":"range","column_2":null,"lat":"40-00-6.23","address":"1702 JOYCE AVE","state":"OH","distance":0.824743848241647},"type":"Feature","geometry":{"type":"Point","coordinates":[-82.964969,40.002064]}},{"properties":{"lon":"-83 00 43.5","city":"COLUMBUS","zip":"43202","county":"Franklin","geo_score":0.512,"site name":"OH SOUTH CLINTONVILLE","id":"33","geo_precision":"street","column_2":null,"lat":"40 00 59","address":"2661 NORTH HIGH ST (AS PER 5/04 SURVEY)","state":"OH","distance":0.810893083160733},"type":"Feature","geometry":{"type":"Point","coordinates":[-83.00992,40.009124]}},{"properties":{"lon":"-82 57 34.42","city":"COLUMBUS","zip":"43224","county":"Franklin","geo_score":1.0,"site name":"OH NORTH LINDEN","id":"71","geo_precision":"range","column_2":null,"lat":"40 01 44.70","address":"2945 WESTERVILLE RD","state":"OH","distance":0.0734152943705352},"type":"Feature","geometry":{"type":"Point","coordinates":[-82.959197,40.028385]}},{"properties":{"lon":"-82 54 43.00","city":"COLUMBUS","zip":"43219","county":"Franklin","geo_score":0.683,"site name":"OH EASTON WAY","id":"60","geo_precision":"zip","column_2":null,"lat":"40-02-56.24","address":"3900 CHAGRIN DR","state":"OH","distance":0.0581244702461277},"type":"Feature","geometry":{"type":"Point","coordinates":[-82.910251,40.032615]}},{"properties":{"lon":"-82 53 57","city":"COLUMBUS","zip":"43230","county":"Franklin","geo_score":0.902,"site name":"OH MIFFLIN","id":"80","geo_precision":"range","column_2":null,"lat":"40 03 29","address":"4011 APPIAN WAY","state":"OH","distance":0.824246929668142},"type":"Feature","geometry":{"type":"Point","coordinates":[-82.897699,40.057009]}},{"properties":{"lon":"-82 55 36","city":"COLUMBUS","zip":"43231","county":"Franklin","geo_score":1.0,"site name":"OH SUNBURY &amp; MORSE ROAD","id":"82","geo_precision":"range","column_2":null,"lat":"40 03 23","address":"3451 MORSE RD","state":"OH","distance":0.693897595183801},"type":"Feature","geometry":{"type":"Point","coordinates":[-82.927045,40.058313]}},{"properties":{"lon":"-83 00 22.13","city":"WORTHINGTON","zip":"43085","county":"Franklin","geo_score":0.838,"site name":"OH COLONIAL HILLS","id":"140","geo_precision":"range","column_2":null,"lat":"40-05-17.19","address":"385 E DUBLIN-GRANVILLE RD SUITE B","state":"OH","distance":0.884334956139243},"type":"Feature","geometry":{"type":"Point","coordinates":[-83.005302,40.088372]}},{"properties":{"lon":"-82 55 50","city":"WESTERVILLE","zip":"43081","county":"Franklin","geo_score":0.938,"site name":"OH BLENDON","id":"131","geo_precision":"range","column_2":null,"lat":"40 05 44","address":"6003 WESTERVILLE ROAD","state":"OH","distance":0.422716206285894},"type":"Feature","geometry":{"type":"Point","coordinates":[-82.925442,40.094274]}},{"properties":{"lon":"-83 00 01","city":"WORTHINGTON","zip":"43229","county":"Franklin","geo_score":0.873,"site name":"OH NORTH WORTHINGTON","id":"141","geo_precision":"range","column_2":null,"lat":"40 06 02","address":"507 SCHROCK RD","state":"OH","distance":0.991914331300059},"type":"Feature","geometry":{"type":"Point","coordinates":[-83.000383,40.101436]}},{"properties":{"lon":"-83 01 47.00","city":"COLUMBUS","zip":"43214","county":"Franklin","geo_score":0.512,"site name":"OH RIVERSIDE HOSPITAL","id":"49","geo_precision":"street","column_2":null,"lat":"40 02 02.72","address":"496 COLONIAL PARKWAY","state":"OH","distance":0.0653248867551476},"type":"Feature","geometry":{"type":"Point","coordinates":[-82.970503,40.105063]}},{"properties":{"lon":"-83 05 19.18","city":"COLUMBUS","zip":"43235","county":"Franklin","geo_score":0.683,"site name":"OH BETHEL &amp; SAWMILL","id":"90","geo_precision":"zip","column_2":null,"lat":"40 04 02.14","address":"2633 RESLER DRIVE","state":"OH","distance":0.249918817320062},"type":"Feature","geometry":{"type":"Point","coordinates":[-82.974204,40.108836]}},{"properties":{"lon":"-82 57 03","city":"COLUMBUS","zip":"43229","county":"Franklin","geo_score":0.902,"site name":"OH I270 &amp; CLEVELAND","id":"78","geo_precision":"range","column_2":null,"lat":"40 06 32","address":"6843 FLAGS CENTER DR","state":"OH","distance":0.0275389188426119},"type":"Feature","geometry":{"type":"Point","coordinates":[-82.951165,40.109427]}},{"properties":{"lon":"-83 02 13.14","city":"COLUMBUS","zip":"43235","county":"Franklin","geo_score":1.0,"site name":"OH FISHER RUN","id":"93","geo_precision":"range","column_2":null,"lat":"40-06-41.47","address":"794 LINWORTH ROAD EAST","state":"OH","distance":0.204126977565448},"type":"Feature","geometry":{"type":"Point","coordinates":[-83.038525,40.110756]}},{"properties":{"lon":"-83 01 01","city":"COLUMBUS","zip":"43235","county":"Franklin","geo_score":0.807,"site name":"OH WEST WILSON BRIDGE ROAD","id":"92","geo_precision":"street","column_2":null,"lat":"40 06 47","address":"7315 NORTH HIGH ST","state":"OH","distance":0.434279112118807},"type":"Feature","geometry":{"type":"Point","coordinates":[-83.016375,40.115594]}},{"properties":{"lon":"-82 58 54.30","city":"WORTHINGTON","zip":"43085","county":"Franklin","geo_score":0.911,"site name":"OH WORTHINGTON","id":"138","geo_precision":"range","column_2":null,"lat":"40 06 53.50","address":"7425 PINGUE DR","state":"OH","distance":0.795705598053486},"type":"Feature","geometry":{"type":"Point","coordinates":[-82.982864,40.115977]}},{"properties":{"lon":"-83 00 59","city":"COLUMBUS","zip":"43235","county":"Franklin","geo_score":1.0,"site name":"OH NORTHWOODS","id":"88","geo_precision":"range","column_2":null,"lat":"40 07 23","address":"7825 NORTH HIGH ST","state":"OH","distance":0.787181065178169},"type":"Feature","geometry":{"type":"Point","coordinates":[-83.016057,40.1212]}},{"properties":{"lon":"-84 28 56","city":"VERSAILLES","zip":"45380","county":"Darke","geo_score":0.902,"site name":"OH PALACE","id":"25","geo_precision":"range","column_2":null,"lat":"40 13 53","address":"10709 REED RD","state":"OH","distance":0.629933252989488},"type":"Feature","geometry":{"type":"Point","coordinates":[-84.48417,40.231366]}},{"properties":{"lon":"-84 12 29","city":"CRIDERSVILLE","zip":"45806","county":"Auglaize","geo_score":0.715,"site name":"OH BUCKLAND","id":"4","geo_precision":"street","column_2":null,"lat":"40 38 03","address":"19507 STATE ROUTE 501","state":"OH","distance":0.254350463796224},"type":"Feature","geometry":{"type":"Point","coordinates":[-84.203511,40.657047]}},{"properties":{"lon":"-83 49 26.4","city":"ADA","zip":"45810","county":"Hardin","geo_score":0.913,"site name":"OH ADA","id":"163","geo_precision":"range","column_2":null,"lat":"40-45-16.4","address":"4503 STATE ROUTE 235","state":"OH","distance":0.532369972944024},"type":"Feature","geometry":{"type":"Point","coordinates":[-83.823194,40.754213]}},{"properties":{"lon":"-83 52 49.7","city":"ADA","zip":"45810","county":"Hardin","geo_score":0.913,"site name":"OH LIMA EAST","id":"164","geo_precision":"range","column_2":null,"lat":"40 46 21.4","address":"2241 N HARDIN RD","state":"OH","distance":0.791408428800922},"type":"Feature","geometry":{"type":"Point","coordinates":[-83.879905,40.772978]}},{"properties":{"lon":"-84 37 42","city":"OHIO CITY","zip":"45874","county":"Van Wert","geo_score":0.883,"site name":"OH OHIO CITY","id":"299","geo_precision":"range","column_2":null,"lat":"40 46 36","address":"15633-A LIBERTY UNION RD","state":"OH","distance":0.547269976475483},"type":"Feature","geometry":{"type":"Point","coordinates":[-84.628899,40.776543]}},{"properties":{"lon":"-83 39 39","city":"DUNKIRK","zip":"45836","county":"Hardin","geo_score":0.924,"site name":"OH DUNKIRK","id":"165","geo_precision":"range","column_2":null,"lat":"40-48-18","address":"11520 TOWNSHIP ROAD 20","state":"OH","distance":0.945222733270948},"type":"Feature","geometry":{"type":"Point","coordinates":[-83.660911,40.805012]}},{"properties":{"lon":"-84 17 02","city":"DELPHOS","zip":"45833","county":"Allen","geo_score":0.922,"site name":"OH DELPHOS","id":"3","geo_precision":"range","column_2":null,"lat":"40 50 27","address":"7147 BUETTNER RD","state":"OH","distance":0.987214720441239},"type":"Feature","geometry":{"type":"Point","coordinates":[-84.281755,40.839395]}},{"properties":{"lon":"-83 46 38.26","city":"MCGUFFEY","zip":"45859","county":"Hardin","geo_score":0.61,"site name":"OH MCGUFFEY","id":"167","geo_precision":"street","column_2":null,"lat":"40 41 24.34","address":"605 MARSH RD","state":"OH","distance":0.657029199109264},"type":"Feature","geometry":{"type":"Point","coordinates":[-84.571973,40.900442]}},{"properties":{"lon":"-84 42 52.91","city":"CONVOY","zip":"45832","county":"Van Wert","geo_score":0.912,"site name":"OH CONVOY","id":"298","geo_precision":"range","column_2":null,"lat":"40 55 54.04","address":"5617 MENTZER RD","state":"OH","distance":0.50622395693974},"type":"Feature","geometry":{"type":"Point","coordinates":[-84.714846,40.931441]}},{"properties":{"lon":"-83 37 52.4","city":"FINDLAY","zip":"45840","county":"Hancock","geo_score":0.915,"site name":"OH FINDLAY II","id":"157","geo_precision":"range","column_2":null,"lat":"41 00 30.8","address":"13004 TOWNSHIP ROAD 204","state":"OH","distance":0.370272205425628},"type":"Feature","geometry":{"type":"Point","coordinates":[-83.6361,41.007886]}},{"properties":{"lon":"-83 40 43.4","city":"FINDLAY","zip":"45840","county":"Hancock","geo_score":0.866,"site name":"OH FINDLAY SOUTHWEST","id":"161","geo_precision":"range","column_2":null,"lat":"41-02-35.9","address":"1783 WEST MAIN CROSS","state":"OH","distance":0.522260713111455},"type":"Feature","geometry":{"type":"Point","coordinates":[-83.679379,41.042459]}},{"properties":{"lon":"-83 38 33","city":"FINDLAY","zip":"45840","county":"Hancock","geo_score":0.915,"site name":"OH FINDLAY","id":"158","geo_precision":"range","column_2":null,"lat":"40 02 57","address":"431 PROSPECT AVE","state":"OH","distance":0.234839358051057},"type":"Feature","geometry":{"type":"Point","coordinates":[-83.641956,41.049529]}},{"properties":{"lon":"-83 56 10","city":"DESHLER","zip":"43516","county":"Henry","geo_score":0.939,"site name":"OH DESHLER [ALLTEL]","id":"168","geo_precision":"range","column_2":null,"lat":"41 12 41","address":"3840 CO RD D","state":"OH","distance":0.992940733291835},"type":"Feature","geometry":{"type":"Point","coordinates":[-83.936429,41.211124]}},{"properties":{"lon":"-83 36 14.7","city":"BOWLING GREEN","zip":"43402","county":"Wood","geo_score":0.789,"site name":"OH BOWLING GREEN [ALLTEL]","id":"307","geo_precision":"range","column_2":null,"lat":"41 20 58.1","address":"10653 LINWOOD RD","state":"OH","distance":0.300825750911883},"type":"Feature","geometry":{"type":"Point","coordinates":[-83.60753,41.349006]}},{"properties":{"lon":"-83 31 06","city":"PEMBERVILLE","zip":"43450","county":"Wood","geo_score":0.92,"site name":"OH BOWLING GREEN EAST","id":"316","geo_precision":"range","column_2":null,"lat":"41 21 24","address":"6160 LINWOOD RD","state":"OH","distance":0.3820874330703},"type":"Feature","geometry":{"type":"Point","coordinates":[-83.516609,41.358051]}},{"properties":{"lon":"-83 36 03","city":"PERRYSBURG","zip":"43551","county":"Wood","geo_score":0.902,"site name":"OH PERRYSBURG II","id":"318","geo_precision":"range","column_2":null,"lat":"41 32 10","address":"10701 ECKEL JUNCTION RD","state":"OH","distance":0.74538227671287},"type":"Feature","geometry":{"type":"Point","coordinates":[-83.60041,41.536631]}},{"properties":{"lon":"-83 44 15","city":"MONCLOVA","zip":"43532","county":"Lucas","geo_score":0.805,"site name":"OH MONCLOVA [ALLTEL]","id":"179","geo_precision":"range","column_2":null,"lat":"41 33 34","address":"4335 ALBON RD","state":"OH","distance":0.789104973953234},"type":"Feature","geometry":{"type":"Point","coordinates":[-83.737874,41.562269]}},{"properties":{"lon":"-83 39 49","city":"MAUMEE","zip":"43537","county":"Lucas","geo_score":0.878,"site name":"OH PERRYSBURG","id":"176","geo_precision":"street","column_2":null,"lat":"41 33 50","address":"515 W SOPHIA ST","state":"OH","distance":0.295445081163392},"type":"Feature","geometry":{"type":"Point","coordinates":[-83.662667,41.563436]}},{"properties":{"lon":"-83 46 36","city":"MONCLOVA","zip":"43542","county":"Lucas","geo_score":1.0,"site name":"OH MONCLOVA","id":"180","geo_precision":"range","column_2":null,"lat":"41 34 21.2","address":"9855 MAUMEE WESTERN RD","state":"OH","distance":0.00123757436918548},"type":"Feature","geometry":{"type":"Point","coordinates":[-83.773256,41.573929]}},{"properties":{"lon":"-83 41 49","city":"MAUMEE","zip":"43537","county":"Lucas","geo_score":1.0,"site name":"OH DUSSEL/BRIARFIELD [ALLTEL]","id":"177","geo_precision":"range","column_2":null,"lat":"41 34 35","address":"3530 BRIARFIELD BLVD","state":"OH","distance":0.994908402670862},"type":"Feature","geometry":{"type":"Point","coordinates":[-83.695369,41.579447]}},{"properties":{"lon":"-83 37 04","city":"MAUMEE","zip":"43537","county":"Lucas","geo_score":0.912,"site name":"OH DETROIT [ALLTEL]","id":"178","geo_precision":"range","column_2":null,"lat":"41 35 05","address":"2513 PARKWAY PLAZA","state":"OH","distance":0.204500465924577},"type":"Feature","geometry":{"type":"Point","coordinates":[-83.620459,41.57965]}},{"properties":{"lon":"-83 37 10","city":"TOLEDO","zip":"43614","county":"Lucas","geo_score":1.0,"site name":"OH TOLEDO SOUTH","id":"208","geo_precision":"range","column_2":null,"lat":"41 35 54","address":"2215 TEDROW RD","state":"OH","distance":0.860417378287514},"type":"Feature","geometry":{"type":"Point","coordinates":[-83.619994,41.598953]}},{"properties":{"lon":"-83 43 52","city":"HOLLAND","zip":"43528","county":"Lucas","geo_score":0.911,"site name":"OH SPRING VALLEY [ALLTEL]","id":"172","geo_precision":"range","column_2":null,"lat":"41 36 07","address":"7905 PILLIOD RD","state":"OH","distance":0.49391809409703},"type":"Feature","geometry":{"type":"Point","coordinates":[-83.730315,41.602996]}},{"properties":{"lon":"-83 34 32","city":"TOLEDO","zip":"43609","county":"Lucas","geo_score":1.0,"site name":"OH ARLINGTON [ALLTEL]","id":"196","geo_precision":"range","column_2":null,"lat":"41 37 32","address":"715 SPENCER ST","state":"OH","distance":0.123700547904826},"type":"Feature","geometry":{"type":"Point","coordinates":[-83.576903,41.626938]}},{"properties":{"lon":"-83 32 31","city":"TOLEDO","zip":"43602","county":"Lucas","geo_score":0.724,"site name":"OH TOLEDO DOWNTOWN","id":"186","geo_precision":"street","column_2":null,"lat":"41 38 35","address":"210 OLIVER ST","state":"OH","distance":0.919126853283899},"type":"Feature","geometry":{"type":"Point","coordinates":[-83.541238,41.64299]}},{"properties":{"lon":"-83 42 15","city":"TOLEDO","zip":"43615","county":"Lucas","geo_score":0.922,"site name":"OH HAVEN PARK","id":"211","geo_precision":"range","column_2":null,"lat":"41 39 03","address":"1015 N MCCORD RD","state":"OH","distance":0.138748458927259},"type":"Feature","geometry":{"type":"Point","coordinates":[-83.703644,41.651792]}},{"properties":{"lon":"-83 40 1.03","city":"TOLEDO","zip":"43615","county":"Lucas","geo_score":0.922,"site name":"OH OTTAWA HILLS","id":"210","geo_precision":"range","column_2":null,"lat":"41 39 6.99","address":"1309 NORTH REYNOLDS RD","state":"OH","distance":0.0969327012914052},"type":"Feature","geometry":{"type":"Point","coordinates":[-83.664655,41.651941]}},{"properties":{"lon":"-83 37 27","city":"TOLEDO","zip":"43607","county":"Lucas","geo_score":1.0,"site name":"OH TOLEDO UNIVERSITY","id":"194","geo_precision":"range","column_2":null,"lat":"41 39 18","address":"3412 DORR ST","state":"OH","distance":0.00160145401804512},"type":"Feature","geometry":{"type":"Point","coordinates":[-83.623414,41.652844]}},{"properties":{"lon":"-83 32 23","city":"TOLEDO","zip":"43620","county":"Lucas","geo_score":1.0,"site name":"OH TOLEDO DOWNTOWN II","id":"215","geo_precision":"range","column_2":null,"lat":"41 39 51","address":"612 SCOTT ST","state":"OH","distance":0.93598342330736},"type":"Feature","geometry":{"type":"Point","coordinates":[-83.537666,41.661688]}},{"properties":{"lon":-83.61577778,"city":"TOLEDO","zip":"43606","county":"Lucas","geo_score":0.858,"site name":"OH UNIVERSITY OF TOLEDO [ALLTEL]","id":"192","geo_precision":"range","column_2":null,"lat":41.65725833,"address":"3001 WEST BANCROFT","state":"OH","distance":0.696481298825233},"type":"Feature","geometry":{"type":"Point","coordinates":[-83.615157,41.663029]}},{"properties":{"lon":-83.52042222,"city":"TOLEDO","zip":"43604","county":"Lucas","geo_score":1.0,"site name":"OH SUMMIT [ALLTEL]","id":"187","geo_precision":"range","column_2":null,"lat":41.66705833,"address":"1550 CHAMPLAIN ST","state":"OH","distance":0.444722794399612},"type":"Feature","geometry":{"type":"Point","coordinates":[-83.521355,41.666895]}},{"properties":{"lon":"-83 42 15","city":"TOLEDO","zip":"43617","county":"Lucas","geo_score":0.805,"site name":"OH SYLVANIA","id":"214","geo_precision":"street","column_2":null,"lat":"41 40 33","address":"6710 W CENTRAL AVENUE #21","state":"OH","distance":0.997992569080006},"type":"Feature","geometry":{"type":"Point","coordinates":[-83.696349,41.675591]}},{"properties":{"lon":"-83 48 27","city":"BERKEY","zip":"43504","county":"Lucas","geo_score":0.915,"site name":"OH LYONS","id":"169","geo_precision":"range","column_2":null,"lat":"41 40 42","address":"3300 WASHBURN RD","state":"OH","distance":0.191117537306015},"type":"Feature","geometry":{"type":"Point","coordinates":[-83.805939,41.676101]}},{"properties":{"lon":"-83 43 55","city":"SYLVANIA","zip":"43560","county":"Lucas","geo_score":0.939,"site name":"OH SYLVANIA WEST","id":"184","geo_precision":"range","column_2":null,"lat":"41 41 17","address":"7831 SYLVANIA AVE","state":"OH","distance":0.934948712766375},"type":"Feature","geometry":{"type":"Point","coordinates":[-83.731768,41.688427]}},{"properties":{"lon":"-83 31 15","city":"TOLEDO","zip":"43608","county":"Lucas","geo_score":0.865,"site name":"OH I-280 NORTH","id":"195","geo_precision":"range","column_2":null,"lat":"41 41 26","address":"1242 NORTH EXPRESSWAY DR","state":"OH","distance":0.233640826388923},"type":"Feature","geometry":{"type":"Point","coordinates":[-83.523591,41.690317]}},{"properties":{"lon":-83.52397222,"city":"TOLEDO","zip":"43612","county":"Lucas","geo_score":0.961,"site name":"OH STICKNEY [ALLTEL]","id":"205","geo_precision":"range","column_2":null,"lat":41.70494444,"address":"920 MATZINGER RD","state":"OH","distance":0.954032739781025},"type":"Feature","geometry":{"type":"Point","coordinates":[-83.524765,41.705539]}},{"properties":{"lon":"-83 30 24","city":"TOLEDO","zip":"43612","county":"Lucas","geo_score":0.961,"site name":"OH I-75 &amp; ALEXIS","id":"202","geo_precision":"range","column_2":null,"lat":"41 43 35","address":"6010 HAGMAN RD","state":"OH","distance":0.512115400013062},"type":"Feature","geometry":{"type":"Point","coordinates":[-83.508835,41.72663]}}],"is_temporal":false,"author":{"url":"","metadata":"","contact_name":"","contact_address":"","source":"","contact_phone":""},"source":"","pagination":{"sort":null,"start":0,"total":84,"limit":1000000},"state":"complete","tags":"","published":"2014-08-13T10:54:43-04:00","id":189232}