{"type":"FeatureCollection","data_type":"Dataset","url_type":null,"permissions":[{"permissions":{"download":true,"view":true},"group_id":"everyone"}],"classification":null,"title":"Barca Donations 2010","count":173,"stream_id":189469,"contributor":{"url":"http://geocommons.com/users/22798","name":"geographer"},"data_attributes":null,"calculation_params":null,"icon_link":null,"link":"http://geocommons.com/overlays/189469.json","extent":[-107.531,27.884,-81.4614,46.1211],"geometry_types":["point"],"unique_name":null,"name":"Barca Donations 2010","feature_count":173,"description":"Campaign contributions to Wisconsin Representative Peter Barca from the 64th District for the 2010 election cycle.","next_feature":null,"is_raster":false,"short_classification":"Y","stats":{"date":{"max":"2010/12/12 00:00:00 -0500","mean":"2010/05/06 08:16:18 -0400","variance":117170181109515.0,"stdev":10824517.5924618,"min":"2009/11/05 00:00:00 -0500","median":"2010/06/06 00:00:00 -0400"},"amount":{"max":500.0,"mean":172.23289017341,"variance":10995.0646567146,"stdev":104.857353851385,"min":50.0,"median":100.0}},"features":[{"properties":{"city":"St Paul","zip":"55105","city, state zip":"St Paul, MN 55105","date":{"end_time":"2009/11/06 00:00:00 -0500","original":"11/05/09","granularity":"day","time":"2009/11/05 00:00:00 -0500"},"geo_score":0.952,"contributed to":"Barca, Peter","employer":"No Employer Listed","contributor name":"Hopkinson, David","amount":100.0,"id":"a639l3xi49hm","geo_precision":"zip","interest category":"Unknown","state":"MN"},"type":"Feature","geometry":{"type":"Point","coordinates":[-93.16097,44.934515]}},{"properties":{"city":"Janesville","zip":"53545","city, state zip":"Janesville, WI 53545","date":{"end_time":"2009/11/07 00:00:00 -0500","original":"11/06/09","granularity":"day","time":"2009/11/06 00:00:00 -0500"},"geo_score":0.871,"contributed to":"Barca, Peter","employer":"Tasting Room of Monona","contributor name":"Schaefer, Bryant Alan","amount":100.0,"id":"a639l4bk4h9p","geo_precision":"zip","interest category":"Business","state":"WI"},"type":"Feature","geometry":{"type":"Point","coordinates":[-89.129003,42.730842]}},{"properties":{"city":"Salem","zip":"53168","city, state zip":"Salem, WI 53168","date":{"end_time":"2009/11/11 00:00:00 -0500","original":"11/10/09","granularity":"day","time":"2009/11/10 00:00:00 -0500"},"geo_score":0.937,"contributed to":"Barca, Peter","employer":"Podiatrist","contributor name":"Bostanche, John","amount":100.0,"id":"a639l40hx723","geo_precision":"zip","interest category":"Health Professionals","state":"WI"},"type":"Feature","geometry":{"type":"Point","coordinates":[-88.092307,42.55863]}},{"properties":{"city":"Kenosha","zip":"53142","city, state zip":"Kenosha, WI 53142","date":{"end_time":"2009/11/12 00:00:00 -0500","original":"11/11/09","granularity":"day","time":"2009/11/11 00:00:00 -0500"},"geo_score":1.0,"contributed to":"Barca, Peter","employer":"Podiatrist","contributor name":"Miceli, Giuseppe","amount":100.0,"id":"a639l3wz6l3f","geo_precision":"zip","interest category":"Health Professionals","state":"WI"},"type":"Feature","geometry":{"type":"Point","coordinates":[-87.925876,42.558221]}},{"properties":{"city":"Pewaukee","zip":"53072","city, state zip":"Pewaukee, WI 53072","date":{"end_time":"2009/11/12 00:00:00 -0500","original":"11/11/09","granularity":"day","time":"2009/11/11 00:00:00 -0500"},"geo_score":0.952,"contributed to":"Barca, Peter","employer":"Bowling Centers Assn of ...","contributor name":"Hartel, Gary","amount":100.0,"id":"a639l3x9dmlk","geo_precision":"zip","interest category":"Tourism/Leisure/Entertainment","state":"WI"},"type":"Feature","geometry":{"type":"Point","coordinates":[-88.330928,43.074731]}},{"properties":{"city":"Hales Corners","zip":"52130","city, state zip":"Hales Corners, WI 52130","date":{"end_time":"2009/11/12 00:00:00 -0500","original":"11/11/09","granularity":"day","time":"2009/11/11 00:00:00 -0500"},"geo_score":0.738,"contributed to":"Barca, Peter","employer":"Podiatrist","contributor name":"Boudreau, James","amount":100.0,"id":"a639l4awg46t","geo_precision":"zip","interest category":"Health Professionals","state":"WI"},"type":"Feature","geometry":{"type":"Point","coordinates":[-92.047672,42.996643]}},{"properties":{"city":"Beloit","zip":"53411","city, state zip":"Beloit, WI 53411","date":{"end_time":"2009/11/12 00:00:00 -0500","original":"11/11/09","granularity":"day","time":"2009/11/11 00:00:00 -0500"},"geo_score":0.786,"contributed to":"Barca, Peter","employer":"Beloit Foot &amp; Ankle Clinic","contributor name":"Sage, Robert","amount":100.0,"id":"a639l3vwctp7","geo_precision":"city","interest category":"Health Professionals","state":"WI"},"type":"Feature","geometry":{"type":"Point","coordinates":[-87.705366,44.34194]}},{"properties":{"city":"Milwaukee","zip":"53202","city, state zip":"Milwaukee, WI 53202","date":{"end_time":"2009/11/12 00:00:00 -0500","original":"11/11/09","granularity":"day","time":"2009/11/11 00:00:00 -0500"},"geo_score":1.0,"contributed to":"Barca, Peter","employer":"Herzing College","contributor name":"Herzing, Henry","amount":100.0,"id":"a639l48ltggm","geo_precision":"zip","interest category":"Education","state":"WI"},"type":"Feature","geometry":{"type":"Point","coordinates":[-87.894734,43.043213]}},{"properties":{"city":"Sturtevant","zip":"53177","city, state zip":"Sturtevant, WI 53177","date":{"end_time":"2009/11/12 00:00:00 -0500","original":"11/11/09","granularity":"day","time":"2009/11/11 00:00:00 -0500"},"geo_score":0.9,"contributed to":"Barca, Peter","employer":"No Employer Listed","contributor name":"De Montmollin, John","amount":100.0,"id":"a639l3wihovw","geo_precision":"zip","interest category":"Unknown","state":"WI"},"type":"Feature","geometry":{"type":"Point","coordinates":[-87.958414,42.69863]}},{"properties":{"city":"Kenosha","zip":"53143","city, state zip":"Kenosha, WI 53143","date":{"end_time":"2009/11/12 00:00:00 -0500","original":"11/11/09","granularity":"day","time":"2009/11/11 00:00:00 -0500"},"geo_score":1.0,"contributed to":"Barca, Peter","employer":"No Employer Listed","contributor name":"Andrea, David","amount":100.0,"id":"a639l414ao5n","geo_precision":"zip","interest category":"Unknown","state":"WI"},"type":"Feature","geometry":{"type":"Point","coordinates":[-87.824828,42.53607]}},{"properties":{"city":"Kenosha","zip":"53144","city, state zip":"Kenosha, WI 53144","date":{"end_time":"2009/11/12 00:00:00 -0500","original":"11/11/09","granularity":"day","time":"2009/11/11 00:00:00 -0500"},"geo_score":1.0,"contributed to":"Barca, Peter","employer":"Podiatrist","contributor name":"Stevenson, Alyssa","amount":100.0,"id":"a639l3xsk5su","geo_precision":"zip","interest category":"Health Professionals","state":"WI"},"type":"Feature","geometry":{"type":"Point","coordinates":[-87.948079,42.618427]}},{"properties":{"city":"Racine","zip":"53405","city, state zip":"Racine, WI 53405","date":{"end_time":"2009/11/12 00:00:00 -0500","original":"11/11/09","granularity":"day","time":"2009/11/11 00:00:00 -0500"},"geo_score":1.0,"contributed to":"Barca, Peter","employer":"Podiatrist","contributor name":"Larsen, Matthe","amount":100.0,"id":"a639l49lu744","geo_precision":"zip","interest category":"Health Professionals","state":"WI"},"type":"Feature","geometry":{"type":"Point","coordinates":[-87.820925,42.731827]}},{"properties":{"city":"Kenosha","zip":"53142","city, state zip":"Kenosha, WI 53142","date":{"end_time":"2009/11/12 00:00:00 -0500","original":"11/11/09","granularity":"day","time":"2009/11/11 00:00:00 -0500"},"geo_score":1.0,"contributed to":"Barca, Peter","employer":"Podiatrist","contributor name":"Engle, Michael","amount":100.0,"id":"a639l3yy7wt6","geo_precision":"zip","interest category":"Health Professionals","state":"WI"},"type":"Feature","geometry":{"type":"Point","coordinates":[-87.925876,42.558221]}},{"properties":{"city":"Waukesha","zip":"53189","city, state zip":"Waukesha, WI 53189","date":{"end_time":"2009/11/12 00:00:00 -0500","original":"11/11/09","granularity":"day","time":"2009/11/11 00:00:00 -0500"},"geo_score":1.0,"contributed to":"Barca, Peter","employer":"Nice Ash","contributor name":"Barta, Joseph","amount":200.0,"id":"a639l40e2rfe","geo_precision":"zip","interest category":"Tourism/Leisure/Entertainment","state":"WI"},"type":"Feature","geometry":{"type":"Point","coordinates":[-88.296321,42.95163]}},{"properties":{"city":"Kenosha","zip":"53143","city, state zip":"Kenosha, WI 53143","date":{"end_time":"2009/11/12 00:00:00 -0500","original":"11/11/09","granularity":"day","time":"2009/11/11 00:00:00 -0500"},"geo_score":1.0,"contributed to":"Barca, Peter","employer":"Family Foot Clinics of...","contributor name":"Thompson, Michael","amount":100.0,"id":"a639l3zzk72w","geo_precision":"zip","interest category":"Health Professionals","state":"WI"},"type":"Feature","geometry":{"type":"Point","coordinates":[-87.824828,42.53607]}},{"properties":{"city":"Madison","zip":"53719","city, state zip":"Madison, WI 53719","date":{"end_time":"2009/11/12 00:00:00 -0500","original":"11/11/09","granularity":"day","time":"2009/11/11 00:00:00 -0500"},"geo_score":1.0,"contributed to":"Barca, Peter","employer":"Podiatrist","contributor name":"Merckx, Steven","amount":100.0,"id":"a639l45y1d9w","geo_precision":"zip","interest category":"Health Professionals","state":"WI"},"type":"Feature","geometry":{"type":"Point","coordinates":[-89.494568,43.03125]}},{"properties":{"city":"Milwaukee","zip":"53223","city, state zip":"Milwaukee, WI 53223","date":{"end_time":"2009/11/12 00:00:00 -0500","original":"11/11/09","granularity":"day","time":"2009/11/11 00:00:00 -0500"},"geo_score":1.0,"contributed to":"Barca, Peter","employer":"Columbia-St Mary's Hospital","contributor name":"Frydman, Steven","amount":100.0,"id":"a639l42mjwsx","geo_precision":"zip","interest category":"Health Professionals","state":"WI"},"type":"Feature","geometry":{"type":"Point","coordinates":[-87.977896,43.162959]}},{"properties":{"city":"Kenosha","zip":"53142","city, state zip":"Kenosha, WI 53142","date":{"end_time":"2009/11/12 00:00:00 -0500","original":"11/11/09","granularity":"day","time":"2009/11/11 00:00:00 -0500"},"geo_score":1.0,"contributed to":"Barca, Peter","employer":"Podiatrist","contributor name":"Bostanche, John","amount":100.0,"id":"a639l49dl0wo","geo_precision":"zip","interest category":"Health Professionals","state":"WI"},"type":"Feature","geometry":{"type":"Point","coordinates":[-87.925876,42.558221]}},{"properties":{"city":"Racine","zip":"53405","city, state zip":"Racine, WI 53405","date":{"end_time":"2009/11/13 00:00:00 -0500","original":"11/12/09","granularity":"day","time":"2009/11/12 00:00:00 -0500"},"geo_score":1.0,"contributed to":"Barca, Peter","employer":"Nurse anesthetist","contributor name":"Klinkhammer, Stephen","amount":100.0,"id":"a639l49cwazv","geo_precision":"zip","interest category":"Health Professionals","state":"WI"},"type":"Feature","geometry":{"type":"Point","coordinates":[-87.820925,42.731827]}},{"properties":{"city":"Menomonee Falls","zip":"53051","city, state zip":"Menomonee Falls, WI 53051","date":{"end_time":"2009/11/14 00:00:00 -0500","original":"11/13/09","granularity":"day","time":"2009/11/13 00:00:00 -0500"},"geo_score":0.878,"contributed to":"Barca, Peter","employer":"Accountant","contributor name":"Denor, Gerald","amount":250.0,"id":"a639l45hdy2w","geo_precision":"zip","interest category":"Banking &amp; Finance","state":"WI"},"type":"Feature","geometry":{"type":"Point","coordinates":[-88.077868,43.151676]}},{"properties":{"city":"Racine","zip":"53402","city, state zip":"Racine, WI 53402","date":{"end_time":"2009/11/14 00:00:00 -0500","original":"11/13/09","granularity":"day","time":"2009/11/13 00:00:00 -0500"},"geo_score":0.889,"contributed to":"Barca, Peter","employer":"Clifton, Gunderson &amp; Co","contributor name":"Johnson, Steven","amount":250.0,"id":"a639l48ymttq","geo_precision":"zip","interest category":"Banking &amp; Finance","state":"WI"},"type":"Feature","geometry":{"type":"Point","coordinates":[-87.766186,42.784464]}},{"properties":{"city":"Kenosha","zip":"53144","city, state zip":"Kenosha, WI 53144","date":{"end_time":"2009/11/25 00:00:00 -0500","original":"11/24/09","granularity":"day","time":"2009/11/24 00:00:00 -0500"},"geo_score":1.0,"contributed to":"Barca, Peter","employer":"Madrigrano, Aiello &amp;...","contributor name":"Madrigrano, Joseph","amount":250.0,"id":"a639l435o4qk","geo_precision":"zip","interest category":"Lawyers/Law Firms/Lobbyists","state":"WI"},"type":"Feature","geometry":{"type":"Point","coordinates":[-87.948079,42.618427]}},{"properties":{"city":"Kenosha","zip":"53143","city, state zip":"Kenosha, WI 53143","date":{"end_time":"2009/11/26 00:00:00 -0500","original":"11/25/09","granularity":"day","time":"2009/11/25 00:00:00 -0500"},"geo_score":1.0,"contributed to":"Barca, Peter","employer":"Physician","contributor name":"Peterson, Cliff E","amount":150.0,"id":"a639l3z8oxq9","geo_precision":"zip","interest category":"Health Professionals","state":"WI"},"type":"Feature","geometry":{"type":"Point","coordinates":[-87.824828,42.53607]}},{"properties":{"city":"Pleasant Prairie","zip":"53158","city, state zip":"Pleasant Prairie, WI 53158","date":{"end_time":"2009/11/28 00:00:00 -0500","original":"11/27/09","granularity":"day","time":"2009/11/27 00:00:00 -0500"},"geo_score":1.0,"contributed to":"Barca, Peter","employer":"Bete Development LLC","contributor name":"Antaramian, Kenneth","amount":200.0,"id":"a639l48py3xl","geo_precision":"zip","interest category":"Real Estate","state":"WI"},"type":"Feature","geometry":{"type":"Point","coordinates":[-87.885546,42.52926]}},{"properties":{"city":"Racine","zip":"53404","city, state zip":"Racine, WI 53404","date":{"end_time":"2009/11/29 00:00:00 -0500","original":"11/28/09","granularity":"day","time":"2009/11/28 00:00:00 -0500"},"geo_score":0.881,"contributed to":"Barca, Peter","employer":"Racine City Common Council","contributor name":"De Hahn, Raymond","amount":100.0,"id":"a639l49t7bv1","geo_precision":"zip","interest category":"Civil servant/public employee","state":"WI"},"type":"Feature","geometry":{"type":"Point","coordinates":[-87.835078,42.815574]}},{"properties":{"city":"Kenosha","zip":"53140","city, state zip":"Kenosha, WI 53140","date":{"end_time":"2009/11/30 00:00:00 -0500","original":"11/29/09","granularity":"day","time":"2009/11/29 00:00:00 -0500"},"geo_score":0.873,"contributed to":"Barca, Peter","employer":"No Employer Listed","contributor name":"Lubeck, Wayne","amount":100.0,"id":"a639l45p12i5","geo_precision":"zip","interest category":"Unknown","state":"WI"},"type":"Feature","geometry":{"type":"Point","coordinates":[-87.901188,42.566687]}},{"properties":{"city":"Kenosha","zip":"53144","city, state zip":"Kenosha, WI 53144","date":{"end_time":"2009/12/01 00:00:00 -0500","original":"11/30/09","granularity":"day","time":"2009/11/30 00:00:00 -0500"},"geo_score":1.0,"contributed to":"Barca, Peter","employer":"Rasch Construction &amp;...","contributor name":"Rasch, Lawrence","amount":100.0,"id":"a639l3wsglj4","geo_precision":"zip","interest category":"Construction","state":"WI"},"type":"Feature","geometry":{"type":"Point","coordinates":[-87.948079,42.618427]}},{"properties":{"city":"Kenosha","zip":"53144","city, state zip":"Kenosha, WI 53144","date":{"end_time":"2009/12/02 00:00:00 -0500","original":"12/01/09","granularity":"day","time":"2009/12/01 00:00:00 -0500"},"geo_score":1.0,"contributed to":"Barca, Peter","employer":"No Employer Listed","contributor name":"McDevitt, Marcie","amount":100.0,"id":"a639l409wiaf","geo_precision":"zip","interest category":"Unknown","state":"WI"},"type":"Feature","geometry":{"type":"Point","coordinates":[-87.948079,42.618427]}},{"properties":{"city":"Kenosha","zip":"53143","city, state zip":"Kenosha, WI 53143","date":{"end_time":"2009/12/04 00:00:00 -0500","original":"12/03/09","granularity":"day","time":"2009/12/03 00:00:00 -0500"},"geo_score":1.0,"contributed to":"Barca, Peter","employer":"Family Foot Clinics of...","contributor name":"Thompson, Michael","amount":50.0,"id":"a639l48alllr","geo_precision":"zip","interest category":"Health Professionals","state":"WI"},"type":"Feature","geometry":{"type":"Point","coordinates":[-87.824828,42.53607]}},{"properties":{"city":"Kenosha","zip":"53144","city, state zip":"Kenosha, WI 53144","date":{"end_time":"2009/12/04 00:00:00 -0500","original":"12/03/09","granularity":"day","time":"2009/12/03 00:00:00 -0500"},"geo_score":1.0,"contributed to":"Barca, Peter","employer":"Professional Services Group","contributor name":"Houghton, David","amount":200.0,"id":"a639l3yis98y","geo_precision":"zip","interest category":"Health Services/Institutions","state":"WI"},"type":"Feature","geometry":{"type":"Point","coordinates":[-87.948079,42.618427]}},{"properties":{"city":"Kissimmee","zip":"34741","city, state zip":"Kissimmee, FL 34741","date":{"end_time":"2009/12/04 00:00:00 -0500","original":"12/03/09","granularity":"day","time":"2009/12/03 00:00:00 -0500"},"geo_score":1.0,"contributed to":"Barca, Peter","employer":"Retired","contributor name":"Feld, Ruth","amount":100.0,"id":"a639l3vyr35t","geo_precision":"zip","interest category":"Retired/Homemakers/Non-income...","state":"FL"},"type":"Feature","geometry":{"type":"Point","coordinates":[-81.461385,28.307138]}},{"properties":{"city":"Kenosha","zip":"53144","city, state zip":"Kenosha, WI 53144","date":{"end_time":"2009/12/04 00:00:00 -0500","original":"12/03/09","granularity":"day","time":"2009/12/03 00:00:00 -0500"},"geo_score":1.0,"contributed to":"Barca, Peter","employer":"Professional Services Group","contributor name":"Wolf, Brian","amount":200.0,"id":"a639l46k81iv","geo_precision":"zip","interest category":"Health Professionals","state":"WI"},"type":"Feature","geometry":{"type":"Point","coordinates":[-87.948079,42.618427]}},{"properties":{"city":"Kenosha","zip":"53144","city, state zip":"Kenosha, WI 53144","date":{"end_time":"2009/12/04 00:00:00 -0500","original":"12/03/09","granularity":"day","time":"2009/12/03 00:00:00 -0500"},"geo_score":1.0,"contributed to":"Barca, Peter","employer":"Governor Doyle's Office","contributor name":"Mahone, Timothy","amount":100.0,"id":"a639l4728rfy","geo_precision":"zip","interest category":"Civil servant/public employee","state":"WI"},"type":"Feature","geometry":{"type":"Point","coordinates":[-87.948079,42.618427]}},{"properties":{"city":"Kenosha","zip":"53143","city, state zip":"Kenosha, WI 53143","date":{"end_time":"2009/12/04 00:00:00 -0500","original":"12/03/09","granularity":"day","time":"2009/12/03 00:00:00 -0500"},"geo_score":1.0,"contributed to":"Barca, Peter","employer":"Retired","contributor name":"Hawkins, James","amount":100.0,"id":"a639l4aotv7p","geo_precision":"zip","interest category":"Retired/Homemakers/Non-income...","state":"WI"},"type":"Feature","geometry":{"type":"Point","coordinates":[-87.824828,42.53607]}},{"properties":{"city":"Kenosha","zip":"53142","city, state zip":"Kenosha, WI 53142","date":{"end_time":"2009/12/04 00:00:00 -0500","original":"12/03/09","granularity":"day","time":"2009/12/03 00:00:00 -0500"},"geo_score":1.0,"contributed to":"Barca, Peter","employer":"No Employer Listed","contributor name":"Zarletti, Larry","amount":100.0,"id":"a639l46swth4","geo_precision":"zip","interest category":"Unknown","state":"WI"},"type":"Feature","geometry":{"type":"Point","coordinates":[-87.925876,42.558221]}},{"properties":{"city":"Kenosha","zip":"53140","city, state zip":"Kenosha, WI 53140","date":{"end_time":"2009/12/04 00:00:00 -0500","original":"12/03/09","granularity":"day","time":"2009/12/03 00:00:00 -0500"},"geo_score":0.873,"contributed to":"Barca, Peter","employer":"Bear Realty","contributor name":"Morrone, Robert","amount":100.0,"id":"a639l46c857i","geo_precision":"zip","interest category":"Real Estate","state":"WI"},"type":"Feature","geometry":{"type":"Point","coordinates":[-87.901188,42.566687]}},{"properties":{"city":"Kenosha","zip":"53144","city, state zip":"Kenosha, WI 53144","date":{"end_time":"2009/12/04 00:00:00 -0500","original":"12/03/09","granularity":"day","time":"2009/12/03 00:00:00 -0500"},"geo_score":1.0,"contributed to":"Barca, Peter","employer":"Retired","contributor name":"Heide, Charles","amount":100.0,"id":"a639l46nigsb","geo_precision":"zip","interest category":"Retired/Homemakers/Non-income...","state":"WI"},"type":"Feature","geometry":{"type":"Point","coordinates":[-87.948079,42.618427]}},{"properties":{"city":"Racine","zip":"53406","city, state zip":"Racine, WI 53406","date":{"end_time":"2009/12/04 00:00:00 -0500","original":"12/03/09","granularity":"day","time":"2009/12/03 00:00:00 -0500"},"geo_score":1.0,"contributed to":"Barca, Peter","employer":"No Employer Listed","contributor name":"Baran, Daniel","amount":150.0,"id":"a639l3vxackc","geo_precision":"zip","interest category":"Unknown","state":"WI"},"type":"Feature","geometry":{"type":"Point","coordinates":[-87.866213,42.72993]}},{"properties":{"city":"Kenosha","zip":"53142","city, state zip":"Kenosha, WI 53142","date":{"end_time":"2009/12/04 00:00:00 -0500","original":"12/03/09","granularity":"day","time":"2009/12/03 00:00:00 -0500"},"geo_score":1.0,"contributed to":"Barca, Peter","employer":"Northwestern Mutual Life...","contributor name":"Nolan, Terence","amount":100.0,"id":"a639l45vf5je","geo_precision":"zip","interest category":"Insurance","state":"WI"},"type":"Feature","geometry":{"type":"Point","coordinates":[-87.925876,42.558221]}},{"properties":{"city":"Kenosha","zip":"53142","city, state zip":"Kenosha, WI 53142","date":{"end_time":"2009/12/04 00:00:00 -0500","original":"12/03/09","granularity":"day","time":"2009/12/03 00:00:00 -0500"},"geo_score":1.0,"contributed to":"Barca, Peter","employer":"No Employer Listed","contributor name":"Hoare, William","amount":100.0,"id":"a639l42v0pj4","geo_precision":"zip","interest category":"Unknown","state":"WI"},"type":"Feature","geometry":{"type":"Point","coordinates":[-87.925876,42.558221]}},{"properties":{"city":"Pleasant Prairie","zip":"53158","city, state zip":"Pleasant Prairie, WI 53158","date":{"end_time":"2009/12/04 00:00:00 -0500","original":"12/03/09","granularity":"day","time":"2009/12/03 00:00:00 -0500"},"geo_score":1.0,"contributed to":"Barca, Peter","employer":"Ashmus Belting","contributor name":"Beck, Donn","amount":150.0,"id":"a639l44bw069","geo_precision":"zip","interest category":"Manufacturing &amp; Distributing","state":"WI"},"type":"Feature","geometry":{"type":"Point","coordinates":[-87.885546,42.52926]}},{"properties":{"city":"Kenosha","zip":"53144","city, state zip":"Kenosha, WI 53144","date":{"end_time":"2009/12/05 00:00:00 -0500","original":"12/04/09","granularity":"day","time":"2009/12/04 00:00:00 -0500"},"geo_score":1.0,"contributed to":"Barca, Peter","employer":"Lana Properties","contributor name":"Locante, Albert","amount":250.0,"id":"a639l465vhvg","geo_precision":"zip","interest category":"Real Estate","state":"WI"},"type":"Feature","geometry":{"type":"Point","coordinates":[-87.948079,42.618427]}},{"properties":{"city":"Racine","zip":"53403","city, state zip":"Racine, WI 53403","date":{"end_time":"2009/12/08 00:00:00 -0500","original":"12/07/09","granularity":"day","time":"2009/12/07 00:00:00 -0500"},"geo_score":1.0,"contributed to":"Barca, Peter","employer":"Retired","contributor name":"Pallamolla, Ruth","amount":100.0,"id":"a639l40gsgs7","geo_precision":"zip","interest category":"Retired/Homemakers/Non-income...","state":"WI"},"type":"Feature","geometry":{"type":"Point","coordinates":[-87.835901,42.700619]}},{"properties":{"city":"Palatine","zip":"60067","city, state zip":"Palatine, IL 60067","date":{"end_time":"2009/12/14 00:00:00 -0500","original":"12/13/09","granularity":"day","time":"2009/12/13 00:00:00 -0500"},"geo_score":0.873,"contributed to":"Barca, Peter","employer":"Cisco Systems","contributor name":"Rockwell, Gary","amount":100.0,"id":"a639l44bltqz","geo_precision":"zip","interest category":"Telecommunications &amp; Computers","state":"IL"},"type":"Feature","geometry":{"type":"Point","coordinates":[-88.096187,42.118082]}},{"properties":{"city":"Palatine","zip":"60067","city, state zip":"Palatine, IL 60067","date":{"end_time":"2009/12/14 00:00:00 -0500","original":"12/13/09","granularity":"day","time":"2009/12/13 00:00:00 -0500"},"geo_score":0.873,"contributed to":"Barca, Peter","employer":"Cisco Systems","contributor name":"Rockwell, Gary","amount":100.0,"id":"a639l44hgo0u","geo_precision":"zip","interest category":"Telecommunications &amp; Computers","state":"IL"},"type":"Feature","geometry":{"type":"Point","coordinates":[-88.096187,42.118082]}},{"properties":{"city":"Largo","zip":"33778","city, state zip":"Largo, FL 33778","date":{"end_time":"2009/12/16 00:00:00 -0500","original":"12/15/09","granularity":"day","time":"2009/12/15 00:00:00 -0500"},"geo_score":1.0,"contributed to":"Barca, Peter","employer":"Retired","contributor name":"Ashmus, Eugene","amount":250.0,"id":"a639l3wibnxm","geo_precision":"zip","interest category":"Retired/Homemakers/Non-income...","state":"FL"},"type":"Feature","geometry":{"type":"Point","coordinates":[-82.802466,27.88403]}},{"properties":{"city":"Kenosha","zip":"53142","city, state zip":"Kenosha, WI 53142","date":{"end_time":"2009/12/19 00:00:00 -0500","original":"12/18/09","granularity":"day","time":"2009/12/18 00:00:00 -0500"},"geo_score":1.0,"contributed to":"Barca, Peter","employer":"Retired","contributor name":"Desimone, Bernice","amount":100.0,"id":"a639l47ibcrx","geo_precision":"zip","interest category":"Retired/Homemakers/Non-income...","state":"WI"},"type":"Feature","geometry":{"type":"Point","coordinates":[-87.925876,42.558221]}},{"properties":{"city":"Shorewood","zip":"53211","city, state zip":"Shorewood, WI 53211","date":{"end_time":"2010/01/01 00:00:00 -0500","original":"12/31/09","granularity":"day","time":"2009/12/31 00:00:00 -0500"},"geo_score":1.0,"contributed to":"Barca, Peter","employer":"Northwestern Mutual Life...","contributor name":"Rimai, Marcia","amount":100.0,"id":"a639l46l8x7z","geo_precision":"zip","interest category":"Insurance","state":"WI"},"type":"Feature","geometry":{"type":"Point","coordinates":[-87.887585,43.089179]}},{"properties":{"city":"Whitefish Bay","zip":"53217","city, state zip":"Whitefish Bay, WI 53217","date":{"end_time":"2010/01/01 00:00:00 -0500","original":"12/31/09","granularity":"day","time":"2009/12/31 00:00:00 -0500"},"geo_score":1.0,"contributed to":"Barca, Peter","employer":"Northwestern Mutual Life...","contributor name":"Maynard, Meridee","amount":100.0,"id":"a639l416nskf","geo_precision":"zip","interest category":"Insurance","state":"WI"},"type":"Feature","geometry":{"type":"Point","coordinates":[-87.900086,43.113345]}},{"properties":{"city":"Kenosha","zip":"53142","city, state zip":"Kenosha, WI 53142","date":{"end_time":"2010/01/01 00:00:00 -0500","original":"12/31/09","granularity":"day","time":"2009/12/31 00:00:00 -0500"},"geo_score":1.0,"contributed to":"Barca, Peter","employer":"Tenuta's Deli &amp; Liquors","contributor name":"Tenuta, Ralph","amount":500.0,"id":"a639l42jud4n","geo_precision":"zip","interest category":"Business","state":"WI"},"type":"Feature","geometry":{"type":"Point","coordinates":[-87.925876,42.558221]}},{"properties":{"city":"Kenosha","zip":"53140","city, state zip":"Kenosha, WI 53140","date":{"end_time":"2010/01/01 00:00:00 -0500","original":"12/31/09","granularity":"day","time":"2009/12/31 00:00:00 -0500"},"geo_score":0.873,"contributed to":"Barca, Peter","employer":"ThedaCare","contributor name":"Montemurro, Angelina","amount":200.0,"id":"a639l43391xm","geo_precision":"zip","interest category":"Health Professionals","state":"WI"},"type":"Feature","geometry":{"type":"Point","coordinates":[-87.901188,42.566687]}},{"properties":{"city":"Kenosha","zip":"53144","city, state zip":"Kenosha, WI 53144","date":{"end_time":"2010/01/01 00:00:00 -0500","original":"12/31/09","granularity":"day","time":"2009/12/31 00:00:00 -0500"},"geo_score":1.0,"contributed to":"Barca, Peter","employer":"Kenosha Unified School...","contributor name":"Barca, Kathleen","amount":175.0,"id":"a639l450wkp5","geo_precision":"zip","interest category":"Education","state":"WI"},"type":"Feature","geometry":{"type":"Point","coordinates":[-87.948079,42.618427]}},{"properties":{"city":"Whitefish Bay","zip":"53211","city, state zip":"Whitefish Bay, WI 53211","date":{"end_time":"2010/01/01 00:00:00 -0500","original":"12/31/09","granularity":"day","time":"2009/12/31 00:00:00 -0500"},"geo_score":0.881,"contributed to":"Barca, Peter","employer":"Northwestern Mutual Life...","contributor name":"Oberland, Gregory","amount":100.0,"id":"a639l4apppzl","geo_precision":"zip","interest category":"Insurance","state":"WI"},"type":"Feature","geometry":{"type":"Point","coordinates":[-87.887585,43.089179]}},{"properties":{"city":"Racine","zip":"53403","city, state zip":"Racine, WI 53403","date":{"end_time":"2010/01/01 00:00:00 -0500","original":"12/31/09","granularity":"day","time":"2009/12/31 00:00:00 -0500"},"geo_score":1.0,"contributed to":"Barca, Peter","employer":"SC Johnson &amp; Sons","contributor name":"Johnson, Fiske","amount":250.0,"id":"a639l4369l13","geo_precision":"zip","interest category":"Manufacturing &amp; Distributing","state":"WI"},"type":"Feature","geometry":{"type":"Point","coordinates":[-87.835901,42.700619]}},{"properties":{"city":"Milwaukee","zip":"53202","city, state zip":"Milwaukee, WI 53202","date":{"end_time":"2010/01/01 00:00:00 -0500","original":"12/31/09","granularity":"day","time":"2009/12/31 00:00:00 -0500"},"geo_score":1.0,"contributed to":"Barca, Peter","employer":"Northwestern Mutual Life...","contributor name":"Poliner, Gary","amount":100.0,"id":"a639l4672j09","geo_precision":"zip","interest category":"Insurance","state":"WI"},"type":"Feature","geometry":{"type":"Point","coordinates":[-87.894734,43.043213]}},{"properties":{"city":"Whitefish Bay","zip":"53217","city, state zip":"Whitefish Bay, WI 53217","date":{"end_time":"2010/01/01 00:00:00 -0500","original":"12/31/09","granularity":"day","time":"2009/12/31 00:00:00 -0500"},"geo_score":1.0,"contributed to":"Barca, Peter","employer":"Northwestern Mutual Life...","contributor name":"Kelly, John","amount":100.0,"id":"a639l47o4jps","geo_precision":"zip","interest category":"Insurance","state":"WI"},"type":"Feature","geometry":{"type":"Point","coordinates":[-87.900086,43.113345]}},{"properties":{"city":"Kenosha","zip":"53144","city, state zip":"Kenosha, WI 53144","date":{"end_time":"2010/01/04 00:00:00 -0500","original":"01/03/10","granularity":"day","time":"2010/01/03 00:00:00 -0500"},"geo_score":1.0,"contributed to":"Barca, Peter","employer":"ThedaCare","contributor name":"Montemurro, Angelina","amount":200.0,"id":"a639l3ydg7rt","geo_precision":"zip","interest category":"Health Professionals","state":"WI"},"type":"Feature","geometry":{"type":"Point","coordinates":[-87.948079,42.618427]}},{"properties":{"city":"Whitefish Bay","zip":"53217","city, state zip":"Whitefish Bay, WI 53217","date":{"end_time":"2010/01/04 00:00:00 -0500","original":"01/03/10","granularity":"day","time":"2010/01/03 00:00:00 -0500"},"geo_score":1.0,"contributed to":"Barca, Peter","employer":"Northwestern Mutual Life...","contributor name":"Oberland, Gregory","amount":100.0,"id":"a639l3wo1all","geo_precision":"zip","interest category":"Insurance","state":"WI"},"type":"Feature","geometry":{"type":"Point","coordinates":[-87.900086,43.113345]}},{"properties":{"city":"Milwaukee","zip":"53202","city, state zip":"Milwaukee, WI 53202","date":{"end_time":"2010/01/04 00:00:00 -0500","original":"01/03/10","granularity":"day","time":"2010/01/03 00:00:00 -0500"},"geo_score":1.0,"contributed to":"Barca, Peter","employer":"Northwestern Mutual Life...","contributor name":"Poliner, Gary","amount":100.0,"id":"a639l41qyab8","geo_precision":"zip","interest category":"Insurance","state":"WI"},"type":"Feature","geometry":{"type":"Point","coordinates":[-87.894734,43.043213]}},{"properties":{"city":"Whitefish Bay","zip":"53217","city, state zip":"Whitefish Bay, WI 53217","date":{"end_time":"2010/01/04 00:00:00 -0500","original":"01/03/10","granularity":"day","time":"2010/01/03 00:00:00 -0500"},"geo_score":1.0,"contributed to":"Barca, Peter","employer":"Northwestern Mutual Life...","contributor name":"Kelly, John","amount":100.0,"id":"a639l3za426f","geo_precision":"zip","interest category":"Insurance","state":"WI"},"type":"Feature","geometry":{"type":"Point","coordinates":[-87.900086,43.113345]}},{"properties":{"city":"Shorewood","zip":"53211","city, state zip":"Shorewood, WI 53211","date":{"end_time":"2010/01/04 00:00:00 -0500","original":"01/03/10","granularity":"day","time":"2010/01/03 00:00:00 -0500"},"geo_score":1.0,"contributed to":"Barca, Peter","employer":"Northwestern Mutual Life...","contributor name":"Rimai, Marcia","amount":100.0,"id":"a639l48tw80d","geo_precision":"zip","interest category":"Insurance","state":"WI"},"type":"Feature","geometry":{"type":"Point","coordinates":[-87.887585,43.089179]}},{"properties":{"city":"Whitefish Bay","zip":"53217","city, state zip":"Whitefish Bay, WI 53217","date":{"end_time":"2010/01/04 00:00:00 -0500","original":"01/03/10","granularity":"day","time":"2010/01/03 00:00:00 -0500"},"geo_score":1.0,"contributed to":"Barca, Peter","employer":"Northwestern Mutual Life...","contributor name":"Maynard, Meridee","amount":100.0,"id":"a639l47ii7j1","geo_precision":"zip","interest category":"Insurance","state":"WI"},"type":"Feature","geometry":{"type":"Point","coordinates":[-87.900086,43.113345]}},{"properties":{"city":"Kenosha","zip":"53142","city, state zip":"Kenosha, WI 53142","date":{"end_time":"2010/03/31 00:00:00 -0400","original":"03/30/10","granularity":"day","time":"2010/03/30 00:00:00 -0400"},"geo_score":1.0,"contributed to":"Barca, Peter","employer":"Tenuta's Deli &amp; Liquors","contributor name":"Tenuta, Margaret","amount":250.0,"id":"a639l4693z4a","geo_precision":"zip","interest category":"Business","state":"WI"},"type":"Feature","geometry":{"type":"Point","coordinates":[-87.925876,42.558221]}},{"properties":{"city":"Madison","zip":"53703","city, state zip":"Madison, WI 53703","date":{"end_time":"2010/04/10 00:00:00 -0400","original":"04/09/10","granularity":"day","time":"2010/04/09 00:00:00 -0400"},"geo_score":1.0,"contributed to":"Barca, Peter","employer":"Wisconsin Biotechnology &amp;...","contributor name":"Kauten, Erica","amount":200.0,"id":"a639l3w369eg","geo_precision":"zip","interest category":"Health Services/Institutions","state":"WI"},"type":"Feature","geometry":{"type":"Point","coordinates":[-89.352764,43.053085]}},{"properties":{"city":"Kenosha","zip":"53144","city, state zip":"Kenosha, WI 53144","date":{"end_time":"2010/05/14 00:00:00 -0400","original":"05/13/10","granularity":"day","time":"2010/05/13 00:00:00 -0400"},"geo_score":1.0,"contributed to":"Barca, Peter","employer":"Proko Funeral Home","contributor name":"Proko, Larry","amount":250.0,"id":"a639l45j1iha","geo_precision":"zip","interest category":"Business","state":"WI"},"type":"Feature","geometry":{"type":"Point","coordinates":[-87.948079,42.618427]}},{"properties":{"city":"Kenosha","zip":"53144","city, state zip":"Kenosha, WI 53144","date":{"end_time":"2010/05/14 00:00:00 -0400","original":"05/13/10","granularity":"day","time":"2010/05/13 00:00:00 -0400"},"geo_score":1.0,"contributed to":"Barca, Peter","employer":"Lee Plumbing","contributor name":"Lee, Bob Sr","amount":250.0,"id":"a639l3yn084j","geo_precision":"zip","interest category":"Construction","state":"WI"},"type":"Feature","geometry":{"type":"Point","coordinates":[-87.948079,42.618427]}},{"properties":{"city":"Kenosha","zip":"53144","city, state zip":"Kenosha, WI 53144","date":{"end_time":"2010/05/14 00:00:00 -0400","original":"05/13/10","granularity":"day","time":"2010/05/13 00:00:00 -0400"},"geo_score":1.0,"contributed to":"Barca, Peter","employer":"SE Building &amp; Construction...","contributor name":"Clark, Roger","amount":250.0,"id":"a639l47bllkt","geo_precision":"zip","interest category":"Labor Unions","state":"WI"},"type":"Feature","geometry":{"type":"Point","coordinates":[-87.948079,42.618427]}},{"properties":{"city":"Kenosha","zip":"53144","city, state zip":"Kenosha, WI 53144","date":{"end_time":"2010/05/14 00:00:00 -0400","original":"05/13/10","granularity":"day","time":"2010/05/13 00:00:00 -0400"},"geo_score":1.0,"contributed to":"Barca, Peter","employer":"Riley Construction","contributor name":"Riley, Dave","amount":250.0,"id":"a639l47lqm9j","geo_precision":"zip","interest category":"Construction","state":"WI"},"type":"Feature","geometry":{"type":"Point","coordinates":[-87.948079,42.618427]}},{"properties":{"city":"Kenosha","zip":"53140","city, state zip":"Kenosha, WI 53140","date":{"end_time":"2010/05/14 00:00:00 -0400","original":"05/13/10","granularity":"day","time":"2010/05/13 00:00:00 -0400"},"geo_score":0.873,"contributed to":"Barca, Peter","employer":"Prime Realty Group","contributor name":"Morrone, Robert","amount":250.0,"id":"a639l3xjmatp","geo_precision":"zip","interest category":"Real Estate","state":"WI"},"type":"Feature","geometry":{"type":"Point","coordinates":[-87.901188,42.566687]}},{"properties":{"city":"Kenosha","zip":"53144","city, state zip":"Kenosha, WI 53144","date":{"end_time":"2010/05/14 00:00:00 -0400","original":"05/13/10","granularity":"day","time":"2010/05/13 00:00:00 -0400"},"geo_score":1.0,"contributed to":"Barca, Peter","employer":"Hospira","contributor name":"Degrace, Patrick","amount":250.0,"id":"a639l48syagc","geo_precision":"zip","interest category":"Health Services/Institutions","state":"WI"},"type":"Feature","geometry":{"type":"Point","coordinates":[-87.948079,42.618427]}},{"properties":{"city":"Kenosha","zip":"53144","city, state zip":"Kenosha, WI 53144","date":{"end_time":"2010/05/14 00:00:00 -0400","original":"05/13/10","granularity":"day","time":"2010/05/13 00:00:00 -0400"},"geo_score":1.0,"contributed to":"Barca, Peter","employer":"Kenosha Community Health...","contributor name":"Waters, John","amount":250.0,"id":"a639l44x4zm5","geo_precision":"zip","interest category":"Health Services/Institutions","state":"WI"},"type":"Feature","geometry":{"type":"Point","coordinates":[-87.948079,42.618427]}},{"properties":{"city":"Kenosha","zip":"53144","city, state zip":"Kenosha, WI 53144","date":{"end_time":"2010/05/14 00:00:00 -0400","original":"05/13/10","granularity":"day","time":"2010/05/13 00:00:00 -0400"},"geo_score":1.0,"contributed to":"Barca, Peter","employer":"Southport Heating &amp; Cooling","contributor name":"Nuzzo, Robert","amount":250.0,"id":"a639l45pjci7","geo_precision":"zip","interest category":"Construction","state":"WI"},"type":"Feature","geometry":{"type":"Point","coordinates":[-87.948079,42.618427]}},{"properties":{"city":"Powers Lake","zip":"53159","city, state zip":"Powers Lake, WI 53159","date":{"end_time":"2010/05/14 00:00:00 -0400","original":"05/13/10","granularity":"day","time":"2010/05/13 00:00:00 -0400"},"geo_score":1.0,"contributed to":"Barca, Peter","employer":"Chudy Group LLC","contributor name":"Dowell, Neville","amount":250.0,"id":"a639l403mqfr","geo_precision":"zip","interest category":"Manufacturing &amp; Distributing","state":"WI"},"type":"Feature","geometry":{"type":"Point","coordinates":[-88.296914,42.555695]}},{"properties":{"city":"Kenosha","zip":"53143","city, state zip":"Kenosha, WI 53143","date":{"end_time":"2010/05/14 00:00:00 -0400","original":"05/13/10","granularity":"day","time":"2010/05/13 00:00:00 -0400"},"geo_score":1.0,"contributed to":"Barca, Peter","employer":"Emerging Communities Corp","contributor name":"Antaramian, John","amount":250.0,"id":"a639l3vu4xh5","geo_precision":"zip","interest category":"Natural Resources","state":"WI"},"type":"Feature","geometry":{"type":"Point","coordinates":[-87.824828,42.53607]}},{"properties":{"city":"Kenosha","zip":"53142","city, state zip":"Kenosha, WI 53142","date":{"end_time":"2010/05/14 00:00:00 -0400","original":"05/13/10","granularity":"day","time":"2010/05/13 00:00:00 -0400"},"geo_score":1.0,"contributed to":"Barca, Peter","employer":"Palmen Motors","contributor name":"Palmen, Andrew","amount":250.0,"id":"a639l3z9qbpp","geo_precision":"zip","interest category":"Transportation","state":"WI"},"type":"Feature","geometry":{"type":"Point","coordinates":[-87.925876,42.558221]}},{"properties":{"city":"Kenosha","zip":"53144","city, state zip":"Kenosha, WI 53144","date":{"end_time":"2010/05/14 00:00:00 -0400","original":"05/13/10","granularity":"day","time":"2010/05/13 00:00:00 -0400"},"geo_score":1.0,"contributed to":"Barca, Peter","employer":"Lee Plumbing","contributor name":"Lee, Bob Jr","amount":250.0,"id":"a639l468isoe","geo_precision":"zip","interest category":"Construction","state":"WI"},"type":"Feature","geometry":{"type":"Point","coordinates":[-87.948079,42.618427]}},{"properties":{"city":"Milwaukee","zip":"53217","city, state zip":"Milwaukee, WI 53217","date":{"end_time":"2010/05/14 00:00:00 -0400","original":"05/13/10","granularity":"day","time":"2010/05/13 00:00:00 -0400"},"geo_score":0.869,"contributed to":"Barca, Peter","employer":"Dental Associates of Wisconsin","contributor name":"Blong, James","amount":250.0,"id":"a639l44o3pjo","geo_precision":"zip","interest category":"Health Professionals","state":"WI"},"type":"Feature","geometry":{"type":"Point","coordinates":[-87.900086,43.113345]}},{"properties":{"city":"Kenosha","zip":"53144","city, state zip":"Kenosha, WI 53144","date":{"end_time":"2010/05/26 00:00:00 -0400","original":"05/25/10","granularity":"day","time":"2010/05/25 00:00:00 -0400"},"geo_score":1.0,"contributed to":"Barca, Peter","employer":"Proko Funeral Home","contributor name":"Proko, John","amount":100.0,"id":"a639l45jru5d","geo_precision":"zip","interest category":"Business","state":"WI"},"type":"Feature","geometry":{"type":"Point","coordinates":[-87.948079,42.618427]}},{"properties":{"city":"Madison","zip":"53704","city, state zip":"Madison, WI 53704","date":{"end_time":"2010/05/26 00:00:00 -0400","original":"05/25/10","granularity":"day","time":"2010/05/25 00:00:00 -0400"},"geo_score":0.886,"contributed to":"Barca, Peter","employer":"Wisconsin Supreme Court","contributor name":"Rottier, Nancy","amount":250.0,"id":"a639l4805hlf","geo_precision":"zip","interest category":"Civil servant/public employee","state":"WI"},"type":"Feature","geometry":{"type":"Point","coordinates":[-89.379563,43.118328]}},{"properties":{"city":"Stevens Point","zip":"54482","city, state zip":"Stevens Point, WI 54482","date":{"end_time":"2010/05/26 00:00:00 -0400","original":"05/25/10","granularity":"day","time":"2010/05/25 00:00:00 -0400"},"geo_score":0.821,"contributed to":"Barca, Peter","employer":"Sentry Insurance","contributor name":"Skillman, Thomas","amount":100.0,"id":"a639l4adzzmw","geo_precision":"city","interest category":"Insurance","state":"WI"},"type":"Feature","geometry":{"type":"Point","coordinates":[-91.171532,44.036351]}},{"properties":{"city":"Stevens Point","zip":"54482","city, state zip":"Stevens Point, WI 54482","date":{"end_time":"2010/05/26 00:00:00 -0400","original":"05/25/10","granularity":"day","time":"2010/05/25 00:00:00 -0400"},"geo_score":0.821,"contributed to":"Barca, Peter","employer":"Sentry Insurance","contributor name":"Stanford, Jerry","amount":100.0,"id":"a639l45myom3","geo_precision":"city","interest category":"Insurance","state":"WI"},"type":"Feature","geometry":{"type":"Point","coordinates":[-91.171532,44.036351]}},{"properties":{"city":"Stevens Point","zip":"54482","city, state zip":"Stevens Point, WI 54482","date":{"end_time":"2010/05/26 00:00:00 -0400","original":"05/25/10","granularity":"day","time":"2010/05/25 00:00:00 -0400"},"geo_score":0.821,"contributed to":"Barca, Peter","employer":"Sentry Insurance","contributor name":"Korth, Lou","amount":100.0,"id":"a639l4aztec5","geo_precision":"city","interest category":"Insurance","state":"WI"},"type":"Feature","geometry":{"type":"Point","coordinates":[-91.171532,44.036351]}},{"properties":{"city":"Amherst Junction","zip":"54407","city, state zip":"Amherst Junction, WI 54407","date":{"end_time":"2010/05/29 00:00:00 -0400","original":"05/28/10","granularity":"day","time":"2010/05/28 00:00:00 -0400"},"geo_score":0.886,"contributed to":"Barca, Peter","employer":"Sentry Insurance","contributor name":"Halder, LeAnne","amount":100.0,"id":"a639l3xtqr28","geo_precision":"zip","interest category":"Insurance","state":"WI"},"type":"Feature","geometry":{"type":"Point","coordinates":[-89.243446,44.569975]}},{"properties":{"city":"Rosholt","zip":"54473","city, state zip":"Rosholt, WI 54473","date":{"end_time":"2010/06/02 00:00:00 -0400","original":"06/01/10","granularity":"day","time":"2010/06/01 00:00:00 -0400"},"geo_score":0.857,"contributed to":"Barca, Peter","employer":"Sentry Insurance","contributor name":"Urness, Peggy","amount":100.0,"id":"a639l44mvpg0","geo_precision":"zip","interest category":"Insurance","state":"WI"},"type":"Feature","geometry":{"type":"Point","coordinates":[-89.284836,44.627751]}},{"properties":{"city":"Racine","zip":"53405","city, state zip":"Racine, WI 53405","date":{"end_time":"2010/06/03 00:00:00 -0400","original":"06/02/10","granularity":"day","time":"2010/06/02 00:00:00 -0400"},"geo_score":1.0,"contributed to":"Barca, Peter","employer":"Johnson Bank","contributor name":"Weyers, Russ","amount":100.0,"id":"a639l49l0998","geo_precision":"zip","interest category":"Banking &amp; Finance","state":"WI"},"type":"Feature","geometry":{"type":"Point","coordinates":[-87.820925,42.731827]}},{"properties":{"city":"Bristol","zip":"53104","city, state zip":"Bristol, WI 53104","date":{"end_time":"2010/06/06 00:00:00 -0400","original":"06/05/10","granularity":"day","time":"2010/06/05 00:00:00 -0400"},"geo_score":1.0,"contributed to":"Barca, Peter","employer":"Clark Dietz Inc","contributor name":"Boldt, John","amount":250.0,"id":"a639l48krvng","geo_precision":"zip","interest category":"Construction","state":"WI"},"type":"Feature","geometry":{"type":"Point","coordinates":[-88.028986,42.553518]}},{"properties":{"city":"Kenosha","zip":"53141","city, state zip":"Kenosha, WI 53141","date":{"end_time":"2010/06/07 00:00:00 -0400","original":"06/06/10","granularity":"day","time":"2010/06/06 00:00:00 -0400"},"geo_score":1.0,"contributed to":"Barca, Peter","employer":"Kenosha Beef International","contributor name":"Vignieri, Dennis","amount":250.0,"id":"a639l3wza3jh","geo_precision":"zip","interest category":"Manufacturing &amp; Distributing","state":"WI"},"type":"Feature","geometry":{"type":"Point","coordinates":[-87.662878,42.58098]}},{"properties":{"city":"Kenosha","zip":"53143","city, state zip":"Kenosha, WI 53143","date":{"end_time":"2010/06/24 00:00:00 -0400","original":"06/23/10","granularity":"day","time":"2010/06/23 00:00:00 -0400"},"geo_score":1.0,"contributed to":"Barca, Peter","employer":"Prudential Premier Properties","contributor name":"Bourque, Mark","amount":100.0,"id":"a639l42dxw2j","geo_precision":"zip","interest category":"Real Estate","state":"WI"},"type":"Feature","geometry":{"type":"Point","coordinates":[-87.824828,42.53607]}},{"properties":{"city":"Kenosha","zip":"53144","city, state zip":"Kenosha, WI 53144","date":{"end_time":"2010/06/24 00:00:00 -0400","original":"06/23/10","granularity":"day","time":"2010/06/23 00:00:00 -0400"},"geo_score":1.0,"contributed to":"Barca, Peter","employer":"Retired","contributor name":"Heide, Charles","amount":100.0,"id":"a639l47m9vmw","geo_precision":"zip","interest category":"Retired/Homemakers/Non-income...","state":"WI"},"type":"Feature","geometry":{"type":"Point","coordinates":[-87.948079,42.618427]}},{"properties":{"city":"Kenosha","zip":"53143","city, state zip":"Kenosha, WI 53143","date":{"end_time":"2010/07/01 00:00:00 -0400","original":"06/30/10","granularity":"day","time":"2010/06/30 00:00:00 -0400"},"geo_score":1.0,"contributed to":"Barca, Peter","employer":"Hughes, Socol, et al","contributor name":"Hughes, John","amount":100.0,"id":"a639l3wx17kr","geo_precision":"zip","interest category":"Lawyers/Law Firms/Lobbyists","state":"WI"},"type":"Feature","geometry":{"type":"Point","coordinates":[-87.824828,42.53607]}},{"properties":{"city":"Twin Lakes","zip":"53181","city, state zip":"Twin Lakes, WI 53181","date":{"end_time":"2010/07/01 00:00:00 -0400","original":"06/30/10","granularity":"day","time":"2010/06/30 00:00:00 -0400"},"geo_score":1.0,"contributed to":"Barca, Peter","employer":"Ashmus Belting","contributor name":"Beck, Lynn","amount":100.0,"id":"a639l42cgf30","geo_precision":"zip","interest category":"Manufacturing &amp; Distributing","state":"WI"},"type":"Feature","geometry":{"type":"Point","coordinates":[-88.235389,42.523887]}},{"properties":{"city":"Kenosha","zip":"53140","city, state zip":"Kenosha, WI 53140","date":{"end_time":"2010/07/01 00:00:00 -0400","original":"06/30/10","granularity":"day","time":"2010/06/30 00:00:00 -0400"},"geo_score":0.873,"contributed to":"Barca, Peter","employer":"F&amp;M Stamps","contributor name":"Marrelli, Frank","amount":250.0,"id":"a639l44ukvje","geo_precision":"zip","interest category":"Business","state":"WI"},"type":"Feature","geometry":{"type":"Point","coordinates":[-87.901188,42.566687]}},{"properties":{"city":"Kenosha","zip":"53142","city, state zip":"Kenosha, WI 53142","date":{"end_time":"2010/07/01 00:00:00 -0400","original":"06/30/10","granularity":"day","time":"2010/06/30 00:00:00 -0400"},"geo_score":1.0,"contributed to":"Barca, Peter","employer":"Joyce Erickson Consulting","contributor name":"Erickson, William","amount":150.0,"id":"a639l44eqzs7","geo_precision":"zip","interest category":"Business","state":"WI"},"type":"Feature","geometry":{"type":"Point","coordinates":[-87.925876,42.558221]}},{"properties":{"city":"Kenosha","zip":"53143","city, state zip":"Kenosha, WI 53143","date":{"end_time":"2010/07/01 00:00:00 -0400","original":"06/30/10","granularity":"day","time":"2010/06/30 00:00:00 -0400"},"geo_score":1.0,"contributed to":"Barca, Peter","employer":"No Employer Listed","contributor name":"Stevens, Mark","amount":100.0,"id":"a639l4083kxx","geo_precision":"zip","interest category":"Unknown","state":"WI"},"type":"Feature","geometry":{"type":"Point","coordinates":[-87.824828,42.53607]}},{"properties":{"city":"Racine","zip":"53406","city, state zip":"Racine, WI 53406","date":{"end_time":"2010/07/01 00:00:00 -0400","original":"06/30/10","granularity":"day","time":"2010/06/30 00:00:00 -0400"},"geo_score":1.0,"contributed to":"Barca, Peter","employer":"No Employer Listed","contributor name":"Friday, James","amount":100.0,"id":"a639l41d93bg","geo_precision":"zip","interest category":"Unknown","state":"WI"},"type":"Feature","geometry":{"type":"Point","coordinates":[-87.866213,42.72993]}},{"properties":{"city":"Kenosha","zip":"53144","city, state zip":"Kenosha, WI 53144","date":{"end_time":"2010/07/01 00:00:00 -0400","original":"06/30/10","granularity":"day","time":"2010/06/30 00:00:00 -0400"},"geo_score":1.0,"contributed to":"Barca, Peter","employer":"Professional Services Group","contributor name":"Wolf, Brian","amount":200.0,"id":"a639l3w3fqia","geo_precision":"zip","interest category":"Health Professionals","state":"WI"},"type":"Feature","geometry":{"type":"Point","coordinates":[-87.948079,42.618427]}},{"properties":{"city":"Kenosha","zip":"53140","city, state zip":"Kenosha, WI 53140","date":{"end_time":"2010/07/01 00:00:00 -0400","original":"06/30/10","granularity":"day","time":"2010/06/30 00:00:00 -0400"},"geo_score":0.873,"contributed to":"Barca, Peter","employer":"Kenosha County Board of...","contributor name":"Goebel, Michael","amount":100.0,"id":"a639l3zhmveb","geo_precision":"zip","interest category":"Civil servant/public employee","state":"WI"},"type":"Feature","geometry":{"type":"Point","coordinates":[-87.901188,42.566687]}},{"properties":{"city":"Racine","zip":"53406","city, state zip":"Racine, WI 53406","date":{"end_time":"2010/07/01 00:00:00 -0400","original":"06/30/10","granularity":"day","time":"2010/06/30 00:00:00 -0400"},"geo_score":1.0,"contributed to":"Barca, Peter","employer":"Retired","contributor name":"Andrietsch, Margaret","amount":100.0,"id":"a639l42wd513","geo_precision":"zip","interest category":"Retired/Homemakers/Non-income...","state":"WI"},"type":"Feature","geometry":{"type":"Point","coordinates":[-87.866213,42.72993]}},{"properties":{"city":"Racine","zip":"53403","city, state zip":"Racine, WI 53403","date":{"end_time":"2010/07/03 00:00:00 -0400","original":"07/02/10","granularity":"day","time":"2010/07/02 00:00:00 -0400"},"geo_score":1.0,"contributed to":"Barca, Peter","employer":"Rossi Construction","contributor name":"Rossi, Anthony","amount":150.0,"id":"a639l417o2v9","geo_precision":"zip","interest category":"Construction","state":"WI"},"type":"Feature","geometry":{"type":"Point","coordinates":[-87.835901,42.700619]}},{"properties":{"city":"New Berlin","zip":"53146","city, state zip":"New Berlin, WI 53146","date":{"end_time":"2010/07/03 00:00:00 -0400","original":"07/02/10","granularity":"day","time":"2010/07/02 00:00:00 -0400"},"geo_score":1.0,"contributed to":"Barca, Peter","employer":"Kravit, Hovel &amp; Krawczyk","contributor name":"Friday, Sarah","amount":100.0,"id":"a639l458qtjr","geo_precision":"zip","interest category":"Lawyers/Law Firms/Lobbyists","state":"WI"},"type":"Feature","geometry":{"type":"Point","coordinates":[-88.177554,42.969924]}},{"properties":{"city":"Kenosha","zip":"53144","city, state zip":"Kenosha, WI 53144","date":{"end_time":"2010/07/03 00:00:00 -0400","original":"07/02/10","granularity":"day","time":"2010/07/02 00:00:00 -0400"},"geo_score":1.0,"contributed to":"Barca, Peter","employer":"No Employer Listed","contributor name":"Waller, Sam","amount":100.0,"id":"a639l3whiin3","geo_precision":"zip","interest category":"Unknown","state":"WI"},"type":"Feature","geometry":{"type":"Point","coordinates":[-87.948079,42.618427]}},{"properties":{"city":"Kenosha","zip":"53144","city, state zip":"Kenosha, WI 53144","date":{"end_time":"2010/07/03 00:00:00 -0400","original":"07/02/10","granularity":"day","time":"2010/07/02 00:00:00 -0400"},"geo_score":1.0,"contributed to":"Barca, Peter","employer":"Piasecki-Althaus Funeral Home","contributor name":"Locante, Nancy","amount":250.0,"id":"a639l48d36el","geo_precision":"zip","interest category":"Business","state":"WI"},"type":"Feature","geometry":{"type":"Point","coordinates":[-87.948079,42.618427]}},{"properties":{"city":"Kenosha","zip":"53143","city, state zip":"Kenosha, WI 53143","date":{"end_time":"2010/07/03 00:00:00 -0400","original":"07/02/10","granularity":"day","time":"2010/07/02 00:00:00 -0400"},"geo_score":1.0,"contributed to":"Barca, Peter","employer":"No Employer Listed","contributor name":"Lubeck, Wayne","amount":100.0,"id":"a639l45t5tga","geo_precision":"zip","interest category":"Unknown","state":"WI"},"type":"Feature","geometry":{"type":"Point","coordinates":[-87.824828,42.53607]}},{"properties":{"city":"Kenosha","zip":"53144","city, state zip":"Kenosha, WI 53144","date":{"end_time":"2010/07/03 00:00:00 -0400","original":"07/02/10","granularity":"day","time":"2010/07/02 00:00:00 -0400"},"geo_score":1.0,"contributed to":"Barca, Peter","employer":"Rasch Construction &amp;...","contributor name":"Rasch, Larry","amount":150.0,"id":"a639l49h4650","geo_precision":"zip","interest category":"Construction","state":"WI"},"type":"Feature","geometry":{"type":"Point","coordinates":[-87.948079,42.618427]}},{"properties":{"city":"Kenosha","zip":"53140","city, state zip":"Kenosha, WI 53140","date":{"end_time":"2010/07/11 00:00:00 -0400","original":"07/10/10","granularity":"day","time":"2010/07/10 00:00:00 -0400"},"geo_score":0.873,"contributed to":"Barca, Peter","employer":"F&amp;M Stamps","contributor name":"Marrelli, Frank","amount":250.0,"id":"a639l3xzjdu3","geo_precision":"zip","interest category":"Business","state":"WI"},"type":"Feature","geometry":{"type":"Point","coordinates":[-87.901188,42.566687]}},{"properties":{"city":"Middleton","zip":"53562","city, state zip":"Middleton, WI 53562","date":{"end_time":"2010/07/13 00:00:00 -0400","original":"07/12/10","granularity":"day","time":"2010/07/12 00:00:00 -0400"},"geo_score":0.878,"contributed to":"Barca, Peter","employer":"Capitol Navigators Inc","contributor name":"Tyre, Scott","amount":250.0,"id":"a639l46j977v","geo_precision":"zip","interest category":"Lawyers/Law Firms/Lobbyists","state":"WI"},"type":"Feature","geometry":{"type":"Point","coordinates":[-89.484009,43.104162]}},{"properties":{"city":"Milwaukee","zip":"53202","city, state zip":"Milwaukee, WI 53202","date":{"end_time":"2010/07/13 00:00:00 -0400","original":"07/12/10","granularity":"day","time":"2010/07/12 00:00:00 -0400"},"geo_score":1.0,"contributed to":"Barca, Peter","employer":"Oconomowoc Residential...","contributor name":"Leahy, Terrance","amount":500.0,"id":"a639l45r3tdn","geo_precision":"zip","interest category":"Non-Profit/Social Services","state":"WI"},"type":"Feature","geometry":{"type":"Point","coordinates":[-87.894734,43.043213]}},{"properties":{"city":"Manitowoc","zip":"54220","city, state zip":"Manitowoc, WI 54220","date":{"end_time":"2010/07/13 00:00:00 -0400","original":"07/12/10","granularity":"day","time":"2010/07/12 00:00:00 -0400"},"geo_score":0.889,"contributed to":"Barca, Peter","employer":"Orion Energy Systems","contributor name":"Crawford, Kevin","amount":100.0,"id":"a639l3wa4u1l","geo_precision":"zip","interest category":"Manufacturing &amp; Distributing","state":"WI"},"type":"Feature","geometry":{"type":"Point","coordinates":[-87.705642,44.16805]}},{"properties":{"city":"Pound","zip":"54161","city, state zip":"Pound, WI 54161","date":{"end_time":"2010/07/13 00:00:00 -0400","original":"07/12/10","granularity":"day","time":"2010/07/12 00:00:00 -0400"},"geo_score":1.0,"contributed to":"Barca, Peter","employer":"No Employer Listed","contributor name":"Rosner, Brandon","amount":100.0,"id":"a639l41dfr3e","geo_precision":"zip","interest category":"Unknown","state":"WI"},"type":"Feature","geometry":{"type":"Point","coordinates":[-87.977136,45.117544]}},{"properties":{"city":"Ten Sleep","zip":"82442","city, state zip":"Ten Sleep, WY 82442","date":{"end_time":"2010/07/13 00:00:00 -0400","original":"07/12/10","granularity":"day","time":"2010/07/12 00:00:00 -0400"},"geo_score":1.0,"contributed to":"Barca, Peter","employer":"Cedar Lake Sand &amp; Gravel","contributor name":"Gilbert, Bruce","amount":250.0,"id":"a639l4651e9u","geo_precision":"zip","interest category":"Construction","state":"WY"},"type":"Feature","geometry":{"type":"Point","coordinates":[-107.530662,43.908687]}},{"properties":{"city":"Milwaukee","zip":"53202","city, state zip":"Milwaukee, WI 53202","date":{"end_time":"2010/07/13 00:00:00 -0400","original":"07/12/10","granularity":"day","time":"2010/07/12 00:00:00 -0400"},"geo_score":1.0,"contributed to":"Barca, Peter","employer":"Stippich Selin Law Firm","contributor name":"Selin, Paul","amount":250.0,"id":"a639l3x7fqdz","geo_precision":"zip","interest category":"Lawyers/Law Firms/Lobbyists","state":"WI"},"type":"Feature","geometry":{"type":"Point","coordinates":[-87.894734,43.043213]}},{"properties":{"city":"Northbrook","zip":"60062","city, state zip":"Northbrook, IL 60062","date":{"end_time":"2010/07/13 00:00:00 -0400","original":"07/12/10","granularity":"day","time":"2010/07/12 00:00:00 -0400"},"geo_score":1.0,"contributed to":"Barca, Peter","employer":"Bull &amp; Bear Restaurant","contributor name":"Gochis, Chris","amount":200.0,"id":"a639l44zygn7","geo_precision":"zip","interest category":"Tourism/Leisure/Entertainment","state":"IL"},"type":"Feature","geometry":{"type":"Point","coordinates":[-87.838815,42.120176]}},{"properties":{"city":"Cedarburg","zip":"53102","city, state zip":"Cedarburg, WI 53102","date":{"end_time":"2010/07/13 00:00:00 -0400","original":"07/12/10","granularity":"day","time":"2010/07/12 00:00:00 -0400"},"geo_score":0.873,"contributed to":"Barca, Peter","employer":"Wisconsin Business Council","contributor name":"Taffora, Brian","amount":500.0,"id":"a639l3w45lke","geo_precision":"zip","interest category":"Business","state":"WI"},"type":"Feature","geometry":{"type":"Point","coordinates":[-88.079983,42.500141]}},{"properties":{"city":"Kenosha","zip":"53142","city, state zip":"Kenosha, WI 53142","date":{"end_time":"2010/07/13 00:00:00 -0400","original":"07/12/10","granularity":"day","time":"2010/07/12 00:00:00 -0400"},"geo_score":1.0,"contributed to":"Barca, Peter","employer":"Bull &amp; Bear Restaurant","contributor name":"Gochis, Nick","amount":200.0,"id":"a639l44hjnsq","geo_precision":"zip","interest category":"Tourism/Leisure/Entertainment","state":"WI"},"type":"Feature","geometry":{"type":"Point","coordinates":[-87.925876,42.558221]}},{"properties":{"city":"Kenosha","zip":"53140","city, state zip":"Kenosha, WI 53140","date":{"end_time":"2010/07/13 00:00:00 -0400","original":"07/12/10","granularity":"day","time":"2010/07/12 00:00:00 -0400"},"geo_score":0.873,"contributed to":"Barca, Peter","employer":"Carthage College","contributor name":"Campbell, Greg","amount":200.0,"id":"a639l44gt8k4","geo_precision":"zip","interest category":"Education","state":"WI"},"type":"Feature","geometry":{"type":"Point","coordinates":[-87.901188,42.566687]}},{"properties":{"city":"Milwaukee","zip":"53212","city, state zip":"Milwaukee, WI 53212","date":{"end_time":"2010/07/20 00:00:00 -0400","original":"07/19/10","granularity":"day","time":"2010/07/19 00:00:00 -0400"},"geo_score":1.0,"contributed to":"Barca, Peter","employer":"Centene Corp Managed Health...","contributor name":"Tunis, Sandi","amount":100.0,"id":"a639l43o3llx","geo_precision":"zip","interest category":"Health Services/Institutions","state":"WI"},"type":"Feature","geometry":{"type":"Point","coordinates":[-87.907178,43.074862]}},{"properties":{"city":"Madison","zip":"53726","city, state zip":"Madison, WI 53726","date":{"end_time":"2010/07/20 00:00:00 -0400","original":"07/19/10","granularity":"day","time":"2010/07/19 00:00:00 -0400"},"geo_score":1.0,"contributed to":"Barca, Peter","employer":"Wisconsin Association of...","contributor name":"Wenzel, Nancy","amount":100.0,"id":"a639l45kkjlj","geo_precision":"zip","interest category":"Health Services/Institutions","state":"WI"},"type":"Feature","geometry":{"type":"Point","coordinates":[-89.423861,43.06956]}},{"properties":{"city":"Plainfield","zip":"60585","city, state zip":"Plainfield, WI 60585","date":{"end_time":"2010/07/20 00:00:00 -0400","original":"07/19/10","granularity":"day","time":"2010/07/19 00:00:00 -0400"},"geo_score":0.814,"contributed to":"Barca, Peter","employer":"Centene Corp Managed Health...","contributor name":"Husa, Sherry","amount":100.0,"id":"a639l48jxf0h","geo_precision":"city","interest category":"Health Services/Institutions","state":"WI"},"type":"Feature","geometry":{"type":"Point","coordinates":[-89.812625,43.708866]}},{"properties":{"city":"Adell","zip":"53001","city, state zip":"Adell, WI 53001","date":{"end_time":"2010/07/20 00:00:00 -0400","original":"07/19/10","granularity":"day","time":"2010/07/19 00:00:00 -0400"},"geo_score":0.873,"contributed to":"Barca, Peter","employer":"Independent Care Health Plan","contributor name":"Jensen, Bill","amount":100.0,"id":"a639l47gt0qx","geo_precision":"zip","interest category":"Health Services/Institutions","state":"WI"},"type":"Feature","geometry":{"type":"Point","coordinates":[-88.120373,43.592774]}},{"properties":{"city":"Hartland","zip":"53029","city, state zip":"Hartland, WI 53029","date":{"end_time":"2010/07/20 00:00:00 -0400","original":"07/19/10","granularity":"day","time":"2010/07/19 00:00:00 -0400"},"geo_score":0.857,"contributed to":"Barca, Peter","employer":"Humana","contributor name":"Rambo, Larry","amount":100.0,"id":"a639l49fiui6","geo_precision":"zip","interest category":"Insurance","state":"WI"},"type":"Feature","geometry":{"type":"Point","coordinates":[-88.343707,43.191117]}},{"properties":{"city":"Milwaukee","zip":"53202","city, state zip":"Milwaukee, WI 53202","date":{"end_time":"2010/07/22 00:00:00 -0400","original":"07/21/10","granularity":"day","time":"2010/07/21 00:00:00 -0400"},"geo_score":1.0,"contributed to":"Barca, Peter","employer":"Reinhart, Boerner, et al","contributor name":"Cooper, Daniel P","amount":500.0,"id":"a639l4brotdv","geo_precision":"zip","interest category":"Lawyers/Law Firms/Lobbyists","state":"WI"},"type":"Feature","geometry":{"type":"Point","coordinates":[-87.894734,43.043213]}},{"properties":{"city":"Milwaukee","zip":"53204","city, state zip":"Milwaukee, WI 53204","date":{"end_time":"2010/07/22 00:00:00 -0400","original":"07/21/10","granularity":"day","time":"2010/07/21 00:00:00 -0400"},"geo_score":1.0,"contributed to":"Barca, Peter","employer":"No Employer Listed","contributor name":"Flaherty, Karen C","amount":321.29,"id":"a639l4aba2tx","geo_precision":"zip","interest category":"Unknown","state":"WI"},"type":"Feature","geometry":{"type":"Point","coordinates":[-87.925534,43.019463]}},{"properties":{"city":"Neenah","zip":"54956","city, state zip":"Neenah, WI 54956","date":{"end_time":"2010/07/27 00:00:00 -0400","original":"07/26/10","granularity":"day","time":"2010/07/26 00:00:00 -0400"},"geo_score":1.0,"contributed to":"Barca, Peter","employer":"Bergstrom Enterprises","contributor name":"Bergstrom, John","amount":100.0,"id":"a639l44joq5w","geo_precision":"zip","interest category":"Transportation","state":"WI"},"type":"Feature","geometry":{"type":"Point","coordinates":[-88.658087,44.170785]}},{"properties":{"city":"Green Bay","zip":"54301","city, state zip":"Green Bay, WI 54301","date":{"end_time":"2010/07/27 00:00:00 -0400","original":"07/26/10","granularity":"day","time":"2010/07/26 00:00:00 -0400"},"geo_score":0.875,"contributed to":"Barca, Peter","employer":"Broadway Automotive","contributor name":"Cuene, David","amount":100.0,"id":"a639l46z19hd","geo_precision":"zip","interest category":"Transportation","state":"WI"},"type":"Feature","geometry":{"type":"Point","coordinates":[-87.826206,44.443605]}},{"properties":{"city":"Green Bay","zip":"54311","city, state zip":"Green Bay, WI 54311","date":{"end_time":"2010/07/27 00:00:00 -0400","original":"07/26/10","granularity":"day","time":"2010/07/26 00:00:00 -0400"},"geo_score":1.0,"contributed to":"Barca, Peter","employer":"Broadway Automotive","contributor name":"Cuene, Mike","amount":100.0,"id":"a639l3we2jmh","geo_precision":"zip","interest category":"Transportation","state":"WI"},"type":"Feature","geometry":{"type":"Point","coordinates":[-87.957687,44.523605]}},{"properties":{"city":"Madison","zip":"53704","city, state zip":"Madison, WI 53704","date":{"end_time":"2010/07/28 00:00:00 -0400","original":"07/27/10","granularity":"day","time":"2010/07/27 00:00:00 -0400"},"geo_score":0.886,"contributed to":"Barca, Peter","employer":"Zimbrick Inc","contributor name":"Zimbrick, John","amount":100.0,"id":"a639l3vtjbkc","geo_precision":"zip","interest category":"Transportation","state":"WI"},"type":"Feature","geometry":{"type":"Point","coordinates":[-89.379563,43.118328]}},{"properties":{"city":"Monroe","zip":"53566","city, state zip":"Monroe, WI 53566","date":{"end_time":"2010/07/29 00:00:00 -0400","original":"07/28/10","granularity":"day","time":"2010/07/28 00:00:00 -0400"},"geo_score":0.881,"contributed to":"Barca, Peter","employer":"Ruda Chevrolet Toyota","contributor name":"Ruda, Jean","amount":100.0,"id":"a639l3w9ahda","geo_precision":"zip","interest category":"Transportation","state":"WI"},"type":"Feature","geometry":{"type":"Point","coordinates":[-89.647897,42.518621]}},{"properties":{"city":"Wilmot","zip":"53192","city, state zip":"Wilmot, WI 53192","date":{"end_time":"2010/08/02 00:00:00 -0400","original":"08/01/10","granularity":"day","time":"2010/08/01 00:00:00 -0400"},"geo_score":1.0,"contributed to":"Barca, Peter","employer":"Wilmot Mountain","contributor name":"Sheen, Dennis","amount":250.0,"id":"a639l49ylm1q","geo_precision":"zip","interest category":"Tourism/Leisure/Entertainment","state":"WI"},"type":"Feature","geometry":{"type":"Point","coordinates":[-88.191337,42.507165]}},{"properties":{"city":"Berwyn","zip":"60402","city, state zip":"Berwyn, IL 60402","date":{"end_time":"2010/08/04 00:00:00 -0400","original":"08/03/10","granularity":"day","time":"2010/08/03 00:00:00 -0400"},"geo_score":0.875,"contributed to":"Barca, Peter","employer":"Turano Bakery","contributor name":"Turano, Renato","amount":250.0,"id":"a639l3ztx8o3","geo_precision":"zip","interest category":"Manufacturing &amp; Distributing","state":"IL"},"type":"Feature","geometry":{"type":"Point","coordinates":[-87.782834,41.821421]}},{"properties":{"city":"Atlanta","zip":"30342","city, state zip":"Atlanta, GA 30342","date":{"end_time":"2010/08/20 00:00:00 -0400","original":"08/19/10","granularity":"day","time":"2010/08/19 00:00:00 -0400"},"geo_score":1.0,"contributed to":"Barca, Peter","employer":"Adams Outdoor Advertising","contributor name":"Levine, Abe","amount":100.0,"id":"a639l3w3ph6d","geo_precision":"zip","interest category":"Tourism/Leisure/Entertainment","state":"GA"},"type":"Feature","geometry":{"type":"Point","coordinates":[-84.379476,33.881052]}},{"properties":{"city":"Milwaukee","zip":"53202","city, state zip":"Milwaukee, WI 53202","date":{"end_time":"2010/08/20 00:00:00 -0400","original":"08/19/10","granularity":"day","time":"2010/08/19 00:00:00 -0400"},"geo_score":1.0,"contributed to":"Barca, Peter","employer":"Mueller Communications","contributor name":"Mueller, Carl","amount":250.0,"id":"a639l44xewam","geo_precision":"zip","interest category":"Lawyers/Law Firms/Lobbyists","state":"WI"},"type":"Feature","geometry":{"type":"Point","coordinates":[-87.894734,43.043213]}},{"properties":{"city":"Kenosha","zip":"53144","city, state zip":"Kenosha, WI 53144","date":{"end_time":"2010/08/20 00:00:00 -0400","original":"08/19/10","granularity":"day","time":"2010/08/19 00:00:00 -0400"},"geo_score":1.0,"contributed to":"Barca, Peter","employer":"Professional Services Group","contributor name":"Houghton, Coreen","amount":200.0,"id":"a639l43lldmz","geo_precision":"zip","interest category":"Health Services/Institutions","state":"WI"},"type":"Feature","geometry":{"type":"Point","coordinates":[-87.948079,42.618427]}},{"properties":{"city":"Madison","zip":"53704","city, state zip":"Madison, WI 53704","date":{"end_time":"2010/09/05 00:00:00 -0400","original":"09/04/10","granularity":"day","time":"2010/09/04 00:00:00 -0400"},"geo_score":0.886,"contributed to":"Barca, Peter","employer":"Wisconsin Manufacturers &amp;...","contributor name":"Haney, James","amount":50.0,"id":"a639l45a54ej","geo_precision":"zip","interest category":"Business","state":"WI"},"type":"Feature","geometry":{"type":"Point","coordinates":[-89.379563,43.118328]}},{"properties":{"city":"Racine","zip":"53403","city, state zip":"Racine, WI 53403","date":{"end_time":"2010/09/05 00:00:00 -0400","original":"09/04/10","granularity":"day","time":"2010/09/04 00:00:00 -0400"},"geo_score":1.0,"contributed to":"Barca, Peter","employer":"SC Johnson &amp; Sons","contributor name":"Johnson, Fisk","amount":250.0,"id":"a639l46nu4cz","geo_precision":"zip","interest category":"Manufacturing &amp; Distributing","state":"WI"},"type":"Feature","geometry":{"type":"Point","coordinates":[-87.835901,42.700619]}},{"properties":{"city":"Norfolk","zip":"68701","city, state zip":"Norfolk, NE 68701","date":{"end_time":"2010/09/05 00:00:00 -0400","original":"09/04/10","granularity":"day","time":"2010/09/04 00:00:00 -0400"},"geo_score":0.898,"contributed to":"Barca, Peter","employer":"Affiliated Foods Midwest","contributor name":"Brooks, Brad","amount":100.0,"id":"a639l47xcv64","geo_precision":"zip","interest category":"Manufacturing &amp; Distributing","state":"NE"},"type":"Feature","geometry":{"type":"Point","coordinates":[-97.462828,41.903895]}},{"properties":{"city":"Pleasant Prairie","zip":"53158","city, state zip":"Pleasant Prairie, WI 53158","date":{"end_time":"2010/09/05 00:00:00 -0400","original":"09/04/10","granularity":"day","time":"2010/09/04 00:00:00 -0400"},"geo_score":1.0,"contributed to":"Barca, Peter","employer":"Affiliated Foods Midwest","contributor name":"Hall, Wayne","amount":450.0,"id":"a639l3x16pah","geo_precision":"zip","interest category":"Manufacturing &amp; Distributing","state":"WI"},"type":"Feature","geometry":{"type":"Point","coordinates":[-87.885546,42.52926]}},{"properties":{"city":"Pewaukee","zip":"53072","city, state zip":"Pewaukee, WI 53072","date":{"end_time":"2010/09/22 00:00:00 -0400","original":"09/21/10","granularity":"day","time":"2010/09/21 00:00:00 -0400"},"geo_score":0.952,"contributed to":"Barca, Peter","employer":"Payne &amp; Dolan","contributor name":"Filmanowicz, Mark","amount":200.0,"id":"a639l46j4ecm","geo_precision":"zip","interest category":"Road Construction","state":"WI"},"type":"Feature","geometry":{"type":"Point","coordinates":[-88.330928,43.074731]}},{"properties":{"city":"Eau Claire","zip":"54701","city, state zip":"Eau Claire, WI 54701","date":{"end_time":"2010/09/24 00:00:00 -0400","original":"09/23/10","granularity":"day","time":"2010/09/23 00:00:00 -0400"},"geo_score":0.889,"contributed to":"Barca, Peter","employer":"Optima Health &amp; Vitality...","contributor name":"Bircher, Steven","amount":190.0,"id":"a639l43z0ug6","geo_precision":"zip","interest category":"Health Professionals","state":"WI"},"type":"Feature","geometry":{"type":"Point","coordinates":[-91.674611,44.75135]}},{"properties":{"city":"Rhinelander","zip":"54501","city, state zip":"Rhinelander, WI 54501","date":{"end_time":"2010/09/24 00:00:00 -0400","original":"09/23/10","granularity":"day","time":"2010/09/23 00:00:00 -0400"},"geo_score":0.857,"contributed to":"Barca, Peter","employer":"Timber Land Chiropractic","contributor name":"Henrichs, Wendy","amount":410.0,"id":"a639l3yvlqf9","geo_precision":"zip","interest category":"Health Professionals","state":"WI"},"type":"Feature","geometry":{"type":"Point","coordinates":[-89.554302,45.607458]}},{"properties":{"city":"Kenosha","zip":"53142","city, state zip":"Kenosha, WI 53142","date":{"end_time":"2010/09/24 00:00:00 -0400","original":"09/23/10","granularity":"day","time":"2010/09/23 00:00:00 -0400"},"geo_score":1.0,"contributed to":"Barca, Peter","employer":"Malone Chiropractic","contributor name":"Malone, Jefferey","amount":300.0,"id":"a639l4aoj3nk","geo_precision":"zip","interest category":"Health Professionals","state":"WI"},"type":"Feature","geometry":{"type":"Point","coordinates":[-87.925876,42.558221]}},{"properties":{"city":"Kenosha","zip":"53140","city, state zip":"Kenosha, WI 53140","date":{"end_time":"2010/09/24 00:00:00 -0400","original":"09/23/10","granularity":"day","time":"2010/09/23 00:00:00 -0400"},"geo_score":0.873,"contributed to":"Barca, Peter","employer":"Biese Chiropractic Clinic","contributor name":"Bedogne, Sontino","amount":100.0,"id":"a639l3x1tvf6","geo_precision":"zip","interest category":"Health Professionals","state":"WI"},"type":"Feature","geometry":{"type":"Point","coordinates":[-87.901188,42.566687]}},{"properties":{"city":"Delafield","zip":"53018","city, state zip":"Delafield, WI 53018","date":{"end_time":"2010/09/29 00:00:00 -0400","original":"09/28/10","granularity":"day","time":"2010/09/28 00:00:00 -0400"},"geo_score":1.0,"contributed to":"Barca, Peter","employer":"Zenith Tech","contributor name":"Bechthold, David","amount":200.0,"id":"a639l41jckef","geo_precision":"zip","interest category":"Construction","state":"WI"},"type":"Feature","geometry":{"type":"Point","coordinates":[-88.386519,43.015666]}},{"properties":{"city":"Mequon","zip":"53092","city, state zip":"Mequon, WI 53092","date":{"end_time":"2010/09/29 00:00:00 -0400","original":"09/28/10","granularity":"day","time":"2010/09/28 00:00:00 -0400"},"geo_score":0.873,"contributed to":"Barca, Peter","employer":"Payne &amp; Dolan","contributor name":"Bechthold, Kurt","amount":100.0,"id":"a639l4bovx42","geo_precision":"zip","interest category":"Road Construction","state":"WI"},"type":"Feature","geometry":{"type":"Point","coordinates":[-88.04259,43.236118]}},{"properties":{"city":"Mequon","zip":"53092","city, state zip":"Mequon, WI 53092","date":{"end_time":"2010/09/29 00:00:00 -0400","original":"09/28/10","granularity":"day","time":"2010/09/28 00:00:00 -0400"},"geo_score":0.873,"contributed to":"Barca, Peter","employer":"Payne &amp; Dolan","contributor name":"Bechthold, Lori","amount":100.0,"id":"a639l46qmx65","geo_precision":"zip","interest category":"Road Construction","state":"WI"},"type":"Feature","geometry":{"type":"Point","coordinates":[-88.04259,43.236118]}},{"properties":{"city":"Waukesha","zip":"53187","city, state zip":"Waukesha, WI 53187","date":{"end_time":"2010/09/29 00:00:00 -0400","original":"09/28/10","granularity":"day","time":"2010/09/28 00:00:00 -0400"},"geo_score":1.0,"contributed to":"Barca, Peter","employer":"Payne &amp; Dolan","contributor name":"Bechthold, Ned","amount":200.0,"id":"a639l40m0vlm","geo_precision":"zip","interest category":"Road Construction","state":"WI"},"type":"Feature","geometry":{"type":"Point","coordinates":[-88.302997,43.018696]}},{"properties":{"city":"Mequon","zip":"53092","city, state zip":"Mequon, WI 53092","date":{"end_time":"2010/09/29 00:00:00 -0400","original":"09/28/10","granularity":"day","time":"2010/09/28 00:00:00 -0400"},"geo_score":0.873,"contributed to":"Barca, Peter","employer":"Payne &amp; Dolan","contributor name":"Bechthold, Charles","amount":200.0,"id":"a639l46jlcmg","geo_precision":"zip","interest category":"Road Construction","state":"WI"},"type":"Feature","geometry":{"type":"Point","coordinates":[-88.04259,43.236118]}},{"properties":{"city":"Milwaukee","zip":"53187","city, state zip":"Milwaukee, WI 53187","date":{"end_time":"2010/10/06 00:00:00 -0400","original":"10/05/10","granularity":"day","time":"2010/10/05 00:00:00 -0400"},"geo_score":0.905,"contributed to":"Barca, Peter","employer":"Payne &amp; Dolan","contributor name":"Endres, Brian","amount":100.0,"id":"a639l3y4edu9","geo_precision":"zip","interest category":"Road Construction","state":"WI"},"type":"Feature","geometry":{"type":"Point","coordinates":[-88.302997,43.018696]}},{"properties":{"city":"Medford","zip":"54451","city, state zip":"Medford, WI 54451","date":{"end_time":"2010/10/06 00:00:00 -0400","original":"10/05/10","granularity":"day","time":"2010/10/05 00:00:00 -0400"},"geo_score":0.857,"contributed to":"Barca, Peter","employer":"James Peterson &amp; Sons","contributor name":"Peterson, James","amount":500.0,"id":"a639l3zoulee","geo_precision":"zip","interest category":"Road Construction","state":"WI"},"type":"Feature","geometry":{"type":"Point","coordinates":[-90.328755,45.223024]}},{"properties":{"city":"Waukesha","zip":"53189","city, state zip":"Waukesha, WI 53189","date":{"end_time":"2010/10/07 00:00:00 -0400","original":"10/06/10","granularity":"day","time":"2010/10/06 00:00:00 -0400"},"geo_score":1.0,"contributed to":"Barca, Peter","employer":"Focus Credit Union","contributor name":"Vokovitch, Gary","amount":100.0,"id":"a639l48e16te","geo_precision":"zip","interest category":"Banking &amp; Finance","state":"WI"},"type":"Feature","geometry":{"type":"Point","coordinates":[-88.296321,42.95163]}},{"properties":{"city":"Pewaukee","zip":"53072","city, state zip":"Pewaukee, WI 53072","date":{"end_time":"2010/10/08 00:00:00 -0400","original":"10/07/10","granularity":"day","time":"2010/10/07 00:00:00 -0400"},"geo_score":0.952,"contributed to":"Barca, Peter","employer":"Aurora West Allis Memorial...","contributor name":"Kellar, Richard","amount":100.0,"id":"a639l48prhj4","geo_precision":"zip","interest category":"Health Services/Institutions","state":"WI"},"type":"Feature","geometry":{"type":"Point","coordinates":[-88.330928,43.074731]}},{"properties":{"city":"Milwaukee","zip":"53202","city, state zip":"Milwaukee, WI 53202","date":{"end_time":"2010/10/08 00:00:00 -0400","original":"10/07/10","granularity":"day","time":"2010/10/07 00:00:00 -0400"},"geo_score":1.0,"contributed to":"Barca, Peter","employer":"Aurora Health Care Systems","contributor name":"Loftus, Phillip","amount":100.0,"id":"a639l4b01tl5","geo_precision":"zip","interest category":"Health Services/Institutions","state":"WI"},"type":"Feature","geometry":{"type":"Point","coordinates":[-87.894734,43.043213]}},{"properties":{"city":"Kenosha","zip":"53144","city, state zip":"Kenosha, WI 53144","date":{"end_time":"2010/10/08 00:00:00 -0400","original":"10/07/10","granularity":"day","time":"2010/10/07 00:00:00 -0400"},"geo_score":1.0,"contributed to":"Barca, Peter","employer":"Aurora Health Care Systems","contributor name":"Capelli, AJ","amount":100.0,"id":"a639l41ocfy1","geo_precision":"zip","interest category":"Health Professionals","state":"WI"},"type":"Feature","geometry":{"type":"Point","coordinates":[-87.948079,42.618427]}},{"properties":{"city":"Sheboygan","zip":"53081","city, state zip":"Sheboygan, WI 53081","date":{"end_time":"2010/10/12 00:00:00 -0400","original":"10/11/10","granularity":"day","time":"2010/10/11 00:00:00 -0400"},"geo_score":0.905,"contributed to":"Barca, Peter","employer":"Sommers Woodhaven Home Park","contributor name":"Sommer, Mary Ann","amount":100.0,"id":"a639l4049b5b","geo_precision":"zip","interest category":"Real Estate","state":"WI"},"type":"Feature","geometry":{"type":"Point","coordinates":[-87.759531,43.789995]}},{"properties":{"city":"Winnetka","zip":"60093","city, state zip":"Winnetka, IL 60093","date":{"end_time":"2010/10/13 00:00:00 -0400","original":"10/12/10","granularity":"day","time":"2010/10/12 00:00:00 -0400"},"geo_score":0.886,"contributed to":"Barca, Peter","employer":"Payday Loan Store","contributor name":"Wolfberg, Ann","amount":500.0,"id":"a639l42mm9n8","geo_precision":"zip","interest category":"Banking &amp; Finance","state":"IL"},"type":"Feature","geometry":{"type":"Point","coordinates":[-87.647822,41.501702]}},{"properties":{"city":"Thorp","zip":"54771","city, state zip":"Thorp, WI 54771","date":{"end_time":"2010/10/13 00:00:00 -0400","original":"10/12/10","granularity":"day","time":"2010/10/12 00:00:00 -0400"},"geo_score":0.878,"contributed to":"Barca, Peter","employer":"Thorp Supervalu","contributor name":"Niemuth, Doug","amount":250.0,"id":"a639l42ssqae","geo_precision":"zip","interest category":"Business","state":"WI"},"type":"Feature","geometry":{"type":"Point","coordinates":[-90.739302,44.959135]}},{"properties":{"city":"Middleton","zip":"53562","city, state zip":"Middleton, WI 53562","date":{"end_time":"2010/10/13 00:00:00 -0400","original":"10/12/10","granularity":"day","time":"2010/10/12 00:00:00 -0400"},"geo_score":0.878,"contributed to":"Barca, Peter","employer":"Group Health Cooperative SC...","contributor name":"Zanoni, Larry","amount":100.0,"id":"a639l45u7ec6","geo_precision":"zip","interest category":"Health Services/Institutions","state":"WI"},"type":"Feature","geometry":{"type":"Point","coordinates":[-89.484009,43.104162]}},{"properties":{"city":"Hartland","zip":"53029","city, state zip":"Hartland, WI 53029","date":{"end_time":"2010/10/13 00:00:00 -0400","original":"10/12/10","granularity":"day","time":"2010/10/12 00:00:00 -0400"},"geo_score":0.857,"contributed to":"Barca, Peter","employer":"Humana","contributor name":"Rambo, Larry","amount":100.0,"id":"a639l486212a","geo_precision":"zip","interest category":"Insurance","state":"WI"},"type":"Feature","geometry":{"type":"Point","coordinates":[-88.343707,43.191117]}},{"properties":{"city":"Madison","zip":"53726","city, state zip":"Madison, WI 53726","date":{"end_time":"2010/10/13 00:00:00 -0400","original":"10/12/10","granularity":"day","time":"2010/10/12 00:00:00 -0400"},"geo_score":1.0,"contributed to":"Barca, Peter","employer":"Wisconsin Association of...","contributor name":"Wenzel, Nancy","amount":100.0,"id":"a639l48tru6b","geo_precision":"zip","interest category":"Health Services/Institutions","state":"WI"},"type":"Feature","geometry":{"type":"Point","coordinates":[-89.423861,43.06956]}},{"properties":{"city":"Verona","zip":"53593","city, state zip":"Verona, WI 53593","date":{"end_time":"2010/10/13 00:00:00 -0400","original":"10/12/10","granularity":"day","time":"2010/10/12 00:00:00 -0400"},"geo_score":1.0,"contributed to":"Barca, Peter","employer":"Physicians Plus","contributor name":"Witek, Dawn","amount":100.0,"id":"a639l3zhqqzq","geo_precision":"zip","interest category":"Health Services/Institutions","state":"WI"},"type":"Feature","geometry":{"type":"Point","coordinates":[-89.566512,42.995697]}},{"properties":{"city":"Oconomowoc","zip":"53066","city, state zip":"Oconomowoc, WI 53066","date":{"end_time":"2010/10/13 00:00:00 -0400","original":"10/12/10","granularity":"day","time":"2010/10/12 00:00:00 -0400"},"geo_score":0.857,"contributed to":"Barca, Peter","employer":"Milmark Hotel-Motel...","contributor name":"McCord, Ron","amount":100.0,"id":"a639l45ylmnm","geo_precision":"zip","interest category":"Tourism/Leisure/Entertainment","state":"WI"},"type":"Feature","geometry":{"type":"Point","coordinates":[-88.438153,43.02001]}},{"properties":{"city":"Kingsford","zip":"49802","city, state zip":"Kingsford, MI 49802","date":{"end_time":"2010/10/14 00:00:00 -0400","original":"10/13/10","granularity":"day","time":"2010/10/13 00:00:00 -0400"},"geo_score":1.0,"contributed to":"Barca, Peter","employer":"Four Seasons Beer Distributing","contributor name":"Smeester, Joe","amount":500.0,"id":"a639l43p6ab5","geo_precision":"zip","interest category":"Manufacturing &amp; Distributing","state":"MI"},"type":"Feature","geometry":{"type":"Point","coordinates":[-88.084302,45.807905]}},{"properties":{"city":"Middleton","zip":"53562","city, state zip":"Middleton, WI 53562","date":{"end_time":"2010/10/14 00:00:00 -0400","original":"10/13/10","granularity":"day","time":"2010/10/13 00:00:00 -0400"},"geo_score":0.878,"contributed to":"Barca, Peter","employer":"University of Wisconsin...","contributor name":"Kundert, Paul","amount":100.0,"id":"a639l41in2i2","geo_precision":"zip","interest category":"Banking &amp; Finance","state":"WI"},"type":"Feature","geometry":{"type":"Point","coordinates":[-89.484009,43.104162]}},{"properties":{"city":"Madison","zip":"53711","city, state zip":"Madison, WI 53711","date":{"end_time":"2010/10/14 00:00:00 -0400","original":"10/13/10","granularity":"day","time":"2010/10/13 00:00:00 -0400"},"geo_score":1.0,"contributed to":"Barca, Peter","employer":"Frank Liquor Co","contributor name":"Rotter, Ron","amount":500.0,"id":"a639l47jupm0","geo_precision":"zip","interest category":"Manufacturing &amp; Distributing","state":"WI"},"type":"Feature","geometry":{"type":"Point","coordinates":[-89.417973,43.021252]}},{"properties":{"city":"Fond du Lac","zip":"54935","city, state zip":"Fond du Lac, WI 54935","date":{"end_time":"2010/10/15 00:00:00 -0400","original":"10/14/10","granularity":"day","time":"2010/10/14 00:00:00 -0400"},"geo_score":0.873,"contributed to":"Barca, Peter","employer":"Valley Eye Associates","contributor name":"Brown, Garry","amount":150.0,"id":"a639l444rdt7","geo_precision":"zip","interest category":"Health Professionals","state":"WI"},"type":"Feature","geometry":{"type":"Point","coordinates":[-88.376494,43.816379]}},{"properties":{"city":"Janesville","zip":"53545","city, state zip":"Janesville, WI 53545","date":{"end_time":"2010/10/15 00:00:00 -0400","original":"10/14/10","granularity":"day","time":"2010/10/14 00:00:00 -0400"},"geo_score":0.871,"contributed to":"Barca, Peter","employer":"Ott Schweitzer Distributing...","contributor name":"Bysted, Steve","amount":500.0,"id":"a639l44cqkeo","geo_precision":"zip","interest category":"Manufacturing &amp; Distributing","state":"WI"},"type":"Feature","geometry":{"type":"Point","coordinates":[-89.129003,42.730842]}},{"properties":{"city":"Madison","zip":"53717","city, state zip":"Madison, WI 53717","date":{"end_time":"2010/10/15 00:00:00 -0400","original":"10/14/10","granularity":"day","time":"2010/10/14 00:00:00 -0400"},"geo_score":1.0,"contributed to":"Barca, Peter","employer":"Physicians Plus","contributor name":"Mohoney, Mike","amount":100.0,"id":"a639l4btje6s","geo_precision":"zip","interest category":"Health Services/Institutions","state":"WI"},"type":"Feature","geometry":{"type":"Point","coordinates":[-89.656734,43.015966]}},{"properties":{"city":"Hayward","zip":"54843","city, state zip":"Hayward, WI 54843","date":{"end_time":"2010/10/17 00:00:00 -0400","original":"10/16/10","granularity":"day","time":"2010/10/16 00:00:00 -0400"},"geo_score":0.857,"contributed to":"Barca, Peter","employer":"Optometrist","contributor name":"Erickson, Leif","amount":200.0,"id":"a639l40iimhq","geo_precision":"zip","interest category":"Health Professionals","state":"WI"},"type":"Feature","geometry":{"type":"Point","coordinates":[-91.361292,46.121063]}},{"properties":{"city":"New London","zip":"54961","city, state zip":"New London, WI 54961","date":{"end_time":"2010/10/19 00:00:00 -0400","original":"10/18/10","granularity":"day","time":"2010/10/18 00:00:00 -0400"},"geo_score":0.857,"contributed to":"Barca, Peter","employer":"Griebenow Eyecare","contributor name":"Griebenow, Kerry","amount":200.0,"id":"a639l44yrrmw","geo_precision":"zip","interest category":"Health Professionals","state":"WI"},"type":"Feature","geometry":{"type":"Point","coordinates":[-88.735932,44.481647]}},{"properties":{"city":"Pleasant Prairie","zip":"53158","city, state zip":"Pleasant Prairie, WI 53158","date":{"end_time":"2010/10/19 00:00:00 -0400","original":"10/18/10","granularity":"day","time":"2010/10/18 00:00:00 -0400"},"geo_score":1.0,"contributed to":"Barca, Peter","employer":"Parrish Homes","contributor name":"Parrish, John","amount":100.0,"id":"a639l45pm5sc","geo_precision":"zip","interest category":"Real Estate","state":"WI"},"type":"Feature","geometry":{"type":"Point","coordinates":[-87.885546,42.52926]}},{"properties":{"city":"Platteville","zip":"53818","city, state zip":"Platteville, WI 53818","date":{"end_time":"2010/10/19 00:00:00 -0400","original":"10/18/10","granularity":"day","time":"2010/10/18 00:00:00 -0400"},"geo_score":0.87,"contributed to":"Barca, Peter","employer":"Tashner Vision Clinic","contributor name":"Tashner, Michael","amount":200.0,"id":"a639l43nf4p0","geo_precision":"zip","interest category":"Health Professionals","state":"WI"},"type":"Feature","geometry":{"type":"Point","coordinates":[-90.526239,42.830269]}},{"properties":{"city":"Milwaukee","zip":"53202","city, state zip":"Milwaukee, WI 53202","date":{"end_time":"2010/10/22 00:00:00 -0400","original":"10/21/10","granularity":"day","time":"2010/10/21 00:00:00 -0400"},"geo_score":1.0,"contributed to":"Barca, Peter","employer":"M&amp;I Bank","contributor name":"Erickson, Randy","amount":250.0,"id":"a639l466854y","geo_precision":"zip","interest category":"Banking &amp; Finance","state":"WI"},"type":"Feature","geometry":{"type":"Point","coordinates":[-87.894734,43.043213]}},{"properties":{"city":"Milwaukee","zip":"53202","city, state zip":"Milwaukee, WI 53202","date":{"end_time":"2010/10/22 00:00:00 -0400","original":"10/21/10","granularity":"day","time":"2010/10/21 00:00:00 -0400"},"geo_score":1.0,"contributed to":"Barca, Peter","employer":"M&amp;I Bank","contributor name":"Furlong, Mark","amount":250.0,"id":"a639l436a2gj","geo_precision":"zip","interest category":"Banking &amp; Finance","state":"WI"},"type":"Feature","geometry":{"type":"Point","coordinates":[-87.894734,43.043213]}},{"properties":{"city":"Madison","zip":"53704","city, state zip":"Madison, WI 53704","date":{"end_time":"2010/12/13 00:00:00 -0500","original":"12/12/10","granularity":"day","time":"2010/12/12 00:00:00 -0500"},"geo_score":0.886,"contributed to":"Barca, Peter","employer":"Wisconsin Manufacturers &amp;...","contributor name":"Haney, James","amount":200.0,"id":"a639l4096h54","geo_precision":"zip","interest category":"Business","state":"WI"},"type":"Feature","geometry":{"type":"Point","coordinates":[-89.379563,43.118328]}}],"is_temporal":true,"author":{"url":"http://www.wisdc.org/database.html","metadata":"","contact_name":"","contact_address":"","source":"Wisconsin Democracy Campaign","contact_phone":""},"source":"http://www.wisdc.org/database.html","pagination":{"sort":null,"start":0,"total":173,"limit":1000000},"state":"complete","tags":"2010,campaign finance,money,politics,redistricting,wisconsin","published":"2011-12-20T04:55:30Z","id":189469}