{"type":"FeatureCollection","data_type":"Dataset","url_type":null,"permissions":[{"permissions":{"download":true,"view":true},"group_id":"everyone"}],"classification":null,"title":"Mirror Location","count":34,"stream_id":19013,"contributor":{"url":"http://geocommons.com/users/10117","name":"mouly"},"data_attributes":null,"calculation_params":null,"icon_link":null,"link":"http://geocommons.com/overlays/19013.json","extent":[-122.36,32.1231,-74.006,48.3605],"geometry_types":["point"],"unique_name":null,"name":"Mirror Location","feature_count":34,"description":"","next_feature":null,"is_raster":false,"short_classification":"Y","stats":{"geo_score":{"max":0.857,"mean":0.64196875,"variance":0.063522160282258,"stdev":0.25203602973039,"min":0.0,"median":0.714}},"features":[{"properties":{"city":"Jakarta","name":"biznetnetworks","geo_score":0.0,"country":"Indonesia","id":"a6j0ykolt5yi","geo_precision":"unmatched","state":null},"type":"Feature","geometry":null},{"properties":{"city":"Seoul","name":"cdnetworks-kr-1","geo_score":0.381,"country":"Korea","id":"a6j0ykp07chx","geo_precision":"street","state":null},"type":"Feature","geometry":{"type":"Point","coordinates":[-81.290221,33.530718]}},{"properties":{"city":"Seoul","name":"cdnetworks-kr-2","geo_score":0.381,"country":"Korea","id":"a6j0ykeqqr07","geo_precision":"street","state":null},"type":"Feature","geometry":{"type":"Point","coordinates":[-81.290221,33.530718]}},{"properties":{"city":"San Jose","name":"cdnetworks-us-1","geo_score":0.857,"country":"USA","id":"a6j0ykqb6jx2","geo_precision":"city","state":"CA"},"type":"Feature","geometry":{"type":"Point","coordinates":[-121.705327,37.189396]}},{"properties":{"city":"San Jose","name":"cdnetworks-us-2","geo_score":0.857,"country":"USA","id":"a6j0yklhhqoj","geo_precision":"city","state":"CA"},"type":"Feature","geometry":{"type":"Point","coordinates":[-121.705327,37.189396]}},{"properties":{"city":"Berlin","name":"dfn","geo_score":0.714,"country":"Germany","id":"a6j0yknj5y2e","geo_precision":"city","state":null},"type":"Feature","geometry":{"type":"Point","coordinates":[-81.303713,33.673761]}},{"properties":{"city":"Phoenix","name":"easynews","geo_score":0.857,"country":"USA","id":"a6j0ykff8g4e","geo_precision":"city","state":"AZ"},"type":"Feature","geometry":{"type":"Point","coordinates":[-112.351835,33.703967]}},{"properties":{"city":"Torino","name":"fastbull","geo_score":0.483,"country":"Italy","id":"a6j0ykm91odv","geo_precision":"street","state":null},"type":"Feature","geometry":{"type":"Point","coordinates":[-84.636296,33.325731]}},{"properties":{"city":"Chennevi","name":"freefr","geo_score":0.0,"country":"France","id":"a6j0ykifz895","geo_precision":"unmatched","state":null},"type":"Feature","geometry":null},{"properties":{"city":"Rome","name":"garr","geo_score":0.714,"country":"Italy","id":"a6j0ykm9f931","geo_precision":"city","state":null},"type":"Feature","geometry":{"type":"Point","coordinates":[-92.773503,36.841446]}},{"properties":{"city":"Dublin","name":"heanet","geo_score":0.714,"country":"Ireland","id":"a6j0ykstuhu3","geo_precision":"city","state":null},"type":"Feature","geometry":{"type":"Point","coordinates":[-98.289028,32.123145]}},{"properties":{"city":"New York","name":"hivelocity","geo_score":0.857,"country":"USA","id":"a6j0yken68t2","geo_precision":"city","state":"NY"},"type":"Feature","geometry":{"type":"Point","coordinates":[-74.005973,40.714269]}},{"properties":{"city":"Prague","name":"ignum","geo_score":0.714,"country":"Czech Republic","id":"a6j0ykhr512r","geo_precision":"city","state":null},"type":"Feature","geometry":{"type":"Point","coordinates":[-96.777761,35.58473]}},{"properties":{"city":"San Jose","name":"internap","geo_score":0.857,"country":"USA","id":"a6j0ykn4w1up","geo_precision":"city","state":"CA"},"type":"Feature","geometry":{"type":"Point","coordinates":[-121.705327,37.189396]}},{"properties":{"city":"Adelaide","name":"internode","geo_score":0.714,"country":"Australia","id":"a6j0yknhrv5e","geo_precision":"city","state":null},"type":"Feature","geometry":{"type":"Point","coordinates":[-122.360401,47.330933]}},{"properties":{"city":"Montreal","name":"iweb","geo_score":0.714,"country":"QC","id":"a6j0yklwswb7","geo_precision":"city","state":null},"type":"Feature","geometry":{"type":"Point","coordinates":[-84.236588,33.824271]}},{"properties":{"city":null,"name":"jaist","country":"Japan","id":"a6j0yklm4xqw","state":null},"type":"Feature","geometry":null},{"properties":{"city":"Kent","name":"kent","geo_score":0.714,"country":"United Kingdom","id":"a6j0yknavycm","geo_precision":"city","state":null},"type":"Feature","geometry":{"type":"Point","coordinates":[-89.891281,42.282256]}},{"properties":{"city":"Steele","name":"mesh","geo_score":0.714,"country":"Germany","id":"a6j0ykho181i","geo_precision":"city","state":null},"type":"Feature","geometry":{"type":"Point","coordinates":[-89.860675,36.177001]}},{"properties":{"city":"Hsinchu","name":"nchc","geo_score":0.0,"country":"Taiwan","id":"a6j0ykf08fa0","geo_precision":"unmatched","state":null},"type":"Feature","geometry":null},{"properties":{"city":"Taoyuan","name":"ncu","geo_score":0.633,"country":"Taiwan","id":"a6j0yku4089t","geo_precision":"city","state":null},"type":"Feature","geometry":{"type":"Point","coordinates":[-98.536774,48.052779]}},{"properties":{"city":"Portugal","name":"nfsi","geo_score":0.351,"country":"Spain","id":"a6j0yknt5ndg","geo_precision":"street","state":null},"type":"Feature","geometry":{"type":"Point","coordinates":[-82.846871,41.509203]}},{"properties":{"city":"Paris","name":"ovh","geo_score":0.714,"country":"France","id":"a6j0ykrb1ji6","geo_precision":"city","state":null},"type":"Feature","geometry":{"type":"Point","coordinates":[-95.464896,33.612433]}},{"properties":{"city":"Bern","name":"puzzle","geo_score":0.714,"country":"Switzerland","id":"a6j0ykpojmer","geo_precision":"city","state":null},"type":"Feature","geometry":{"type":"Point","coordinates":[-111.373414,42.295466]}},{"properties":{"city":"Dallas","name":"softlayer","geo_score":0.857,"country":"USA","id":"a6j0ykr38e89","geo_precision":"city","state":"TX"},"type":"Feature","geometry":{"type":"Point","coordinates":[-96.790329,32.781179]}},{"properties":{"city":"Uppsala","name":"sunet","geo_score":0.694,"country":"Sweden","id":"a6j0ykr8yec7","geo_precision":"city","state":null},"type":"Feature","geometry":{"type":"Point","coordinates":[-94.565187,45.804875]}},{"properties":{"city":"McLean","name":"superb-east","geo_score":0.857,"country":"USA","id":"a6j0ykgu88zh","geo_precision":"city","state":"Virginia"},"type":"Feature","geometry":{"type":"Point","coordinates":[-77.18672,38.935202]}},{"properties":{"city":"Seattle","name":"superb-west","geo_score":0.857,"country":"USA","id":"a6j0ykigj84m","geo_precision":"city","state":"Washington"},"type":"Feature","geometry":{"type":"Point","coordinates":[-121.803388,47.432251]}},{"properties":{"city":"Amsterdam","name":"surfnet","geo_score":0.714,"country":"The Netherlands","id":"a6j0ykt8obqc","geo_precision":"city","state":null},"type":"Feature","geometry":{"type":"Point","coordinates":[-82.378207,39.957565]}},{"properties":{"city":"Zurich","name":"switch","geo_score":0.714,"country":"Switzerland","id":"a6j0yknuu9ej","geo_precision":"city","state":null},"type":"Feature","geometry":{"type":"Point","coordinates":[-108.89392,48.360516]}},{"properties":{"city":"Canberra","name":"transact","geo_score":0.625,"country":"Australia","id":"a6j0ykpx3b9n","geo_precision":"city","state":null},"type":"Feature","geometry":{"type":"Point","coordinates":[-95.487227,43.825795]}},{"properties":{"city":null,"name":"ufpr","country":"Brazil","id":"a6j0ykj2qm0p","state":null},"type":"Feature","geometry":null},{"properties":{"city":"New York","name":"voxel","geo_score":0.857,"country":"USA","id":"a6j0ykedixd2","geo_precision":"city","state":"NY"},"type":"Feature","geometry":{"type":"Point","coordinates":[-74.005973,40.714269]}},{"properties":{"city":"Perth","name":"waix","geo_score":0.714,"country":"Australia","id":"a6j0ykjsr9ho","geo_precision":"city","state":null},"type":"Feature","geometry":{"type":"Point","coordinates":[-78.995015,37.016529]}}],"is_temporal":false,"author":{"url":"","metadata":"","contact_name":"","contact_address":"","source":"","contact_phone":""},"source":"","pagination":{"sort":null,"start":0,"total":34,"limit":1000000},"state":"complete","tags":"","published":"2014-08-11T00:46:33-04:00","id":19013}