{"type":"FeatureCollection","data_type":"Dataset","url_type":null,"permissions":[{"permissions":{"download":true,"view":true},"group_id":"everyone"}],"classification":null,"title":"DC Public Libraries","count":27,"stream_id":19021,"contributor":{"url":"http://geocommons.com/users/139","name":"Burkey"},"data_attributes":null,"calculation_params":null,"icon_link":null,"link":"http://geocommons.com/overlays/19021.json","extent":[-77.0968,38.8317,-76.9296,38.9799],"geometry_types":["point"],"unique_name":null,"name":"DC Public Libraries","feature_count":27,"description":"","next_feature":null,"is_raster":false,"short_classification":"Y","stats":{"lon":{"max":-76.929625,"mean":-77.0105900740741,"variance":0.00187050456353281,"stdev":0.0432493302090658,"min":-77.096844,"median":-77.013502},"phone":{"max":2027271111.0,"mean":2025935256.77778,"variance":2684278161204.56,"stdev":1638376.68477202,"min":2022820021.0,"median":2026710200.0},"lat":{"max":38.979899,"mean":38.9096061851852,"variance":0.00135106787177209,"stdev":0.0367568751633227,"min":38.831708,"median":38.903914}},"features":[{"properties":{"city":"Washington","lon":-76.979443,"zip":"20020","librarysystem":"District Of Columbia Public Library","phone":2026981190.0,"id":"a68gk8n4kqzy","address":"1800 Good Hope Road, SE","lat":38.865799,"libraryname":"Anacostia Neighborhood Library","state":"DC"},"type":"Feature","geometry":{"type":"Point","coordinates":[-76.979443,38.865799]}},{"properties":{"city":"Washington","lon":-76.948198,"zip":"20019","librarysystem":"District Of Columbia Public Library","phone":2027244787.0,"id":"a68gk8eg5u18","address":"3935 Benning Road, NE","lat":38.894539,"libraryname":"Benning Branch Library","state":"DC"},"type":"Feature","geometry":{"type":"Point","coordinates":[-76.948198,38.894539]}},{"properties":{"city":"Washington","lon":-76.929625,"zip":"20019","librarysystem":"District Of Columbia Public Library","phone":2026450755.0,"id":"a68gk8ecjtnn","address":"5001 Central Avenue, SE","lat":38.88913,"libraryname":"Capitol View Branch Library","state":"DC"},"type":"Feature","geometry":{"type":"Point","coordinates":[-76.929625,38.88913]}},{"properties":{"city":"Washington","lon":-77.076048,"zip":"20015","librarysystem":"District Of Columbia Public Library","phone":2022820021.0,"id":"a68gk8hopqjy","address":"5625 Connecticut Avenue, NW","lat":38.965914,"libraryname":"Chevy Chase Branch Library","state":"DC"},"type":"Feature","geometry":{"type":"Point","coordinates":[-77.076048,38.965914]}},{"properties":{"city":"Washington","lon":-77.057485,"zip":"20008","librarysystem":"District Of Columbia Public Library","phone":2022823080.0,"id":"a68gk8jrwwxq","address":"3310 Connecticut Avenue, NW","lat":38.933559,"libraryname":"Cleveland Park Branch Library","state":"DC"},"type":"Feature","geometry":{"type":"Point","coordinates":[-77.057485,38.933559]}},{"properties":{"city":"Washington","lon":-76.943486,"zip":"20019","librarysystem":"District Of Columbia Public Library","phone":2027248526.0,"id":"a68gk8oxachr","address":"4215 Nannie Helen Burroughs Avenue, NE","lat":38.902125,"libraryname":"Deanwood Kiosk","state":"DC"},"type":"Feature","geometry":{"type":"Point","coordinates":[-76.943486,38.902125]}},{"properties":{"city":"Washington","lon":-76.954383,"zip":"20020","librarysystem":"District Of Columbia Public Library","phone":2026454297.0,"id":"a68gk8tcvif4","address":"3660 Alabama Avenue, SE","lat":38.864601,"libraryname":"Francis A. Gregory Branch Library","state":"DC"},"type":"Feature","geometry":{"type":"Point","coordinates":[-76.954383,38.864601]}},{"properties":{"city":"Washington","lon":-77.065666,"zip":"20007","librarysystem":"District Of Columbia Public Library","phone":2022820220.0,"id":"a68gk8iuyuxe","address":"3260 R Street, NW","lat":38.913507,"libraryname":"Georgetown Branch Library","state":"DC"},"type":"Feature","geometry":{"type":"Point","coordinates":[-77.065666,38.913507]}},{"properties":{"city":"Washington","lon":-77.02663,"zip":"20012","librarysystem":"District Of Columbia Public Library","phone":2025416100.0,"id":"a68gk8r3r6xe","address":"7420 Georgia Avenue, NW","lat":38.979899,"libraryname":"Juanita E. Thornton/Shepherd Park Branch Library","state":"DC"},"type":"Feature","geometry":{"type":"Point","coordinates":[-77.02663,38.979899]}},{"properties":{"city":"Washington","lon":-76.999535,"zip":"20011","librarysystem":"District Of Columbia Public Library","phone":2025416255.0,"id":"a68gk8i7xh6x","address":"5401 South Dakota Avenue, NE","lat":38.954831,"libraryname":"Lamond-Riggs Branch Library","state":"DC"},"type":"Feature","geometry":{"type":"Point","coordinates":[-76.999535,38.954831]}},{"properties":{"city":"Washington","lon":-76.970289,"zip":"20002","librarysystem":"District Of Columbia Public Library","phone":2027248665.0,"id":"a68gk8gsel0f","address":"2600 Benning Road, NE","lat":38.897934,"libraryname":"Langston Community Library","state":"DC"},"type":"Feature","geometry":{"type":"Point","coordinates":[-76.970289,38.897934]}},{"properties":{"city":"Washington","lon":-77.024164,"zip":"20001","librarysystem":"District Of Columbia Public Library","phone":2027271111.0,"id":"a68gk8jpcuzv","address":"901 G Street, NW","lat":38.898499,"libraryname":"Martin Luther King Jr. Memorial Library - Central Library","state":"DC"},"type":"Feature","geometry":{"type":"Point","coordinates":[-77.024164,38.898499]}},{"properties":{"city":"Washington","lon":-77.036618,"zip":"20010","librarysystem":"District Of Columbia Public Library","phone":2026710200.0,"id":"a68gk8gk3o4i","address":"3160 16th Street, NW","lat":38.929789,"libraryname":"Mount Pleasant Branch Library","state":"DC"},"type":"Feature","geometry":{"type":"Point","coordinates":[-77.036618,38.929789]}},{"properties":{"city":"Washington","lon":-76.996315,"zip":"20002","librarysystem":"District Of Columbia Public Library","phone":2026983320.0,"id":"a68gk8i0c46q","address":"330 7th Street, NE","lat":38.893997,"libraryname":"Northeast Branch Library","state":"DC"},"type":"Feature","geometry":{"type":"Point","coordinates":[-76.996315,38.893997]}},{"properties":{"city":"Washington","lon":-77.096844,"zip":"20007","librarysystem":"District Of Columbia Public Library","phone":2022823139.0,"id":"a68gk8mmuly7","address":"4901 V Street, NW","lat":38.918162,"libraryname":"Palisades Branch Library","state":"DC"},"type":"Feature","geometry":{"type":"Point","coordinates":[-77.096844,38.918162]}},{"properties":{"city":"Washington","lon":-76.980239,"zip":"20020","librarysystem":"District Of Columbia Public Library","phone":2026981103.0,"id":"a68gk8thvens","address":"1700 Alabama Avenue, SE","lat":38.847043,"libraryname":"Parklands-Turner Community Library","state":"DC"},"type":"Feature","geometry":{"type":"Point","coordinates":[-76.980239,38.847043]}},{"properties":{"city":"Washington","lon":-77.025952,"zip":"20011","librarysystem":"District Of Columbia Public Library","phone":2025416300.0,"id":"a68gk8ltshrw","address":"4200 Kansas Avenue, NW","lat":38.942013,"libraryname":"Petworth Branch Library","state":"DC"},"type":"Feature","geometry":{"type":"Point","coordinates":[-77.025952,38.942013]}},{"properties":{"city":"Washington","lon":-76.988006,"zip":"20002","librarysystem":"District Of Columbia Public Library","phone":2027248599.0,"id":"a68gk8eo5jl3","address":"1300 H Street, NE","lat":38.900353,"libraryname":"R. L. Christian Community Library","state":"DC"},"type":"Feature","geometry":{"type":"Point","coordinates":[-76.988006,38.900353]}},{"properties":{"city":"Washington","lon":-76.996332,"zip":"20003","librarysystem":"District Of Columbia Public Library","phone":2026983374.0,"id":"a68gk8grkng1","address":"403 7th Street, SE","lat":38.884108,"libraryname":"Southeast Branch Library","state":"DC"},"type":"Feature","geometry":{"type":"Point","coordinates":[-76.996332,38.884108]}},{"properties":{"city":"Washington","lon":-77.016099,"zip":"20024","librarysystem":"District Of Columbia Public Library","phone":2027244752.0,"id":"a68gk8kpkp0r","address":"900 Wesley Place, SW","lat":38.879184,"libraryname":"Southwest Branch Library","state":"DC"},"type":"Feature","geometry":{"type":"Point","coordinates":[-77.016099,38.879184]}},{"properties":{"city":"Washington","lon":-77.013502,"zip":"20001","librarysystem":"District Of Columbia Public Library","phone":2027244772.0,"id":"a68gk8ipgyoe","address":"135 New York Avenue, NW","lat":38.905831,"libraryname":"Sursum Corda Community Library","state":"DC"},"type":"Feature","geometry":{"type":"Point","coordinates":[-77.013502,38.905831]}},{"properties":{"city":"Washington","lon":-77.018591,"zip":"20012","librarysystem":"District Of Columbia Public Library","phone":2025767252.0,"id":"a68gk8lqsgqw","address":"416 Cedar Street, NW","lat":38.97464,"libraryname":"Takoma Park Branch Library","state":"DC"},"type":"Feature","geometry":{"type":"Point","coordinates":[-77.018591,38.97464]}},{"properties":{"city":"Washington","lon":-77.07958,"zip":"20016","librarysystem":"District Of Columbia Public Library","phone":2022823090.0,"id":"a68gk8gn3po2","address":"4450 Wisconsin Avenue, NW","lat":38.94741,"libraryname":"Tenley-Friendship Branch Library","state":"DC"},"type":"Feature","geometry":{"type":"Point","coordinates":[-77.07958,38.94741]}},{"properties":{"city":"Washington","lon":-77.009764,"zip":"20032","librarysystem":"District Of Columbia Public Library","phone":2026455880.0,"id":"a68gk8jo3038","address":"115 Atlantic Street, SW","lat":38.831708,"libraryname":"Washington Highlands Branch Library","state":"DC"},"type":"Feature","geometry":{"type":"Point","coordinates":[-77.009764,38.831708]}},{"properties":{"city":"Washington","lon":-77.022801,"zip":"20001","librarysystem":"District Of Columbia Public Library","phone":2026710212.0,"id":"a68gk8k9reib","address":"1701 8th Street, NW","lat":38.91277,"libraryname":"Watha T. Daniel/Shaw Branch Library","state":"DC"},"type":"Feature","geometry":{"type":"Point","coordinates":[-77.022801,38.91277]}},{"properties":{"city":"Washington","lon":-77.051237,"zip":"20037","librarysystem":"District Of Columbia Public Library","phone":2027248707.0,"id":"a68gk8rjkw0s","address":"1101 24th Street, NW","lat":38.903914,"libraryname":"West End Branch Library","state":"DC"},"type":"Feature","geometry":{"type":"Point","coordinates":[-77.051237,38.903914]}},{"properties":{"city":"Washington","lon":-76.9791,"zip":"20018","librarysystem":"District Of Columbia Public Library","phone":2025416226.0,"id":"a68gk8lmh508","address":"1801 Hamlin Street, NE","lat":38.928108,"libraryname":"Woodridge Regional Branch Library","state":"DC"},"type":"Feature","geometry":{"type":"Point","coordinates":[-76.9791,38.928108]}}],"is_temporal":false,"author":{"url":"","metadata":"","contact_name":"","contact_address":"","source":"","contact_phone":""},"source":"","pagination":{"sort":null,"start":0,"total":27,"limit":1000000},"state":"complete","tags":"","published":"2014-08-11T00:46:37-04:00","id":19021}