{"type":"FeatureCollection","data_type":"Dataset","url_type":null,"permissions":[{"permissions":{"download":true,"view":true},"group_id":"everyone"}],"classification":null,"title":"Proportion of Hispanic Children US","count":51,"stream_id":19042,"contributor":{"url":"http://geocommons.com/users/10128","name":"dwarrenku"},"data_attributes":null,"calculation_params":null,"icon_link":null,"link":"http://geocommons.com/overlays/19042.json","extent":[-157.517,20.5755,-69.0284,61.4946],"geometry_types":["point"],"unique_name":null,"name":"Proportion of Hispanic Children US","feature_count":51,"description":"","next_feature":null,"is_raster":false,"short_classification":"Y","stats":{"proportion hispanic":{"max":54.0,"mean":13.3333333333333,"variance":152.386666666667,"stdev":12.3444994498224,"min":2.0,"median":10.0},"latitude":{"max":61.49463401,"mean":39.5229986709804,"variance":38.3922918638312,"stdev":6.19615137515468,"min":20.57545311,"median":39.49702344},"hispanic or latino":{"max":4587533.0,"mean":302342.529411765,"variance":581202132172.214,"stdev":762366.140494326,"min":2416.0,"median":92752.0},"total less than 18":{"max":9383924.0,"mean":1449053.58823529,"variance":2858500898463.85,"stdev":1690710.17577344,"min":113720.0,"median":1003973.0},"longitude":{"max":-69.02839014,"mean":-93.6093900221569,"variance":371.685916205865,"stdev":19.2791575595477,"min":-157.5167511,"median":-89.86707555}},"features":[{"properties":{"proportion hispanic":4.0,"latitude":40.19369154,"hispanic or latino":101127.0,"region":"E N Cen","total less than 18":2751874.0,"longitude":-82.66603338,"id":"a65yjucnztt8","state":"Ohio"},"type":"Feature","geometry":{"type":"Point","coordinates":[-82.66603338,40.19369154]}},{"properties":{"proportion hispanic":6.0,"latitude":44.93564502,"hispanic or latino":144717.0,"region":"E N Cen","total less than 18":2446856.0,"longitude":-86.41401786,"id":"a65yjuhmmqpp","state":"Michigan"},"type":"Feature","geometry":{"type":"Point","coordinates":[-86.41401786,44.93564502]}},{"properties":{"proportion hispanic":7.0,"latitude":39.77088229,"hispanic or latino":116663.0,"region":"E N Cen","total less than 18":1586518.0,"longitude":-86.44446803,"id":"a65yjub9kxz7","state":"Indiana"},"type":"Feature","geometry":{"type":"Point","coordinates":[-86.44446803,39.77088229]}},{"properties":{"proportion hispanic":8.0,"latitude":44.72081619,"hispanic or latino":102221.0,"region":"E N Cen","total less than 18":1321279.0,"longitude":-89.92655482,"id":"a65yju86xdcp","state":"Wisconsin"},"type":"Feature","geometry":{"type":"Point","coordinates":[-89.92655482,44.72081619]}},{"properties":{"proportion hispanic":21.0,"latitude":39.74809298,"hispanic or latino":668999.0,"region":"E N Cen","total less than 18":3199159.0,"longitude":-89.51209675,"id":"a65yju4kkyrh","state":"Illinois"},"type":"Feature","geometry":{"type":"Point","coordinates":[-89.51209675,39.74809298]}},{"properties":{"proportion hispanic":3.0,"latitude":37.81931706,"hispanic or latino":33466.0,"region":"E S Cen","total less than 18":1003973.0,"longitude":-85.76390324,"id":"a65yjuh385cb","state":"Kentucky"},"type":"Feature","geometry":{"type":"Point","coordinates":[-85.76390324,37.81931706]}},{"properties":{"proportion hispanic":5.0,"latitude":35.83422151,"hispanic or latino":80150.0,"region":"E S Cen","total less than 18":1471486.0,"longitude":-85.97886026,"id":"a65yjub8in10","state":"Tennessee"},"type":"Feature","geometry":{"type":"Point","coordinates":[-85.97886026,35.83422151]}},{"properties":{"proportion hispanic":3.0,"latitude":32.59998842,"hispanic or latino":20671.0,"region":"E S Cen","total less than 18":768704.0,"longitude":-89.86707555,"id":"a65yjuecwp2f","state":"Mississippi"},"type":"Feature","geometry":{"type":"Point","coordinates":[-89.86707555,32.59998842]}},{"properties":{"proportion hispanic":4.0,"latitude":32.62481896,"hispanic or latino":47919.0,"region":"E S Cen","total less than 18":1123537.0,"longitude":-86.6834839,"id":"a65yjuilek7t","state":"Alabama"},"type":"Feature","geometry":{"type":"Point","coordinates":[-86.6834839,32.62481896]}},{"properties":{"proportion hispanic":20.0,"latitude":42.75607104,"hispanic or latino":903665.0,"region":"Mid Atl","total less than 18":4413414.0,"longitude":-75.81661084,"id":"a65yjuayq8oc","state":"New York"},"type":"Feature","geometry":{"type":"Point","coordinates":[-75.81661084,42.75607104]}},{"properties":{"proportion hispanic":20.0,"latitude":40.15362776,"hispanic or latino":405459.0,"region":"Mid Atl","total less than 18":2063789.0,"longitude":-74.73319127,"id":"a65yju3pf2gy","state":"New Jersey"},"type":"Feature","geometry":{"type":"Point","coordinates":[-74.73319127,40.15362776]}},{"properties":{"proportion hispanic":7.0,"latitude":40.99332035,"hispanic or latino":202231.0,"region":"Mid Atl","total less than 18":2786719.0,"longitude":-77.61305381,"id":"a65yju8agk7l","state":"Pennsylvania"},"type":"Feature","geometry":{"type":"Point","coordinates":[-77.61305381,40.99332035]}},{"properties":{"proportion hispanic":42.0,"latitude":34.16978002,"hispanic or latino":701723.0,"region":"Mtn","total less than 18":1669866.0,"longitude":-111.9336881,"id":"a65yjuel84hp","state":"Arizona"},"type":"Feature","geometry":{"type":"Point","coordinates":[-111.9336881,34.16978002]}},{"properties":{"proportion hispanic":15.0,"latitude":39.49702344,"hispanic or latino":121014.0,"region":"Mtn","total less than 18":816822.0,"longitude":-111.5452397,"id":"a65yju4bm5vq","state":"Utah"},"type":"Feature","geometry":{"type":"Point","coordinates":[-111.5452397,39.49702344]}},{"properties":{"proportion hispanic":28.0,"latitude":38.99618452,"hispanic or latino":337335.0,"region":"Mtn","total less than 18":1192679.0,"longitude":-105.5465344,"id":"a65yjujcb9j8","state":"Colorado"},"type":"Feature","geometry":{"type":"Point","coordinates":[-105.5465344,38.99618452]}},{"properties":{"proportion hispanic":11.0,"latitude":42.99854103,"hispanic or latino":13296.0,"region":"Mtn","total less than 18":125365.0,"longitude":-107.5525671,"id":"a65yjucnrip6","state":"Wyoming"},"type":"Feature","geometry":{"type":"Point","coordinates":[-107.5525671,42.99854103]}},{"properties":{"proportion hispanic":15.0,"latitude":45.49727496,"hispanic or latino":59726.0,"region":"Mtn","total less than 18":407712.0,"longitude":-114.141846,"id":"a65yju3fsm54","state":"Idaho"},"type":"Feature","geometry":{"type":"Point","coordinates":[-114.141846,45.49727496]}},{"properties":{"proportion hispanic":54.0,"latitude":34.17160662,"hispanic or latino":268657.0,"region":"Mtn","total less than 18":500276.0,"longitude":-106.0243736,"id":"a65yju85irif","state":"New Mexico"},"type":"Feature","geometry":{"type":"Point","coordinates":[-106.0243736,34.17160662]}},{"properties":{"proportion hispanic":4.0,"latitude":46.67683322,"hispanic or latino":9705.0,"region":"Mtn","total less than 18":219498.0,"longitude":-110.0533018,"id":"a65yjuiot6fm","state":"Montana"},"type":"Feature","geometry":{"type":"Point","coordinates":[-110.0533018,46.67683322]}},{"properties":{"proportion hispanic":36.0,"latitude":38.49777576,"hispanic or latino":240563.0,"region":"Mtn","total less than 18":660002.0,"longitude":-117.0168584,"id":"a65yju4nsyaw","state":"Nevada"},"type":"Feature","geometry":{"type":"Point","coordinates":[-117.0168584,38.49777576]}},{"properties":{"proportion hispanic":18.0,"latitude":41.66824148,"hispanic or latino":42318.0,"region":"N Eng","total less than 18":233115.0,"longitude":-71.49190558,"id":"a65yjugrr3jd","state":"Rhode Island"},"type":"Feature","geometry":{"type":"Point","coordinates":[-71.49190558,41.66824148]}},{"properties":{"proportion hispanic":16.0,"latitude":41.52291025,"hispanic or latino":133204.0,"region":"N Eng","total less than 18":820216.0,"longitude":-72.75674326,"id":"a65yjuc3vzzc","state":"Connecticut"},"type":"Feature","geometry":{"type":"Point","coordinates":[-72.75674326,41.52291025]}},{"properties":{"proportion hispanic":12.0,"latitude":42.06257858,"hispanic or latino":173458.0,"region":"N Eng","total less than 18":1432856.0,"longitude":-71.7083099,"id":"a65yjuaxi723","state":"Massachusetts"},"type":"Feature","geometry":{"type":"Point","coordinates":[-71.7083099,42.06257858]}},{"properties":{"proportion hispanic":2.0,"latitude":45.27219253,"hispanic or latino":5353.0,"region":"N Eng","total less than 18":279467.0,"longitude":-69.02839014,"id":"a65yjue4504d","state":"Maine"},"type":"Feature","geometry":{"type":"Point","coordinates":[-69.02839014,45.27219253]}},{"properties":{"proportion hispanic":4.0,"latitude":44.00003633,"hispanic or latino":11529.0,"region":"N Eng","total less than 18":298186.0,"longitude":-71.64378366,"id":"a65yjuiaqwtq","state":"New Hampshire"},"type":"Feature","geometry":{"type":"Point","coordinates":[-71.64378366,44.00003633]}},{"properties":{"proportion hispanic":2.0,"latitude":43.86960212,"hispanic or latino":2416.0,"region":"N Eng","total less than 18":131353.0,"longitude":-72.47068651,"id":"a65yjujmi9mv","state":"Vermont"},"type":"Feature","geometry":{"type":"Point","coordinates":[-72.47068651,43.86960212]}},{"properties":{"proportion hispanic":13.0,"latitude":20.57545311,"hispanic or latino":37490.0,"region":"Pacific","total less than 18":285694.0,"longitude":-157.5167511,"id":"a65yjufhxqku","state":"Hawaii"},"type":"Feature","geometry":{"type":"Point","coordinates":[-157.5167511,20.57545311]}},{"properties":{"proportion hispanic":8.0,"latitude":61.49463401,"hispanic or latino":14834.0,"region":"Pacific","total less than 18":182218.0,"longitude":-154.1049169,"id":"a65yjuchlhdt","state":"Alaska"},"type":"Feature","geometry":{"type":"Point","coordinates":[-154.1049169,61.49463401]}},{"properties":{"proportion hispanic":15.0,"latitude":47.27151208,"hispanic or latino":237859.0,"region":"Pacific","total less than 18":1536368.0,"longitude":-120.8259511,"id":"a65yjubvui1c","state":"Washington"},"type":"Feature","geometry":{"type":"Point","coordinates":[-120.8259511,47.27151208]}},{"properties":{"proportion hispanic":49.0,"latitude":37.26898656,"hispanic or latino":4587533.0,"region":"Pacific","total less than 18":9383924.0,"longitude":-119.2589342,"id":"a65yjuijwchw","state":"California"},"type":"Feature","geometry":{"type":"Point","coordinates":[-119.2589342,37.26898656]}},{"properties":{"proportion hispanic":18.0,"latitude":44.11188188,"hispanic or latino":152214.0,"region":"Pacific","total less than 18":862908.0,"longitude":-120.5150179,"id":"a65yjufr0gfy","state":"Oregon"},"type":"Feature","geometry":{"type":"Point","coordinates":[-120.5150179,44.11188188]}},{"properties":{"proportion hispanic":10.0,"latitude":39.1448606,"hispanic or latino":21418.0,"region":"S Atl","total less than 18":205646.0,"longitude":-75.41835879,"id":"a65yju5ayyfu","state":"Delaware"},"type":"Feature","geometry":{"type":"Point","coordinates":[-75.41835879,39.1448606]}},{"properties":{"proportion hispanic":9.0,"latitude":38.84785799,"hispanic or latino":115560.0,"region":"S Atl","total less than 18":1358797.0,"longitude":-77.2677439,"id":"a65yjub2jhg7","state":"Maryland"},"type":"Feature","geometry":{"type":"Point","coordinates":[-77.2677439,38.84785799]}},{"properties":{"proportion hispanic":24.0,"latitude":27.97976682,"hispanic or latino":987247.0,"region":"S Atl","total less than 18":4043560.0,"longitude":-83.83831119,"id":"a65yju4i7dlm","state":"Florida"},"type":"Feature","geometry":{"type":"Point","coordinates":[-83.83831119,27.97976682]}},{"properties":{"proportion hispanic":9.0,"latitude":37.99931082,"hispanic or latino":165220.0,"region":"S Atl","total less than 18":1826179.0,"longitude":-79.45869803,"id":"a65yju5wfcb3","state":"Virginia"},"type":"Feature","geometry":{"type":"Point","coordinates":[-79.45869803,37.99931082]}},{"properties":{"proportion hispanic":6.0,"latitude":33.63826517,"hispanic or latino":60350.0,"region":"S Atl","total less than 18":1059917.0,"longitude":-80.96506932,"id":"a65yju5v02sj","state":"South Carolina"},"type":"Feature","geometry":{"type":"Point","coordinates":[-80.96506932,33.63826517]}},{"properties":{"proportion hispanic":11.0,"latitude":32.68082927,"hispanic or latino":273527.0,"region":"S Atl","total less than 18":2531609.0,"longitude":-83.2518569,"id":"a65yjuauyv3q","state":"Georgia"},"type":"Feature","geometry":{"type":"Point","coordinates":[-83.2518569,32.68082927]}},{"properties":{"proportion hispanic":2.0,"latitude":38.9210566,"hispanic or latino":5963.0,"region":"S Atl","total less than 18":387381.0,"longitude":-80.18731287,"id":"a65yju4wzq9s","state":"West Virginia"},"type":"Feature","geometry":{"type":"Point","coordinates":[-80.18731287,38.9210566]}},{"properties":{"proportion hispanic":10.0,"latitude":38.89088755,"hispanic or latino":11196.0,"region":"S Atl","total less than 18":113720.0,"longitude":-77.0166165,"id":"a65yju53of1h","state":"District of Columbia"},"type":"Feature","geometry":{"type":"Point","coordinates":[-77.0166165,38.89088755]}},{"properties":{"proportion hispanic":11.0,"latitude":35.23596621,"hispanic or latino":241551.0,"region":"S Atl","total less than 18":2217680.0,"longitude":-79.89017696,"id":"a65yjui2y0vs","state":"North Carolina"},"type":"Feature","geometry":{"type":"Point","coordinates":[-79.89017696,35.23596621]}},{"properties":{"proportion hispanic":6.0,"latitude":46.43491612,"hispanic or latino":80077.0,"region":"W N Cen","total less than 18":1260282.0,"longitude":-93.38005479,"id":"a65yju48qh39","state":"Minnesota"},"type":"Feature","geometry":{"type":"Point","coordinates":[-93.38005479,46.43491612]}},{"properties":{"proportion hispanic":12.0,"latitude":41.49782869,"hispanic or latino":53767.0,"region":"W N Cen","total less than 18":446145.0,"longitude":-99.6824583,"id":"a65yjuenrye4","state":"Nebraska"},"type":"Feature","geometry":{"type":"Point","coordinates":[-99.6824583,41.49782869]}},{"properties":{"proportion hispanic":4.0,"latitude":44.21600327,"hispanic or latino":7501.0,"region":"W N Cen","total less than 18":196890.0,"longitude":-100.2502154,"id":"a65yju422yzv","state":"South Dakota"},"type":"Feature","geometry":{"type":"Point","coordinates":[-100.2502154,44.21600327]}},{"properties":{"proportion hispanic":3.0,"latitude":47.46542445,"hispanic or latino":4205.0,"region":"W N Cen","total less than 18":142809.0,"longitude":-100.307461,"id":"a65yjuay2tah","state":"North Dakota"},"type":"Feature","geometry":{"type":"Point","coordinates":[-100.307461,47.46542445]}},{"properties":{"proportion hispanic":7.0,"latitude":41.93670203,"hispanic or latino":47404.0,"region":"W N Cen","total less than 18":711403.0,"longitude":-93.39175297,"id":"a65yjuh0ooo4","state":"Iowa"},"type":"Feature","geometry":{"type":"Point","coordinates":[-93.39175297,41.93670203]}},{"properties":{"proportion hispanic":5.0,"latitude":38.2997204,"hispanic or latino":65815.0,"region":"W N Cen","total less than 18":1424830.0,"longitude":-92.43625673,"id":"a65yjuesz0fj","state":"Missouri"},"type":"Feature","geometry":{"type":"Point","coordinates":[-92.43625673,38.2997204]}},{"properties":{"proportion hispanic":13.0,"latitude":38.49593181,"hispanic or latino":92752.0,"region":"W N Cen","total less than 18":696082.0,"longitude":-98.32637995,"id":"a65yju9kxelv","state":"Kansas"},"type":"Feature","geometry":{"type":"Point","coordinates":[-98.32637995,38.49593181]}},{"properties":{"proportion hispanic":4.0,"latitude":30.98153904,"hispanic or latino":38633.0,"region":"W S Cen","total less than 18":1079560.0,"longitude":-91.53179419,"id":"a65yjugq3j13","state":"Louisiana"},"type":"Feature","geometry":{"type":"Point","coordinates":[-91.53179419,30.98153904]}},{"properties":{"proportion hispanic":8.0,"latitude":34.75148134,"hispanic or latino":59396.0,"region":"W S Cen","total less than 18":700537.0,"longitude":-92.13136815,"id":"a65yju8iin33","state":"Arkansas"},"type":"Feature","geometry":{"type":"Point","coordinates":[-92.13136815,34.75148134]}},{"properties":{"proportion hispanic":11.0,"latitude":35.31130735,"hispanic or latino":99812.0,"region":"W S Cen","total less than 18":899507.0,"longitude":-98.71313073,"id":"a65yjucktmf4","state":"Oklahoma"},"type":"Feature","geometry":{"type":"Point","coordinates":[-98.71313073,35.31130735]}},{"properties":{"proportion hispanic":45.0,"latitude":31.16973507,"hispanic or latino":3010560.0,"region":"W S Cen","total less than 18":6623366.0,"longitude":-100.0787254,"id":"a65yjucmxklr","state":"Texas"},"type":"Feature","geometry":{"type":"Point","coordinates":[-100.0787254,31.16973507]}}],"is_temporal":false,"author":{"url":"","metadata":"","contact_name":"","contact_address":"","source":"","contact_phone":""},"source":"","pagination":{"sort":null,"start":0,"total":51,"limit":1000000},"state":"complete","tags":"children,hispanic","published":"2014-08-11T00:50:33-04:00","id":19042}