{"type":"FeatureCollection","data_type":"Dataset","url_type":null,"permissions":[{"permissions":{"download":true,"view":true},"group_id":"everyone"}],"classification":null,"title":"Feb09Crime","count":495,"stream_id":19071,"contributor":{"url":"http://geocommons.com/users/10136","name":"Thornbury"},"data_attributes":null,"calculation_params":null,"icon_link":null,"link":"http://geocommons.com/overlays/19071.json","extent":[-94.2134,36.1368,-94.0736,36.232],"geometry_types":["point"],"unique_name":null,"name":"Feb09Crime","feature_count":495,"description":"","next_feature":null,"is_raster":false,"short_classification":"Y","stats":{"Zip":{"max":72764.0,"variance":0.0,"mean":72764.0,"stdev":0.0,"min":72764.0,"median":72764.0},"Month":{"max":2.0,"variance":0.0,"mean":2.0,"stdev":0.0,"min":2.0,"median":2.0},"Longitude":{"max":-94.073599,"variance":0.00061916176362971,"mean":-94.1395352767677,"stdev":0.0248829613115021,"min":-94.213431,"median":-94.138836},"Latitude":{"max":36.232018,"variance":0.000275844751416441,"mean":36.1767159070707,"stdev":0.0166085746353033,"min":36.13685,"median":36.175441}},"features":[{"properties":{"Name":"NONACT","City":"Springdale","Zip":72764.0,"Precision":"address","Month":2.0,"Longitude":-94.15151,"Apt":null,"Latitude":36.13685,"State":"AR","Date":"2009/02/16","id":"a65sb5v661bk","Address":"127  SAN JOSE DR","Description":"CRIMINAL MISCHIEF 2ND-Tampers"},"type":"Feature","geometry":{"type":"Point","coordinates":[-94.15151,36.13685]}},{"properties":{"Name":"NONACT","City":"Springdale","Zip":72764.0,"Precision":"address","Month":2.0,"Longitude":-94.152545,"Apt":null,"Latitude":36.136938,"State":"AR","Date":"2009/02/16","id":"a65sb5qc4hvr","Address":"152  SAN JOSE DR","Description":"BREAKING/ENTERING-ARTICLES FROM VEH"},"type":"Feature","geometry":{"type":"Point","coordinates":[-94.152545,36.136938]}},{"properties":{"Name":"NONACT","City":"Springdale","Zip":72764.0,"Precision":"address","Month":2.0,"Longitude":-94.135749,"Apt":null,"Latitude":36.141746,"State":"AR","Date":"2009/02/07","id":"a65sb5ogmzbi","Address":"4887  CEDAR RIDGE DR","Description":"THEFT OF PROPERTY/From vehicle"},"type":"Feature","geometry":{"type":"Point","coordinates":[-94.135749,36.141746]}},{"properties":{"Name":"NONACT","City":"Springdale","Zip":72764.0,"Precision":"address","Month":2.0,"Longitude":-94.138446,"Apt":null,"Latitude":36.141902,"State":"AR","Date":"2009/02/05","id":"a65sb5we851f","Address":"303  EMERALD POINT DR","Description":"CRIMINAL MISCHIEF 1ST-Purposely"},"type":"Feature","geometry":{"type":"Point","coordinates":[-94.138446,36.141902]}},{"properties":{"Name":"NONACT","City":"Springdale","Zip":72764.0,"Precision":"address","Month":2.0,"Longitude":-94.155949,"Apt":"B","Latitude":36.142545,"State":"AR","Date":"2009/02/21","id":"a65sb5xyqs7x","Address":"1911  CYPRESS PL","Description":"BURGLARY-RESIDENTIAL"},"type":"Feature","geometry":{"type":"Point","coordinates":[-94.155949,36.142545]}},{"properties":{"Name":"ARREST","City":"Springdale","Zip":72764.0,"Precision":"address","Month":2.0,"Longitude":-94.156613,"Apt":"A","Latitude":36.142558,"State":"AR","Date":"2009/02/07","id":"a65sb5kzvk7i","Address":"2009  CYPRESS PL","Description":"BATTERY 3RD DEG DOMESTIC"},"type":"Feature","geometry":{"type":"Point","coordinates":[-94.156613,36.142558]}},{"properties":{"Name":"ARREST","City":"Springdale","Zip":72764.0,"Precision":"address","Month":2.0,"Longitude":-94.156618,"Apt":"A","Latitude":36.142828,"State":"AR","Date":"2009/02/15","id":"a65sb5q4dfwc","Address":"2010  CYPRESS PL","Description":"BATTERY 3RD DEG DOMESTIC"},"type":"Feature","geometry":{"type":"Point","coordinates":[-94.156618,36.142828]}},{"properties":{"Name":"NONACT","City":"Springdale","Zip":72764.0,"Precision":"address","Month":2.0,"Longitude":-94.130676,"Apt":null,"Latitude":36.143231,"State":"AR","Date":"2009/02/12","id":"a65sb5n8d7sr","Address":"208 E ANDREW AVE","Description":"BREAKING/ENTERING-ARTICLES FROM VEH"},"type":"Feature","geometry":{"type":"Point","coordinates":[-94.130676,36.143231]}},{"properties":{"Name":"ARREST","City":"Springdale","Zip":72764.0,"Precision":"address","Month":2.0,"Longitude":-94.156467,"Apt":"B","Latitude":36.143388,"State":"AR","Date":"2009/02/19","id":"a65sb5vlzsb4","Address":"2011  SYCAMORE PL","Description":"BATTERY 3RD DEG DOMESTIC"},"type":"Feature","geometry":{"type":"Point","coordinates":[-94.156467,36.143388]}},{"properties":{"Name":"REF WARRANT","City":"Springdale","Zip":72764.0,"Precision":"address","Month":2.0,"Longitude":-94.147399,"Apt":"D","Latitude":36.144506,"State":"AR","Date":"2009/02/06","id":"a65sb5rbs9y0","Address":"1601  JUNIPER CIR","Description":"INTERFERENCE WITH VISITATIONS"},"type":"Feature","geometry":{"type":"Point","coordinates":[-94.147399,36.144506]}},{"properties":{"Name":"NONACT","City":"Springdale","Zip":72764.0,"Precision":"address","Month":2.0,"Longitude":-94.143941,"Apt":null,"Latitude":36.144615,"State":"AR","Date":"2009/02/19","id":"a65sb5sctkzw","Address":"4409 S THOMPSON ST","Description":"BREAKING/ENTERING-ARTICLES FROM VEH"},"type":"Feature","geometry":{"type":"Point","coordinates":[-94.143941,36.144615]}},{"properties":{"Name":"NONACT","City":"Springdale","Zip":72764.0,"Precision":"address","Month":2.0,"Longitude":-94.095441,"Apt":null,"Latitude":36.144963,"State":"AR","Date":"2009/02/05","id":"a65sb5ojbyav","Address":"3253  BRUSHWOOD AVE","Description":"BREAKING/ENTERING-ARTICLES FROM VEH"},"type":"Feature","geometry":{"type":"Point","coordinates":[-94.095441,36.144963]}},{"properties":{"Name":"NONACT","City":"Springdale","Zip":72764.0,"Precision":"address","Month":2.0,"Longitude":-94.095567,"Apt":null,"Latitude":36.144971,"State":"AR","Date":"2009/02/05","id":"a65sb5r4uz1c","Address":"3231  BRUSHWOOD AVE","Description":"BREAKING/ENTERING-ARTICLES FROM VEH"},"type":"Feature","geometry":{"type":"Point","coordinates":[-94.095567,36.144971]}},{"properties":{"Name":"NONACT","City":"Springdale","Zip":72764.0,"Precision":"address","Month":2.0,"Longitude":-94.096073,"Apt":null,"Latitude":36.145004,"State":"AR","Date":"2009/02/05","id":"a65sb5qbypqt","Address":"3143  BRUSHWOOD AVE","Description":"BREAKING/ENTERING-ARTICLES FROM VEH"},"type":"Feature","geometry":{"type":"Point","coordinates":[-94.096073,36.145004]}},{"properties":{"Name":"NONACT","City":"Springdale","Zip":72764.0,"Precision":"address","Month":2.0,"Longitude":-94.15067,"Apt":"C19","Latitude":36.145736,"State":"AR","Date":"2009/02/07","id":"a65sb5qfb0zu","Address":"1901  SHADY GROVE RD","Description":"UNATTENDED DEATH"},"type":"Feature","geometry":{"type":"Point","coordinates":[-94.15067,36.145736]}},{"properties":{"Name":"ACTIVE","City":"Springdale","Zip":72764.0,"Precision":"address","Month":2.0,"Longitude":-94.15067,"Apt":"A3","Latitude":36.145736,"State":"AR","Date":"2009/02/01","id":"a65sb5w4w50l","Address":"1901  SHADY GROVE RD","Description":"HARASSING COMMUNICATIONS"},"type":"Feature","geometry":{"type":"Point","coordinates":[-94.15067,36.145736]}},{"properties":{"Name":"NONACT","City":"Springdale","Zip":72764.0,"Precision":"address","Month":2.0,"Longitude":-94.15067,"Apt":"G6","Latitude":36.145736,"State":"AR","Date":"2009/02/08","id":"a65sb5xeyo73","Address":"1901  SHADY GROVE RD","Description":"CRIMINAL MISCHIEF 2ND-Reck destroys"},"type":"Feature","geometry":{"type":"Point","coordinates":[-94.15067,36.145736]}},{"properties":{"Name":"REF WARRANT","City":"Springdale","Zip":72764.0,"Precision":"address","Month":2.0,"Longitude":-94.15067,"Apt":"H15","Latitude":36.145736,"State":"AR","Date":"2009/02/10","id":"a65sb5m82tby","Address":"1901  SHADY GROVE RD","Description":"VIOLATION OF NO CONTACT ORDER"},"type":"Feature","geometry":{"type":"Point","coordinates":[-94.15067,36.145736]}},{"properties":{"Name":"REF WARRANT","City":"Springdale","Zip":72764.0,"Precision":"address","Month":2.0,"Longitude":-94.160857,"Apt":null,"Latitude":36.146287,"State":"AR","Date":"2009/02/21","id":"a65sb5thf16a","Address":"2307  MAGNOLIA DR","Description":"HARASSING COMMUNICATIONS"},"type":"Feature","geometry":{"type":"Point","coordinates":[-94.160857,36.146287]}},{"properties":{"Name":"NONACT","City":"Springdale","Zip":72764.0,"Precision":"address","Month":2.0,"Longitude":-94.127044,"Apt":null,"Latitude":36.146751,"State":"AR","Date":"2009/02/23","id":"a65sb5jtmaed","Address":"4209  CHEROKEE CV","Description":"FRAUDULENT USE OF CREDIT CARD"},"type":"Feature","geometry":{"type":"Point","coordinates":[-94.127044,36.146751]}},{"properties":{"Name":"UNFOUNDED","City":"Springdale","Zip":72764.0,"Precision":"address","Month":2.0,"Longitude":-94.127125,"Apt":null,"Latitude":36.146804,"State":"AR","Date":"2009/02/19","id":"a65sb5jqx7c1","Address":"4201  CHEROKEE CV","Description":"OVER OCCUPANCY"},"type":"Feature","geometry":{"type":"Point","coordinates":[-94.127125,36.146804]}},{"properties":{"Name":"NONACT","City":"Springdale","Zip":72764.0,"Precision":"address","Month":2.0,"Longitude":-94.172705,"Apt":null,"Latitude":36.147128,"State":"AR","Date":"2009/02/12","id":"a65sb5nlpsgh","Address":"4311  GEORGIA ST","Description":"BREAKING/ENTERING-ARTICLES FROM VEH"},"type":"Feature","geometry":{"type":"Point","coordinates":[-94.172705,36.147128]}},{"properties":{"Name":"NONACT","City":"Springdale","Zip":72764.0,"Precision":"address","Month":2.0,"Longitude":-94.172376,"Apt":null,"Latitude":36.14889,"State":"AR","Date":"2009/02/12","id":"a65sb5st8g9h","Address":"4105  GEORGIA ST","Description":"BREAKING/ENTERING-ARTICLES FROM VEH"},"type":"Feature","geometry":{"type":"Point","coordinates":[-94.172376,36.14889]}},{"properties":{"Name":"REF WARRANT","City":"Springdale","Zip":72764.0,"Precision":"address","Month":2.0,"Longitude":-94.142074,"Apt":"APT54","Latitude":36.149373,"State":"AR","Date":"2009/02/26","id":"a65sb5nl4bzt","Address":"608  BLACK OAK AVE","Description":"CRIMINAL MISCHIEF 1ST-Purposely"},"type":"Feature","geometry":{"type":"Point","coordinates":[-94.142074,36.149373]}},{"properties":{"Name":"REF WARRANT","City":"Springdale","Zip":72764.0,"Precision":"address","Month":2.0,"Longitude":-94.142074,"Apt":"APT54","Latitude":36.149373,"State":"AR","Date":"2009/02/26","id":"a65sb5zmi02v","Address":"608  BLACK OAK AVE","Description":"ASSAULT 2ND DEG"},"type":"Feature","geometry":{"type":"Point","coordinates":[-94.142074,36.149373]}},{"properties":{"Name":"NONACT","City":"Springdale","Zip":72764.0,"Precision":"address","Month":2.0,"Longitude":-94.171135,"Apt":null,"Latitude":36.149472,"State":"AR","Date":"2009/02/24","id":"a65sb5y796gq","Address":"4061  SAVANNAH LN","Description":"SUICIDE"},"type":"Feature","geometry":{"type":"Point","coordinates":[-94.171135,36.149472]}},{"properties":{"Name":"NONACT","City":"Springdale","Zip":72764.0,"Precision":"address","Month":2.0,"Longitude":-94.172613,"Apt":null,"Latitude":36.149536,"State":"AR","Date":"2009/02/13","id":"a65sb5u3tkus","Address":"4026  GEORGIA ST","Description":"BREAKING/ENTERING-ARTICLES FROM VEH"},"type":"Feature","geometry":{"type":"Point","coordinates":[-94.172613,36.149536]}},{"properties":{"Name":"UNFOUNDED","City":"Springdale","Zip":72764.0,"Precision":"address","Month":2.0,"Longitude":-94.171069,"Apt":null,"Latitude":36.150595,"State":"AR","Date":"2009/02/18","id":"a65sb5u8siek","Address":"3863  SAVANNAH LN","Description":"THEFT OF PROPERTY/All other"},"type":"Feature","geometry":{"type":"Point","coordinates":[-94.171069,36.150595]}},{"properties":{"Name":"ARREST","City":"Springdale","Zip":72764.0,"Precision":"address","Month":2.0,"Longitude":-94.09501,"Apt":null,"Latitude":36.150714,"State":"AR","Date":"2009/02/24","id":"a65sb5uflw6r","Address":"3754  BUTTERFIELD COACH RD","Description":"POSSESSION DRUG PARAPHERNALIA"},"type":"Feature","geometry":{"type":"Point","coordinates":[-94.09501,36.150714]}},{"properties":{"Name":"EXCEPT","City":"Springdale","Zip":72764.0,"Precision":"address","Month":2.0,"Longitude":-94.144629,"Apt":null,"Latitude":36.150959,"State":"AR","Date":"2009/02/28","id":"a65sb5kleqg0","Address":"1343  MIDWAY AVE","Description":"RUNAWAY"},"type":"Feature","geometry":{"type":"Point","coordinates":[-94.144629,36.150959]}},{"properties":{"Name":"ARREST","City":"Springdale","Zip":72764.0,"Precision":"address","Month":2.0,"Longitude":-94.144629,"Apt":null,"Latitude":36.150959,"State":"AR","Date":"2009/02/28","id":"a65sb5sr5s7r","Address":"1343  MIDWAY AVE","Description":"POSS CONTROLLED SUBS/Marijuana"},"type":"Feature","geometry":{"type":"Point","coordinates":[-94.144629,36.150959]}},{"properties":{"Name":"ARREST","City":"Springdale","Zip":72764.0,"Precision":"address","Month":2.0,"Longitude":-94.098997,"Apt":null,"Latitude":36.150992,"State":"AR","Date":"2009/02/03","id":"a65sb5vj34d7","Address":"3698  SERENITY ST","Description":"ASSAULT 2ND DEG DOMESTIC"},"type":"Feature","geometry":{"type":"Point","coordinates":[-94.098997,36.150992]}},{"properties":{"Name":"ARREST","City":"Springdale","Zip":72764.0,"Precision":"address","Month":2.0,"Longitude":-94.144012,"Apt":null,"Latitude":36.15127,"State":"AR","Date":"2009/02/02","id":"a65sb5ny1l1m","Address":"3810 S THOMPSON ST","Description":"BATTERY 3RD DEG DOMESTIC"},"type":"Feature","geometry":{"type":"Point","coordinates":[-94.144012,36.15127]}},{"properties":{"Name":"NONACT","City":"Springdale","Zip":72764.0,"Precision":"address","Month":2.0,"Longitude":-94.127617,"Apt":null,"Latitude":36.152989,"State":"AR","Date":"2009/02/05","id":"a65sb5msmv52","Address":"529  GASCONY AVE","Description":"BREAKING/ENTERING-ARTICLES FROM VEH"},"type":"Feature","geometry":{"type":"Point","coordinates":[-94.127617,36.152989]}},{"properties":{"Name":"NONACT","City":"Springdale","Zip":72764.0,"Precision":"address","Month":2.0,"Longitude":-94.143674,"Apt":"RM127","Latitude":36.153176,"State":"AR","Date":"2009/02/25","id":"a65sb5pqgzje","Address":"3601 S THOMPSON ST","Description":"ATTEMPTED SUICIDE"},"type":"Feature","geometry":{"type":"Point","coordinates":[-94.143674,36.153176]}},{"properties":{"Name":"EXCEPT","City":"Springdale","Zip":72764.0,"Precision":"address","Month":2.0,"Longitude":-94.143663,"Apt":null,"Latitude":36.153683,"State":"AR","Date":"2009/02/02","id":"a65sb5vk5udk","Address":"3535 S THOMPSON ST","Description":"THEFT OF PROPERTY/All other"},"type":"Feature","geometry":{"type":"Point","coordinates":[-94.143663,36.153683]}},{"properties":{"Name":"NONACT","City":"Springdale","Zip":72764.0,"Precision":"address","Month":2.0,"Longitude":-94.123355,"Apt":null,"Latitude":36.153845,"State":"AR","Date":"2009/02/13","id":"a65sb5vdbw73","Address":"3454  MULBERRY LN","Description":"BREAKING/ENTERING-ARTICLES FROM VEH"},"type":"Feature","geometry":{"type":"Point","coordinates":[-94.123355,36.153845]}},{"properties":{"Name":"NONACT","City":"Springdale","Zip":72764.0,"Precision":"address","Month":2.0,"Longitude":-94.175347,"Apt":null,"Latitude":36.155548,"State":"AR","Date":"2009/02/11","id":"a65sb5q9e811","Address":"3304 S 40TH ST","Description":"THEFT OF PROPERTY/All other"},"type":"Feature","geometry":{"type":"Point","coordinates":[-94.175347,36.155548]}},{"properties":{"Name":"NONACT","City":"Springdale","Zip":72764.0,"Precision":"address","Month":2.0,"Longitude":-94.098448,"Apt":null,"Latitude":36.156458,"State":"AR","Date":"2009/02/18","id":"a65sb5y7jyhf","Address":"3067  SHIRAZ LN","Description":"S.N.A.P."},"type":"Feature","geometry":{"type":"Point","coordinates":[-94.098448,36.156458]}},{"properties":{"Name":"NONACT","City":"Springdale","Zip":72764.0,"Precision":"address","Month":2.0,"Longitude":-94.136115,"Apt":null,"Latitude":36.156622,"State":"AR","Date":"2009/02/21","id":"a65sb5lhanov","Address":"812  ROBIN HOOD CT","Description":"FRAUDULENT USE OF CREDIT CARD"},"type":"Feature","geometry":{"type":"Point","coordinates":[-94.136115,36.156622]}},{"properties":{"Name":"ARREST","City":"Springdale","Zip":72764.0,"Precision":"address","Month":2.0,"Longitude":-94.117125,"Apt":"K206","Latitude":36.157321,"State":"AR","Date":"2009/02/11","id":"a65sb5peqh00","Address":"1299  ELECTRIC AVE","Description":"ASSAULT 3RD DEG DOMESTIC"},"type":"Feature","geometry":{"type":"Point","coordinates":[-94.117125,36.157321]}},{"properties":{"Name":"ARREST","City":"Springdale","Zip":72764.0,"Precision":"address","Month":2.0,"Longitude":-94.117125,"Apt":"K212","Latitude":36.157321,"State":"AR","Date":"2009/02/03","id":"a65sb5shqess","Address":"1299  ELECTRIC AVE","Description":"BURGLARY-RESIDENTIAL"},"type":"Feature","geometry":{"type":"Point","coordinates":[-94.117125,36.157321]}},{"properties":{"Name":"ARREST","City":"Springdale","Zip":72764.0,"Precision":"address","Month":2.0,"Longitude":-94.126252,"Apt":null,"Latitude":36.157326,"State":"AR","Date":"2009/02/11","id":"a65sb605nqye","Address":"3200  POWELL ST","Description":"DISORDERLY CONDUCT-Unreasonable"},"type":"Feature","geometry":{"type":"Point","coordinates":[-94.126252,36.157326]}},{"properties":{"Name":"ARREST","City":"Springdale","Zip":72764.0,"Precision":"address","Month":2.0,"Longitude":-94.126252,"Apt":null,"Latitude":36.157326,"State":"AR","Date":"2009/02/26","id":"a65sb5pq1grq","Address":"3200  POWELL ST","Description":"DISORDERLY CONDUCT-FIGHT/TUMULTUOUS"},"type":"Feature","geometry":{"type":"Point","coordinates":[-94.126252,36.157326]}},{"properties":{"Name":"ARREST","City":"Springdale","Zip":72764.0,"Precision":"address","Month":2.0,"Longitude":-94.126252,"Apt":null,"Latitude":36.157326,"State":"AR","Date":"2009/02/26","id":"a65sb5upp936","Address":"3200  POWELL ST","Description":"POSS W/INTENT TO DELIVER/Marijuana"},"type":"Feature","geometry":{"type":"Point","coordinates":[-94.126252,36.157326]}},{"properties":{"Name":"ARREST","City":"Springdale","Zip":72764.0,"Precision":"address","Month":2.0,"Longitude":-94.126252,"Apt":null,"Latitude":36.157326,"State":"AR","Date":"2009/02/11","id":"a65sb5r5l2yn","Address":"3200  POWELL ST","Description":"THEFT OF PROPERTY/All other"},"type":"Feature","geometry":{"type":"Point","coordinates":[-94.126252,36.157326]}},{"properties":{"Name":"ARREST","City":"Springdale","Zip":72764.0,"Precision":"address","Month":2.0,"Longitude":-94.126252,"Apt":null,"Latitude":36.157326,"State":"AR","Date":"2009/02/09","id":"a65sb5noub5h","Address":"3200  POWELL ST","Description":"THEFT OF PROPERTY/All other"},"type":"Feature","geometry":{"type":"Point","coordinates":[-94.126252,36.157326]}},{"properties":{"Name":"ARREST","City":"Springdale","Zip":72764.0,"Precision":"address","Month":2.0,"Longitude":-94.126252,"Apt":null,"Latitude":36.157326,"State":"AR","Date":"2009/02/10","id":"a65sb5k4uvpi","Address":"3200  POWELL ST","Description":"POSS CONTROLLED SUBS/Marijuana"},"type":"Feature","geometry":{"type":"Point","coordinates":[-94.126252,36.157326]}},{"properties":{"Name":"ARREST","City":"Springdale","Zip":72764.0,"Precision":"address","Month":2.0,"Longitude":-94.126252,"Apt":null,"Latitude":36.157326,"State":"AR","Date":"2009/02/26","id":"a65sb5jt3hhr","Address":"3200  POWELL ST","Description":"CRIMINAL MISCHIEF 2ND-Reck destroys"},"type":"Feature","geometry":{"type":"Point","coordinates":[-94.126252,36.157326]}},{"properties":{"Name":"EXCEPT","City":"Springdale","Zip":72764.0,"Precision":"address","Month":2.0,"Longitude":-94.114606,"Apt":"K 105","Latitude":36.157465,"State":"AR","Date":"2009/02/11","id":"a65sb5t3rvdj","Address":"1550  ELECTRIC AVE","Description":"HARASSING COMMUNICATIONS"},"type":"Feature","geometry":{"type":"Point","coordinates":[-94.114606,36.157465]}},{"properties":{"Name":"ARREST","City":"Springdale","Zip":72764.0,"Precision":"address","Month":2.0,"Longitude":-94.116553,"Apt":"D101","Latitude":36.157544,"State":"AR","Date":"2009/02/09","id":"a65sb5mtmpyk","Address":"1298  ELECTRIC AVE","Description":"BATTERY 3RD DEG DOMESTIC"},"type":"Feature","geometry":{"type":"Point","coordinates":[-94.116553,36.157544]}},{"properties":{"Name":"ARREST","City":"Springdale","Zip":72764.0,"Precision":"address","Month":2.0,"Longitude":-94.116553,"Apt":"J107","Latitude":36.157544,"State":"AR","Date":"2009/02/07","id":"a65sb5nx4jrn","Address":"1298  ELECTRIC AVE","Description":"TERRORISTIC THREATENING"},"type":"Feature","geometry":{"type":"Point","coordinates":[-94.116553,36.157544]}},{"properties":{"Name":"NONACT","City":"Springdale","Zip":72764.0,"Precision":"address","Month":2.0,"Longitude":-94.118829,"Apt":null,"Latitude":36.157962,"State":"AR","Date":"2009/02/24","id":"a65sb5p61b41","Address":"2950 S OLD MISSOURI RD","Description":"GRAFFITI-CRIMINAL MISCHIEF 2ND DEG"},"type":"Feature","geometry":{"type":"Point","coordinates":[-94.118829,36.157962]}},{"properties":{"Name":"NONACT","City":"Springdale","Zip":72764.0,"Precision":"address","Month":2.0,"Longitude":-94.135127,"Apt":null,"Latitude":36.15814,"State":"AR","Date":"2009/02/03","id":"a65sb5kyjzk0","Address":"3004  TURNER ST","Description":"CRIMINAL MISCHIEF 1ST-Purposely"},"type":"Feature","geometry":{"type":"Point","coordinates":[-94.135127,36.15814]}},{"properties":{"Name":"NONACT","City":"Springdale","Zip":72764.0,"Precision":"address","Month":2.0,"Longitude":-94.125544,"Apt":null,"Latitude":36.158194,"State":"AR","Date":"2009/02/20","id":"a65sb5u5omnc","Address":"2982  CHADWICK ST","Description":"GRAFFITI-CRIMINAL MISCHIEF 1ST DEG"},"type":"Feature","geometry":{"type":"Point","coordinates":[-94.125544,36.158194]}},{"properties":{"Name":"NONACT","City":"Springdale","Zip":72764.0,"Precision":"address","Month":2.0,"Longitude":-94.121216,"Apt":null,"Latitude":36.158485,"State":"AR","Date":"2009/02/08","id":"a65sb5on44lq","Address":"972  NICHOLSON AVE","Description":"LOST OR FOUND PROPERTY"},"type":"Feature","geometry":{"type":"Point","coordinates":[-94.121216,36.158485]}},{"properties":{"Name":"NONACT","City":"Springdale","Zip":72764.0,"Precision":"address","Month":2.0,"Longitude":-94.121762,"Apt":null,"Latitude":36.158492,"State":"AR","Date":"2009/02/25","id":"a65sb5jzxsnk","Address":"892  NICHOLSON AVE","Description":"SUICIDE"},"type":"Feature","geometry":{"type":"Point","coordinates":[-94.121762,36.158492]}},{"properties":{"Name":"NONACT","City":"Springdale","Zip":72764.0,"Precision":"address","Month":2.0,"Longitude":-94.132735,"Apt":null,"Latitude":36.158596,"State":"AR","Date":"2009/02/10","id":"a65sb5nzgbne","Address":"2903  SILVERTON ST","Description":"THEFT OF PROPERTY/All other"},"type":"Feature","geometry":{"type":"Point","coordinates":[-94.132735,36.158596]}},{"properties":{"Name":"NONACT","City":"Springdale","Zip":72764.0,"Precision":"address","Month":2.0,"Longitude":-94.125544,"Apt":null,"Latitude":36.158599,"State":"AR","Date":"2009/02/06","id":"a65sb5w8x1cb","Address":"2906  CHADWICK ST","Description":"CRIMINAL MISCHIEF 2ND-Tampers"},"type":"Feature","geometry":{"type":"Point","coordinates":[-94.125544,36.158599]}},{"properties":{"Name":"ARREST","City":"Springdale","Zip":72764.0,"Precision":"address","Month":2.0,"Longitude":-94.139667,"Apt":"APT101","Latitude":36.159514,"State":"AR","Date":"2009/02/14","id":"a65sb5qof6mr","Address":"2824  BOXCAR ST","Description":"BATTERY 3RD DEG DOMESTIC"},"type":"Feature","geometry":{"type":"Point","coordinates":[-94.139667,36.159514]}},{"properties":{"Name":"NONACT","City":"Springdale","Zip":72764.0,"Precision":"address","Month":2.0,"Longitude":-94.133149,"Apt":null,"Latitude":36.15962,"State":"AR","Date":"2009/02/18","id":"a65sb5zo2ezy","Address":"192 E COLORADO AVE","Description":"THEFT OF PROPERTY/All other"},"type":"Feature","geometry":{"type":"Point","coordinates":[-94.133149,36.15962]}},{"properties":{"Name":"NONACT","City":"Springdale","Zip":72764.0,"Precision":"address","Month":2.0,"Longitude":-94.106953,"Apt":null,"Latitude":36.159753,"State":"AR","Date":"2009/02/13","id":"a65sb5qembst","Address":"2209  PEACHBLOSSOM AVE","Description":"BREAKING/ENTERING-ARTICLES FROM VEH"},"type":"Feature","geometry":{"type":"Point","coordinates":[-94.106953,36.159753]}},{"properties":{"Name":"NONACT","City":"Springdale","Zip":72764.0,"Precision":"address","Month":2.0,"Longitude":-94.148144,"Apt":null,"Latitude":36.15976,"State":"AR","Date":"2009/02/15","id":"a65sb5p5qtb2","Address":"1603  ARAPAHO AVE","Description":"BREAKING/ENTERING-ARTICLES FROM VEH"},"type":"Feature","geometry":{"type":"Point","coordinates":[-94.148144,36.15976]}},{"properties":{"Name":"EXCEPT","City":"Springdale","Zip":72764.0,"Precision":"address","Month":2.0,"Longitude":-94.12303,"Apt":"2","Latitude":36.160073,"State":"AR","Date":"2009/02/06","id":"a65sb5k31rnp","Address":"1038  BROOKHAVEN CT","Description":"SEXUAL ASSAULT 2ND DEG"},"type":"Feature","geometry":{"type":"Point","coordinates":[-94.12303,36.160073]}},{"properties":{"Name":"ARREST","City":"Springdale","Zip":72764.0,"Precision":"address","Month":2.0,"Longitude":-94.122036,"Apt":"APT103","Latitude":36.160321,"State":"AR","Date":"2009/02/21","id":"a65sb5lomuz0","Address":"2739  CHANNEL PL","Description":"CRIMINAL MISCHIEF 1ST-Purposely"},"type":"Feature","geometry":{"type":"Point","coordinates":[-94.122036,36.160321]}},{"properties":{"Name":"ARREST","City":"Springdale","Zip":72764.0,"Precision":"address","Month":2.0,"Longitude":-94.122036,"Apt":"APT103","Latitude":36.160321,"State":"AR","Date":"2009/02/21","id":"a65sb5ws820u","Address":"2739  CHANNEL PL","Description":"ASSAULT 3RD DEG DOMESTIC"},"type":"Feature","geometry":{"type":"Point","coordinates":[-94.122036,36.160321]}},{"properties":{"Name":"ARREST","City":"Springdale","Zip":72764.0,"Precision":"address","Month":2.0,"Longitude":-94.122036,"Apt":"APT103","Latitude":36.160321,"State":"AR","Date":"2009/02/21","id":"a65sb5o62fns","Address":"2739  CHANNEL PL","Description":"FLIGHT FROM AN OFFICER (VEHICLE)"},"type":"Feature","geometry":{"type":"Point","coordinates":[-94.122036,36.160321]}},{"properties":{"Name":"NONACT","City":"Springdale","Zip":72764.0,"Precision":"address","Month":2.0,"Longitude":-94.125247,"Apt":"APT104","Latitude":36.160423,"State":"AR","Date":"2009/02/23","id":"a65sb5wyln5u","Address":"2602  STONERIDGE CIR","Description":"BREAKING/ENTERING-ARTICLES FROM VEH"},"type":"Feature","geometry":{"type":"Point","coordinates":[-94.125247,36.160423]}},{"properties":{"Name":"ARREST","City":"Springdale","Zip":72764.0,"Precision":"address","Month":2.0,"Longitude":-94.123407,"Apt":null,"Latitude":36.160491,"State":"AR","Date":"2009/02/10","id":"a65sb5jxiro0","Address":"1075  BROOKHAVEN CT","Description":"FORGERY 2ND DEG"},"type":"Feature","geometry":{"type":"Point","coordinates":[-94.123407,36.160491]}},{"properties":{"Name":"ARREST","City":"Springdale","Zip":72764.0,"Precision":"address","Month":2.0,"Longitude":-94.126161,"Apt":null,"Latitude":36.161037,"State":"AR","Date":"2009/02/21","id":"a65sb5qt05em","Address":"2724 S POWELL","Description":"CRIMINAL MISCHIEF 2ND-Tampers"},"type":"Feature","geometry":{"type":"Point","coordinates":[-94.126161,36.161037]}},{"properties":{"Name":"REF WARRANT","City":"Springdale","Zip":72764.0,"Precision":"address","Month":2.0,"Longitude":-94.148095,"Apt":null,"Latitude":36.161248,"State":"AR","Date":"2009/02/01","id":"a65sb5uaj6vi","Address":"2707 S MORLAN AVE","Description":"HARASSING COMMUNICATIONS"},"type":"Feature","geometry":{"type":"Point","coordinates":[-94.148095,36.161248]}},{"properties":{"Name":"NONACT","City":"Springdale","Zip":72764.0,"Precision":"address","Month":2.0,"Longitude":-94.100412,"Apt":null,"Latitude":36.161293,"State":"AR","Date":"2009/02/04","id":"a65sb5o00hwk","Address":"2767  CHANCERY PL","Description":"GRAFFITI-CRIMINAL MISCHIEF 2ND DEG"},"type":"Feature","geometry":{"type":"Point","coordinates":[-94.100412,36.161293]}},{"properties":{"Name":"NONACT","City":"Springdale","Zip":72764.0,"Precision":"address","Month":2.0,"Longitude":-94.107276,"Apt":null,"Latitude":36.161342,"State":"AR","Date":"2009/02/18","id":"a65sb5y6xdbr","Address":"2557  ORCHARD ST","Description":"CRIMINAL MISCHIEF 2ND-Tampers"},"type":"Feature","geometry":{"type":"Point","coordinates":[-94.107276,36.161342]}},{"properties":{"Name":"NONACT","City":"Springdale","Zip":72764.0,"Precision":"address","Month":2.0,"Longitude":-94.108389,"Apt":null,"Latitude":36.161394,"State":"AR","Date":"2009/02/12","id":"a65sb5xwhqrk","Address":"2537  PERSIMMON ST","Description":"BREAKING/ENTERING-parts/accessory"},"type":"Feature","geometry":{"type":"Point","coordinates":[-94.108389,36.161394]}},{"properties":{"Name":"NONACT","City":"Springdale","Zip":72764.0,"Precision":"address","Month":2.0,"Longitude":-94.123592,"Apt":"APT201","Latitude":36.161503,"State":"AR","Date":"2009/02/24","id":"a65sb5nhwmd0","Address":"2754  CROOKED CREEK CIR","Description":"BREAKING/ENTERING-ARTICLES FROM VEH"},"type":"Feature","geometry":{"type":"Point","coordinates":[-94.123592,36.161503]}},{"properties":{"Name":"NONACT","City":"Springdale","Zip":72764.0,"Precision":"address","Month":2.0,"Longitude":-94.122349,"Apt":"APT204","Latitude":36.161578,"State":"AR","Date":"2009/02/12","id":"a65sb5y91f9k","Address":"889  BROOKHAVEN CT","Description":"S.N.A.P."},"type":"Feature","geometry":{"type":"Point","coordinates":[-94.122349,36.161578]}},{"properties":{"Name":"NONACT","City":"Springdale","Zip":72764.0,"Precision":"address","Month":2.0,"Longitude":-94.106492,"Apt":null,"Latitude":36.161606,"State":"AR","Date":"2009/02/24","id":"a65sb5uzchw6","Address":"2502  APPLEGLEN ST","Description":"CRIMINAL MISCHIEF 2ND-Reck destroys"},"type":"Feature","geometry":{"type":"Point","coordinates":[-94.106492,36.161606]}},{"properties":{"Name":"ARREST","City":"Springdale","Zip":72764.0,"Precision":"address","Month":2.0,"Longitude":-94.123441,"Apt":"APT206","Latitude":36.161731,"State":"AR","Date":"2009/02/09","id":"a65sb5v1bj25","Address":"2788  CROOKED CREEK CIR","Description":"CRIMINAL USE PROHIBITED WEAPON"},"type":"Feature","geometry":{"type":"Point","coordinates":[-94.123441,36.161731]}},{"properties":{"Name":"NONACT","City":"Springdale","Zip":72764.0,"Precision":"address","Month":2.0,"Longitude":-94.126545,"Apt":"A","Latitude":36.16181,"State":"AR","Date":"2009/02/24","id":"a65sb5t1vbrm","Address":"539  DANIEL PL","Description":"MOTOR VEHICLE THEFT"},"type":"Feature","geometry":{"type":"Point","coordinates":[-94.126545,36.16181]}},{"properties":{"Name":"ARREST","City":"Springdale","Zip":72764.0,"Precision":"address","Month":2.0,"Longitude":-94.129419,"Apt":null,"Latitude":36.161993,"State":"AR","Date":"2009/02/02","id":"a65sb5p3bytn","Address":"310  BIGI AVE","Description":"THEFT OF PROPERTY/All other"},"type":"Feature","geometry":{"type":"Point","coordinates":[-94.129419,36.161993]}},{"properties":{"Name":"NONACT","City":"Springdale","Zip":72764.0,"Precision":"address","Month":2.0,"Longitude":-94.130035,"Apt":null,"Latitude":36.162077,"State":"AR","Date":"2009/02/02","id":"a65sb5xu8b9j","Address":"2504  GHAMAR ST","Description":"HARASSING COMMUNICATIONS"},"type":"Feature","geometry":{"type":"Point","coordinates":[-94.130035,36.162077]}},{"properties":{"Name":"NONACT","City":"Springdale","Zip":72764.0,"Precision":"address","Month":2.0,"Longitude":-94.107254,"Apt":null,"Latitude":36.162226,"State":"AR","Date":"2009/02/25","id":"a65sb5yy8144","Address":"2447  ORCHARD ST","Description":"CRIMINAL MISCHIEF 2ND-Reck destroys"},"type":"Feature","geometry":{"type":"Point","coordinates":[-94.107254,36.162226]}},{"properties":{"Name":"REF WARRANT","City":"Springdale","Zip":72764.0,"Precision":"address","Month":2.0,"Longitude":-94.178742,"Apt":null,"Latitude":36.16234,"State":"AR","Date":"2009/02/19","id":"a65sb5q3cpow","Address":"2601  EIDSON ST","Description":"BATTERY 3RD DEG DOMESTIC"},"type":"Feature","geometry":{"type":"Point","coordinates":[-94.178742,36.16234]}},{"properties":{"Name":"NONACT","City":"Springdale","Zip":72764.0,"Precision":"address","Month":2.0,"Longitude":-94.122223,"Apt":null,"Latitude":36.162347,"State":"AR","Date":"2009/02/04","id":"a65sb5mfwxfg","Address":"838  BROOKHAVEN CT","Description":"CRIMINAL MISCHIEF 1ST-Purposely"},"type":"Feature","geometry":{"type":"Point","coordinates":[-94.122223,36.162347]}},{"properties":{"Name":"NONACT","City":"Springdale","Zip":72764.0,"Precision":"address","Month":2.0,"Longitude":-94.165838,"Apt":null,"Latitude":36.162367,"State":"AR","Date":"2009/02/24","id":"a65sb5pp9qmq","Address":"2501  CARLEY RD","Description":"CRIMINAL MISCHIEF 2ND-Reck destroys"},"type":"Feature","geometry":{"type":"Point","coordinates":[-94.165838,36.162367]}},{"properties":{"Name":"NONACT","City":"Springdale","Zip":72764.0,"Precision":"address","Month":2.0,"Longitude":-94.124705,"Apt":null,"Latitude":36.162538,"State":"AR","Date":"2009/02/01","id":"a65sb5voiqjs","Address":"718  BROOKHAVEN CT","Description":"THEFT OF PROPERTY/All other"},"type":"Feature","geometry":{"type":"Point","coordinates":[-94.124705,36.162538]}},{"properties":{"Name":"NONACT","City":"Springdale","Zip":72764.0,"Precision":"address","Month":2.0,"Longitude":-94.126104,"Apt":"B","Latitude":36.162666,"State":"AR","Date":"2009/02/22","id":"a65sb5xbcm7j","Address":"2478  POWELL ST","Description":"CRIMINAL MISCHIEF 2ND-Reck destroys"},"type":"Feature","geometry":{"type":"Point","coordinates":[-94.126104,36.162666]}},{"properties":{"Name":"NONACT","City":"Springdale","Zip":72764.0,"Precision":"address","Month":2.0,"Longitude":-94.126104,"Apt":"A","Latitude":36.162666,"State":"AR","Date":"2009/02/22","id":"a65sb5rcflyg","Address":"2478  POWELL ST","Description":"GRAFFITI-CRIMINAL MISCHIEF 2ND DEG"},"type":"Feature","geometry":{"type":"Point","coordinates":[-94.126104,36.162666]}},{"properties":{"Name":"NONACT","City":"Springdale","Zip":72764.0,"Precision":"address","Month":2.0,"Longitude":-94.107714,"Apt":null,"Latitude":36.16283,"State":"AR","Date":"2009/02/26","id":"a65sb5mufl0v","Address":"2128  LAKESIDE AVE","Description":"ATTEMPTED SUICIDE"},"type":"Feature","geometry":{"type":"Point","coordinates":[-94.107714,36.16283]}},{"properties":{"Name":"NONACT","City":"Springdale","Zip":72764.0,"Precision":"address","Month":2.0,"Longitude":-94.126048,"Apt":"B","Latitude":36.162894,"State":"AR","Date":"2009/02/28","id":"a65sb5zx1z8o","Address":"2420  POWELL ST","Description":"GRAFFITI-CRIMINAL MISCHIEF 2ND DEG"},"type":"Feature","geometry":{"type":"Point","coordinates":[-94.126048,36.162894]}},{"properties":{"Name":"NONACT","City":"Springdale","Zip":72764.0,"Precision":"address","Month":2.0,"Longitude":-94.126048,"Apt":"B","Latitude":36.162894,"State":"AR","Date":"2009/02/22","id":"a65sb5n6xyv2","Address":"2420  POWELL ST","Description":"GRAFFITI-CRIMINAL MISCHIEF 2ND DEG"},"type":"Feature","geometry":{"type":"Point","coordinates":[-94.126048,36.162894]}},{"properties":{"Name":"NONACT","City":"Springdale","Zip":72764.0,"Precision":"address","Month":2.0,"Longitude":-94.099499,"Apt":null,"Latitude":36.163078,"State":"AR","Date":"2009/02/17","id":"a65sb5mcmyd4","Address":"2368  VICTORIA ST","Description":"S.N.A.P."},"type":"Feature","geometry":{"type":"Point","coordinates":[-94.099499,36.163078]}},{"properties":{"Name":"NONACT","City":"Springdale","Zip":72764.0,"Precision":"address","Month":2.0,"Longitude":-94.129608,"Apt":null,"Latitude":36.163227,"State":"AR","Date":"2009/02/02","id":"a65sb5zryhei","Address":"455  VILLAGE LN","Description":"BURGLARY-RESIDENTIAL"},"type":"Feature","geometry":{"type":"Point","coordinates":[-94.129608,36.163227]}},{"properties":{"Name":"EXCEPT","City":"Springdale","Zip":72764.0,"Precision":"address","Month":2.0,"Longitude":-94.129608,"Apt":null,"Latitude":36.163227,"State":"AR","Date":"2009/02/25","id":"a65sb5t49j5q","Address":"455  VILLAGE LN","Description":"FRAUDULENT USE OF CREDIT CARD"},"type":"Feature","geometry":{"type":"Point","coordinates":[-94.129608,36.163227]}},{"properties":{"Name":"NONACT","City":"Springdale","Zip":72764.0,"Precision":"address","Month":2.0,"Longitude":-94.100553,"Apt":null,"Latitude":36.163399,"State":"AR","Date":"2009/02/25","id":"a65sb5skxdcz","Address":"2729  NORMA ST","Description":"GRAFFITI-CRIMINAL MISCHIEF 2ND DEG"},"type":"Feature","geometry":{"type":"Point","coordinates":[-94.100553,36.163399]}},{"properties":{"Name":"NONACT","City":"Springdale","Zip":72764.0,"Precision":"address","Month":2.0,"Longitude":-94.100553,"Apt":null,"Latitude":36.163399,"State":"AR","Date":"2009/02/04","id":"a65sb5kzt11k","Address":"2729  NORMA PL","Description":"GRAFFITI-CRIMINAL MISCHIEF 2ND DEG"},"type":"Feature","geometry":{"type":"Point","coordinates":[-94.100553,36.163399]}},{"properties":{"Name":"ARREST","City":"Springdale","Zip":72764.0,"Precision":"address","Month":2.0,"Longitude":-94.121748,"Apt":null,"Latitude":36.163828,"State":"AR","Date":"2009/02/15","id":"a65sb5v3r2p2","Address":"868  OAKRIDGE DR","Description":"ASSAULT 2ND DEG DOMESTIC"},"type":"Feature","geometry":{"type":"Point","coordinates":[-94.121748,36.163828]}},{"properties":{"Name":"NONACT","City":"Springdale","Zip":72764.0,"Precision":"address","Month":2.0,"Longitude":-94.1232,"Apt":null,"Latitude":36.164185,"State":"AR","Date":"2009/02/27","id":"a65sb5yje467","Address":"771  WOODRIDGE DR","Description":"CRIMINAL MISCHIEF 1ST-Purposely"},"type":"Feature","geometry":{"type":"Point","coordinates":[-94.1232,36.164185]}},{"properties":{"Name":"NONACT","City":"Springdale","Zip":72764.0,"Precision":"address","Month":2.0,"Longitude":-94.1232,"Apt":null,"Latitude":36.164185,"State":"AR","Date":"2009/02/27","id":"a65sb5y2oiof","Address":"771  WOODRIDGE DR","Description":"BATTERY 3RD-Cause injury"},"type":"Feature","geometry":{"type":"Point","coordinates":[-94.1232,36.164185]}},{"properties":{"Name":"NONACT","City":"Springdale","Zip":72764.0,"Precision":"address","Month":2.0,"Longitude":-94.123337,"Apt":null,"Latitude":36.164187,"State":"AR","Date":"2009/02/24","id":"a65sb5ufxy9a","Address":"761  WOODRIDGE DR","Description":"LOST OR FOUND PROPERTY"},"type":"Feature","geometry":{"type":"Point","coordinates":[-94.123337,36.164187]}},{"properties":{"Name":"REF WARRANT","City":"Springdale","Zip":72764.0,"Precision":"address","Month":2.0,"Longitude":-94.122105,"Apt":null,"Latitude":36.164435,"State":"AR","Date":"2009/02/26","id":"a65sb5xzs1kd","Address":"846  WOODRIDGE DR","Description":"BURGLARY-RESIDENTIAL"},"type":"Feature","geometry":{"type":"Point","coordinates":[-94.122105,36.164435]}},{"properties":{"Name":"NONACT","City":"Springdale","Zip":72764.0,"Precision":"address","Month":2.0,"Longitude":-94.173358,"Apt":null,"Latitude":36.164437,"State":"AR","Date":"2009/02/16","id":"a65sb5zs77af","Address":"3902  CHAPMAN AVE","Description":"FRAUDULENT USE OF CREDIT CARD"},"type":"Feature","geometry":{"type":"Point","coordinates":[-94.173358,36.164437]}},{"properties":{"Name":"NONACT","City":"Springdale","Zip":72764.0,"Precision":"address","Month":2.0,"Longitude":-94.124067,"Apt":null,"Latitude":36.164466,"State":"AR","Date":"2009/02/22","id":"a65sb5n94yzh","Address":"706  WOODRIDGE DR","Description":"CRIMINAL MISCHIEF 2ND-Reck destroys"},"type":"Feature","geometry":{"type":"Point","coordinates":[-94.124067,36.164466]}},{"properties":{"Name":"ARREST","City":"Springdale","Zip":72764.0,"Precision":"address","Month":2.0,"Longitude":-94.143824,"Apt":null,"Latitude":36.164484,"State":"AR","Date":"2009/02/25","id":"a65sb5kujtxl","Address":"2206 S THOMPSON ST","Description":"POSS CONTROLLED SUBS/Marijuana"},"type":"Feature","geometry":{"type":"Point","coordinates":[-94.143824,36.164484]}},{"properties":{"Name":"ARREST","City":"Springdale","Zip":72764.0,"Precision":"address","Month":2.0,"Longitude":-94.10223,"Apt":"A","Latitude":36.164832,"State":"AR","Date":"2009/02/02","id":"a65sb5vmgv4c","Address":"2246  HIDDEN LAKE ST","Description":"POSS CONTROLLED SUBS/other drugs"},"type":"Feature","geometry":{"type":"Point","coordinates":[-94.10223,36.164832]}},{"properties":{"Name":"ARREST","City":"Springdale","Zip":72764.0,"Precision":"address","Month":2.0,"Longitude":-94.119461,"Apt":"A","Latitude":36.164968,"State":"AR","Date":"2009/02/08","id":"a65sb5sowzuo","Address":"2323 S OLD MISSOURI RD","Description":"FORGERY 1ST DEG"},"type":"Feature","geometry":{"type":"Point","coordinates":[-94.119461,36.164968]}},{"properties":{"Name":"NONACT","City":"Springdale","Zip":72764.0,"Precision":"address","Month":2.0,"Longitude":-94.119461,"Apt":"D","Latitude":36.164968,"State":"AR","Date":"2009/02/07","id":"a65sb5qwvc3q","Address":"2323 S OLD MISSOURI RD","Description":"BREAKING/ENTERING-ARTICLES FROM VEH"},"type":"Feature","geometry":{"type":"Point","coordinates":[-94.119461,36.164968]}},{"properties":{"Name":"EXCEPT","City":"Springdale","Zip":72764.0,"Precision":"address","Month":2.0,"Longitude":-94.173252,"Apt":null,"Latitude":36.164984,"State":"AR","Date":"2009/02/25","id":"a65sb5lw8glc","Address":"3901  HASSELL AVE","Description":"BATTERY 3RD-Cause injury"},"type":"Feature","geometry":{"type":"Point","coordinates":[-94.173252,36.164984]}},{"properties":{"Name":"NONACT","City":"Springdale","Zip":72764.0,"Precision":"address","Month":2.0,"Longitude":-94.180882,"Apt":null,"Latitude":36.16502,"State":"AR","Date":"2009/02/10","id":"a65sb5ssexkx","Address":"4404  BONNIE AVE","Description":"BREAKING/ENTERING-ARTICLES FROM VEH"},"type":"Feature","geometry":{"type":"Point","coordinates":[-94.180882,36.16502]}},{"properties":{"Name":"NONACT","City":"Springdale","Zip":72764.0,"Precision":"address","Month":2.0,"Longitude":-94.123862,"Apt":null,"Latitude":36.165069,"State":"AR","Date":"2009/02/09","id":"a65sb5wscydw","Address":"748  ASPENRIDGE DR","Description":"BREAKING/ENTERING-ARTICLES FROM VEH"},"type":"Feature","geometry":{"type":"Point","coordinates":[-94.123862,36.165069]}},{"properties":{"Name":"NONACT","City":"Springdale","Zip":72764.0,"Precision":"address","Month":2.0,"Longitude":-94.180025,"Apt":null,"Latitude":36.165671,"State":"AR","Date":"2009/02/11","id":"a65sb5sic29i","Address":"2202 S 43RD ST","Description":"BREAKING/ENTERING-ARTICLES FROM VEH"},"type":"Feature","geometry":{"type":"Point","coordinates":[-94.180025,36.165671]}},{"properties":{"Name":"NONACT","City":"Springdale","Zip":72764.0,"Precision":"address","Month":2.0,"Longitude":-94.179819,"Apt":null,"Latitude":36.165725,"State":"AR","Date":"2009/02/11","id":"a65sb5ks9hlr","Address":"2201 S 43RD ST","Description":"CRIMINAL MISCHIEF 1ST-Purposely"},"type":"Feature","geometry":{"type":"Point","coordinates":[-94.179819,36.165725]}},{"properties":{"Name":"ARREST","City":"Springdale","Zip":72764.0,"Precision":"address","Month":2.0,"Longitude":-94.134866,"Apt":null,"Latitude":36.166112,"State":"AR","Date":"2009/02/14","id":"a65sb5xd5b9u","Address":"2100  TURNER ST","Description":"AGGRAVATED ASSAULT"},"type":"Feature","geometry":{"type":"Point","coordinates":[-94.134866,36.166112]}},{"properties":{"Name":"ARREST","City":"Springdale","Zip":72764.0,"Precision":"address","Month":2.0,"Longitude":-94.169925,"Apt":null,"Latitude":36.166237,"State":"AR","Date":"2009/02/24","id":"a65sb5pvmnh8","Address":"2201  LYNN ST","Description":"UNSIGHT/UNSANITARY COND (CITY ORD)"},"type":"Feature","geometry":{"type":"Point","coordinates":[-94.169925,36.166237]}},{"properties":{"Name":"NONACT","City":"Springdale","Zip":72764.0,"Precision":"address","Month":2.0,"Longitude":-94.101742,"Apt":null,"Latitude":36.166451,"State":"AR","Date":"2009/02/19","id":"a65sb5kjkapy","Address":"2601 E ROBINSON AVE","Description":"THEFT OF PROPERTY/All other"},"type":"Feature","geometry":{"type":"Point","coordinates":[-94.101742,36.166451]}},{"properties":{"Name":"EXCEPT","City":"Springdale","Zip":72764.0,"Precision":"address","Month":2.0,"Longitude":-94.119894,"Apt":null,"Latitude":36.166525,"State":"AR","Date":"2009/02/05","id":"a65sb5tm2k88","Address":"2100 S OLD MISSOURI RD","Description":"BATTERY 3RD DEG DOMESTIC"},"type":"Feature","geometry":{"type":"Point","coordinates":[-94.119894,36.166525]}},{"properties":{"Name":"NONACT","City":"Springdale","Zip":72764.0,"Precision":"address","Month":2.0,"Longitude":-94.106365,"Apt":null,"Latitude":36.166561,"State":"AR","Date":"2009/02/21","id":"a65sb5zvgj4p","Address":"2195 E ROBINSON AVE","Description":"AGENCY ASSIST"},"type":"Feature","geometry":{"type":"Point","coordinates":[-94.106365,36.166561]}},{"properties":{"Name":"ARREST","City":"Springdale","Zip":72764.0,"Precision":"address","Month":2.0,"Longitude":-94.110641,"Apt":null,"Latitude":36.166642,"State":"AR","Date":"2009/02/03","id":"a65sb5y6tsvd","Address":"1879 E ROBINSON AVE","Description":"THEFT OF PROPERTY/All other"},"type":"Feature","geometry":{"type":"Point","coordinates":[-94.110641,36.166642]}},{"properties":{"Name":"ARREST","City":"Springdale","Zip":72764.0,"Precision":"address","Month":2.0,"Longitude":-94.110641,"Apt":null,"Latitude":36.166642,"State":"AR","Date":"2009/02/06","id":"a65sb5mkp1gy","Address":"1879 E ROBINSON AVE","Description":"CRIMINAL MISCHIEF 2ND-Tampers"},"type":"Feature","geometry":{"type":"Point","coordinates":[-94.110641,36.166642]}},{"properties":{"Name":"ARREST","City":"Springdale","Zip":72764.0,"Precision":"address","Month":2.0,"Longitude":-94.110641,"Apt":null,"Latitude":36.166642,"State":"AR","Date":"2009/02/06","id":"a65sb5nfweow","Address":"1879 E ROBINSON AVE","Description":"CRIMINAL MISCHIEF 2ND-Tampers"},"type":"Feature","geometry":{"type":"Point","coordinates":[-94.110641,36.166642]}},{"properties":{"Name":"ARREST","City":"Springdale","Zip":72764.0,"Precision":"address","Month":2.0,"Longitude":-94.110641,"Apt":null,"Latitude":36.166642,"State":"AR","Date":"2009/02/11","id":"a65sb5vpmdyx","Address":"1879 E ROBINSON AVE","Description":"ASSAULT 3RD DEG"},"type":"Feature","geometry":{"type":"Point","coordinates":[-94.110641,36.166642]}},{"properties":{"Name":"ACTIVE","City":"Springdale","Zip":72764.0,"Precision":"address","Month":2.0,"Longitude":-94.110641,"Apt":null,"Latitude":36.166642,"State":"AR","Date":"2009/02/27","id":"a65sb5qirwgv","Address":"1879 E ROBINSON AVE","Description":"THEFT OF PROPERTY/All other"},"type":"Feature","geometry":{"type":"Point","coordinates":[-94.110641,36.166642]}},{"properties":{"Name":"ARREST","City":"Springdale","Zip":72764.0,"Precision":"address","Month":2.0,"Longitude":-94.095688,"Apt":null,"Latitude":36.166648,"State":"AR","Date":"2009/02/10","id":"a65sb5w86elo","Address":"3190 E ROBINSON AVE","Description":"POSS CONTROLLED SUBS/Synthetics"},"type":"Feature","geometry":{"type":"Point","coordinates":[-94.095688,36.166648]}},{"properties":{"Name":"NONACT","City":"Springdale","Zip":72764.0,"Precision":"address","Month":2.0,"Longitude":-94.116744,"Apt":"B7","Latitude":36.166769,"State":"AR","Date":"2009/02/05","id":"a65sb5o0j6ks","Address":"1301 E ROBINSON AVE","Description":"CRIME PREVENTION PRESENTATION"},"type":"Feature","geometry":{"type":"Point","coordinates":[-94.116744,36.166769]}},{"properties":{"Name":"ARREST","City":"Springdale","Zip":72764.0,"Precision":"address","Month":2.0,"Longitude":-94.116744,"Apt":"A","Latitude":36.166769,"State":"AR","Date":"2009/02/11","id":"a65sb5nyo467","Address":"1301 E ROBINSON AVE","Description":"CARRYING A PROHIBITED WEAPON"},"type":"Feature","geometry":{"type":"Point","coordinates":[-94.116744,36.166769]}},{"properties":{"Name":"NONACT","City":"Springdale","Zip":72764.0,"Precision":"address","Month":2.0,"Longitude":-94.094262,"Apt":null,"Latitude":36.166815,"State":"AR","Date":"2009/02/11","id":"a65sb5k14un4","Address":"1983  BUTTERFIELD COACH RD","Description":"CRIMINAL TRESPASS"},"type":"Feature","geometry":{"type":"Point","coordinates":[-94.094262,36.166815]}},{"properties":{"Name":"NONACT","City":"Springdale","Zip":72764.0,"Precision":"address","Month":2.0,"Longitude":-94.106249,"Apt":null,"Latitude":36.166828,"State":"AR","Date":"2009/02/12","id":"a65sb5qm2qvz","Address":"2206 E ROBINSON AVE","Description":"BREAKING/ENTERING-ARTICLES FROM VEH"},"type":"Feature","geometry":{"type":"Point","coordinates":[-94.106249,36.166828]}},{"properties":{"Name":"ARREST","City":"Springdale","Zip":72764.0,"Precision":"address","Month":2.0,"Longitude":-94.125301,"Apt":null,"Latitude":36.166903,"State":"AR","Date":"2009/02/12","id":"a65sb5ske8r4","Address":"623 E ROBINSON AVE","Description":"DWI #4"},"type":"Feature","geometry":{"type":"Point","coordinates":[-94.125301,36.166903]}},{"properties":{"Name":"NONACT","City":"Springdale","Zip":72764.0,"Precision":"address","Month":2.0,"Longitude":-94.129496,"Apt":null,"Latitude":36.167007,"State":"AR","Date":"2009/02/03","id":"a65sb5tictn8","Address":"331 E ROBINSON AVE","Description":"THEFT OF PROPERTY/All other"},"type":"Feature","geometry":{"type":"Point","coordinates":[-94.129496,36.167007]}},{"properties":{"Name":"ARREST","City":"Springdale","Zip":72764.0,"Precision":"address","Month":2.0,"Longitude":-94.117266,"Apt":null,"Latitude":36.167044,"State":"AR","Date":"2009/02/08","id":"a65sb5rn31dd","Address":"1220 E ROBINSON AVE","Description":"POSS CONTROLLED SUBS/Synthetics"},"type":"Feature","geometry":{"type":"Point","coordinates":[-94.117266,36.167044]}},{"properties":{"Name":"ARREST","City":"Springdale","Zip":72764.0,"Precision":"address","Month":2.0,"Longitude":-94.094254,"Apt":null,"Latitude":36.167127,"State":"AR","Date":"2009/02/24","id":"a65sb5ngi3wz","Address":"1945  BUTTERFIELD COACH RD","Description":"THEFT OF PROPERTY/Shoplifting"},"type":"Feature","geometry":{"type":"Point","coordinates":[-94.094254,36.167127]}},{"properties":{"Name":"NONACT","City":"Springdale","Zip":72764.0,"Precision":"address","Month":2.0,"Longitude":-94.141379,"Apt":"RM111","Latitude":36.167144,"State":"AR","Date":"2009/02/03","id":"a65sb5spokta","Address":"2001 S THOMPSON ST","Description":"THEFT OF PROPERTY/All other"},"type":"Feature","geometry":{"type":"Point","coordinates":[-94.141379,36.167144]}},{"properties":{"Name":"ARREST","City":"Springdale","Zip":72764.0,"Precision":"address","Month":2.0,"Longitude":-94.141379,"Apt":null,"Latitude":36.167144,"State":"AR","Date":"2009/02/27","id":"a65sb5qsc4uc","Address":"2001 S THOMPSON ST","Description":"POSS CONTROLLED SUBS/Marijuana"},"type":"Feature","geometry":{"type":"Point","coordinates":[-94.141379,36.167144]}},{"properties":{"Name":"ARREST","City":"Springdale","Zip":72764.0,"Precision":"address","Month":2.0,"Longitude":-94.141379,"Apt":null,"Latitude":36.167144,"State":"AR","Date":"2009/02/25","id":"a65sb5rqf6uy","Address":"2001 S THOMPSON ST","Description":"S.N.A.P."},"type":"Feature","geometry":{"type":"Point","coordinates":[-94.141379,36.167144]}},{"properties":{"Name":"ARREST","City":"Springdale","Zip":72764.0,"Precision":"address","Month":2.0,"Longitude":-94.141383,"Apt":"D","Latitude":36.167145,"State":"AR","Date":"2009/02/19","id":"a65sb5nv7you","Address":"2005 S THOMPSON ST","Description":"UNKNOWING FURN/SELL ALCOHOL MINOR"},"type":"Feature","geometry":{"type":"Point","coordinates":[-94.141383,36.167145]}},{"properties":{"Name":"ARREST","City":"Springdale","Zip":72764.0,"Precision":"address","Month":2.0,"Longitude":-94.143799,"Apt":null,"Latitude":36.167157,"State":"AR","Date":"2009/02/04","id":"a65sb5wco4z1","Address":"2004 S PLEASANT ST","Description":"POSS W/INTENT TO MANUFACTURE/DRUGS"},"type":"Feature","geometry":{"type":"Point","coordinates":[-94.143799,36.167157]}},{"properties":{"Name":"NONACT","City":"Springdale","Zip":72764.0,"Precision":"address","Month":2.0,"Longitude":-94.143799,"Apt":null,"Latitude":36.167157,"State":"AR","Date":"2009/02/07","id":"a65sb5kzejxh","Address":"2004 S PLEASANT ST","Description":"THEFT OF PROPERTY/Parts &amp; accessory"},"type":"Feature","geometry":{"type":"Point","coordinates":[-94.143799,36.167157]}},{"properties":{"Name":"ARREST","City":"Springdale","Zip":72764.0,"Precision":"address","Month":2.0,"Longitude":-94.143799,"Apt":null,"Latitude":36.167157,"State":"AR","Date":"2009/02/05","id":"a65sb5k386yc","Address":"2004 S PLEASANT ST","Description":"THEFT OF PROPERTY/Shoplifting"},"type":"Feature","geometry":{"type":"Point","coordinates":[-94.143799,36.167157]}},{"properties":{"Name":"REF WARRANT","City":"Springdale","Zip":72764.0,"Precision":"address","Month":2.0,"Longitude":-94.143799,"Apt":null,"Latitude":36.167157,"State":"AR","Date":"2009/02/21","id":"a65sb5n53k9l","Address":"2004 S PLEASANT ST","Description":"KIDNAPING"},"type":"Feature","geometry":{"type":"Point","coordinates":[-94.143799,36.167157]}},{"properties":{"Name":"ARREST","City":"Springdale","Zip":72764.0,"Precision":"address","Month":2.0,"Longitude":-94.143799,"Apt":null,"Latitude":36.167157,"State":"AR","Date":"2009/02/01","id":"a65sb5tfds8m","Address":"2004 S PLEASANT ST","Description":"THEFT OF PROPERTY/Shoplifting"},"type":"Feature","geometry":{"type":"Point","coordinates":[-94.143799,36.167157]}},{"properties":{"Name":"ARREST","City":"Springdale","Zip":72764.0,"Precision":"address","Month":2.0,"Longitude":-94.143799,"Apt":null,"Latitude":36.167157,"State":"AR","Date":"2009/02/07","id":"a65sb5k9siln","Address":"2004 S PLEASANT ST","Description":"THEFT OF PROPERTY/Shoplifting"},"type":"Feature","geometry":{"type":"Point","coordinates":[-94.143799,36.167157]}},{"properties":{"Name":"ARREST","City":"Springdale","Zip":72764.0,"Precision":"address","Month":2.0,"Longitude":-94.143799,"Apt":null,"Latitude":36.167157,"State":"AR","Date":"2009/02/13","id":"a65sb5pkb64n","Address":"2004 S PLEASANT ST","Description":"THEFT OF PROPERTY/Shoplifting"},"type":"Feature","geometry":{"type":"Point","coordinates":[-94.143799,36.167157]}},{"properties":{"Name":"NONACT","City":"Springdale","Zip":72764.0,"Precision":"address","Month":2.0,"Longitude":-94.143799,"Apt":null,"Latitude":36.167157,"State":"AR","Date":"2009/02/17","id":"a65sb5kxic63","Address":"2004 S PLEASANT ST","Description":"THEFT OF PROPERTY/All other"},"type":"Feature","geometry":{"type":"Point","coordinates":[-94.143799,36.167157]}},{"properties":{"Name":"ARREST","City":"Springdale","Zip":72764.0,"Precision":"address","Month":2.0,"Longitude":-94.143799,"Apt":null,"Latitude":36.167157,"State":"AR","Date":"2009/02/06","id":"a65sb5poeqno","Address":"2004 S PLEASANT ST","Description":"THEFT OF PROPERTY/Shoplifting"},"type":"Feature","geometry":{"type":"Point","coordinates":[-94.143799,36.167157]}},{"properties":{"Name":"ARREST","City":"Springdale","Zip":72764.0,"Precision":"address","Month":2.0,"Longitude":-94.143799,"Apt":null,"Latitude":36.167157,"State":"AR","Date":"2009/02/20","id":"a65sb5wchrmc","Address":"2004 S PLEASANT ST","Description":"THEFT OF PROPERTY/Shoplifting"},"type":"Feature","geometry":{"type":"Point","coordinates":[-94.143799,36.167157]}},{"properties":{"Name":"ARREST","City":"Springdale","Zip":72764.0,"Precision":"address","Month":2.0,"Longitude":-94.143799,"Apt":null,"Latitude":36.167157,"State":"AR","Date":"2009/02/27","id":"a65sb5kbuz6c","Address":"2004 S PLEASANT ST","Description":"THEFT OF PROPERTY/Shoplifting"},"type":"Feature","geometry":{"type":"Point","coordinates":[-94.143799,36.167157]}},{"properties":{"Name":"NONACT","City":"Springdale","Zip":72764.0,"Precision":"address","Month":2.0,"Longitude":-94.143799,"Apt":null,"Latitude":36.167157,"State":"AR","Date":"2009/02/02","id":"a65sb5uvgtpz","Address":"2004 S PLEASANT ST","Description":"FRAUDULENT USE OF CREDIT CARD"},"type":"Feature","geometry":{"type":"Point","coordinates":[-94.143799,36.167157]}},{"properties":{"Name":"ARREST","City":"Springdale","Zip":72764.0,"Precision":"address","Month":2.0,"Longitude":-94.143799,"Apt":null,"Latitude":36.167157,"State":"AR","Date":"2009/02/16","id":"a65sb5ka1j2x","Address":"2004 S PLEASANT ST","Description":"THEFT OF PROPERTY/Shoplifting"},"type":"Feature","geometry":{"type":"Point","coordinates":[-94.143799,36.167157]}},{"properties":{"Name":"ARREST","City":"Springdale","Zip":72764.0,"Precision":"address","Month":2.0,"Longitude":-94.143799,"Apt":null,"Latitude":36.167157,"State":"AR","Date":"2009/02/06","id":"a65sb5quaid7","Address":"2004 S PLEASANT ST","Description":"THEFT OF PROPERTY/Shoplifting"},"type":"Feature","geometry":{"type":"Point","coordinates":[-94.143799,36.167157]}},{"properties":{"Name":"ARREST","City":"Springdale","Zip":72764.0,"Precision":"address","Month":2.0,"Longitude":-94.143799,"Apt":null,"Latitude":36.167157,"State":"AR","Date":"2009/02/20","id":"a65sb5lcvarx","Address":"2004 S PLEASANT ST","Description":"THEFT OF PROPERTY/Shoplifting"},"type":"Feature","geometry":{"type":"Point","coordinates":[-94.143799,36.167157]}},{"properties":{"Name":"ARREST","City":"Springdale","Zip":72764.0,"Precision":"address","Month":2.0,"Longitude":-94.143799,"Apt":null,"Latitude":36.167157,"State":"AR","Date":"2009/02/02","id":"a65sb5wzzndr","Address":"2004 S PLEASANT ST","Description":"THEFT OF PROPERTY/Shoplifting"},"type":"Feature","geometry":{"type":"Point","coordinates":[-94.143799,36.167157]}},{"properties":{"Name":"ARREST","City":"Springdale","Zip":72764.0,"Precision":"address","Month":2.0,"Longitude":-94.143799,"Apt":null,"Latitude":36.167181,"State":"AR","Date":"2009/02/06","id":"a65sb5ygejpy","Address":"2000 S PLEASANT ST","Description":"CARRYING A PROHIBITED WEAPON"},"type":"Feature","geometry":{"type":"Point","coordinates":[-94.143799,36.167181]}},{"properties":{"Name":"ARREST","City":"Springdale","Zip":72764.0,"Precision":"address","Month":2.0,"Longitude":-94.124278,"Apt":null,"Latitude":36.167197,"State":"AR","Date":"2009/02/19","id":"a65sb5xqdo2k","Address":"700 E ROBINSON AVE","Description":"POSSESSION DRUG PARAPHERNALIA"},"type":"Feature","geometry":{"type":"Point","coordinates":[-94.124278,36.167197]}},{"properties":{"Name":"ARREST","City":"Springdale","Zip":72764.0,"Precision":"address","Month":2.0,"Longitude":-94.14124,"Apt":null,"Latitude":36.167202,"State":"AR","Date":"2009/02/17","id":"a65sb5n2x02x","Address":"1817 S THOMPSON ST","Description":"ASSAULT 3RD DEG"},"type":"Feature","geometry":{"type":"Point","coordinates":[-94.14124,36.167202]}},{"properties":{"Name":"UNFOUNDED","City":"Springdale","Zip":72764.0,"Precision":"address","Month":2.0,"Longitude":-94.14124,"Apt":null,"Latitude":36.167202,"State":"AR","Date":"2009/02/17","id":"a65sb5uy7l9x","Address":"1817 S THOMPSON ST","Description":"BATTERY 3RD-Cause injury"},"type":"Feature","geometry":{"type":"Point","coordinates":[-94.14124,36.167202]}},{"properties":{"Name":"ARREST","City":"Springdale","Zip":72764.0,"Precision":"address","Month":2.0,"Longitude":-94.14124,"Apt":null,"Latitude":36.167202,"State":"AR","Date":"2009/02/10","id":"a65sb5mwkva4","Address":"1817 S THOMPSON ST","Description":"TAMPERING WITH EVIDENCE"},"type":"Feature","geometry":{"type":"Point","coordinates":[-94.14124,36.167202]}},{"properties":{"Name":"ARREST","City":"Springdale","Zip":72764.0,"Precision":"address","Month":2.0,"Longitude":-94.14124,"Apt":null,"Latitude":36.167202,"State":"AR","Date":"2009/02/10","id":"a65sb5key9j1","Address":"1817 S THOMPSON ST","Description":"FORGERY 1ST DEG"},"type":"Feature","geometry":{"type":"Point","coordinates":[-94.14124,36.167202]}},{"properties":{"Name":"NONACT","City":"Springdale","Zip":72764.0,"Precision":"address","Month":2.0,"Longitude":-94.141486,"Apt":null,"Latitude":36.167281,"State":"AR","Date":"2009/02/21","id":"a65sb5pr66xh","Address":"2002 S THOMPSON AVE","Description":"BREAKING/ENTERING-ARTICLES FROM VEH"},"type":"Feature","geometry":{"type":"Point","coordinates":[-94.141486,36.167281]}},{"properties":{"Name":"REF WARRANT","City":"Springdale","Zip":72764.0,"Precision":"address","Month":2.0,"Longitude":-94.141452,"Apt":null,"Latitude":36.167357,"State":"AR","Date":"2009/02/18","id":"a65sb5jmxa76","Address":"1910 S THOMPSON ST","Description":"DEFRAUDING A SECURED CREDITOR"},"type":"Feature","geometry":{"type":"Point","coordinates":[-94.141452,36.167357]}},{"properties":{"Name":"NONACT","City":"Springdale","Zip":72764.0,"Precision":"address","Month":2.0,"Longitude":-94.12555,"Apt":null,"Latitude":36.168391,"State":"AR","Date":"2009/02/07","id":"a65sb5t6opgn","Address":"605  HUCKLEBERRY LN","Description":"UNATTENDED DEATH"},"type":"Feature","geometry":{"type":"Point","coordinates":[-94.12555,36.168391]}},{"properties":{"Name":"NONACT","City":"Springdale","Zip":72764.0,"Precision":"address","Month":2.0,"Longitude":-94.1505,"Apt":null,"Latitude":36.168415,"State":"AR","Date":"2009/02/05","id":"a65sb5p60c8s","Address":"1906  CAMBRIDGE ST","Description":"THEFT OF PROPERTY/All other"},"type":"Feature","geometry":{"type":"Point","coordinates":[-94.1505,36.168415]}},{"properties":{"Name":"NONACT","City":"Springdale","Zip":72764.0,"Precision":"address","Month":2.0,"Longitude":-94.1505,"Apt":null,"Latitude":36.168415,"State":"AR","Date":"2009/02/07","id":"a65sb5ml98ny","Address":"1906  CAMBRIDGE ST","Description":"THEFT OF PROPERTY/All other"},"type":"Feature","geometry":{"type":"Point","coordinates":[-94.1505,36.168415]}},{"properties":{"Name":"NONACT","City":"Springdale","Zip":72764.0,"Precision":"address","Month":2.0,"Longitude":-94.174787,"Apt":null,"Latitude":36.168855,"State":"AR","Date":"2009/02/26","id":"a65sb5u10f8m","Address":"1701 S 40TH ST","Description":"THEFT OF BICYCLE"},"type":"Feature","geometry":{"type":"Point","coordinates":[-94.174787,36.168855]}},{"properties":{"Name":"NONACT","City":"Springdale","Zip":72764.0,"Precision":"address","Month":2.0,"Longitude":-94.125617,"Apt":null,"Latitude":36.168863,"State":"AR","Date":"2009/02/02","id":"a65sb5tt6h5o","Address":"1803  POWELL ST","Description":"S.N.A.P."},"type":"Feature","geometry":{"type":"Point","coordinates":[-94.125617,36.168863]}},{"properties":{"Name":"EXCEPT","City":"Springdale","Zip":72764.0,"Precision":"address","Month":2.0,"Longitude":-94.103718,"Apt":null,"Latitude":36.16903,"State":"AR","Date":"2009/02/20","id":"a65sb5ttwy8t","Address":"1795  DICK SMITH ST","Description":"RUNAWAY"},"type":"Feature","geometry":{"type":"Point","coordinates":[-94.103718,36.16903]}},{"properties":{"Name":"NONACT","City":"Springdale","Zip":72764.0,"Precision":"address","Month":2.0,"Longitude":-94.146531,"Apt":"APT104","Latitude":36.169045,"State":"AR","Date":"2009/02/04","id":"a65sb5m54l9e","Address":"1453  IONE PL","Description":"BREAKING/ENTERING-ARTICLES FROM VEH"},"type":"Feature","geometry":{"type":"Point","coordinates":[-94.146531,36.169045]}},{"properties":{"Name":"REF WARRANT","City":"Springdale","Zip":72764.0,"Precision":"address","Month":2.0,"Longitude":-94.146953,"Apt":"APT103","Latitude":36.169057,"State":"AR","Date":"2009/02/10","id":"a65sb5sqwxe5","Address":"1501  IONE PL","Description":"CONTRIBUTE TO DELINQUENCY OF MINOR"},"type":"Feature","geometry":{"type":"Point","coordinates":[-94.146953,36.169057]}},{"properties":{"Name":"NONACT","City":"Springdale","Zip":72764.0,"Precision":"address","Month":2.0,"Longitude":-94.143427,"Apt":"A","Latitude":36.169219,"State":"AR","Date":"2009/02/08","id":"a65sb5kxygu3","Address":"1807 S PLEASANT ST","Description":"THEFT OF PROPERTY/All other"},"type":"Feature","geometry":{"type":"Point","coordinates":[-94.143427,36.169219]}},{"properties":{"Name":"NONACT","City":"Springdale","Zip":72764.0,"Precision":"address","Month":2.0,"Longitude":-94.12436,"Apt":null,"Latitude":36.1693,"State":"AR","Date":"2009/02/12","id":"a65sb5zgeq2u","Address":"707  JAMES AVE","Description":"THEFT OF PROPERTY/All other"},"type":"Feature","geometry":{"type":"Point","coordinates":[-94.12436,36.1693]}},{"properties":{"Name":"NONACT","City":"Springdale","Zip":72764.0,"Precision":"address","Month":2.0,"Longitude":-94.12436,"Apt":null,"Latitude":36.1693,"State":"AR","Date":"2009/02/11","id":"a65sb5v39sjb","Address":"707  JAMES AVE","Description":"THEFT OF PROPERTY/All other"},"type":"Feature","geometry":{"type":"Point","coordinates":[-94.12436,36.1693]}},{"properties":{"Name":"NONACT","City":"Springdale","Zip":72764.0,"Precision":"address","Month":2.0,"Longitude":-94.125428,"Apt":null,"Latitude":36.169304,"State":"AR","Date":"2009/02/07","id":"a65sb5mamjui","Address":"607  JAMES AVE","Description":"MOTOR VEHICLE THEFT"},"type":"Feature","geometry":{"type":"Point","coordinates":[-94.125428,36.169304]}},{"properties":{"Name":"UNFOUNDED","City":"Springdale","Zip":72764.0,"Precision":"address","Month":2.0,"Longitude":-94.177146,"Apt":"104","Latitude":36.169422,"State":"AR","Date":"2009/02/08","id":"a65sb5vxktpg","Address":"4225  SAINT ANDREWS AVE","Description":"BATTERY 3RD DEG DOMESTIC"},"type":"Feature","geometry":{"type":"Point","coordinates":[-94.177146,36.169422]}},{"properties":{"Name":"ACTIVE","City":"Springdale","Zip":72764.0,"Precision":"address","Month":2.0,"Longitude":-94.131948,"Apt":null,"Latitude":36.169754,"State":"AR","Date":"2009/02/12","id":"a65sb5o4qoql","Address":"215  RAEDELS AVE","Description":"BATTERY 3RD-Cause injury"},"type":"Feature","geometry":{"type":"Point","coordinates":[-94.131948,36.169754]}},{"properties":{"Name":"NONACT","City":"Springdale","Zip":72764.0,"Precision":"address","Month":2.0,"Longitude":-94.13004,"Apt":null,"Latitude":36.169988,"State":"AR","Date":"2009/02/24","id":"a65sb5vz5rwy","Address":"1313  CRUTCHER ST","Description":"FALSE EVIDENCE TITLE/REGISTRATION"},"type":"Feature","geometry":{"type":"Point","coordinates":[-94.13004,36.169988]}},{"properties":{"Name":"ACTIVE","City":"Springdale","Zip":72764.0,"Precision":"address","Month":2.0,"Longitude":-94.126778,"Apt":"A","Latitude":36.170054,"State":"AR","Date":"2009/02/28","id":"a65sb5z608fl","Address":"507  TYSON AVE","Description":"ANIMAL BITE REPORT"},"type":"Feature","geometry":{"type":"Point","coordinates":[-94.126778,36.170054]}},{"properties":{"Name":"NONACT","City":"Springdale","Zip":72764.0,"Precision":"address","Month":2.0,"Longitude":-94.129996,"Apt":"C","Latitude":36.170362,"State":"AR","Date":"2009/02/09","id":"a65sb5lw9644","Address":"1305  CRUTCHER ST","Description":"FINANCIAL IDENTITY FRAUD"},"type":"Feature","geometry":{"type":"Point","coordinates":[-94.129996,36.170362]}},{"properties":{"Name":"NONACT","City":"Springdale","Zip":72764.0,"Precision":"address","Month":2.0,"Longitude":-94.129996,"Apt":"C206","Latitude":36.170362,"State":"AR","Date":"2009/02/10","id":"a65sb5tavd82","Address":"1305  CRUTCHER ST","Description":"TERRORISTIC THREATENING"},"type":"Feature","geometry":{"type":"Point","coordinates":[-94.129996,36.170362]}},{"properties":{"Name":"ARREST","City":"Springdale","Zip":72764.0,"Precision":"address","Month":2.0,"Longitude":-94.141047,"Apt":null,"Latitude":36.170752,"State":"AR","Date":"2009/02/26","id":"a65sb5sw3vtf","Address":"1405  INGRAM ST","Description":"THEFT OF PROPERTY/All other"},"type":"Feature","geometry":{"type":"Point","coordinates":[-94.141047,36.170752]}},{"properties":{"Name":"NONACT","City":"Springdale","Zip":72764.0,"Precision":"address","Month":2.0,"Longitude":-94.101103,"Apt":"B","Latitude":36.170791,"State":"AR","Date":"2009/02/27","id":"a65sb5qwbjgu","Address":"2736  KASEY AVE","Description":"CRIMINAL MISCHIEF 1ST-Purposely"},"type":"Feature","geometry":{"type":"Point","coordinates":[-94.101103,36.170791]}},{"properties":{"Name":"ARREST","City":"Springdale","Zip":72764.0,"Precision":"address","Month":2.0,"Longitude":-94.148103,"Apt":null,"Latitude":36.170816,"State":"AR","Date":"2009/02/06","id":"a65sb5wk1tw9","Address":"1600  PRINCETON AVE","Description":"ASSAULT ON POLICE OFFICER"},"type":"Feature","geometry":{"type":"Point","coordinates":[-94.148103,36.170816]}},{"properties":{"Name":"NONACT","City":"Springdale","Zip":72764.0,"Precision":"address","Month":2.0,"Longitude":-94.103025,"Apt":"A","Latitude":36.170818,"State":"AR","Date":"2009/02/04","id":"a65sb5s912c1","Address":"2566  KASEY AVE","Description":"BREAKING/ENTERING-ARTICLES FROM VEH"},"type":"Feature","geometry":{"type":"Point","coordinates":[-94.103025,36.170818]}},{"properties":{"Name":"NONACT","City":"Springdale","Zip":72764.0,"Precision":"address","Month":2.0,"Longitude":-94.141827,"Apt":null,"Latitude":36.170876,"State":"AR","Date":"2009/02/10","id":"a65sb5t7r8y6","Address":"701  PORTER AVE","Description":"CRIMINAL MISCHIEF 2ND-Tampers"},"type":"Feature","geometry":{"type":"Point","coordinates":[-94.141827,36.170876]}},{"properties":{"Name":"ARREST","City":"Springdale","Zip":72764.0,"Precision":"address","Month":2.0,"Longitude":-94.150375,"Apt":null,"Latitude":36.170959,"State":"AR","Date":"2009/02/05","id":"a65sb5say2b7","Address":"1807  PRINCETON AVE","Description":"CRIMINAL MISCHIEF 2ND-Tampers"},"type":"Feature","geometry":{"type":"Point","coordinates":[-94.150375,36.170959]}},{"properties":{"Name":"ARREST","City":"Springdale","Zip":72764.0,"Precision":"address","Month":2.0,"Longitude":-94.150375,"Apt":null,"Latitude":36.170959,"State":"AR","Date":"2009/02/20","id":"a65sb5l46db4","Address":"1807  PRINCETON AVE","Description":"POSS CONTROLLED SUBS/other drugs"},"type":"Feature","geometry":{"type":"Point","coordinates":[-94.150375,36.170959]}},{"properties":{"Name":"ARREST","City":"Springdale","Zip":72764.0,"Precision":"address","Month":2.0,"Longitude":-94.150375,"Apt":null,"Latitude":36.170959,"State":"AR","Date":"2009/02/27","id":"a65sb5o5d42n","Address":"1807  PRINCETON AVE","Description":"DISORDERLY CONDUCT-FIGHT/TUMULTUOUS"},"type":"Feature","geometry":{"type":"Point","coordinates":[-94.150375,36.170959]}},{"properties":{"Name":"ARREST","City":"Springdale","Zip":72764.0,"Precision":"address","Month":2.0,"Longitude":-94.150375,"Apt":null,"Latitude":36.170959,"State":"AR","Date":"2009/02/12","id":"a65sb5p0z53y","Address":"1807  PRINCETON AVE","Description":"BATTERY 2ND DEG ON POLICE OFFICER"},"type":"Feature","geometry":{"type":"Point","coordinates":[-94.150375,36.170959]}},{"properties":{"Name":"NONACT","City":"Springdale","Zip":72764.0,"Precision":"address","Month":2.0,"Longitude":-94.150375,"Apt":null,"Latitude":36.170959,"State":"AR","Date":"2009/02/24","id":"a65sb5n8mp21","Address":"1807  PRINCETON AVE","Description":"THEFT OF PROPERTY/All other"},"type":"Feature","geometry":{"type":"Point","coordinates":[-94.150375,36.170959]}},{"properties":{"Name":"ARREST","City":"Springdale","Zip":72764.0,"Precision":"address","Month":2.0,"Longitude":-94.141482,"Apt":null,"Latitude":36.171139,"State":"AR","Date":"2009/02/20","id":"a65sb5lqq1oo","Address":"610  PORTER AVE","Description":"THEFT OF PROPERTY/All other"},"type":"Feature","geometry":{"type":"Point","coordinates":[-94.141482,36.171139]}},{"properties":{"Name":"NONACT","City":"Springdale","Zip":72764.0,"Precision":"address","Month":2.0,"Longitude":-94.101702,"Apt":"A","Latitude":36.171436,"State":"AR","Date":"2009/02/03","id":"a65sb5w06m5g","Address":"2665  RUTH AVE","Description":"BREAKING/ENTERING (except vehicles)"},"type":"Feature","geometry":{"type":"Point","coordinates":[-94.101702,36.171436]}},{"properties":{"Name":"NONACT","City":"Springdale","Zip":72764.0,"Precision":"address","Month":2.0,"Longitude":-94.154326,"Apt":null,"Latitude":36.171563,"State":"AR","Date":"2009/02/19","id":"a65sb5uiuy0v","Address":"1901  MELISSA LN","Description":"FRAUDULENT USE OF CREDIT CARD"},"type":"Feature","geometry":{"type":"Point","coordinates":[-94.154326,36.171563]}},{"properties":{"Name":"ARREST","City":"Springdale","Zip":72764.0,"Precision":"address","Month":2.0,"Longitude":-94.111767,"Apt":"A","Latitude":36.171608,"State":"AR","Date":"2009/02/15","id":"a65sb5rtr6pm","Address":"1608  THRUSH ST","Description":"FLIGHT FROM AN OFFICER (VEHICLE)"},"type":"Feature","geometry":{"type":"Point","coordinates":[-94.111767,36.171608]}},{"properties":{"Name":"EXCEPT","City":"Springdale","Zip":72764.0,"Precision":"address","Month":2.0,"Longitude":-94.111071,"Apt":"B","Latitude":36.171668,"State":"AR","Date":"2009/02/09","id":"a65sb5qhrjkr","Address":"2011  ASHLEE DR","Description":"RUNAWAY"},"type":"Feature","geometry":{"type":"Point","coordinates":[-94.111071,36.171668]}},{"properties":{"Name":"NONACT","City":"Springdale","Zip":72764.0,"Precision":"address","Month":2.0,"Longitude":-94.183754,"Apt":null,"Latitude":36.172176,"State":"AR","Date":"2009/02/13","id":"a65sb5muu0zz","Address":"1500 S 48TH ST","Description":"THEFT OF PROPERTY/All other"},"type":"Feature","geometry":{"type":"Point","coordinates":[-94.183754,36.172176]}},{"properties":{"Name":"NONACT","City":"Springdale","Zip":72764.0,"Precision":"address","Month":2.0,"Longitude":-94.183754,"Apt":null,"Latitude":36.172176,"State":"AR","Date":"2009/02/07","id":"a65sb5puo3x2","Address":"1500 S 48TH ST","Description":"THEFT OF PROPERTY/All other"},"type":"Feature","geometry":{"type":"Point","coordinates":[-94.183754,36.172176]}},{"properties":{"Name":"ARREST","City":"Springdale","Zip":72764.0,"Precision":"address","Month":2.0,"Longitude":-94.138869,"Apt":"RM129","Latitude":36.172287,"State":"AR","Date":"2009/02/09","id":"a65sb5upuemo","Address":"1219 S THOMPSON ST","Description":"BATTERY 3RD DEG DOMESTIC"},"type":"Feature","geometry":{"type":"Point","coordinates":[-94.138869,36.172287]}},{"properties":{"Name":"ARREST","City":"Springdale","Zip":72764.0,"Precision":"address","Month":2.0,"Longitude":-94.157531,"Apt":null,"Latitude":36.172297,"State":"AR","Date":"2009/02/16","id":"a65sb5tguj6o","Address":"2447  JOHNSON MEADOWS PL","Description":"BATTERY 3RD DEG DOMESTIC"},"type":"Feature","geometry":{"type":"Point","coordinates":[-94.157531,36.172297]}},{"properties":{"Name":"REF WARRANT","City":"Springdale","Zip":72764.0,"Precision":"address","Month":2.0,"Longitude":-94.139199,"Apt":null,"Latitude":36.172454,"State":"AR","Date":"2009/02/11","id":"a65sb5mx3c1z","Address":"1208 S THOMPSON ST","Description":"FELON IN POSSESSION OF FIREARM"},"type":"Feature","geometry":{"type":"Point","coordinates":[-94.139199,36.172454]}},{"properties":{"Name":"ARREST","City":"Springdale","Zip":72764.0,"Precision":"address","Month":2.0,"Longitude":-94.139198,"Apt":"RM36","Latitude":36.172486,"State":"AR","Date":"2009/02/03","id":"a65sb5sk8jch","Address":"1206 S THOMPSON ST","Description":"POSS CONTROLLED SUBS/Synthetics"},"type":"Feature","geometry":{"type":"Point","coordinates":[-94.139198,36.172486]}},{"properties":{"Name":"EXCEPT","City":"Springdale","Zip":72764.0,"Precision":"address","Month":2.0,"Longitude":-94.155467,"Apt":null,"Latitude":36.172506,"State":"AR","Date":"2009/02/16","id":"a65sb5zirw5u","Address":"2005  ROBYN","Description":"UNAUTHORIZED USE OF MOTOR VEHICLE"},"type":"Feature","geometry":{"type":"Point","coordinates":[-94.155467,36.172506]}},{"properties":{"Name":"ARREST","City":"Springdale","Zip":72764.0,"Precision":"address","Month":2.0,"Longitude":-94.15873,"Apt":"APT202","Latitude":36.172601,"State":"AR","Date":"2009/02/20","id":"a65sb5qjdpt3","Address":"2608  JOHNSON MEADOWS PL","Description":"BURGLARY-RESIDENTIAL"},"type":"Feature","geometry":{"type":"Point","coordinates":[-94.15873,36.172601]}},{"properties":{"Name":"REF WARRANT","City":"Springdale","Zip":72764.0,"Precision":"address","Month":2.0,"Longitude":-94.159882,"Apt":"APT 202","Latitude":36.172635,"State":"AR","Date":"2009/02/03","id":"a65sb5uqxm3z","Address":"2762  JOHNSON MEADOWS PL","Description":"BATTERY 3RD-Cause injury"},"type":"Feature","geometry":{"type":"Point","coordinates":[-94.159882,36.172635]}},{"properties":{"Name":"REF WARRANT","City":"Springdale","Zip":72764.0,"Precision":"address","Month":2.0,"Longitude":-94.108416,"Apt":"A","Latitude":36.17269,"State":"AR","Date":"2009/02/26","id":"a65sb5zivatd","Address":"1608  ORIOLE ST","Description":"INCEST"},"type":"Feature","geometry":{"type":"Point","coordinates":[-94.108416,36.17269]}},{"properties":{"Name":"ARREST","City":"Springdale","Zip":72764.0,"Precision":"address","Month":2.0,"Longitude":-94.183732,"Apt":null,"Latitude":36.173303,"State":"AR","Date":"2009/02/27","id":"a65sb5jsnx7n","Address":"1420 S 48TH ST","Description":"TERRORISTIC THREATENING"},"type":"Feature","geometry":{"type":"Point","coordinates":[-94.183732,36.173303]}},{"properties":{"Name":"NONACT","City":"Springdale","Zip":72764.0,"Precision":"address","Month":2.0,"Longitude":-94.172117,"Apt":null,"Latitude":36.173316,"State":"AR","Date":"2009/02/06","id":"a65sb5llv9jv","Address":"1402  AUSTIN ST","Description":"CRIMINAL MISCHIEF 1ST-Purposely"},"type":"Feature","geometry":{"type":"Point","coordinates":[-94.172117,36.173316]}},{"properties":{"Name":"NONACT","City":"Springdale","Zip":72764.0,"Precision":"address","Month":2.0,"Longitude":-94.153047,"Apt":"APT21","Latitude":36.173683,"State":"AR","Date":"2009/02/15","id":"a65sb5umxt61","Address":"2100  CARLTON ST","Description":"BATTERY 3RD DEG DOMESTIC"},"type":"Feature","geometry":{"type":"Point","coordinates":[-94.153047,36.173683]}},{"properties":{"Name":"ARREST","City":"Springdale","Zip":72764.0,"Precision":"address","Month":2.0,"Longitude":-94.126638,"Apt":"APT107","Latitude":36.173999,"State":"AR","Date":"2009/02/01","id":"a65sb5lawz4h","Address":"510  CHARLES ST","Description":"BATTERY 3RD DEG DOMESTIC"},"type":"Feature","geometry":{"type":"Point","coordinates":[-94.126638,36.173999]}},{"properties":{"Name":"NONACT","City":"Springdale","Zip":72764.0,"Precision":"address","Month":2.0,"Longitude":-94.13741,"Apt":null,"Latitude":36.174035,"State":"AR","Date":"2009/02/04","id":"a65sb5wjwsy7","Address":"1211  YOUNG ST","Description":"BREAKING/ENTERING-ARTICLES FROM VEH"},"type":"Feature","geometry":{"type":"Point","coordinates":[-94.13741,36.174035]}},{"properties":{"Name":"ARREST","City":"Springdale","Zip":72764.0,"Precision":"address","Month":2.0,"Longitude":-94.108082,"Apt":null,"Latitude":36.174062,"State":"AR","Date":"2009/02/16","id":"a65sb5u3s3sv","Address":"1501  ORIOLE ST","Description":"BATTERY 3RD DEG DOMESTIC"},"type":"Feature","geometry":{"type":"Point","coordinates":[-94.108082,36.174062]}},{"properties":{"Name":"EXCEPT","City":"Springdale","Zip":72764.0,"Precision":"address","Month":2.0,"Longitude":-94.098398,"Apt":"B","Latitude":36.174071,"State":"AR","Date":"2009/02/27","id":"a65sb5yduap2","Address":"2921  JERRI LN","Description":"CRIMINAL MISCHIEF 2ND-Tampers"},"type":"Feature","geometry":{"type":"Point","coordinates":[-94.098398,36.174071]}},{"properties":{"Name":"NONACT","City":"Springdale","Zip":72764.0,"Precision":"address","Month":2.0,"Longitude":-94.136754,"Apt":"A","Latitude":36.174363,"State":"AR","Date":"2009/02/27","id":"a65sb5kdafpw","Address":"311 W SUNSET AVE","Description":"THEFT OF PROPERTY/All other"},"type":"Feature","geometry":{"type":"Point","coordinates":[-94.136754,36.174363]}},{"properties":{"Name":"ARREST","City":"Springdale","Zip":72764.0,"Precision":"address","Month":2.0,"Longitude":-94.136754,"Apt":"A","Latitude":36.174363,"State":"AR","Date":"2009/02/22","id":"a65sb5ktpvz7","Address":"311 W SUNSET AVE","Description":"POSS CONTROLLED SUBS/Marijuana"},"type":"Feature","geometry":{"type":"Point","coordinates":[-94.136754,36.174363]}},{"properties":{"Name":"ARREST","City":"Springdale","Zip":72764.0,"Precision":"address","Month":2.0,"Longitude":-94.16285,"Apt":null,"Latitude":36.174511,"State":"AR","Date":"2009/02/14","id":"a65sb5mpviiv","Address":"1375  MARKET SQUARE DR","Description":"THEFT OF PROPERTY/Shoplifting"},"type":"Feature","geometry":{"type":"Point","coordinates":[-94.16285,36.174511]}},{"properties":{"Name":"REF WARRANT","City":"Springdale","Zip":72764.0,"Precision":"address","Month":2.0,"Longitude":-94.16285,"Apt":"A","Latitude":36.174511,"State":"AR","Date":"2009/02/26","id":"a65sb5y2jwew","Address":"1375  MARKET SQUARE DR","Description":"FRAUDULENT USE OF CREDIT CARD"},"type":"Feature","geometry":{"type":"Point","coordinates":[-94.16285,36.174511]}},{"properties":{"Name":"NONACT","City":"Springdale","Zip":72764.0,"Precision":"address","Month":2.0,"Longitude":-94.140807,"Apt":null,"Latitude":36.174717,"State":"AR","Date":"2009/02/19","id":"a65sb5mz6p81","Address":"806 W SUNSET AVE","Description":"THEFT OF PROPERTY/Shoplifting"},"type":"Feature","geometry":{"type":"Point","coordinates":[-94.140807,36.174717]}},{"properties":{"Name":"REF WARRANT","City":"Springdale","Zip":72764.0,"Precision":"address","Month":2.0,"Longitude":-94.140789,"Apt":null,"Latitude":36.174717,"State":"AR","Date":"2009/02/23","id":"a65sb5w4wth8","Address":"802 W SUNSET AVE","Description":"THEFT BY RECEIVING"},"type":"Feature","geometry":{"type":"Point","coordinates":[-94.140789,36.174717]}},{"properties":{"Name":"NONACT","City":"Springdale","Zip":72764.0,"Precision":"address","Month":2.0,"Longitude":-94.156449,"Apt":null,"Latitude":36.174719,"State":"AR","Date":"2009/02/24","id":"a65sb5rtl1g6","Address":"2351 W SUNSET AVE","Description":"CRIMINAL MISCHIEF 2ND-Reck destroys"},"type":"Feature","geometry":{"type":"Point","coordinates":[-94.156449,36.174719]}},{"properties":{"Name":"ARREST","City":"Springdale","Zip":72764.0,"Precision":"address","Month":2.0,"Longitude":-94.156449,"Apt":null,"Latitude":36.174719,"State":"AR","Date":"2009/02/22","id":"a65sb5rxspwk","Address":"2351 W SUNSET AVE","Description":"POSSESSION DRUG PARAPHERNALIA"},"type":"Feature","geometry":{"type":"Point","coordinates":[-94.156449,36.174719]}},{"properties":{"Name":"ARREST","City":"Springdale","Zip":72764.0,"Precision":"address","Month":2.0,"Longitude":-94.156449,"Apt":null,"Latitude":36.174719,"State":"AR","Date":"2009/02/22","id":"a65sb5nn4ea0","Address":"2351 W SUNSET AVE","Description":"CRIMINAL MISCHIEF 2ND-Reck destroys"},"type":"Feature","geometry":{"type":"Point","coordinates":[-94.156449,36.174719]}},{"properties":{"Name":"REF WARRANT","City":"Springdale","Zip":72764.0,"Precision":"address","Month":2.0,"Longitude":-94.138836,"Apt":null,"Latitude":36.174722,"State":"AR","Date":"2009/02/24","id":"a65sb5sr0a15","Address":"1109 S THOMPSON ST","Description":"FORGERY 1ST DEG"},"type":"Feature","geometry":{"type":"Point","coordinates":[-94.138836,36.174722]}},{"properties":{"Name":"REF WARRANT","City":"Springdale","Zip":72764.0,"Precision":"address","Month":2.0,"Longitude":-94.138836,"Apt":null,"Latitude":36.174722,"State":"AR","Date":"2009/02/21","id":"a65sb5n0rdi9","Address":"1109 S THOMPSON ST","Description":"HARASSMENT-repeatedly cause alarm"},"type":"Feature","geometry":{"type":"Point","coordinates":[-94.138836,36.174722]}},{"properties":{"Name":"NONACT","City":"Springdale","Zip":72764.0,"Precision":"address","Month":2.0,"Longitude":-94.138836,"Apt":null,"Latitude":36.174722,"State":"AR","Date":"2009/02/07","id":"a65sb5r9gjj2","Address":"1109 S THOMPSON ST","Description":"MISSING PERSON"},"type":"Feature","geometry":{"type":"Point","coordinates":[-94.138836,36.174722]}},{"properties":{"Name":"ARREST","City":"Springdale","Zip":72764.0,"Precision":"address","Month":2.0,"Longitude":-94.14188,"Apt":null,"Latitude":36.174725,"State":"AR","Date":"2009/02/07","id":"a65sb5owbkqx","Address":"1046 W SUNSET AVE","Description":"BATTERY 2ND DEG DOMESTIC"},"type":"Feature","geometry":{"type":"Point","coordinates":[-94.14188,36.174725]}},{"properties":{"Name":"EXCEPT","City":"Springdale","Zip":72764.0,"Precision":"address","Month":2.0,"Longitude":-94.156269,"Apt":null,"Latitude":36.174778,"State":"AR","Date":"2009/02/12","id":"a65sb5jxk51d","Address":"2313 W SUNSET AVE","Description":"THEFT OF PROPERTY/All other"},"type":"Feature","geometry":{"type":"Point","coordinates":[-94.156269,36.174778]}},{"properties":{"Name":"ARREST","City":"Springdale","Zip":72764.0,"Precision":"address","Month":2.0,"Longitude":-94.148253,"Apt":null,"Latitude":36.174848,"State":"AR","Date":"2009/02/07","id":"a65sb5zx58c1","Address":"1600 W SUNSET AVE","Description":"POSSESSION DRUG PARAPHERNALIA"},"type":"Feature","geometry":{"type":"Point","coordinates":[-94.148253,36.174848]}},{"properties":{"Name":"UNFOUNDED","City":"Springdale","Zip":72764.0,"Precision":"address","Month":2.0,"Longitude":-94.099389,"Apt":"A","Latitude":36.174886,"State":"AR","Date":"2009/02/07","id":"a65sb5q5aafr","Address":"1157  VAN SOMEREN PL","Description":"BATTERY 1ST DEG DOMESTIC"},"type":"Feature","geometry":{"type":"Point","coordinates":[-94.099389,36.174886]}},{"properties":{"Name":"REF WARRANT","City":"Springdale","Zip":72764.0,"Precision":"address","Month":2.0,"Longitude":-94.150426,"Apt":"STE2","Latitude":36.17489,"State":"AR","Date":"2009/02/01","id":"a65sb5swcvr2","Address":"1810 W SUNSET AVE","Description":"ASSAULT 3RD DEG"},"type":"Feature","geometry":{"type":"Point","coordinates":[-94.150426,36.17489]}},{"properties":{"Name":"ARREST","City":"Springdale","Zip":72764.0,"Precision":"address","Month":2.0,"Longitude":-94.156811,"Apt":null,"Latitude":36.174903,"State":"AR","Date":"2009/02/13","id":"a65sb5vkxn5i","Address":"2400 W SUNSET AVE","Description":"THEFT OF PROPERTY/Shoplifting"},"type":"Feature","geometry":{"type":"Point","coordinates":[-94.156811,36.174903]}},{"properties":{"Name":"NONACT","City":"Springdale","Zip":72764.0,"Precision":"address","Month":2.0,"Longitude":-94.172509,"Apt":null,"Latitude":36.175003,"State":"AR","Date":"2009/02/02","id":"a65sb5sjq2ri","Address":"3819 W SUNSET AVE","Description":"BURGLARY-COMMERCIAL"},"type":"Feature","geometry":{"type":"Point","coordinates":[-94.172509,36.175003]}},{"properties":{"Name":"ARREST","City":"Springdale","Zip":72764.0,"Precision":"address","Month":2.0,"Longitude":-94.174983,"Apt":null,"Latitude":36.175042,"State":"AR","Date":"2009/02/22","id":"a65sb5mj8y9x","Address":"4031 W SUNSET AVE","Description":"POSS CONTROLLED SUBS/other drugs"},"type":"Feature","geometry":{"type":"Point","coordinates":[-94.174983,36.175042]}},{"properties":{"Name":"NONACT","City":"Springdale","Zip":72764.0,"Precision":"address","Month":2.0,"Longitude":-94.175186,"Apt":null,"Latitude":36.175045,"State":"AR","Date":"2009/02/18","id":"a65sb5y9agyu","Address":"4055 W SUNSET AVE","Description":"CRIMINAL MISCHIEF 2ND-Tampers"},"type":"Feature","geometry":{"type":"Point","coordinates":[-94.175186,36.175045]}},{"properties":{"Name":"NONACT","City":"Springdale","Zip":72764.0,"Precision":"address","Month":2.0,"Longitude":-94.100104,"Apt":"B","Latitude":36.175049,"State":"AR","Date":"2009/02/02","id":"a65sb5ocbgju","Address":"2765  BRAXTON AVE","Description":"THEFT OF PROPERTY/All other"},"type":"Feature","geometry":{"type":"Point","coordinates":[-94.100104,36.175049]}},{"properties":{"Name":"NONACT","City":"Springdale","Zip":72764.0,"Precision":"address","Month":2.0,"Longitude":-94.162158,"Apt":null,"Latitude":36.17509,"State":"AR","Date":"2009/02/03","id":"a65sb5l84wcu","Address":"2894 W SUNSET AVE","Description":"OBT CONTROL SUBSTANCE BY FRAUD"},"type":"Feature","geometry":{"type":"Point","coordinates":[-94.162158,36.17509]}},{"properties":{"Name":"NONACT","City":"Springdale","Zip":72764.0,"Precision":"address","Month":2.0,"Longitude":-94.162158,"Apt":null,"Latitude":36.17509,"State":"AR","Date":"2009/02/07","id":"a65sb5r82n32","Address":"2894 W SUNSET AVE","Description":"THEFT OF PROPERTY/Shoplifting"},"type":"Feature","geometry":{"type":"Point","coordinates":[-94.162158,36.17509]}},{"properties":{"Name":"NONACT","City":"Springdale","Zip":72764.0,"Precision":"address","Month":2.0,"Longitude":-94.162158,"Apt":null,"Latitude":36.17509,"State":"AR","Date":"2009/02/18","id":"a65sb5o7ka7g","Address":"2894 W SUNSET AVE","Description":"THEFT OF PROPERTY/Shoplifting"},"type":"Feature","geometry":{"type":"Point","coordinates":[-94.162158,36.17509]}},{"properties":{"Name":"REF WARRANT","City":"Springdale","Zip":72764.0,"Precision":"address","Month":2.0,"Longitude":-94.162158,"Apt":null,"Latitude":36.17509,"State":"AR","Date":"2009/02/24","id":"a65sb5rphmgg","Address":"2894 W SUNSET AVE","Description":"FORGERY 1ST DEG"},"type":"Feature","geometry":{"type":"Point","coordinates":[-94.162158,36.17509]}},{"properties":{"Name":"NONACT","City":"Springdale","Zip":72764.0,"Precision":"address","Month":2.0,"Longitude":-94.162463,"Apt":"G","Latitude":36.175096,"State":"AR","Date":"2009/02/27","id":"a65sb5khpagr","Address":"2940 W SUNSET AVE","Description":"BREAKING/ENTERING-ARTICLES FROM VEH"},"type":"Feature","geometry":{"type":"Point","coordinates":[-94.162463,36.175096]}},{"properties":{"Name":"NONACT","City":"Springdale","Zip":72764.0,"Precision":"address","Month":2.0,"Longitude":-94.111587,"Apt":"A","Latitude":36.175119,"State":"AR","Date":"2009/02/07","id":"a65sb5mxcfys","Address":"1404  THRUSH ST","Description":"THEFT OF PROPERTY/All other"},"type":"Feature","geometry":{"type":"Point","coordinates":[-94.111587,36.175119]}},{"properties":{"Name":"NONACT","City":"Springdale","Zip":72764.0,"Precision":"address","Month":2.0,"Longitude":-94.163882,"Apt":null,"Latitude":36.175122,"State":"AR","Date":"2009/02/27","id":"a65sb5r97zmd","Address":"3050 W SUNSET AVE","Description":"THEFT OF PROPERTY/All other"},"type":"Feature","geometry":{"type":"Point","coordinates":[-94.163882,36.175122]}},{"properties":{"Name":"ARREST","City":"Springdale","Zip":72764.0,"Precision":"address","Month":2.0,"Longitude":-94.164852,"Apt":null,"Latitude":36.17514,"State":"AR","Date":"2009/02/11","id":"a65sb5wmin2u","Address":"3142 W SUNSET AVE","Description":"THEFT OF PROPERTY/Shoplifting"},"type":"Feature","geometry":{"type":"Point","coordinates":[-94.164852,36.17514]}},{"properties":{"Name":"ARREST","City":"Springdale","Zip":72764.0,"Precision":"address","Month":2.0,"Longitude":-94.182459,"Apt":null,"Latitude":36.175153,"State":"AR","Date":"2009/02/13","id":"a65sb5wff2y2","Address":"4765 W SUNSET AVE","Description":"BATTERY 3RD-Cause injury"},"type":"Feature","geometry":{"type":"Point","coordinates":[-94.182459,36.175153]}},{"properties":{"Name":"NONACT","City":"Springdale","Zip":72764.0,"Precision":"address","Month":2.0,"Longitude":-94.182459,"Apt":null,"Latitude":36.175153,"State":"AR","Date":"2009/02/11","id":"a65sb5qkjafo","Address":"4765 W SUNSET AVE","Description":"ABC EVALUATION"},"type":"Feature","geometry":{"type":"Point","coordinates":[-94.182459,36.175153]}},{"properties":{"Name":"NONACT","City":"Springdale","Zip":72764.0,"Precision":"address","Month":2.0,"Longitude":-94.168997,"Apt":null,"Latitude":36.175218,"State":"AR","Date":"2009/02/10","id":"a65sb5jzsyyh","Address":"3492 W SUNSET AVE","Description":"FORGERY 2ND DEG"},"type":"Feature","geometry":{"type":"Point","coordinates":[-94.168997,36.175218]}},{"properties":{"Name":"ARREST","City":"Springdale","Zip":72764.0,"Precision":"address","Month":2.0,"Longitude":-94.131897,"Apt":null,"Latitude":36.17524,"State":"AR","Date":"2009/02/27","id":"a65sb5w42dx0","Address":"1001  TURNER ST","Description":"BATTERY 3RD DEG DOMESTIC"},"type":"Feature","geometry":{"type":"Point","coordinates":[-94.131897,36.17524]}},{"properties":{"Name":"NONACT","City":"Springdale","Zip":72764.0,"Precision":"address","Month":2.0,"Longitude":-94.170185,"Apt":null,"Latitude":36.175257,"State":"AR","Date":"2009/02/23","id":"a65sb5pi3qbc","Address":"3574 W SUNSET AVE","Description":"SUICIDE"},"type":"Feature","geometry":{"type":"Point","coordinates":[-94.170185,36.175257]}},{"properties":{"Name":"EXCEPT","City":"Springdale","Zip":72764.0,"Precision":"address","Month":2.0,"Longitude":-94.099959,"Apt":"A","Latitude":36.175317,"State":"AR","Date":"2009/02/28","id":"a65sb5pwcvik","Address":"2784  BRAXTON AVE","Description":"AGGRAVATED ASSAULT"},"type":"Feature","geometry":{"type":"Point","coordinates":[-94.099959,36.175317]}},{"properties":{"Name":"ARREST","City":"Springdale","Zip":72764.0,"Precision":"address","Month":2.0,"Longitude":-94.132574,"Apt":null,"Latitude":36.175381,"State":"AR","Date":"2009/02/05","id":"a65sb5lso6tp","Address":"1010  HOLCOMB ST","Description":"POSS CONTROLLED SUBS/Marijuana"},"type":"Feature","geometry":{"type":"Point","coordinates":[-94.132574,36.175381]}},{"properties":{"Name":"NONACT","City":"Springdale","Zip":72764.0,"Precision":"address","Month":2.0,"Longitude":-94.178832,"Apt":null,"Latitude":36.175384,"State":"AR","Date":"2009/02/09","id":"a65sb5py5wfj","Address":"4540 W SUNSET AVE","Description":"CRIMINAL MISCHIEF 1ST-Purposely"},"type":"Feature","geometry":{"type":"Point","coordinates":[-94.178832,36.175384]}},{"properties":{"Name":"UNFOUNDED","City":"Springdale","Zip":72764.0,"Precision":"address","Month":2.0,"Longitude":-94.183839,"Apt":null,"Latitude":36.175441,"State":"AR","Date":"2009/02/20","id":"a65sb5pifuo7","Address":"4828 W SUNSET AVE","Description":"FRAUDULENT USE OF CREDIT CARD"},"type":"Feature","geometry":{"type":"Point","coordinates":[-94.183839,36.175441]}},{"properties":{"Name":"ARREST","City":"Springdale","Zip":72764.0,"Precision":"address","Month":2.0,"Longitude":-94.147556,"Apt":null,"Latitude":36.175755,"State":"AR","Date":"2009/02/21","id":"a65sb5p8hbgd","Address":"1112 S WEST END ST","Description":"FLIGHT FROM AN OFFICER (VEHICLE)"},"type":"Feature","geometry":{"type":"Point","coordinates":[-94.147556,36.175755]}},{"properties":{"Name":"NONACT","City":"Springdale","Zip":72764.0,"Precision":"address","Month":2.0,"Longitude":-94.09544,"Apt":"A","Latitude":36.175788,"State":"AR","Date":"2009/02/16","id":"a65sb5tadacn","Address":"3216  STAGECOACH AVE","Description":"CRIMINAL MISCHIEF 2ND-Reck destroys"},"type":"Feature","geometry":{"type":"Point","coordinates":[-94.09544,36.175788]}},{"properties":{"Name":"NONACT","City":"Springdale","Zip":72764.0,"Precision":"address","Month":2.0,"Longitude":-94.210217,"Apt":null,"Latitude":36.176151,"State":"AR","Date":"2009/02/17","id":"a65sb5svkabe","Address":"300  JONES RD","Description":"THEFT OF PROPERTY/All other"},"type":"Feature","geometry":{"type":"Point","coordinates":[-94.210217,36.176151]}},{"properties":{"Name":"ARREST","City":"Springdale","Zip":72764.0,"Precision":"address","Month":2.0,"Longitude":-94.210217,"Apt":null,"Latitude":36.176151,"State":"AR","Date":"2009/02/17","id":"a65sb5vsorll","Address":"300  JONES RD","Description":"DISORDERLY CONDUCT-FIGHT/TUMULTUOUS"},"type":"Feature","geometry":{"type":"Point","coordinates":[-94.210217,36.176151]}},{"properties":{"Name":"ARREST","City":"Springdale","Zip":72764.0,"Precision":"address","Month":2.0,"Longitude":-94.210217,"Apt":null,"Latitude":36.176151,"State":"AR","Date":"2009/02/12","id":"a65sb5rqi8fn","Address":"300  JONES RD","Description":"DISORDERLY CONDUCT-FIGHT/TUMULTUOUS"},"type":"Feature","geometry":{"type":"Point","coordinates":[-94.210217,36.176151]}},{"properties":{"Name":"ARREST","City":"Springdale","Zip":72764.0,"Precision":"address","Month":2.0,"Longitude":-94.210217,"Apt":null,"Latitude":36.176151,"State":"AR","Date":"2009/02/17","id":"a65sb5vciutl","Address":"300  JONES RD","Description":"POSS W/INTENT TO DELIVER/Other drug"},"type":"Feature","geometry":{"type":"Point","coordinates":[-94.210217,36.176151]}},{"properties":{"Name":"NONACT","City":"Springdale","Zip":72764.0,"Precision":"address","Month":2.0,"Longitude":-94.210217,"Apt":null,"Latitude":36.176151,"State":"AR","Date":"2009/02/26","id":"a65sb5ripras","Address":"300  JONES RD","Description":"THEFT OF PROPERTY/All other"},"type":"Feature","geometry":{"type":"Point","coordinates":[-94.210217,36.176151]}},{"properties":{"Name":"NONACT","City":"Springdale","Zip":72764.0,"Precision":"address","Month":2.0,"Longitude":-94.210217,"Apt":null,"Latitude":36.176151,"State":"AR","Date":"2009/02/11","id":"a65sb5qyoq16","Address":"300  JONES RD","Description":"BREAKING/ENTERING-ARTICLES FROM VEH"},"type":"Feature","geometry":{"type":"Point","coordinates":[-94.210217,36.176151]}},{"properties":{"Name":"NONACT","City":"Springdale","Zip":72764.0,"Precision":"address","Month":2.0,"Longitude":-94.210217,"Apt":null,"Latitude":36.176151,"State":"AR","Date":"2009/02/12","id":"a65sb5w6bd1e","Address":"300  JONES RD","Description":"CRIMINAL MISCHIEF 2ND-Tampers"},"type":"Feature","geometry":{"type":"Point","coordinates":[-94.210217,36.176151]}},{"properties":{"Name":"NONACT","City":"Springdale","Zip":72764.0,"Precision":"address","Month":2.0,"Longitude":-94.210217,"Apt":null,"Latitude":36.176151,"State":"AR","Date":"2009/02/06","id":"a65sb5xpd5ka","Address":"300  JONES RD","Description":"THEFT OF PROPERTY/All other"},"type":"Feature","geometry":{"type":"Point","coordinates":[-94.210217,36.176151]}},{"properties":{"Name":"ARREST","City":"Springdale","Zip":72764.0,"Precision":"address","Month":2.0,"Longitude":-94.210217,"Apt":null,"Latitude":36.176151,"State":"AR","Date":"2009/02/17","id":"a65sb5s7fc3m","Address":"300  JONES RD","Description":"POSSESSION UNLABELED DRUGS"},"type":"Feature","geometry":{"type":"Point","coordinates":[-94.210217,36.176151]}},{"properties":{"Name":"ARREST","City":"Springdale","Zip":72764.0,"Precision":"address","Month":2.0,"Longitude":-94.210217,"Apt":null,"Latitude":36.176151,"State":"AR","Date":"2009/02/26","id":"a65sb5nrpy91","Address":"300  JONES RD","Description":"DISORDERLY CONDUCT-FIGHT/TUMULTUOUS"},"type":"Feature","geometry":{"type":"Point","coordinates":[-94.210217,36.176151]}},{"properties":{"Name":"EXCEPT","City":"Springdale","Zip":72764.0,"Precision":"address","Month":2.0,"Longitude":-94.123589,"Apt":"A","Latitude":36.176365,"State":"AR","Date":"2009/02/19","id":"a65sb5ky9r7i","Address":"26  APPLEGATE DR","Description":"ASSAULT 3RD DEG"},"type":"Feature","geometry":{"type":"Point","coordinates":[-94.123589,36.176365]}},{"properties":{"Name":"EXCEPT","City":"Springdale","Zip":72764.0,"Precision":"address","Month":2.0,"Longitude":-94.123991,"Apt":"A","Latitude":36.176381,"State":"AR","Date":"2009/02/18","id":"a65sb5rgwb7a","Address":"22  APPLEGATE DR","Description":"RUNAWAY"},"type":"Feature","geometry":{"type":"Point","coordinates":[-94.123991,36.176381]}},{"properties":{"Name":"NONACT","City":"Springdale","Zip":72764.0,"Precision":"address","Month":2.0,"Longitude":-94.101946,"Apt":null,"Latitude":36.176506,"State":"AR","Date":"2009/02/08","id":"a65sb5wyh1ig","Address":"2541  AMHURST LP","Description":"BURGLARY-RESIDENTIAL"},"type":"Feature","geometry":{"type":"Point","coordinates":[-94.101946,36.176506]}},{"properties":{"Name":"ARREST","City":"Springdale","Zip":72764.0,"Precision":"address","Month":2.0,"Longitude":-94.097046,"Apt":"A","Latitude":36.176582,"State":"AR","Date":"2009/02/07","id":"a65sb5lebfdx","Address":"2986  SINGLETREE AVE","Description":"HARASSING COMMUNICATIONS"},"type":"Feature","geometry":{"type":"Point","coordinates":[-94.097046,36.176582]}},{"properties":{"Name":"ARREST","City":"Springdale","Zip":72764.0,"Precision":"address","Month":2.0,"Longitude":-94.143532,"Apt":null,"Latitude":36.176633,"State":"AR","Date":"2009/02/22","id":"a65sb5wtrxwk","Address":"1000 S PLEASANT ST","Description":"AGGRAVATED ASSAULT POLICE OFFICER"},"type":"Feature","geometry":{"type":"Point","coordinates":[-94.143532,36.176633]}},{"properties":{"Name":"ARREST","City":"Springdale","Zip":72764.0,"Precision":"address","Month":2.0,"Longitude":-94.143532,"Apt":null,"Latitude":36.176633,"State":"AR","Date":"2009/02/15","id":"a65sb5n4aor1","Address":"1000 S PLEASANT ST","Description":"POSS W/INTENT TO DELIVER/meth"},"type":"Feature","geometry":{"type":"Point","coordinates":[-94.143532,36.176633]}},{"properties":{"Name":"ARREST","City":"Springdale","Zip":72764.0,"Precision":"address","Month":2.0,"Longitude":-94.099366,"Apt":"B","Latitude":36.176646,"State":"AR","Date":"2009/02/15","id":"a65sb5yd3blf","Address":"786  LARIAT ST","Description":"BATTERY 3RD-Cause injury"},"type":"Feature","geometry":{"type":"Point","coordinates":[-94.099366,36.176646]}},{"properties":{"Name":"ARREST","City":"Springdale","Zip":72764.0,"Precision":"address","Month":2.0,"Longitude":-94.124904,"Apt":"OFFICE","Latitude":36.176798,"State":"AR","Date":"2009/02/05","id":"a65sb5yx75u0","Address":"5  APPLEGATE DR","Description":"POSS CONTROLLED SUBS/Synthetics"},"type":"Feature","geometry":{"type":"Point","coordinates":[-94.124904,36.176798]}},{"properties":{"Name":"ARREST","City":"Springdale","Zip":72764.0,"Precision":"city","Month":2.0,"Longitude":-94.101994,"Apt":null,"Latitude":36.17683,"State":"AR","Date":"2009/02/01","id":"a65sb5t75trr","Address":"881  RIO BRAVO DR","Description":"VIOLATION ORDER OF PROTECTION"},"type":"Feature","geometry":{"type":"Point","coordinates":[-94.101994,36.17683]}},{"properties":{"Name":"ARREST","City":"Springdale","Zip":72764.0,"Precision":"city","Month":2.0,"Longitude":-94.101994,"Apt":"APT104","Latitude":36.17683,"State":"AR","Date":"2009/02/14","id":"a65sb5s4u0g7","Address":"1889  OLYMPIC LP","Description":"BATTERY 3RD-Cause injury"},"type":"Feature","geometry":{"type":"Point","coordinates":[-94.101994,36.17683]}},{"properties":{"Name":"NONACT","City":"Springdale","Zip":72764.0,"Precision":"city","Month":2.0,"Longitude":-94.101994,"Apt":"A","Latitude":36.17683,"State":"AR","Date":"2009/02/04","id":"a65sb5k5nirp","Address":"3525 W DON TYSON PKY","Description":"S.N.A.P."},"type":"Feature","geometry":{"type":"Point","coordinates":[-94.101994,36.17683]}},{"properties":{"Name":"NONACT","City":"Springdale","Zip":72764.0,"Precision":"city","Month":2.0,"Longitude":-94.101994,"Apt":"A","Latitude":36.17683,"State":"AR","Date":"2009/02/27","id":"a65sb5vxeotb","Address":"213  BLUESTEM ST","Description":"BREAKING/ENTERING-ARTICLES FROM VEH"},"type":"Feature","geometry":{"type":"Point","coordinates":[-94.101994,36.17683]}},{"properties":{"Name":"ARREST","City":"Springdale","Zip":72764.0,"Precision":"city","Month":2.0,"Longitude":-94.101994,"Apt":null,"Latitude":36.17683,"State":"AR","Date":"2009/02/20","id":"a65sb5zgww8w","Address":"3461 W DON TYSON PKY","Description":"BREAKING/ENTERING-parts/accessory"},"type":"Feature","geometry":{"type":"Point","coordinates":[-94.101994,36.17683]}},{"properties":{"Name":"EXCEPT","City":"Springdale","Zip":72764.0,"Precision":"city","Month":2.0,"Longitude":-94.101994,"Apt":"A","Latitude":36.17683,"State":"AR","Date":"2009/02/25","id":"a65sb5o45dkm","Address":"742 W DON TYSON PKY","Description":"THEFT OF SERVICES"},"type":"Feature","geometry":{"type":"Point","coordinates":[-94.101994,36.17683]}},{"properties":{"Name":"ARREST","City":"Springdale","Zip":72764.0,"Precision":"city","Month":2.0,"Longitude":-94.101994,"Apt":"B","Latitude":36.17683,"State":"AR","Date":"2009/02/08","id":"a65sb5tbcfpi","Address":"4077  GLENSTONE TER","Description":"BREAKING/ENTERING-ARTICLES FROM VEH"},"type":"Feature","geometry":{"type":"Point","coordinates":[-94.101994,36.17683]}},{"properties":{"Name":"NONACT","City":"Springdale","Zip":72764.0,"Precision":"city","Month":2.0,"Longitude":-94.101994,"Apt":null,"Latitude":36.17683,"State":"AR","Date":"2009/02/26","id":"a65sb5z62ksi","Address":"1744  CHEYENNE TR","Description":"BREAKING/ENTERING-ARTICLES FROM VEH"},"type":"Feature","geometry":{"type":"Point","coordinates":[-94.101994,36.17683]}},{"properties":{"Name":"UNFOUNDED","City":"Springdale","Zip":72764.0,"Precision":"address","Month":2.0,"Longitude":-94.186045,"Apt":null,"Latitude":36.176835,"State":"AR","Date":"2009/02/14","id":"a65sb5m8lkan","Address":"1107 S 48TH ST","Description":"RAPE-forcible compulsion"},"type":"Feature","geometry":{"type":"Point","coordinates":[-94.186045,36.176835]}},{"properties":{"Name":"NONACT","City":"Springdale","Zip":72764.0,"Precision":"address","Month":2.0,"Longitude":-94.186045,"Apt":null,"Latitude":36.176835,"State":"AR","Date":"2009/02/27","id":"a65sb5qcl0us","Address":"1107 S 48TH ST","Description":"BATTERY 3RD-Cause injury"},"type":"Feature","geometry":{"type":"Point","coordinates":[-94.186045,36.176835]}},{"properties":{"Name":"NONACT","City":"Springdale","Zip":72764.0,"Precision":"city","Month":2.0,"Longitude":-94.101999,"Apt":null,"Latitude":36.176965,"State":"AR","Date":"2009/02/09","id":"a65sb5ur4lsw","Address":"1587  JIM'S PL","Description":"BREAKING/ENTERING-ARTICLES FROM VEH"},"type":"Feature","geometry":{"type":"Point","coordinates":[-94.101999,36.176965]}},{"properties":{"Name":"EXCEPT","City":"Springdale","Zip":72764.0,"Precision":"address","Month":2.0,"Longitude":-94.128312,"Apt":null,"Latitude":36.17713,"State":"AR","Date":"2009/02/19","id":"a65sb5uwuh56","Address":"406  HART AVE","Description":"HARASSING COMMUNICATIONS"},"type":"Feature","geometry":{"type":"Point","coordinates":[-94.128312,36.17713]}},{"properties":{"Name":"NONACT","City":"Springdale","Zip":72764.0,"Precision":"address","Month":2.0,"Longitude":-94.121625,"Apt":"B","Latitude":36.177139,"State":"AR","Date":"2009/02/23","id":"a65sb5qtf0yr","Address":"46  APPLEGATE DR","Description":"NEIGHBORHOOD WATCH-S.N.A.P."},"type":"Feature","geometry":{"type":"Point","coordinates":[-94.121625,36.177139]}},{"properties":{"Name":"NONACT","City":"Springdale","Zip":72764.0,"Precision":"address","Month":2.0,"Longitude":-94.185708,"Apt":null,"Latitude":36.177316,"State":"AR","Date":"2009/02/22","id":"a65sb5ta3t0m","Address":"1048 S 48TH ST","Description":"ASSAULT 3RD DEG"},"type":"Feature","geometry":{"type":"Point","coordinates":[-94.185708,36.177316]}},{"properties":{"Name":"ARREST","City":"Springdale","Zip":72764.0,"Precision":"address","Month":2.0,"Longitude":-94.130984,"Apt":null,"Latitude":36.177666,"State":"AR","Date":"2009/02/17","id":"a65sb5sjm5gq","Address":"721  TURNER ST","Description":"FORGERY 1ST DEG"},"type":"Feature","geometry":{"type":"Point","coordinates":[-94.130984,36.177666]}},{"properties":{"Name":"REF WARRANT","City":"Springdale","Zip":72764.0,"Precision":"address","Month":2.0,"Longitude":-94.130984,"Apt":null,"Latitude":36.177666,"State":"AR","Date":"2009/02/17","id":"a65sb5oat2y6","Address":"721  TURNER ST","Description":"SEXUAL ASSAULT 2ND DEG"},"type":"Feature","geometry":{"type":"Point","coordinates":[-94.130984,36.177666]}},{"properties":{"Name":"NONACT","City":"Springdale","Zip":72764.0,"Precision":"address","Month":2.0,"Longitude":-94.126667,"Apt":null,"Latitude":36.177727,"State":"AR","Date":"2009/02/02","id":"a65sb5khaman","Address":"521  CAUDLE AVE","Description":"THEFT OF PROPERTY/Parts &amp; accessory"},"type":"Feature","geometry":{"type":"Point","coordinates":[-94.126667,36.177727]}},{"properties":{"Name":"REF WARRANT","City":"Springdale","Zip":72764.0,"Precision":"address","Month":2.0,"Longitude":-94.203258,"Apt":null,"Latitude":36.177782,"State":"AR","Date":"2009/02/16","id":"a65sb5k9caih","Address":"6456  LYNCHS PRAIRIE CV","Description":"HARASSMENT-Hits, shove, threatens"},"type":"Feature","geometry":{"type":"Point","coordinates":[-94.203258,36.177782]}},{"properties":{"Name":"NONACT","City":"Springdale","Zip":72764.0,"Precision":"address","Month":2.0,"Longitude":-94.203258,"Apt":null,"Latitude":36.177782,"State":"AR","Date":"2009/02/19","id":"a65sb5sdgjw2","Address":"6456  LYNCHS PRAIRIE CV","Description":"THEFT OF PROPERTY/All other"},"type":"Feature","geometry":{"type":"Point","coordinates":[-94.203258,36.177782]}},{"properties":{"Name":"ARREST","City":"Springdale","Zip":72764.0,"Precision":"address","Month":2.0,"Longitude":-94.126706,"Apt":"APT202","Latitude":36.177997,"State":"AR","Date":"2009/02/01","id":"a65sb5kmzl6t","Address":"516  CAUDLE AVE","Description":"ASSAULT 2ND DEG DOMESTIC"},"type":"Feature","geometry":{"type":"Point","coordinates":[-94.126706,36.177997]}},{"properties":{"Name":"NONACT","City":"Springdale","Zip":72764.0,"Precision":"address","Month":2.0,"Longitude":-94.133082,"Apt":null,"Latitude":36.178337,"State":"AR","Date":"2009/02/15","id":"a65sb5zfoprl","Address":"711  CROUCH ST","Description":"RUNAWAY"},"type":"Feature","geometry":{"type":"Point","coordinates":[-94.133082,36.178337]}},{"properties":{"Name":"NONACT","City":"Springdale","Zip":72764.0,"Precision":"address","Month":2.0,"Longitude":-94.170367,"Apt":null,"Latitude":36.178365,"State":"AR","Date":"2009/02/15","id":"a65sb5xoliqa","Address":"1009  SHAVER ST","Description":"S.N.A.P."},"type":"Feature","geometry":{"type":"Point","coordinates":[-94.170367,36.178365]}},{"properties":{"Name":"NONACT","City":"Springdale","Zip":72764.0,"Precision":"address","Month":2.0,"Longitude":-94.170367,"Apt":"A","Latitude":36.178365,"State":"AR","Date":"2009/02/15","id":"a65sb5yea9v0","Address":"1009  SHAVER ST","Description":"S.N.A.P."},"type":"Feature","geometry":{"type":"Point","coordinates":[-94.170367,36.178365]}},{"properties":{"Name":"NONACT","City":"Springdale","Zip":72764.0,"Precision":"address","Month":2.0,"Longitude":-94.170376,"Apt":null,"Latitude":36.178376,"State":"AR","Date":"2009/02/15","id":"a65sb5ori3mk","Address":"1007  SHAVER ST","Description":"S.N.A.P."},"type":"Feature","geometry":{"type":"Point","coordinates":[-94.170376,36.178376]}},{"properties":{"Name":"ARREST","City":"Springdale","Zip":72764.0,"Precision":"address","Month":2.0,"Longitude":-94.124775,"Apt":null,"Latitude":36.178584,"State":"AR","Date":"2009/02/04","id":"a65sb5ptef2m","Address":"625  PARK ST","Description":"POSS CONTROLLED SUBS/other drugs"},"type":"Feature","geometry":{"type":"Point","coordinates":[-94.124775,36.178584]}},{"properties":{"Name":"NONACT","City":"Springdale","Zip":72764.0,"Precision":"address","Month":2.0,"Longitude":-94.093934,"Apt":null,"Latitude":36.178689,"State":"AR","Date":"2009/02/24","id":"a65sb5lkgg9y","Address":"505  BUTTERFIELD COACH RD","Description":"GRAFFITI-CRIMINAL MISCHIEF 2ND DEG"},"type":"Feature","geometry":{"type":"Point","coordinates":[-94.093934,36.178689]}},{"properties":{"Name":"NONACT","City":"Springdale","Zip":72764.0,"Precision":"address","Month":2.0,"Longitude":-94.093934,"Apt":null,"Latitude":36.178689,"State":"AR","Date":"2009/02/27","id":"a65sb5nxsh22","Address":"505  BUTTERFIELD COACH RD","Description":"GRAFFITI-CRIMINAL MISCHIEF 2ND DEG"},"type":"Feature","geometry":{"type":"Point","coordinates":[-94.093934,36.178689]}},{"properties":{"Name":"NONACT","City":"Springdale","Zip":72764.0,"Precision":"address","Month":2.0,"Longitude":-94.128124,"Apt":null,"Latitude":36.178829,"State":"AR","Date":"2009/02/21","id":"a65sb5n9vbdj","Address":"409  MOUNTAIN VIEW","Description":"CRIMINAL MISCHIEF 1ST-Purposely"},"type":"Feature","geometry":{"type":"Point","coordinates":[-94.128124,36.178829]}},{"properties":{"Name":"NONACT","City":"Springdale","Zip":72764.0,"Precision":"address","Month":2.0,"Longitude":-94.132419,"Apt":null,"Latitude":36.178871,"State":"AR","Date":"2009/02/06","id":"a65sb5oqvbej","Address":"208  QUANDT AVE","Description":"THEFT OF PROPERTY/All other"},"type":"Feature","geometry":{"type":"Point","coordinates":[-94.132419,36.178871]}},{"properties":{"Name":"ARREST","City":"Springdale","Zip":72764.0,"Precision":"address","Month":2.0,"Longitude":-94.12083,"Apt":null,"Latitude":36.178987,"State":"AR","Date":"2009/02/24","id":"a65sb5jw8f11","Address":"604  DAVID ST","Description":"POSS CONTROLLED SUBS/Synthetics"},"type":"Feature","geometry":{"type":"Point","coordinates":[-94.12083,36.178987]}},{"properties":{"Name":"NONACT","City":"Springdale","Zip":72764.0,"Precision":"address","Month":2.0,"Longitude":-94.174712,"Apt":"A101","Latitude":36.179049,"State":"AR","Date":"2009/02/22","id":"a65sb5n03qy5","Address":"770 S 40TH ST","Description":"TERRORISTIC THREATENING"},"type":"Feature","geometry":{"type":"Point","coordinates":[-94.174712,36.179049]}},{"properties":{"Name":"NONACT","City":"Springdale","Zip":72764.0,"Precision":"address","Month":2.0,"Longitude":-94.150924,"Apt":"B","Latitude":36.179061,"State":"AR","Date":"2009/02/01","id":"a65sb5wkey8m","Address":"706  GENEVA ST","Description":"BURGLARY-RESIDENTIAL"},"type":"Feature","geometry":{"type":"Point","coordinates":[-94.150924,36.179061]}},{"properties":{"Name":"REF WARRANT","City":"Springdale","Zip":72764.0,"Precision":"address","Month":2.0,"Longitude":-94.174707,"Apt":null,"Latitude":36.179202,"State":"AR","Date":"2009/02/05","id":"a65sb5mz01e2","Address":"750 S 40TH ST","Description":"CRIMINAL MISCHIEF 2ND-Tampers"},"type":"Feature","geometry":{"type":"Point","coordinates":[-94.174707,36.179202]}},{"properties":{"Name":"ARREST","City":"Springdale","Zip":72764.0,"Precision":"address","Month":2.0,"Longitude":-94.174707,"Apt":"B103","Latitude":36.179202,"State":"AR","Date":"2009/02/06","id":"a65sb5nury6w","Address":"750 S 40TH ST","Description":"BATTERY 2ND DEG ON POLICE OFFICER"},"type":"Feature","geometry":{"type":"Point","coordinates":[-94.174707,36.179202]}},{"properties":{"Name":"REF WARRANT","City":"Springdale","Zip":72764.0,"Precision":"address","Month":2.0,"Longitude":-94.174707,"Apt":"J 106","Latitude":36.179202,"State":"AR","Date":"2009/02/05","id":"a65sb5yh5jie","Address":"750 S 40TH ST","Description":"CRIMINAL MISCHIEF 2ND-Tampers"},"type":"Feature","geometry":{"type":"Point","coordinates":[-94.174707,36.179202]}},{"properties":{"Name":"REF WARRANT","City":"Springdale","Zip":72764.0,"Precision":"address","Month":2.0,"Longitude":-94.174707,"Apt":null,"Latitude":36.179202,"State":"AR","Date":"2009/02/07","id":"a65sb5p4tpu4","Address":"750 S 40TH ST","Description":"BATTERY 3RD DEG DOMESTIC"},"type":"Feature","geometry":{"type":"Point","coordinates":[-94.174707,36.179202]}},{"properties":{"Name":"ARREST","City":"Springdale","Zip":72764.0,"Precision":"address","Month":2.0,"Longitude":-94.174707,"Apt":"B103","Latitude":36.179202,"State":"AR","Date":"2009/02/06","id":"a65sb5vjcqi4","Address":"750 S 40TH ST","Description":"POSS CONTROLLED SUBS/Synthetics"},"type":"Feature","geometry":{"type":"Point","coordinates":[-94.174707,36.179202]}},{"properties":{"Name":"NONACT","City":"Springdale","Zip":72764.0,"Precision":"address","Month":2.0,"Longitude":-94.213431,"Apt":"APT105","Latitude":36.179209,"State":"AR","Date":"2009/02/28","id":"a65sb5m9grgl","Address":"7290  NAPA VALLEY LN","Description":"ATTEMPTED SUICIDE"},"type":"Feature","geometry":{"type":"Point","coordinates":[-94.213431,36.179209]}},{"properties":{"Name":"ARREST","City":"Springdale","Zip":72764.0,"Precision":"address","Month":2.0,"Longitude":-94.14326,"Apt":null,"Latitude":36.179495,"State":"AR","Date":"2009/02/28","id":"a65sb5xelgte","Address":"506 S PLEASANT ST","Description":"BATTERY 3RD-Recklessly cause injury"},"type":"Feature","geometry":{"type":"Point","coordinates":[-94.14326,36.179495]}},{"properties":{"Name":"NONACT","City":"Springdale","Zip":72764.0,"Precision":"address","Month":2.0,"Longitude":-94.152881,"Apt":null,"Latitude":36.179635,"State":"AR","Date":"2009/02/21","id":"a65sb5n15tgb","Address":"606  CARLTON ST","Description":"UNATTENDED DEATH"},"type":"Feature","geometry":{"type":"Point","coordinates":[-94.152881,36.179635]}},{"properties":{"Name":"NONACT","City":"Springdale","Zip":72764.0,"Precision":"address","Month":2.0,"Longitude":-94.150049,"Apt":null,"Latitude":36.179668,"State":"AR","Date":"2009/02/15","id":"a65sb5vv67b4","Address":"604  ZACHARY ST","Description":"BURGLARY-RESIDENTIAL"},"type":"Feature","geometry":{"type":"Point","coordinates":[-94.150049,36.179668]}},{"properties":{"Name":"ARREST","City":"Springdale","Zip":72764.0,"Precision":"address","Month":2.0,"Longitude":-94.100533,"Apt":null,"Latitude":36.179811,"State":"AR","Date":"2009/02/22","id":"a65sb5p4eww5","Address":"2733  HAMPSHIRE AVE","Description":"ASSAULT 3RD DEG DOMESTIC"},"type":"Feature","geometry":{"type":"Point","coordinates":[-94.100533,36.179811]}},{"properties":{"Name":"NONACT","City":"Springdale","Zip":72764.0,"Precision":"address","Month":2.0,"Longitude":-94.143109,"Apt":"A","Latitude":36.18007,"State":"AR","Date":"2009/02/12","id":"a65sb5ojpnug","Address":"1100  REBECCA LN","Description":"BREAKING/ENTERING-ARTICLES FROM VEH"},"type":"Feature","geometry":{"type":"Point","coordinates":[-94.143109,36.18007]}},{"properties":{"Name":"ACTIVE","City":"Springdale","Zip":72764.0,"Precision":"address","Month":2.0,"Longitude":-94.155883,"Apt":null,"Latitude":36.180138,"State":"AR","Date":"2009/02/15","id":"a65sb5m4a6yz","Address":"507  JANET ST","Description":"ANIMAL BITE REPORT"},"type":"Feature","geometry":{"type":"Point","coordinates":[-94.155883,36.180138]}},{"properties":{"Name":"REF WARRANT","City":"Springdale","Zip":72764.0,"Precision":"address","Month":2.0,"Longitude":-94.132779,"Apt":null,"Latitude":36.18039,"State":"AR","Date":"2009/02/27","id":"a65sb5t6pwr7","Address":"12504  MAINS ROAD","Description":"FRAUDULENT USE OF CREDIT CARD"},"type":"Feature","geometry":{"type":"Point","coordinates":[-94.132779,36.18039]}},{"properties":{"Name":"NONACT","City":"Springdale","Zip":72764.0,"Precision":"address","Month":2.0,"Longitude":-94.138921,"Apt":null,"Latitude":36.18048,"State":"AR","Date":"2009/02/19","id":"a65sb5wfz328","Address":"520 S THOMPSON ST","Description":"THEFT OF PROPERTY/All other"},"type":"Feature","geometry":{"type":"Point","coordinates":[-94.138921,36.18048]}},{"properties":{"Name":"ARREST","City":"Springdale","Zip":72764.0,"Precision":"address","Month":2.0,"Longitude":-94.138586,"Apt":null,"Latitude":36.180498,"State":"AR","Date":"2009/02/22","id":"a65sb5rlwlxk","Address":"515 S THOMPSON ST","Description":"POSS CONTROLLED SUBS/Marijuana"},"type":"Feature","geometry":{"type":"Point","coordinates":[-94.138586,36.180498]}},{"properties":{"Name":"ARREST","City":"Springdale","Zip":72764.0,"Precision":"address","Month":2.0,"Longitude":-94.151428,"Apt":null,"Latitude":36.180525,"State":"AR","Date":"2009/02/10","id":"a65sb5pdhfi3","Address":"501  DYER ST","Description":"BATTERY 3RD DEG DOMESTIC"},"type":"Feature","geometry":{"type":"Point","coordinates":[-94.151428,36.180525]}},{"properties":{"Name":"NONACT","City":"Springdale","Zip":72764.0,"Precision":"address","Month":2.0,"Longitude":-94.150557,"Apt":null,"Latitude":36.180782,"State":"AR","Date":"2009/02/08","id":"a65sb5k2bhrf","Address":"501  GENEVA ST","Description":"HARASSING COMMUNICATIONS"},"type":"Feature","geometry":{"type":"Point","coordinates":[-94.150557,36.180782]}},{"properties":{"Name":"ARREST","City":"Springdale","Zip":72764.0,"Precision":"address","Month":2.0,"Longitude":-94.138893,"Apt":null,"Latitude":36.1809,"State":"AR","Date":"2009/02/24","id":"a65sb5n7q5el","Address":"500 S THOMPSON ST","Description":"HARASSMENT-Uses obscene language"},"type":"Feature","geometry":{"type":"Point","coordinates":[-94.138893,36.1809]}},{"properties":{"Name":"NONACT","City":"Springdale","Zip":72764.0,"Precision":"address","Month":2.0,"Longitude":-94.16866,"Apt":null,"Latitude":36.180971,"State":"AR","Date":"2009/02/12","id":"a65sb5q913ni","Address":"648  SHAVER ST","Description":"THEFT OF PROPERTY/Parts &amp; accessory"},"type":"Feature","geometry":{"type":"Point","coordinates":[-94.16866,36.180971]}},{"properties":{"Name":"ARREST","City":"Springdale","Zip":72764.0,"Precision":"address","Month":2.0,"Longitude":-94.144754,"Apt":null,"Latitude":36.18114,"State":"AR","Date":"2009/02/04","id":"a65sb5v7nw1k","Address":"304  MICHAEL ST","Description":"UNSIGHT/UNSANITARY COND (CITY ORD)"},"type":"Feature","geometry":{"type":"Point","coordinates":[-94.144754,36.18114]}},{"properties":{"Name":"ARREST","City":"Springdale","Zip":72764.0,"Precision":"address","Month":2.0,"Longitude":-94.144754,"Apt":null,"Latitude":36.18114,"State":"AR","Date":"2009/02/04","id":"a65sb5qlgq2d","Address":"304  MICHAEL ST","Description":"POSS CONTROLLED SUBS/Synthetics"},"type":"Feature","geometry":{"type":"Point","coordinates":[-94.144754,36.18114]}},{"properties":{"Name":"ACTIVE","City":"Springdale","Zip":72764.0,"Precision":"address","Month":2.0,"Longitude":-94.1362,"Apt":"A","Latitude":36.181247,"State":"AR","Date":"2009/02/01","id":"a65sb5udnx11","Address":"609 W MAPLE AVE","Description":"ANIMAL BITE REPORT"},"type":"Feature","geometry":{"type":"Point","coordinates":[-94.1362,36.181247]}},{"properties":{"Name":"ARREST","City":"Springdale","Zip":72764.0,"Precision":"address","Month":2.0,"Longitude":-94.1362,"Apt":"A","Latitude":36.181247,"State":"AR","Date":"2009/02/27","id":"a65sb5pcnck8","Address":"609 W MAPLE AVE","Description":"DISORDERLY CONDUCT-FIGHT/TUMULTUOUS"},"type":"Feature","geometry":{"type":"Point","coordinates":[-94.1362,36.181247]}},{"properties":{"Name":"NONACT","City":"Springdale","Zip":72764.0,"Precision":"address","Month":2.0,"Longitude":-94.1362,"Apt":null,"Latitude":36.181247,"State":"AR","Date":"2009/02/13","id":"a65sb5tjntxb","Address":"609 W MAPLE AVE","Description":"BREAKING/ENTERING-ARTICLES FROM VEH"},"type":"Feature","geometry":{"type":"Point","coordinates":[-94.1362,36.181247]}},{"properties":{"Name":"ARREST","City":"Springdale","Zip":72764.0,"Precision":"address","Month":2.0,"Longitude":-94.1362,"Apt":null,"Latitude":36.181247,"State":"AR","Date":"2009/02/08","id":"a65sb5qh92rz","Address":"609 W MAPLE AVE","Description":"BATTERY 3RD DEG DOMESTIC"},"type":"Feature","geometry":{"type":"Point","coordinates":[-94.1362,36.181247]}},{"properties":{"Name":"NONACT","City":"Springdale","Zip":72764.0,"Precision":"address","Month":2.0,"Longitude":-94.1362,"Apt":null,"Latitude":36.181247,"State":"AR","Date":"2009/02/11","id":"a65sb5ypn3xb","Address":"609 W MAPLE AVE","Description":"THEFT OF PROPERTY/All other"},"type":"Feature","geometry":{"type":"Point","coordinates":[-94.1362,36.181247]}},{"properties":{"Name":"NONACT","City":"Springdale","Zip":72764.0,"Precision":"address","Month":2.0,"Longitude":-94.142899,"Apt":null,"Latitude":36.181305,"State":"AR","Date":"2009/02/23","id":"a65sb5zgfsfq","Address":"405 S PLEASANT ST","Description":"BREAKING/ENTERING-ARTICLES FROM VEH"},"type":"Feature","geometry":{"type":"Point","coordinates":[-94.142899,36.181305]}},{"properties":{"Name":"NONACT","City":"Springdale","Zip":72764.0,"Precision":"address","Month":2.0,"Longitude":-94.142899,"Apt":null,"Latitude":36.181305,"State":"AR","Date":"2009/02/18","id":"a65sb5od4ucw","Address":"405 S PLEASANT ST","Description":"THEFT OF PROPERTY/From vehicle"},"type":"Feature","geometry":{"type":"Point","coordinates":[-94.142899,36.181305]}},{"properties":{"Name":"NONACT","City":"Springdale","Zip":72764.0,"Precision":"address","Month":2.0,"Longitude":-94.142899,"Apt":null,"Latitude":36.181305,"State":"AR","Date":"2009/02/27","id":"a65sb5m9mrzb","Address":"405 S PLEASANT ST","Description":"BREAKING/ENTERING-ARTICLES FROM VEH"},"type":"Feature","geometry":{"type":"Point","coordinates":[-94.142899,36.181305]}},{"properties":{"Name":"NONACT","City":"Springdale","Zip":72764.0,"Precision":"address","Month":2.0,"Longitude":-94.125039,"Apt":null,"Latitude":36.181395,"State":"AR","Date":"2009/02/11","id":"a65sb5maksjn","Address":"428  PARK ST","Description":"BREAKING/ENTERING-other structure"},"type":"Feature","geometry":{"type":"Point","coordinates":[-94.125039,36.181395]}},{"properties":{"Name":"REF WARRANT","City":"Springdale","Zip":72764.0,"Precision":"address","Month":2.0,"Longitude":-94.122434,"Apt":"APT208","Latitude":36.181629,"State":"AR","Date":"2009/02/23","id":"a65sb5n7msjn","Address":"380  STRAWBERRY MEADOWS PL","Description":"TERRORISTIC THREATENING"},"type":"Feature","geometry":{"type":"Point","coordinates":[-94.122434,36.181629]}},{"properties":{"Name":"ARREST","City":"Springdale","Zip":72764.0,"Precision":"address","Month":2.0,"Longitude":-94.124699,"Apt":"D","Latitude":36.181654,"State":"AR","Date":"2009/02/25","id":"a65sb5k3wact","Address":"409  PARK ST","Description":"BATTERY 3RD DEG DOMESTIC"},"type":"Feature","geometry":{"type":"Point","coordinates":[-94.124699,36.181654]}},{"properties":{"Name":"NONACT","City":"Springdale","Zip":72764.0,"Precision":"address","Month":2.0,"Longitude":-94.124699,"Apt":"A","Latitude":36.18168,"State":"AR","Date":"2009/02/19","id":"a65sb5yjxjqz","Address":"407  PARK ST","Description":"THEFT OF PROPERTY/Parts &amp; accessory"},"type":"Feature","geometry":{"type":"Point","coordinates":[-94.124699,36.18168]}},{"properties":{"Name":"UNFOUNDED","City":"Springdale","Zip":72764.0,"Precision":"address","Month":2.0,"Longitude":-94.131219,"Apt":null,"Latitude":36.181969,"State":"AR","Date":"2009/02/01","id":"a65sb5yxnqhv","Address":"429  HOLCOMB ST","Description":null},"type":"Feature","geometry":{"type":"Point","coordinates":[-94.131219,36.181969]}},{"properties":{"Name":"ARREST","City":"Springdale","Zip":72764.0,"Precision":"address","Month":2.0,"Longitude":-94.138829,"Apt":null,"Latitude":36.181989,"State":"AR","Date":"2009/02/06","id":"a65sb5l2uwl4","Address":"406 S THOMPSON ST","Description":"POSS CONTROLLED SUBS/Marijuana"},"type":"Feature","geometry":{"type":"Point","coordinates":[-94.138829,36.181989]}},{"properties":{"Name":"ARREST","City":"Springdale","Zip":72764.0,"Precision":"address","Month":2.0,"Longitude":-94.122417,"Apt":"APT205","Latitude":36.182034,"State":"AR","Date":"2009/02/12","id":"a65sb5wwaj87","Address":"342  STRAWBERRY MEADOWS PL","Description":"BATTERY 2ND DEG DOMESTIC"},"type":"Feature","geometry":{"type":"Point","coordinates":[-94.122417,36.182034]}},{"properties":{"Name":"REF WARRANT","City":"Springdale","Zip":72764.0,"Precision":"address","Month":2.0,"Longitude":-94.138589,"Apt":null,"Latitude":36.182053,"State":"AR","Date":"2009/02/16","id":"a65sb5xwfqwq","Address":"401 S THOMPSON ST","Description":"ENDANGER WELFARE OF MINOR 2ND DEG"},"type":"Feature","geometry":{"type":"Point","coordinates":[-94.138589,36.182053]}},{"properties":{"Name":"NONACT","City":"Springdale","Zip":72764.0,"Precision":"address","Month":2.0,"Longitude":-94.190881,"Apt":"C","Latitude":36.182064,"State":"AR","Date":"2009/02/12","id":"a65sb5lgbwlq","Address":"5480  HAILEY AVE","Description":"MOTOR VEHICLE THEFT"},"type":"Feature","geometry":{"type":"Point","coordinates":[-94.190881,36.182064]}},{"properties":{"Name":"NONACT","City":"Springdale","Zip":72764.0,"Precision":"address","Month":2.0,"Longitude":-94.160297,"Apt":"A","Latitude":36.182092,"State":"AR","Date":"2009/02/08","id":"a65sb5z64h6l","Address":"2728  MCRAY AVE","Description":"THEFT OF PROPERTY/All other"},"type":"Feature","geometry":{"type":"Point","coordinates":[-94.160297,36.182092]}},{"properties":{"Name":"NONACT","City":"Springdale","Zip":72764.0,"Precision":"address","Month":2.0,"Longitude":-94.106145,"Apt":"APT101","Latitude":36.182196,"State":"AR","Date":"2009/02/17","id":"a65sb5mx8ktq","Address":"317  ERIN PL","Description":"CRIMINAL TRESPASS"},"type":"Feature","geometry":{"type":"Point","coordinates":[-94.106145,36.182196]}},{"properties":{"Name":"NONACT","City":"Springdale","Zip":72764.0,"Precision":"address","Month":2.0,"Longitude":-94.131531,"Apt":null,"Latitude":36.18317,"State":"AR","Date":"2009/02/02","id":"a65sb5y2si85","Address":"113 W GROVE AVE","Description":"SUICIDE"},"type":"Feature","geometry":{"type":"Point","coordinates":[-94.131531,36.18317]}},{"properties":{"Name":"NONACT","City":"Springdale","Zip":72764.0,"Precision":"address","Month":2.0,"Longitude":-94.134342,"Apt":null,"Latitude":36.183234,"State":"AR","Date":"2009/02/22","id":"a65sb5kh8a73","Address":"407 W GROVE AVE","Description":"RUNAWAY"},"type":"Feature","geometry":{"type":"Point","coordinates":[-94.134342,36.183234]}},{"properties":{"Name":"NONACT","City":"Springdale","Zip":72764.0,"Precision":"address","Month":2.0,"Longitude":-94.134268,"Apt":null,"Latitude":36.183273,"State":"AR","Date":"2009/02/16","id":"a65sb5prjpsz","Address":"300 S SHILOH ST","Description":"CRIMINAL MISCHIEF 2ND-Reck destroys"},"type":"Feature","geometry":{"type":"Point","coordinates":[-94.134268,36.183273]}},{"properties":{"Name":"NONACT","City":"Springdale","Zip":72764.0,"Precision":"address","Month":2.0,"Longitude":-94.147598,"Apt":null,"Latitude":36.183303,"State":"AR","Date":"2009/02/27","id":"a65sb5lgoaka","Address":"300 S WEST END ST","Description":"CRIMINAL MISCHIEF 1ST-Purposely"},"type":"Feature","geometry":{"type":"Point","coordinates":[-94.147598,36.183303]}},{"properties":{"Name":"ARREST","City":"Springdale","Zip":72764.0,"Precision":"address","Month":2.0,"Longitude":-94.124923,"Apt":null,"Latitude":36.183751,"State":"AR","Date":"2009/02/06","id":"a65sb5yf3l4x","Address":"200  PARK ST","Description":"FLIGHT FROM OFFICER (FOOT)"},"type":"Feature","geometry":{"type":"Point","coordinates":[-94.124923,36.183751]}},{"properties":{"Name":"ARREST","City":"Springdale","Zip":72764.0,"Precision":"address","Month":2.0,"Longitude":-94.12723,"Apt":null,"Latitude":36.184056,"State":"AR","Date":"2009/02/08","id":"a65sb5uki5hd","Address":"500 E MEADOW AVE","Description":"POSS CONTROLLED SUBS/Marijuana"},"type":"Feature","geometry":{"type":"Point","coordinates":[-94.12723,36.184056]}},{"properties":{"Name":"ACTIVE","City":"Springdale","Zip":72764.0,"Precision":"address","Month":2.0,"Longitude":-94.133377,"Apt":null,"Latitude":36.184138,"State":"AR","Date":"2009/02/01","id":"a65sb5q45js1","Address":"206 S BLAIR ST","Description":"SEXUAL ASSAULT 2ND DEG"},"type":"Feature","geometry":{"type":"Point","coordinates":[-94.133377,36.184138]}},{"properties":{"Name":"NONACT","City":"Springdale","Zip":72764.0,"Precision":"address","Month":2.0,"Longitude":-94.136987,"Apt":null,"Latitude":36.184222,"State":"AR","Date":"2009/02/10","id":"a65sb5q2ek3k","Address":"709 W MEADOW AVE","Description":"THEFT OF PROPERTY/All other"},"type":"Feature","geometry":{"type":"Point","coordinates":[-94.136987,36.184222]}},{"properties":{"Name":"REF WARRANT","City":"Springdale","Zip":72764.0,"Precision":"address","Month":2.0,"Longitude":-94.145721,"Apt":null,"Latitude":36.1843,"State":"AR","Date":"2009/02/04","id":"a65sb5pvurzf","Address":"1500  WESTWOOD AVE","Description":"THEFT OF PROPERTY/All other"},"type":"Feature","geometry":{"type":"Point","coordinates":[-94.145721,36.1843]}},{"properties":{"Name":"ACTIVE","City":"Springdale","Zip":72764.0,"Precision":"address","Month":2.0,"Longitude":-94.107448,"Apt":null,"Latitude":36.184313,"State":"AR","Date":"2009/02/09","id":"a65sb5vn2n6y","Address":"2065 E EMMA AVE","Description":"ANIMAL BITE REPORT"},"type":"Feature","geometry":{"type":"Point","coordinates":[-94.107448,36.184313]}},{"properties":{"Name":"ARREST","City":"Springdale","Zip":72764.0,"Precision":"address","Month":2.0,"Longitude":-94.10938,"Apt":"L202","Latitude":36.184368,"State":"AR","Date":"2009/02/24","id":"a65sb5qu235a","Address":"1907 E EMMA AVE","Description":"ASSAULT 3RD DEG DOMESTIC"},"type":"Feature","geometry":{"type":"Point","coordinates":[-94.10938,36.184368]}},{"properties":{"Name":"NONACT","City":"Springdale","Zip":72764.0,"Precision":"address","Month":2.0,"Longitude":-94.200438,"Apt":null,"Latitude":36.184849,"State":"AR","Date":"2009/02/05","id":"a65sb5t0hbz8","Address":"207  IRELAND ST","Description":"BREAKING/ENTERING-ARTICLES FROM VEH"},"type":"Feature","geometry":{"type":"Point","coordinates":[-94.200438,36.184849]}},{"properties":{"Name":"NONACT","City":"Springdale","Zip":72764.0,"Precision":"address","Month":2.0,"Longitude":-94.125014,"Apt":null,"Latitude":36.184853,"State":"AR","Date":"2009/02/19","id":"a65sb5m1iexd","Address":"601 E EMMA AVE","Description":"GRAFFITI-CRIMINAL MISCHIEF 2ND DEG"},"type":"Feature","geometry":{"type":"Point","coordinates":[-94.125014,36.184853]}},{"properties":{"Name":"ARREST","City":"Springdale","Zip":72764.0,"Precision":"address","Month":2.0,"Longitude":-94.140526,"Apt":null,"Latitude":36.184901,"State":"AR","Date":"2009/02/25","id":"a65sb5ulp6d5","Address":"1103 W EMMA AVE","Description":"DISORDERLY CONDUCT-FIGHT/TUMULTUOUS"},"type":"Feature","geometry":{"type":"Point","coordinates":[-94.140526,36.184901]}},{"properties":{"Name":"ARREST","City":"Springdale","Zip":72764.0,"Precision":"address","Month":2.0,"Longitude":-94.140526,"Apt":null,"Latitude":36.184901,"State":"AR","Date":"2009/02/20","id":"a65sb5k0k43g","Address":"1103 W EMMA AVE","Description":"BATTERY 3RD DEG DOMESTIC"},"type":"Feature","geometry":{"type":"Point","coordinates":[-94.140526,36.184901]}},{"properties":{"Name":"NONACT","City":"Springdale","Zip":72764.0,"Precision":"address","Month":2.0,"Longitude":-94.140526,"Apt":null,"Latitude":36.184901,"State":"AR","Date":"2009/02/20","id":"a65sb5jwol4v","Address":"1103 W EMMA AVE","Description":"THEFT OF PROPERTY/All other"},"type":"Feature","geometry":{"type":"Point","coordinates":[-94.140526,36.184901]}},{"properties":{"Name":"EXCEPT","City":"Springdale","Zip":72764.0,"Precision":"address","Month":2.0,"Longitude":-94.140526,"Apt":null,"Latitude":36.184901,"State":"AR","Date":"2009/02/24","id":"a65sb5sm5yte","Address":"1103 W EMMA AVE","Description":"RUNAWAY"},"type":"Feature","geometry":{"type":"Point","coordinates":[-94.140526,36.184901]}},{"properties":{"Name":"NONACT","City":"Springdale","Zip":72764.0,"Precision":"address","Month":2.0,"Longitude":-94.140526,"Apt":null,"Latitude":36.184901,"State":"AR","Date":"2009/02/26","id":"a65sb5ue4i3h","Address":"1103 W EMMA AVE","Description":"THEFT OF PROPERTY/All other"},"type":"Feature","geometry":{"type":"Point","coordinates":[-94.140526,36.184901]}},{"properties":{"Name":"NONACT","City":"Springdale","Zip":72764.0,"Precision":"address","Month":2.0,"Longitude":-94.140526,"Apt":null,"Latitude":36.184901,"State":"AR","Date":"2009/02/02","id":"a65sb5kkxlpm","Address":"1103 W EMMA AVE","Description":"THEFT OF PROPERTY/All other"},"type":"Feature","geometry":{"type":"Point","coordinates":[-94.140526,36.184901]}},{"properties":{"Name":"NONACT","City":"Springdale","Zip":72764.0,"Precision":"address","Month":2.0,"Longitude":-94.140526,"Apt":null,"Latitude":36.184901,"State":"AR","Date":"2009/02/09","id":"a65sb5y55qfa","Address":"1103 W EMMA AVE","Description":"CRIMINAL MISCHIEF 1ST-Purposely"},"type":"Feature","geometry":{"type":"Point","coordinates":[-94.140526,36.184901]}},{"properties":{"Name":"NONACT","City":"Springdale","Zip":72764.0,"Precision":"address","Month":2.0,"Longitude":-94.140526,"Apt":null,"Latitude":36.184901,"State":"AR","Date":"2009/02/06","id":"a65sb5rnbpyt","Address":"1103 W EMMA AVE","Description":"THEFT OF PROPERTY/All other"},"type":"Feature","geometry":{"type":"Point","coordinates":[-94.140526,36.184901]}},{"properties":{"Name":"ARREST","City":"Springdale","Zip":72764.0,"Precision":"address","Month":2.0,"Longitude":-94.140526,"Apt":null,"Latitude":36.184901,"State":"AR","Date":"2009/02/27","id":"a65sb5wdd6y2","Address":"1103 W EMMA AVE","Description":"ASSAULT 3RD DEG"},"type":"Feature","geometry":{"type":"Point","coordinates":[-94.140526,36.184901]}},{"properties":{"Name":"ARREST","City":"Springdale","Zip":72764.0,"Precision":"address","Month":2.0,"Longitude":-94.140526,"Apt":null,"Latitude":36.184901,"State":"AR","Date":"2009/02/27","id":"a65sb5q0iet8","Address":"1103 W EMMA AVE","Description":"RESISTING ARREST"},"type":"Feature","geometry":{"type":"Point","coordinates":[-94.140526,36.184901]}},{"properties":{"Name":"ARREST","City":"Springdale","Zip":72764.0,"Precision":"address","Month":2.0,"Longitude":-94.140526,"Apt":null,"Latitude":36.184901,"State":"AR","Date":"2009/02/25","id":"a65sb603gjou","Address":"1103 W EMMA AVE","Description":"LOITERING ON SCHOOL GROUNDS"},"type":"Feature","geometry":{"type":"Point","coordinates":[-94.140526,36.184901]}},{"properties":{"Name":"NONACT","City":"Springdale","Zip":72764.0,"Precision":"address","Month":2.0,"Longitude":-94.12452,"Apt":null,"Latitude":36.184995,"State":"AR","Date":"2009/02/25","id":"a65sb5w596bb","Address":"614 E EMMA AVE","Description":"THEFT OF PROPERTY/All other"},"type":"Feature","geometry":{"type":"Point","coordinates":[-94.12452,36.184995]}},{"properties":{"Name":"REF WARRANT","City":"Springdale","Zip":72764.0,"Precision":"address","Month":2.0,"Longitude":-94.136663,"Apt":null,"Latitude":36.185024,"State":"AR","Date":"2009/02/12","id":"a65sb5o4obnb","Address":"709 W EMMA AVE","Description":"THEFT OF SERVICES"},"type":"Feature","geometry":{"type":"Point","coordinates":[-94.136663,36.185024]}},{"properties":{"Name":"ARREST","City":"Springdale","Zip":72764.0,"Precision":"address","Month":2.0,"Longitude":-94.164614,"Apt":null,"Latitude":36.185137,"State":"AR","Date":"2009/02/27","id":"a65sb5wszsic","Address":"102  PARADISE LN","Description":"BATTERY 2ND DEG DOMESTIC"},"type":"Feature","geometry":{"type":"Point","coordinates":[-94.164614,36.185137]}},{"properties":{"Name":"NONACT","City":"Springdale","Zip":72764.0,"Precision":"address","Month":2.0,"Longitude":-94.17261,"Apt":null,"Latitude":36.185168,"State":"AR","Date":"2009/02/04","id":"a65sb5lgzyfg","Address":"3716  TREAT LN","Description":"THEFT OF PROPERTY/From vehicle"},"type":"Feature","geometry":{"type":"Point","coordinates":[-94.17261,36.185168]}},{"properties":{"Name":"NONACT","City":"Springdale","Zip":72764.0,"Precision":"address","Month":2.0,"Longitude":-94.210487,"Apt":null,"Latitude":36.185233,"State":"AR","Date":"2009/02/10","id":"a65sb5vxp0gy","Address":"1007  JONES RD","Description":"LOST OR FOUND PROPERTY"},"type":"Feature","geometry":{"type":"Point","coordinates":[-94.210487,36.185233]}},{"properties":{"Name":"NONACT","City":"Springdale","Zip":72764.0,"Precision":"address","Month":2.0,"Longitude":-94.202916,"Apt":null,"Latitude":36.185239,"State":"AR","Date":"2009/02/11","id":"a65sb5t336qt","Address":"195  AHLSTRAND TER","Description":"TERRORISTIC THREATENING"},"type":"Feature","geometry":{"type":"Point","coordinates":[-94.202916,36.185239]}},{"properties":{"Name":"NONACT","City":"Springdale","Zip":72764.0,"Precision":"address","Month":2.0,"Longitude":-94.156971,"Apt":"A","Latitude":36.185371,"State":"AR","Date":"2009/02/28","id":"a65sb5onb2zf","Address":"2003 W EMMA AVE","Description":"HARASSMENT-Hits, shove, threatens"},"type":"Feature","geometry":{"type":"Point","coordinates":[-94.156971,36.185371]}},{"properties":{"Name":"NONACT","City":"Springdale","Zip":72764.0,"Precision":"address","Month":2.0,"Longitude":-94.130634,"Apt":null,"Latitude":36.185447,"State":"AR","Date":"2009/02/01","id":"a65sb5r21v9r","Address":"125  MILL ST","Description":"HARASSING COMMUNICATIONS"},"type":"Feature","geometry":{"type":"Point","coordinates":[-94.130634,36.185447]}},{"properties":{"Name":"EXCEPT","City":"Springdale","Zip":72764.0,"Precision":"address","Month":2.0,"Longitude":-94.147323,"Apt":null,"Latitude":36.185471,"State":"AR","Date":"2009/02/27","id":"a65sb5zslar7","Address":"111 N WEST END ST","Description":"RUNAWAY"},"type":"Feature","geometry":{"type":"Point","coordinates":[-94.147323,36.185471]}},{"properties":{"Name":"NONACT","City":"Springdale","Zip":72764.0,"Precision":"address","Month":2.0,"Longitude":-94.161544,"Apt":null,"Latitude":36.185861,"State":"AR","Date":"2009/02/24","id":"a65sb5p54c8t","Address":"102 N GUTENSOHN RD","Description":"THEFT OF PROPERTY/All other"},"type":"Feature","geometry":{"type":"Point","coordinates":[-94.161544,36.185861]}},{"properties":{"Name":"ARREST","City":"Springdale","Zip":72764.0,"Precision":"address","Month":2.0,"Longitude":-94.138602,"Apt":"C","Latitude":36.18643,"State":"AR","Date":"2009/02/23","id":"a65sb5r18uje","Address":"903 W JOHNSON AVE","Description":"THEFT OF PROPERTY/Shoplifting"},"type":"Feature","geometry":{"type":"Point","coordinates":[-94.138602,36.18643]}},{"properties":{"Name":"ARREST","City":"Springdale","Zip":72764.0,"Precision":"address","Month":2.0,"Longitude":-94.134054,"Apt":null,"Latitude":36.186507,"State":"AR","Date":"2009/02/27","id":"a65sb5vjdd1m","Address":"200 N SHILOH ST","Description":"CARRYING A KNIFE AS A WEAPON"},"type":"Feature","geometry":{"type":"Point","coordinates":[-94.134054,36.186507]}},{"properties":{"Name":"NONACT","City":"Springdale","Zip":72764.0,"Precision":"address","Month":2.0,"Longitude":-94.12969,"Apt":null,"Latitude":36.186525,"State":"AR","Date":"2009/02/26","id":"a65sb5tkb8ze","Address":"201  SPRING ST","Description":"POSS W/INTENT TO MANUFACTURE/DRUGS"},"type":"Feature","geometry":{"type":"Point","coordinates":[-94.12969,36.186525]}},{"properties":{"Name":"NONACT","City":"Springdale","Zip":72764.0,"Precision":"address","Month":2.0,"Longitude":-94.12969,"Apt":null,"Latitude":36.186525,"State":"AR","Date":"2009/02/26","id":"a65sb5nazfub","Address":"201  SPRING ST","Description":"ABC COMPLIANCE"},"type":"Feature","geometry":{"type":"Point","coordinates":[-94.12969,36.186525]}},{"properties":{"Name":"NONACT","City":"Springdale","Zip":72764.0,"Precision":"address","Month":2.0,"Longitude":-94.12969,"Apt":"Q300","Latitude":36.186525,"State":"AR","Date":"2009/02/16","id":"a65sb5qh5oyn","Address":"201  SPRING ST","Description":"CRUELTY TO ANIMALS"},"type":"Feature","geometry":{"type":"Point","coordinates":[-94.12969,36.186525]}},{"properties":{"Name":"EXCEPT","City":"Springdale","Zip":72764.0,"Precision":"address","Month":2.0,"Longitude":-94.12969,"Apt":null,"Latitude":36.186525,"State":"AR","Date":"2009/02/04","id":"a65sb5lcixf3","Address":"201  SPRING ST","Description":"HARASSING COMMUNICATIONS"},"type":"Feature","geometry":{"type":"Point","coordinates":[-94.12969,36.186525]}},{"properties":{"Name":"REF WARRANT","City":"Springdale","Zip":72764.0,"Precision":"address","Month":2.0,"Longitude":-94.12969,"Apt":null,"Latitude":36.186525,"State":"AR","Date":"2009/02/07","id":"a65sb5vsjar6","Address":"201  SPRING ST","Description":"FINANCIAL IDENTITY FRAUD"},"type":"Feature","geometry":{"type":"Point","coordinates":[-94.12969,36.186525]}},{"properties":{"Name":"EXCEPT","City":"Springdale","Zip":72764.0,"Precision":"address","Month":2.0,"Longitude":-94.12969,"Apt":null,"Latitude":36.186525,"State":"AR","Date":"2009/02/07","id":"a65sb5wz04eb","Address":"201  SPRING ST","Description":"POSSESSION DRUG PARAPHERNALIA"},"type":"Feature","geometry":{"type":"Point","coordinates":[-94.12969,36.186525]}},{"properties":{"Name":"NONACT","City":"Springdale","Zip":72764.0,"Precision":"address","Month":2.0,"Longitude":-94.12969,"Apt":null,"Latitude":36.186525,"State":"AR","Date":"2009/02/18","id":"a65sb5lx40jc","Address":"201  SPRING ST","Description":"NON-FINANCIAL IDENTITY FRAUD"},"type":"Feature","geometry":{"type":"Point","coordinates":[-94.12969,36.186525]}},{"properties":{"Name":"EXCEPT","City":"Springdale","Zip":72764.0,"Precision":"address","Month":2.0,"Longitude":-94.12969,"Apt":null,"Latitude":36.186525,"State":"AR","Date":"2009/02/18","id":"a65sb5q26xj7","Address":"201  SPRING ST","Description":"NON-FINANCIAL IDENTITY FRAUD"},"type":"Feature","geometry":{"type":"Point","coordinates":[-94.12969,36.186525]}},{"properties":{"Name":"ARREST","City":"Springdale","Zip":72764.0,"Precision":"address","Month":2.0,"Longitude":-94.12969,"Apt":null,"Latitude":36.186525,"State":"AR","Date":"2009/02/23","id":"a65sb5rdc2ff","Address":"201  SPRING ST","Description":"HARASSMENT-Insult/taunts in public"},"type":"Feature","geometry":{"type":"Point","coordinates":[-94.12969,36.186525]}},{"properties":{"Name":"UNFOUNDED","City":"Springdale","Zip":72764.0,"Precision":"address","Month":2.0,"Longitude":-94.12969,"Apt":null,"Latitude":36.186525,"State":"AR","Date":"2009/02/23","id":"a65sb5oojc0r","Address":"201  SPRING ST","Description":"FINANCIAL IDENTITY FRAUD"},"type":"Feature","geometry":{"type":"Point","coordinates":[-94.12969,36.186525]}},{"properties":{"Name":"EXCEPT","City":"Springdale","Zip":72764.0,"Precision":"address","Month":2.0,"Longitude":-94.12969,"Apt":null,"Latitude":36.186525,"State":"AR","Date":"2009/02/28","id":"a65sb5zbxf1n","Address":"201  SPRING ST","Description":"UNAUTHORIZED USE OF MOTOR VEHICLE"},"type":"Feature","geometry":{"type":"Point","coordinates":[-94.12969,36.186525]}},{"properties":{"Name":"NONACT","City":"Springdale","Zip":72764.0,"Precision":"address","Month":2.0,"Longitude":-94.12969,"Apt":null,"Latitude":36.186525,"State":"AR","Date":"2009/02/05","id":"a65sb5sq0ppj","Address":"201  SPRING ST","Description":"AGENCY ASSIST"},"type":"Feature","geometry":{"type":"Point","coordinates":[-94.12969,36.186525]}},{"properties":{"Name":"UNFOUNDED","City":"Springdale","Zip":72764.0,"Precision":"address","Month":2.0,"Longitude":-94.12969,"Apt":"Q300","Latitude":36.186525,"State":"AR","Date":"2009/02/19","id":"a65sb5ookkl5","Address":"201  SPRING ST","Description":"AGENCY ASSIST"},"type":"Feature","geometry":{"type":"Point","coordinates":[-94.12969,36.186525]}},{"properties":{"Name":"REF WARRANT","City":"Springdale","Zip":72764.0,"Precision":"address","Month":2.0,"Longitude":-94.12969,"Apt":null,"Latitude":36.186525,"State":"AR","Date":"2009/02/20","id":"a65sb5p3cdjb","Address":"201  SPRING ST","Description":"ASSAULT 3RD DEG"},"type":"Feature","geometry":{"type":"Point","coordinates":[-94.12969,36.186525]}},{"properties":{"Name":"NONACT","City":"Springdale","Zip":72764.0,"Precision":"address","Month":2.0,"Longitude":-94.12969,"Apt":"Q300","Latitude":36.186525,"State":"AR","Date":"2009/02/20","id":"a65sb5konqrl","Address":"201  SPRING ST","Description":"ABC COMPLIANCE"},"type":"Feature","geometry":{"type":"Point","coordinates":[-94.12969,36.186525]}},{"properties":{"Name":"ARREST","City":"Springdale","Zip":72764.0,"Precision":"address","Month":2.0,"Longitude":-94.12969,"Apt":null,"Latitude":36.186525,"State":"AR","Date":"2009/02/19","id":"a65sb5og40og","Address":"201  SPRING ST","Description":"ABC COMPLIANCE"},"type":"Feature","geometry":{"type":"Point","coordinates":[-94.12969,36.186525]}},{"properties":{"Name":"ARREST","City":"Springdale","Zip":72764.0,"Precision":"address","Month":2.0,"Longitude":-94.142688,"Apt":"APT104","Latitude":36.18747,"State":"AR","Date":"2009/02/22","id":"a65sb5wrenqr","Address":"417 N PLEASANT ST","Description":"BATTERY 3RD DEG DOMESTIC"},"type":"Feature","geometry":{"type":"Point","coordinates":[-94.142688,36.18747]}},{"properties":{"Name":"ARREST","City":"Springdale","Zip":72764.0,"Precision":"address","Month":2.0,"Longitude":-94.142688,"Apt":"APT109","Latitude":36.18747,"State":"AR","Date":"2009/02/23","id":"a65sb5rkxiw4","Address":"417 N PLEASANT ST","Description":"POSS CONTROLLED SUBS/Marijuana"},"type":"Feature","geometry":{"type":"Point","coordinates":[-94.142688,36.18747]}},{"properties":{"Name":"NONACT","City":"Springdale","Zip":72764.0,"Precision":"address","Month":2.0,"Longitude":-94.147361,"Apt":null,"Latitude":36.187666,"State":"AR","Date":"2009/02/02","id":"a65sb5utp0pn","Address":"301 N WEST END ST","Description":"BATTERY 2ND-Serious injury"},"type":"Feature","geometry":{"type":"Point","coordinates":[-94.147361,36.187666]}},{"properties":{"Name":"ARREST","City":"Springdale","Zip":72764.0,"Precision":"address","Month":2.0,"Longitude":-94.2098,"Apt":null,"Latitude":36.187804,"State":"AR","Date":"2009/02/03","id":"a65sb5soqnfa","Address":"406  KETCH CT","Description":"ASSAULT 3RD DEG DOMESTIC"},"type":"Feature","geometry":{"type":"Point","coordinates":[-94.2098,36.187804]}},{"properties":{"Name":"NONACT","City":"Springdale","Zip":72764.0,"Precision":"address","Month":2.0,"Longitude":-94.156714,"Apt":"B","Latitude":36.188009,"State":"AR","Date":"2009/02/24","id":"a65sb5t917ni","Address":"2004  THEODORE DR","Description":"HARASSING COMMUNICATIONS"},"type":"Feature","geometry":{"type":"Point","coordinates":[-94.156714,36.188009]}},{"properties":{"Name":"NONACT","City":"Springdale","Zip":72764.0,"Precision":"address","Month":2.0,"Longitude":-94.116322,"Apt":null,"Latitude":36.188364,"State":"AR","Date":"2009/02/05","id":"a65sb601eub6","Address":"500 N OLD MISSOURI RD","Description":"GRAFFITI-CRIMINAL MISCHIEF 1ST DEG"},"type":"Feature","geometry":{"type":"Point","coordinates":[-94.116322,36.188364]}},{"properties":{"Name":"NONACT","City":"Springdale","Zip":72764.0,"Precision":"address","Month":2.0,"Longitude":-94.125129,"Apt":null,"Latitude":36.189024,"State":"AR","Date":"2009/02/06","id":"a65sb5on5gle","Address":"600  BERRY ST","Description":"BREAKING/ENTERING-ARTICLES FROM VEH"},"type":"Feature","geometry":{"type":"Point","coordinates":[-94.125129,36.189024]}},{"properties":{"Name":"ARREST","City":"Springdale","Zip":72764.0,"Precision":"address","Month":2.0,"Longitude":-94.161813,"Apt":null,"Latitude":36.189103,"State":"AR","Date":"2009/02/06","id":"a65sb5xmpsrj","Address":"2811 W HUNTSVILLE AVE","Description":"THEFT OF PROPERTY/All other"},"type":"Feature","geometry":{"type":"Point","coordinates":[-94.161813,36.189103]}},{"properties":{"Name":"ARREST","City":"Springdale","Zip":72764.0,"Precision":"address","Month":2.0,"Longitude":-94.161813,"Apt":null,"Latitude":36.189103,"State":"AR","Date":"2009/02/06","id":"a65sb5yvqxk6","Address":"2811 W HUNTSVILLE AVE","Description":"THEFT OF PROPERTY/All other"},"type":"Feature","geometry":{"type":"Point","coordinates":[-94.161813,36.189103]}},{"properties":{"Name":"ARREST","City":"Springdale","Zip":72764.0,"Precision":"address","Month":2.0,"Longitude":-94.161813,"Apt":null,"Latitude":36.189103,"State":"AR","Date":"2009/02/11","id":"a65sb5nkqs9w","Address":"2811 W HUNTSVILLE AVE","Description":"DISORDERLY CONDUCT-FIGHT/TUMULTUOUS"},"type":"Feature","geometry":{"type":"Point","coordinates":[-94.161813,36.189103]}},{"properties":{"Name":"NONACT","City":"Springdale","Zip":72764.0,"Precision":"address","Month":2.0,"Longitude":-94.154792,"Apt":"A","Latitude":36.189233,"State":"AR","Date":"2009/02/12","id":"a65sb5qmj2b4","Address":"1900 W HUNTSVILLE AVE","Description":"FORGERY 1ST DEG"},"type":"Feature","geometry":{"type":"Point","coordinates":[-94.154792,36.189233]}},{"properties":{"Name":"NONACT","City":"Springdale","Zip":72764.0,"Precision":"address","Month":2.0,"Longitude":-94.16179,"Apt":null,"Latitude":36.189372,"State":"AR","Date":"2009/02/06","id":"a65sb5sj9fph","Address":"2808 W HUNTSVILLE AVE","Description":"HARASSMENT-Insult/taunts in public"},"type":"Feature","geometry":{"type":"Point","coordinates":[-94.16179,36.189372]}},{"properties":{"Name":"NONACT","City":"Springdale","Zip":72764.0,"Precision":"address","Month":2.0,"Longitude":-94.16179,"Apt":null,"Latitude":36.189372,"State":"AR","Date":"2009/02/09","id":"a65sb5o660i1","Address":"2808 W HUNTSVILLE AVE","Description":"GRAFFITI-CRIMINAL MISCHIEF 2ND DEG"},"type":"Feature","geometry":{"type":"Point","coordinates":[-94.16179,36.189372]}},{"properties":{"Name":"ARREST","City":"Springdale","Zip":72764.0,"Precision":"address","Month":2.0,"Longitude":-94.16179,"Apt":null,"Latitude":36.189372,"State":"AR","Date":"2009/02/14","id":"a65sb5qga5ey","Address":"2808 W HUNTSVILLE AVE","Description":"POSS CONTROLLED SUBS/other drugs"},"type":"Feature","geometry":{"type":"Point","coordinates":[-94.16179,36.189372]}},{"properties":{"Name":"NONACT","City":"Springdale","Zip":72764.0,"Precision":"address","Month":2.0,"Longitude":-94.147204,"Apt":null,"Latitude":36.189432,"State":"AR","Date":"2009/02/17","id":"a65sb5zizyie","Address":"415 N WEST END ST","Description":"BURGLARY-RESIDENTIAL"},"type":"Feature","geometry":{"type":"Point","coordinates":[-94.147204,36.189432]}},{"properties":{"Name":"ARREST","City":"Springdale","Zip":72764.0,"Precision":"address","Month":2.0,"Longitude":-94.135773,"Apt":"G","Latitude":36.189838,"State":"AR","Date":"2009/02/23","id":"a65sb5ubj3v8","Address":"610  OAK AVE","Description":"BATTERY 3RD DEG DOMESTIC"},"type":"Feature","geometry":{"type":"Point","coordinates":[-94.135773,36.189838]}},{"properties":{"Name":"ARREST","City":"Springdale","Zip":72764.0,"Precision":"address","Month":2.0,"Longitude":-94.142327,"Apt":"A","Latitude":36.190295,"State":"AR","Date":"2009/02/13","id":"a65sb5ydshya","Address":"706  UNION DR","Description":"POSS CONTROLLED SUBS/other drugs"},"type":"Feature","geometry":{"type":"Point","coordinates":[-94.142327,36.190295]}},{"properties":{"Name":"ARREST","City":"Springdale","Zip":72764.0,"Precision":"address","Month":2.0,"Longitude":-94.142327,"Apt":"H","Latitude":36.190295,"State":"AR","Date":"2009/02/03","id":"a65sb5u0rfu8","Address":"706  UNION DR","Description":"BATTERY 3RD DEG DOMESTIC"},"type":"Feature","geometry":{"type":"Point","coordinates":[-94.142327,36.190295]}},{"properties":{"Name":"REF WARRANT","City":"Springdale","Zip":72764.0,"Precision":"address","Month":2.0,"Longitude":-94.142269,"Apt":"E","Latitude":36.190367,"State":"AR","Date":"2009/02/19","id":"a65sb5x3y4xs","Address":"708  UNION DR","Description":"INTIMIDATING A WITNESS"},"type":"Feature","geometry":{"type":"Point","coordinates":[-94.142269,36.190367]}},{"properties":{"Name":"NONACT","City":"Springdale","Zip":72764.0,"Precision":"address","Month":2.0,"Longitude":-94.141965,"Apt":"H","Latitude":36.19053,"State":"AR","Date":"2009/02/04","id":"a65sb5qro915","Address":"705  UNION DR","Description":"UNATTENDED DEATH"},"type":"Feature","geometry":{"type":"Point","coordinates":[-94.141965,36.19053]}},{"properties":{"Name":"ARREST","City":"Springdale","Zip":72764.0,"Precision":"address","Month":2.0,"Longitude":-94.161191,"Apt":null,"Latitude":36.190532,"State":"AR","Date":"2009/02/17","id":"a65sb5pxe48t","Address":"607 N GUTENSOHN RD","Description":"AGGRAVATED ASSAULT DOMESTIC"},"type":"Feature","geometry":{"type":"Point","coordinates":[-94.161191,36.190532]}},{"properties":{"Name":"NONACT","City":"Springdale","Zip":72764.0,"Precision":"address","Month":2.0,"Longitude":-94.154614,"Apt":null,"Latitude":36.190915,"State":"AR","Date":"2009/02/23","id":"a65sb5zvqfbc","Address":"506  HINSHAW DR","Description":"CRIMINAL TRESPASS"},"type":"Feature","geometry":{"type":"Point","coordinates":[-94.154614,36.190915]}},{"properties":{"Name":"NONACT","City":"Springdale","Zip":72764.0,"Precision":"address","Month":2.0,"Longitude":-94.138133,"Apt":null,"Latitude":36.191754,"State":"AR","Date":"2009/02/09","id":"a65sb5ohhsln","Address":"707 N THOMPSON ST","Description":"BREAKING/ENTERING-ARTICLES FROM VEH"},"type":"Feature","geometry":{"type":"Point","coordinates":[-94.138133,36.191754]}},{"properties":{"Name":"NONACT","City":"Springdale","Zip":72764.0,"Precision":"address","Month":2.0,"Longitude":-94.105639,"Apt":"I204","Latitude":36.191758,"State":"AR","Date":"2009/02/18","id":"a65sb5wpfw2s","Address":"2200 E MOUNTAIN RD","Description":"CRIMINAL MISCHIEF 1ST-Purposely"},"type":"Feature","geometry":{"type":"Point","coordinates":[-94.105639,36.191758]}},{"properties":{"Name":"NONACT","City":"Springdale","Zip":72764.0,"Precision":"address","Month":2.0,"Longitude":-94.168516,"Apt":null,"Latitude":36.191982,"State":"AR","Date":"2009/02/27","id":"a65sb5u7uep7","Address":"3520  WESTMINSTER AVE","Description":"CRIMINAL MISCHIEF 1ST-Purposely"},"type":"Feature","geometry":{"type":"Point","coordinates":[-94.168516,36.191982]}},{"properties":{"Name":"ARREST","City":"Springdale","Zip":72764.0,"Precision":"address","Month":2.0,"Longitude":-94.138459,"Apt":null,"Latitude":36.192114,"State":"AR","Date":"2009/02/22","id":"a65sb5mjouy7","Address":"806 N THOMPSON ST","Description":"POSS CONTROLLED SUBS/other drugs"},"type":"Feature","geometry":{"type":"Point","coordinates":[-94.138459,36.192114]}},{"properties":{"Name":"ARREST","City":"Springdale","Zip":72764.0,"Precision":"address","Month":2.0,"Longitude":-94.138458,"Apt":"STE10","Latitude":36.192145,"State":"AR","Date":"2009/02/20","id":"a65sb5nz0rtx","Address":"812 N THOMPSON ST","Description":"FELON IN POSSESSION OF FIREARM"},"type":"Feature","geometry":{"type":"Point","coordinates":[-94.138458,36.192145]}},{"properties":{"Name":"NONACT","City":"Springdale","Zip":72764.0,"Precision":"address","Month":2.0,"Longitude":-94.138458,"Apt":"STE10","Latitude":36.192145,"State":"AR","Date":"2009/02/10","id":"a65sb5nvk2tq","Address":"812 N THOMPSON ST","Description":"THEFT OF PROPERTY/All other"},"type":"Feature","geometry":{"type":"Point","coordinates":[-94.138458,36.192145]}},{"properties":{"Name":"EXCEPT","City":"Springdale","Zip":72764.0,"Precision":"address","Month":2.0,"Longitude":-94.10417,"Apt":"A","Latitude":36.192388,"State":"AR","Date":"2009/02/14","id":"a65sb5q3ygz7","Address":"990  VALE ST","Description":"RUNAWAY"},"type":"Feature","geometry":{"type":"Point","coordinates":[-94.10417,36.192388]}},{"properties":{"Name":"ARREST","City":"Springdale","Zip":72764.0,"Precision":"address","Month":2.0,"Longitude":-94.103838,"Apt":"A","Latitude":36.192525,"State":"AR","Date":"2009/02/18","id":"a65sb5zsscv1","Address":"1021  VALE ST","Description":"AGGRAVATED ASSAULT DOMESTIC"},"type":"Feature","geometry":{"type":"Point","coordinates":[-94.103838,36.192525]}},{"properties":{"Name":"ACTIVE","City":"Springdale","Zip":72764.0,"Precision":"address","Month":2.0,"Longitude":-94.104569,"Apt":"B","Latitude":36.192863,"State":"AR","Date":"2009/02/21","id":"a65sb5zjyxtz","Address":"2331  CANYON AVE","Description":"CRIMINAL MISCHIEF 1ST-Purposely"},"type":"Feature","geometry":{"type":"Point","coordinates":[-94.104569,36.192863]}},{"properties":{"Name":"ARREST","City":"Springdale","Zip":72764.0,"Precision":"address","Month":2.0,"Longitude":-94.139654,"Apt":null,"Latitude":36.193204,"State":"AR","Date":"2009/02/02","id":"a65sb5pyuncx","Address":"908  VIRGINIA ST","Description":"POSS CONTROLLED SUBS/Marijuana"},"type":"Feature","geometry":{"type":"Point","coordinates":[-94.139654,36.193204]}},{"properties":{"Name":"NONACT","City":"Springdale","Zip":72764.0,"Precision":"address","Month":2.0,"Longitude":-94.171057,"Apt":"A","Latitude":36.193218,"State":"AR","Date":"2009/02/05","id":"a65sb5wxeo80","Address":"3732  ELM SPRINGS RD","Description":"GRAFFITI-CRIMINAL MISCHIEF 2ND DEG"},"type":"Feature","geometry":{"type":"Point","coordinates":[-94.171057,36.193218]}},{"properties":{"Name":"ARREST","City":"Springdale","Zip":72764.0,"Precision":"address","Month":2.0,"Longitude":-94.154716,"Apt":null,"Latitude":36.193308,"State":"AR","Date":"2009/02/18","id":"a65sb5n271vc","Address":"714  HINSHAW DR","Description":"BURGLARY-RESIDENTIAL"},"type":"Feature","geometry":{"type":"Point","coordinates":[-94.154716,36.193308]}},{"properties":{"Name":"ARREST","City":"Springdale","Zip":72764.0,"Precision":"address","Month":2.0,"Longitude":-94.139589,"Apt":"B","Latitude":36.194167,"State":"AR","Date":"2009/02/12","id":"a65sb5ux4ptx","Address":"1003  CRAWFORD AVE","Description":"SEXUAL ASSAULT 2ND DEG"},"type":"Feature","geometry":{"type":"Point","coordinates":[-94.139589,36.194167]}},{"properties":{"Name":"NONACT","City":"Springdale","Zip":72764.0,"Precision":"address","Month":2.0,"Longitude":-94.138403,"Apt":"A","Latitude":36.19465,"State":"AR","Date":"2009/02/01","id":"a65sb5tarsoh","Address":"1308 N THOMPSON ST","Description":"MOTOR VEHICLE THEFT"},"type":"Feature","geometry":{"type":"Point","coordinates":[-94.138403,36.19465]}},{"properties":{"Name":"ACTIVE","City":"Springdale","Zip":72764.0,"Precision":"address","Month":2.0,"Longitude":-94.15813,"Apt":null,"Latitude":36.194681,"State":"AR","Date":"2009/02/23","id":"a65sb5n9bw7m","Address":"2500  TRACEE WAY","Description":"ANIMAL BITE REPORT"},"type":"Feature","geometry":{"type":"Point","coordinates":[-94.15813,36.194681]}},{"properties":{"Name":"NONACT","City":"Springdale","Zip":72764.0,"Precision":"address","Month":2.0,"Longitude":-94.15357,"Apt":null,"Latitude":36.194824,"State":"AR","Date":"2009/02/06","id":"a65sb5m6pcsh","Address":"808  GWEN ST","Description":"THEFT OF PROPERTY/From vehicle"},"type":"Feature","geometry":{"type":"Point","coordinates":[-94.15357,36.194824]}},{"properties":{"Name":"EXCEPT","City":"Springdale","Zip":72764.0,"Precision":"address","Month":2.0,"Longitude":-94.143067,"Apt":null,"Latitude":36.194953,"State":"AR","Date":"2009/02/09","id":"a65sb5l8auiq","Address":"1305  CRAWFORD AVE","Description":"RUNAWAY"},"type":"Feature","geometry":{"type":"Point","coordinates":[-94.143067,36.194953]}},{"properties":{"Name":"NONACT","City":"Springdale","Zip":72764.0,"Precision":"address","Month":2.0,"Longitude":-94.150026,"Apt":null,"Latitude":36.194992,"State":"AR","Date":"2009/02/10","id":"a65sb5qz33nf","Address":"1009  SHERRY ST","Description":"CRIMINAL MISCHIEF 2ND-Tampers"},"type":"Feature","geometry":{"type":"Point","coordinates":[-94.150026,36.194992]}},{"properties":{"Name":"EXCEPT","City":"Springdale","Zip":72764.0,"Precision":"address","Month":2.0,"Longitude":-94.168223,"Apt":null,"Latitude":36.195012,"State":"AR","Date":"2009/02/18","id":"a65sb5wx7j8a","Address":"1102  JOYE ST","Description":"RUNAWAY"},"type":"Feature","geometry":{"type":"Point","coordinates":[-94.168223,36.195012]}},{"properties":{"Name":"NONACT","City":"Springdale","Zip":72764.0,"Precision":"address","Month":2.0,"Longitude":-94.145314,"Apt":null,"Latitude":36.195105,"State":"AR","Date":"2009/02/23","id":"a65sb5w1fxlc","Address":"1404  CRAWFORD AVE","Description":"BREAKING/ENTERING-ARTICLES FROM VEH"},"type":"Feature","geometry":{"type":"Point","coordinates":[-94.145314,36.195105]}},{"properties":{"Name":"NONACT","City":"Springdale","Zip":72764.0,"Precision":"address","Month":2.0,"Longitude":-94.142587,"Apt":null,"Latitude":36.195215,"State":"AR","Date":"2009/02/18","id":"a65sb5mfoecr","Address":"1017 N PLEASANT ST","Description":"ILLEGAL DUMPING"},"type":"Feature","geometry":{"type":"Point","coordinates":[-94.142587,36.195215]}},{"properties":{"Name":"EXCEPT","City":"Springdale","Zip":72764.0,"Precision":"address","Month":2.0,"Longitude":-94.159056,"Apt":null,"Latitude":36.195566,"State":"AR","Date":"2009/02/09","id":"a65sb5wu9h45","Address":"2606  MIDA AVE","Description":"THEFT OF PROPERTY/All other"},"type":"Feature","geometry":{"type":"Point","coordinates":[-94.159056,36.195566]}},{"properties":{"Name":"NONACT","City":"Springdale","Zip":72764.0,"Precision":"address","Month":2.0,"Longitude":-94.109431,"Apt":null,"Latitude":36.195627,"State":"AR","Date":"2009/02/17","id":"a65sb5zm6yrh","Address":"1845  COLLINS AVE","Description":"BREAKING/ENTERING (except vehicles)"},"type":"Feature","geometry":{"type":"Point","coordinates":[-94.109431,36.195627]}},{"properties":{"Name":"ARREST","City":"Springdale","Zip":72764.0,"Precision":"address","Month":2.0,"Longitude":-94.141843,"Apt":null,"Latitude":36.196016,"State":"AR","Date":"2009/02/01","id":"a65sb5laueq8","Address":"1108  BACKUS AVE","Description":"CRIMINAL MISCHIEF 2ND-Tampers"},"type":"Feature","geometry":{"type":"Point","coordinates":[-94.141843,36.196016]}},{"properties":{"Name":"NONACT","City":"Springdale","Zip":72764.0,"Precision":"address","Month":2.0,"Longitude":-94.141843,"Apt":null,"Latitude":36.196016,"State":"AR","Date":"2009/02/27","id":"a65sb5zwo5s9","Address":"1108  BACKUS AVE","Description":"FRAUDULENT USE OF CREDIT CARD"},"type":"Feature","geometry":{"type":"Point","coordinates":[-94.141843,36.196016]}},{"properties":{"Name":"ARREST","City":"Springdale","Zip":72764.0,"Precision":"address","Month":2.0,"Longitude":-94.141843,"Apt":null,"Latitude":36.196016,"State":"AR","Date":"2009/02/28","id":"a65sb5xt6lw7","Address":"1108  BACKUS AVE","Description":"DWI #4"},"type":"Feature","geometry":{"type":"Point","coordinates":[-94.141843,36.196016]}},{"properties":{"Name":"ARREST","City":"Springdale","Zip":72764.0,"Precision":"address","Month":2.0,"Longitude":-94.12865,"Apt":null,"Latitude":36.196463,"State":"AR","Date":"2009/02/09","id":"a65sb5omc85j","Address":"1023  MILL ST","Description":"ASSAULT 3RD DEG"},"type":"Feature","geometry":{"type":"Point","coordinates":[-94.12865,36.196463]}},{"properties":{"Name":"NONACT","City":"Springdale","Zip":72764.0,"Precision":"address","Month":2.0,"Longitude":-94.108514,"Apt":null,"Latitude":36.196694,"State":"AR","Date":"2009/02/16","id":"a65sb5kkt7pz","Address":"1970  WHEATLAND AVE","Description":"BATTERY 3RD DEG DOMESTIC"},"type":"Feature","geometry":{"type":"Point","coordinates":[-94.108514,36.196694]}},{"properties":{"Name":"NONACT","City":"Springdale","Zip":72764.0,"Precision":"address","Month":2.0,"Longitude":-94.073599,"Apt":"APTB","Latitude":36.196808,"State":"AR","Date":"2009/02/18","id":"a65sb5ynoqx1","Address":"1293 N SCOTT HOLLOW RD","Description":"AGENCY ASSIST"},"type":"Feature","geometry":{"type":"Point","coordinates":[-94.073599,36.196808]}},{"properties":{"Name":"NONACT","City":"Springdale","Zip":72764.0,"Precision":"address","Month":2.0,"Longitude":-94.127864,"Apt":null,"Latitude":36.197007,"State":"AR","Date":"2009/02/28","id":"a65sb5jtrgut","Address":"236  OLD WIRE RD","Description":"BATTERY 3RD DEG DOMESTIC"},"type":"Feature","geometry":{"type":"Point","coordinates":[-94.127864,36.197007]}},{"properties":{"Name":"NONACT","City":"Springdale","Zip":72764.0,"Precision":"address","Month":2.0,"Longitude":-94.134779,"Apt":"APT14","Latitude":36.197143,"State":"AR","Date":"2009/02/23","id":"a65sb5rt7dug","Address":"1330  AQ CIR","Description":"LOST OR FOUND PROPERTY"},"type":"Feature","geometry":{"type":"Point","coordinates":[-94.134779,36.197143]}},{"properties":{"Name":"ARREST","City":"Springdale","Zip":72764.0,"Precision":"address","Month":2.0,"Longitude":-94.140382,"Apt":null,"Latitude":36.197258,"State":"AR","Date":"2009/02/02","id":"a65sb5n1d0z7","Address":"1306  KANSAS ST","Description":"THEFT OF PROPERTY/Parts &amp; accessory"},"type":"Feature","geometry":{"type":"Point","coordinates":[-94.140382,36.197258]}},{"properties":{"Name":"NONACT","City":"Springdale","Zip":72764.0,"Precision":"address","Month":2.0,"Longitude":-94.140382,"Apt":null,"Latitude":36.197258,"State":"AR","Date":"2009/02/14","id":"a65sb5outepe","Address":"1306  KANSAS ST","Description":"FORGERY 1ST DEG"},"type":"Feature","geometry":{"type":"Point","coordinates":[-94.140382,36.197258]}},{"properties":{"Name":"UNFOUNDED","City":"Springdale","Zip":72764.0,"Precision":"address","Month":2.0,"Longitude":-94.150735,"Apt":null,"Latitude":36.197514,"State":"AR","Date":"2009/02/01","id":"a65sb5y9edqe","Address":"1114  RANCH DR","Description":"FRAUDULENT USE OF CREDIT CARD"},"type":"Feature","geometry":{"type":"Point","coordinates":[-94.150735,36.197514]}},{"properties":{"Name":"EXCEPT","City":"Springdale","Zip":72764.0,"Precision":"address","Month":2.0,"Longitude":-94.142775,"Apt":null,"Latitude":36.197588,"State":"AR","Date":"2009/02/05","id":"a65sb5ssq4he","Address":"1202 N PLEASANT ST","Description":"RUNAWAY"},"type":"Feature","geometry":{"type":"Point","coordinates":[-94.142775,36.197588]}},{"properties":{"Name":"NONACT","City":"Springdale","Zip":72764.0,"Precision":"address","Month":2.0,"Longitude":-94.152744,"Apt":null,"Latitude":36.197612,"State":"AR","Date":"2009/02/26","id":"a65sb5q13bo9","Address":"1402  CAMINO REAL","Description":"BREAKING/ENTERING-ARTICLES FROM VEH"},"type":"Feature","geometry":{"type":"Point","coordinates":[-94.152744,36.197612]}},{"properties":{"Name":"NONACT","City":"Springdale","Zip":72764.0,"Precision":"address","Month":2.0,"Longitude":-94.161935,"Apt":null,"Latitude":36.197881,"State":"AR","Date":"2009/02/03","id":"a65sb5kcgh14","Address":"1400  JENNIFER ST","Description":"CRIMINAL MISCHIEF 2ND-Reck destroys"},"type":"Feature","geometry":{"type":"Point","coordinates":[-94.161935,36.197881]}},{"properties":{"Name":"NONACT","City":"Springdale","Zip":72764.0,"Precision":"address","Month":2.0,"Longitude":-94.125791,"Apt":null,"Latitude":36.198066,"State":"AR","Date":"2009/02/16","id":"a65sb5nog4io","Address":"420  OLD WIRE RD","Description":"GRAFFITI-CRIMINAL MISCHIEF 1ST DEG"},"type":"Feature","geometry":{"type":"Point","coordinates":[-94.125791,36.198066]}},{"properties":{"Name":"NONACT","City":"Springdale","Zip":72764.0,"Precision":"address","Month":2.0,"Longitude":-94.168848,"Apt":null,"Latitude":36.19833,"State":"AR","Date":"2009/02/25","id":"a65sb5t8xlmi","Address":"1407  DALINE ST","Description":"BREAKING/ENTERING-ARTICLES FROM VEH"},"type":"Feature","geometry":{"type":"Point","coordinates":[-94.168848,36.19833]}},{"properties":{"Name":"NONACT","City":"Springdale","Zip":72764.0,"Precision":"address","Month":2.0,"Longitude":-94.109244,"Apt":null,"Latitude":36.198458,"State":"AR","Date":"2009/02/02","id":"a65sb5ph7ekw","Address":"1915  TIMBERLINE AVE","Description":"FINANCIAL IDENTITY FRAUD"},"type":"Feature","geometry":{"type":"Point","coordinates":[-94.109244,36.198458]}},{"properties":{"Name":"ARREST","City":"Springdale","Zip":72764.0,"Precision":"address","Month":2.0,"Longitude":-94.165478,"Apt":"B","Latitude":36.198672,"State":"AR","Date":"2009/02/08","id":"a65sb5ykkkzi","Address":"1507  WHITE RD","Description":"HARASSING COMMUNICATIONS"},"type":"Feature","geometry":{"type":"Point","coordinates":[-94.165478,36.198672]}},{"properties":{"Name":"ARREST","City":"Springdale","Zip":72764.0,"Precision":"address","Month":2.0,"Longitude":-94.10759,"Apt":null,"Latitude":36.199488,"State":"AR","Date":"2009/02/23","id":"a65sb5zdeana","Address":"2072  GARNET RD","Description":"MOTOR VEHICLE THEFT"},"type":"Feature","geometry":{"type":"Point","coordinates":[-94.10759,36.199488]}},{"properties":{"Name":"NONACT","City":"Springdale","Zip":72764.0,"Precision":"address","Month":2.0,"Longitude":-94.161827,"Apt":null,"Latitude":36.200303,"State":"AR","Date":"2009/02/16","id":"a65sb5mktuz6","Address":"1635  LESTER CV","Description":"BREAKING/ENTERING-ARTICLES FROM VEH"},"type":"Feature","geometry":{"type":"Point","coordinates":[-94.161827,36.200303]}},{"properties":{"Name":"UNFOUNDED","City":"Springdale","Zip":72764.0,"Precision":"address","Month":2.0,"Longitude":-94.161817,"Apt":null,"Latitude":36.200375,"State":"AR","Date":"2009/02/20","id":"a65sb5lc0xbp","Address":"1653  LESTER CV","Description":"BATTERY 3RD DEG DOMESTIC"},"type":"Feature","geometry":{"type":"Point","coordinates":[-94.161817,36.200375]}},{"properties":{"Name":"NONACT","City":"Springdale","Zip":72764.0,"Precision":"address","Month":2.0,"Longitude":-94.172091,"Apt":null,"Latitude":36.200518,"State":"AR","Date":"2009/02/09","id":"a65sb5zimpvm","Address":"3600  FALCON RD","Description":"THEFT OF BICYCLE"},"type":"Feature","geometry":{"type":"Point","coordinates":[-94.172091,36.200518]}},{"properties":{"Name":"NONACT","City":"Springdale","Zip":72764.0,"Precision":"address","Month":2.0,"Longitude":-94.107908,"Apt":null,"Latitude":36.200565,"State":"AR","Date":"2009/02/27","id":"a65sb5sc05op","Address":"1976  AMETHYST AVE","Description":"GRAFFITI-CRIMINAL MISCHIEF 2ND DEG"},"type":"Feature","geometry":{"type":"Point","coordinates":[-94.107908,36.200565]}},{"properties":{"Name":"NONACT","City":"Springdale","Zip":72764.0,"Precision":"address","Month":2.0,"Longitude":-94.111602,"Apt":"B","Latitude":36.201937,"State":"AR","Date":"2009/02/23","id":"a65sb5lyjlxa","Address":"1187  TOLLESON LP","Description":"MOTOR VEHICLE THEFT"},"type":"Feature","geometry":{"type":"Point","coordinates":[-94.111602,36.201937]}},{"properties":{"Name":"ARREST","City":"Springdale","Zip":72764.0,"Precision":"address","Month":2.0,"Longitude":-94.161611,"Apt":null,"Latitude":36.202391,"State":"AR","Date":"2009/02/14","id":"a65sb5zy09qt","Address":"1906  STOUT DR","Description":"BATTERY 3RD DEG DOMESTIC"},"type":"Feature","geometry":{"type":"Point","coordinates":[-94.161611,36.202391]}},{"properties":{"Name":"NONACT","City":"Springdale","Zip":72764.0,"Precision":"address","Month":2.0,"Longitude":-94.172601,"Apt":null,"Latitude":36.202797,"State":"AR","Date":"2009/02/27","id":"a65sb5vu9hsn","Address":"3983  ORLEANS AVE","Description":"CRIMINAL MISCHIEF 2ND-Reck destroys"},"type":"Feature","geometry":{"type":"Point","coordinates":[-94.172601,36.202797]}},{"properties":{"Name":"NONACT","City":"Springdale","Zip":72764.0,"Precision":"address","Month":2.0,"Longitude":-94.134158,"Apt":null,"Latitude":36.2029,"State":"AR","Date":"2009/02/24","id":"a65sb5vm8s95","Address":"515 W RANDALL WOBBE LN","Description":"BREAKING/ENTERING-parts/accessory"},"type":"Feature","geometry":{"type":"Point","coordinates":[-94.134158,36.2029]}},{"properties":{"Name":"ARREST","City":"Springdale","Zip":72764.0,"Precision":"address","Month":2.0,"Longitude":-94.119495,"Apt":null,"Latitude":36.203067,"State":"AR","Date":"2009/02/04","id":"a65sb5zu2jm0","Address":"730 E RANDALL WOBBE LN","Description":"AGGRAVATED ASSAULT DOMESTIC"},"type":"Feature","geometry":{"type":"Point","coordinates":[-94.119495,36.203067]}},{"properties":{"Name":"NONACT","City":"Springdale","Zip":72764.0,"Precision":"address","Month":2.0,"Longitude":-94.112264,"Apt":"A","Latitude":36.203497,"State":"AR","Date":"2009/02/25","id":"a65sb5v1h2tt","Address":"1247  TUCSON LP","Description":"S.N.A.P."},"type":"Feature","geometry":{"type":"Point","coordinates":[-94.112264,36.203497]}},{"properties":{"Name":"UNFOUNDED","City":"Springdale","Zip":72764.0,"Precision":"address","Month":2.0,"Longitude":-94.107099,"Apt":null,"Latitude":36.20428,"State":"AR","Date":"2009/02/15","id":"a65sb5tg6qbm","Address":"2400  DEER VALLEY ST","Description":"RAPE-forcible compulsion"},"type":"Feature","geometry":{"type":"Point","coordinates":[-94.107099,36.20428]}},{"properties":{"Name":"EXCEPT","City":"Springdale","Zip":72764.0,"Precision":"address","Month":2.0,"Longitude":-94.168736,"Apt":"B","Latitude":36.204708,"State":"AR","Date":"2009/02/13","id":"a65sb5qvrzrp","Address":"2001  PLATT ST","Description":"HARASSMENT-repeatedly cause alarm"},"type":"Feature","geometry":{"type":"Point","coordinates":[-94.168736,36.204708]}},{"properties":{"Name":"NONACT","City":"Springdale","Zip":72764.0,"Precision":"address","Month":2.0,"Longitude":-94.126502,"Apt":null,"Latitude":36.205359,"State":"AR","Date":"2009/02/18","id":"a65sb5xy8m44","Address":"2438  ELEANOR ST","Description":"CRIMINAL MISCHIEF 2ND-Tampers"},"type":"Feature","geometry":{"type":"Point","coordinates":[-94.126502,36.205359]}},{"properties":{"Name":"NONACT","City":"Springdale","Zip":72764.0,"Precision":"address","Month":2.0,"Longitude":-94.126502,"Apt":null,"Latitude":36.205359,"State":"AR","Date":"2009/02/19","id":"a65sb5lojtw5","Address":"2438  ELEANOR ST","Description":"S.N.A.P."},"type":"Feature","geometry":{"type":"Point","coordinates":[-94.126502,36.205359]}},{"properties":{"Name":"EXCEPT","City":"Springdale","Zip":72764.0,"Precision":"address","Month":2.0,"Longitude":-94.133314,"Apt":null,"Latitude":36.205992,"State":"AR","Date":"2009/02/15","id":"a65sb5vm8kn9","Address":"2455  LOWELL RD","Description":"SEXUAL ASSAULT 2ND DEG"},"type":"Feature","geometry":{"type":"Point","coordinates":[-94.133314,36.205992]}},{"properties":{"Name":"NONACT","City":"Springdale","Zip":72764.0,"Precision":"address","Month":2.0,"Longitude":-94.133314,"Apt":null,"Latitude":36.205992,"State":"AR","Date":"2009/02/07","id":"a65sb5pqj33o","Address":"2455  LOWELL RD","Description":"BATTERY 2ND-Over 60/Under 12"},"type":"Feature","geometry":{"type":"Point","coordinates":[-94.133314,36.205992]}},{"properties":{"Name":"ARREST","City":"Springdale","Zip":72764.0,"Precision":"address","Month":2.0,"Longitude":-94.125928,"Apt":null,"Latitude":36.206211,"State":"AR","Date":"2009/02/23","id":"a65sb5xilnuj","Address":"386  BIG CREEK AVE","Description":"BURGLARY-RESIDENTIAL"},"type":"Feature","geometry":{"type":"Point","coordinates":[-94.125928,36.206211]}},{"properties":{"Name":"NONACT","City":"Springdale","Zip":72764.0,"Precision":"address","Month":2.0,"Longitude":-94.177116,"Apt":null,"Latitude":36.207293,"State":"AR","Date":"2009/02/25","id":"a65sb5ukird8","Address":"4332  KINGS PL","Description":"BREAKING/ENTERING-ARTICLES FROM VEH"},"type":"Feature","geometry":{"type":"Point","coordinates":[-94.177116,36.207293]}},{"properties":{"Name":"NONACT","City":"Springdale","Zip":72764.0,"Precision":"address","Month":2.0,"Longitude":-94.133281,"Apt":null,"Latitude":36.207328,"State":"AR","Date":"2009/02/02","id":"a65sb5k7gnm4","Address":"2643  LOWELL RD","Description":"THEFT OF PROPERTY/Parts &amp; accessory"},"type":"Feature","geometry":{"type":"Point","coordinates":[-94.133281,36.207328]}},{"properties":{"Name":"EXCEPT","City":"Springdale","Zip":72764.0,"Precision":"address","Month":2.0,"Longitude":-94.18307,"Apt":null,"Latitude":36.207361,"State":"AR","Date":"2009/02/08","id":"a65sb5mg9ifo","Address":"3068 N 48TH ST","Description":"ASSAULT 3RD DEG DOMESTIC"},"type":"Feature","geometry":{"type":"Point","coordinates":[-94.18307,36.207361]}},{"properties":{"Name":"ARREST","City":"Springdale","Zip":72764.0,"Precision":"address","Month":2.0,"Longitude":-94.12608,"Apt":"A","Latitude":36.207821,"State":"AR","Date":"2009/02/16","id":"a65sb5lafbmm","Address":"2632  PONCHARTRAIN ST","Description":"CRIMINAL TRESPASS"},"type":"Feature","geometry":{"type":"Point","coordinates":[-94.12608,36.207821]}},{"properties":{"Name":"NONACT","City":"Springdale","Zip":72764.0,"Precision":"address","Month":2.0,"Longitude":-94.153563,"Apt":null,"Latitude":36.208517,"State":"AR","Date":"2009/02/26","id":"a65sb5md3npd","Address":"2352  SHUMATE LN","Description":"SUICIDE"},"type":"Feature","geometry":{"type":"Point","coordinates":[-94.153563,36.208517]}},{"properties":{"Name":"ACTIVE","City":"Springdale","Zip":72764.0,"Precision":"address","Month":2.0,"Longitude":-94.132974,"Apt":"D","Latitude":36.212174,"State":"AR","Date":"2009/02/25","id":"a65sb5nj5gsq","Address":"3066  MEMORY LN","Description":"ANIMAL BITE REPORT"},"type":"Feature","geometry":{"type":"Point","coordinates":[-94.132974,36.212174]}},{"properties":{"Name":"NONACT","City":"Springdale","Zip":72764.0,"Precision":"address","Month":2.0,"Longitude":-94.116153,"Apt":null,"Latitude":36.212583,"State":"AR","Date":"2009/02/13","id":"a65sb601lfwc","Address":"1277  APACHE TR","Description":"CRIMINAL MISCHIEF 2ND-Tampers"},"type":"Feature","geometry":{"type":"Point","coordinates":[-94.116153,36.212583]}},{"properties":{"Name":"REF WARRANT","City":"Springdale","Zip":72764.0,"Precision":"address","Month":2.0,"Longitude":-94.131839,"Apt":null,"Latitude":36.212716,"State":"AR","Date":"2009/02/04","id":"a65sb5qnkcmi","Address":"3188  TWIN COUNTY ST","Description":"RAPE-forcible compulsion"},"type":"Feature","geometry":{"type":"Point","coordinates":[-94.131839,36.212716]}},{"properties":{"Name":"NONACT","City":"Springdale","Zip":72764.0,"Precision":"address","Month":2.0,"Longitude":-94.11494,"Apt":null,"Latitude":36.212867,"State":"AR","Date":"2009/02/10","id":"a65sb5w7pzpy","Address":"1136  APACHE TR","Description":"BREAKING/ENTERING-ARTICLES FROM VEH"},"type":"Feature","geometry":{"type":"Point","coordinates":[-94.11494,36.212867]}},{"properties":{"Name":"NONACT","City":"Springdale","Zip":72764.0,"Precision":"address","Month":2.0,"Longitude":-94.153523,"Apt":null,"Latitude":36.216926,"State":"AR","Date":"2009/02/15","id":"a65sb5nofch7","Address":"3597  WESTCHASE ST","Description":"BREAKING/ENTERING-ARTICLES FROM VEH"},"type":"Feature","geometry":{"type":"Point","coordinates":[-94.153523,36.216926]}},{"properties":{"Name":"NONACT","City":"Springdale","Zip":72764.0,"Precision":"address","Month":2.0,"Longitude":-94.153807,"Apt":null,"Latitude":36.217068,"State":"AR","Date":"2009/02/15","id":"a65sb5t46sc4","Address":"3600  WESTCHASE ST","Description":"BREAKING/ENTERING-ARTICLES FROM VEH"},"type":"Feature","geometry":{"type":"Point","coordinates":[-94.153807,36.217068]}},{"properties":{"Name":"NONACT","City":"Springdale","Zip":72764.0,"Precision":"address","Month":2.0,"Longitude":-94.139545,"Apt":"A","Latitude":36.220249,"State":"AR","Date":"2009/02/20","id":"a65sb5jy39ap","Address":"3956  ALLEGHENY TER","Description":"THEFT OF PROPERTY/From vehicle"},"type":"Feature","geometry":{"type":"Point","coordinates":[-94.139545,36.220249]}},{"properties":{"Name":"REF WARRANT","City":"Springdale","Zip":72764.0,"Precision":"street","Month":2.0,"Longitude":-94.147299,"Apt":null,"Latitude":36.221575,"State":"AR","Date":"2009/02/10","id":"a65sb5uxm6zt","Address":"1092 W STULTZ RD","Description":"ABUSE OF ENDANGERED/IMPAIRED ADULT"},"type":"Feature","geometry":{"type":"Point","coordinates":[-94.147299,36.221575]}},{"properties":{"Name":"ARREST","City":"Springdale","Zip":72764.0,"Precision":"address","Month":2.0,"Longitude":-94.146919,"Apt":null,"Latitude":36.223078,"State":"AR","Date":"2009/02/01","id":"a65sb5nqjoxi","Address":"1617  LANCASTER DR","Description":"BATTERY 3RD DEG DOMESTIC"},"type":"Feature","geometry":{"type":"Point","coordinates":[-94.146919,36.223078]}},{"properties":{"Name":"NONACT","City":"Springdale","Zip":72764.0,"Precision":"address","Month":2.0,"Longitude":-94.137355,"Apt":null,"Latitude":36.224181,"State":"AR","Date":"2009/02/22","id":"a65sb5yswoin","Address":"4451 N THOMPSON ST","Description":"THEFT (GAS DRIVE OFF)"},"type":"Feature","geometry":{"type":"Point","coordinates":[-94.137355,36.224181]}},{"properties":{"Name":"REF WARRANT","City":"Springdale","Zip":72764.0,"Precision":"address","Month":2.0,"Longitude":-94.132523,"Apt":"B","Latitude":36.226797,"State":"AR","Date":"2009/02/01","id":"a65sb5ztkjkp","Address":"4758  CB PL","Description":"VIOLATION ORDER OF PROTECTION"},"type":"Feature","geometry":{"type":"Point","coordinates":[-94.132523,36.226797]}},{"properties":{"Name":"ARREST","City":"Springdale","Zip":72764.0,"Precision":"address","Month":2.0,"Longitude":-94.123712,"Apt":"P201","Latitude":36.232018,"State":"AR","Date":"2009/02/05","id":"a65sb5vrtrcn","Address":"5325 N OAK ST","Description":"ENDANGER WELFARE OF MINOR 3RD DEG"},"type":"Feature","geometry":{"type":"Point","coordinates":[-94.123712,36.232018]}},{"properties":{"Name":"ARREST","City":"Springdale","Zip":72764.0,"Precision":"address","Month":2.0,"Longitude":-94.123712,"Apt":"O302","Latitude":36.232018,"State":"AR","Date":"2009/02/21","id":"a65sb603cqlk","Address":"5325 N OAK ST","Description":"BATTERY 3RD DEG DOMESTIC"},"type":"Feature","geometry":{"type":"Point","coordinates":[-94.123712,36.232018]}},{"properties":{"Name":"NONACT","City":"Springdale","Zip":72764.0,"Precision":"address","Month":2.0,"Longitude":-94.123712,"Apt":"O204","Latitude":36.232018,"State":"AR","Date":"2009/02/16","id":"a65sb5vexlec","Address":"5325 N OAK ST","Description":"HARASSMENT-repeatedly cause alarm"},"type":"Feature","geometry":{"type":"Point","coordinates":[-94.123712,36.232018]}},{"properties":{"Name":"NONACT","City":"Springdale","Zip":72764.0,"Precision":"address","Month":2.0,"Longitude":-94.123712,"Apt":"D103","Latitude":36.232018,"State":"AR","Date":"2009/02/25","id":"a65sb5uvo0hh","Address":"5325 N OAK ST","Description":"CRIMINAL MISCHIEF 1ST-Purposely"},"type":"Feature","geometry":{"type":"Point","coordinates":[-94.123712,36.232018]}},{"properties":{"Name":"EXCEPT","City":"Springdale","Zip":72764.0,"Precision":"address","Month":2.0,"Longitude":-94.123712,"Apt":"M301","Latitude":36.232018,"State":"AR","Date":"2009/02/15","id":"a65sb5r0u9hz","Address":"5325 N OAK ST","Description":"MISSING PERSON"},"type":"Feature","geometry":{"type":"Point","coordinates":[-94.123712,36.232018]}},{"properties":{"Name":"ARREST","City":"Springdale","Zip":72764.0,"Precision":"address","Month":2.0,"Longitude":-94.123712,"Apt":"E101","Latitude":36.232018,"State":"AR","Date":"2009/02/26","id":"a65sb5l32kw6","Address":"5325 N OAK ST","Description":"AGGRAVATED ASSAULT"},"type":"Feature","geometry":{"type":"Point","coordinates":[-94.123712,36.232018]}}],"is_temporal":true,"author":{"url":"","metadata":"","contact_name":"","contact_address":"","source":"","contact_phone":""},"source":"","pagination":{"sort":null,"start":0,"total":495,"limit":1000000},"state":"complete","tags":"","published":"2014-08-11T00:52:04-04:00","id":19071}