{"type":"FeatureCollection","data_type":"Dataset","url_type":null,"permissions":[{"permissions":{"download":true,"view":true},"group_id":"everyone"}],"classification":null,"title":"Cities for Map","count":44,"stream_id":191024,"contributor":{"url":"http://geocommons.com/users/27147","name":"AschneiderGroupon"},"data_attributes":null,"calculation_params":null,"icon_link":null,"link":"http://geocommons.com/overlays/191024.json","extent":[-122.676,25.7743,-71.0598,47.6062],"geometry_types":["point"],"unique_name":null,"name":"Cities for Map","feature_count":44,"description":"","next_feature":null,"is_raster":false,"short_classification":"Y","stats":{"reps":{"max":5,"mean":2.59090909090909,"variance":1.73572938689218,"stdev":1.31747082961718,"min":1,"median":3},"total accts":{"max":427,"mean":141.340909090909,"variance":10968.3694503171,"stdev":104.729983530587,"min":1,"median":105},"active accts":{"max":81,"mean":17.2272727272727,"variance":434.040169133192,"stdev":20.8336307237407,"min":0,"median":10}},"features":[{"properties":{"city":"Nashville","% active":"60%","geo_score":0.857,"reps":1,"total accts":5,"id":"a6jixshctwbf","geo_precision":"city","active accts":3,"state":"TN"},"type":"Feature","geometry":{"type":"Point","coordinates":[-86.784443,36.16589]}},{"properties":{"city":"Omaha","% active":"50%","geo_score":0.857,"reps":1,"total accts":2,"id":"a6jixsh5simr","geo_precision":"city","active accts":1,"state":"NE"},"type":"Feature","geometry":{"type":"Point","coordinates":[-95.937792,41.25861]}},{"properties":{"city":"Miami","% active":"39%","geo_score":0.857,"reps":4,"total accts":197,"id":"a6jixsg8bh1y","geo_precision":"city","active accts":77,"state":"FL"},"type":"Feature","geometry":{"type":"Point","coordinates":[-80.193659,25.774266]}},{"properties":{"city":"Victoria","% active":"33%","geo_score":0.714,"reps":1,"total accts":36,"id":"a6jixstrbli3","geo_precision":"city","active accts":12,"state":"British Columbia"},"type":"Feature","geometry":{"type":"Point","coordinates":[-85.938278,31.529887]}},{"properties":{"city":"Chicago","% active":"26%","geo_score":0.857,"reps":4,"total accts":232,"id":"a6jixskdgzhv","geo_precision":"city","active accts":61,"state":"IL"},"type":"Feature","geometry":{"type":"Point","coordinates":[-87.650052,41.850033]}},{"properties":{"city":"Tampa","% active":"25%","geo_score":0.857,"reps":4,"total accts":220,"id":"a6jixsqmm59z","geo_precision":"city","active accts":54,"state":"FL"},"type":"Feature","geometry":{"type":"Point","coordinates":[-82.458428,27.947522]}},{"properties":{"city":"Boston","% active":"23%","geo_score":0.857,"reps":4,"total accts":350,"id":"a6jixso1sgs6","geo_precision":"city","active accts":81,"state":"MA"},"type":"Feature","geometry":{"type":"Point","coordinates":[-71.059773,42.358431]}},{"properties":{"city":"Portland","% active":"21%","geo_score":0.857,"reps":4,"total accts":189,"id":"a6jixsj259sk","geo_precision":"city","active accts":40,"state":"OR"},"type":"Feature","geometry":{"type":"Point","coordinates":[-122.676207,45.523452]}},{"properties":{"city":"Vancouver","% active":"20%","geo_score":0.714,"reps":4,"total accts":206,"id":"a6jixsn2svtc","geo_precision":"city","active accts":42,"state":"British Columbia"},"type":"Feature","geometry":{"type":"Point","coordinates":[-122.661486,45.638728]}},{"properties":{"city":"Las Vegas","% active":"18%","geo_score":0.857,"reps":5,"total accts":105,"id":"a6jixspijrdm","geo_precision":"city","active accts":19,"state":"NV"},"type":"Feature","geometry":{"type":"Point","coordinates":[-115.137223,36.174971]}},{"properties":{"city":"Orlando","% active":"18%","geo_score":0.857,"reps":2,"total accts":120,"id":"a6jixsi85k5n","geo_precision":"city","active accts":21,"state":"FL"},"type":"Feature","geometry":{"type":"Point","coordinates":[-81.379237,28.538336]}},{"properties":{"city":"Raleigh","% active":"17%","geo_score":0.857,"reps":2,"total accts":103,"id":"a6jixskqkacf","geo_precision":"city","active accts":17,"state":"NC"},"type":"Feature","geometry":{"type":"Point","coordinates":[-78.638615,35.772096]}},{"properties":{"city":"Phoenix","% active":"15%","geo_score":0.857,"reps":3,"total accts":239,"id":"a6jixsks2rzq","geo_precision":"city","active accts":35,"state":"AZ"},"type":"Feature","geometry":{"type":"Point","coordinates":[-112.074037,33.448377]}},{"properties":{"city":"Milwaukee","% active":"14%","geo_score":0.857,"reps":3,"total accts":58,"id":"a6jixshtp9pl","geo_precision":"city","active accts":8,"state":"WI"},"type":"Feature","geometry":{"type":"Point","coordinates":[-87.906474,43.038903]}},{"properties":{"city":"Los Angeles","% active":"13%","geo_score":0.857,"reps":5,"total accts":427,"id":"a6jixsjtbl0k","geo_precision":"city","active accts":55,"state":"CA"},"type":"Feature","geometry":{"type":"Point","coordinates":[-118.243685,34.052234]}},{"properties":{"city":"Austin","% active":"13%","geo_score":0.857,"reps":3,"total accts":94,"id":"a6jixsr88nas","geo_precision":"city","active accts":12,"state":"TX"},"type":"Feature","geometry":{"type":"Point","coordinates":[-97.743061,30.267153]}},{"properties":{"city":"Washington","% active":"13%","geo_score":0.857,"reps":4,"total accts":246,"id":"a6jixshzbmav","geo_precision":"city","active accts":31,"state":"DC"},"type":"Feature","geometry":{"type":"Point","coordinates":[-77.036366,38.895112]}},{"properties":{"city":"Atlanta","% active":"11%","geo_score":0.857,"reps":2,"total accts":121,"id":"a6jixskxvsvc","geo_precision":"city","active accts":13,"state":"GA"},"type":"Feature","geometry":{"type":"Point","coordinates":[-84.387982,33.748995]}},{"properties":{"city":"Salt Lake City","% active":"10%","geo_score":0.857,"reps":2,"total accts":96,"id":"a6jixsfb1v2u","geo_precision":"city","active accts":10,"state":"UT"},"type":"Feature","geometry":{"type":"Point","coordinates":[-111.891047,40.760779]}},{"properties":{"city":"Denver","% active":"10%","geo_score":0.857,"reps":4,"total accts":224,"id":"a6jixsmizfzn","geo_precision":"city","active accts":23,"state":"CO"},"type":"Feature","geometry":{"type":"Point","coordinates":[-104.984703,39.739154]}},{"properties":{"city":"Charlotte","% active":"10%","geo_score":0.857,"reps":2,"total accts":79,"id":"a6jixstz4nkz","geo_precision":"city","active accts":8,"state":"NC"},"type":"Feature","geometry":{"type":"Point","coordinates":[-80.843127,35.227087]}},{"properties":{"city":"Philadelphia","% active":"9%","geo_score":0.857,"reps":2,"total accts":103,"id":"a6jixsqoqszn","geo_precision":"city","active accts":9,"state":"PA"},"type":"Feature","geometry":{"type":"Point","coordinates":[-75.163789,39.952335]}},{"properties":{"city":"Baltimore","% active":"9%","geo_score":0.857,"reps":1,"total accts":58,"id":"a6jixskyv3gx","geo_precision":"city","active accts":5,"state":"MD"},"type":"Feature","geometry":{"type":"Point","coordinates":[-76.612189,39.290385]}},{"properties":{"city":"Detroit","% active":"8%","geo_score":0.857,"reps":4,"total accts":259,"id":"a6jixstrhh6f","geo_precision":"city","active accts":22,"state":"MI"},"type":"Feature","geometry":{"type":"Point","coordinates":[-83.045754,42.331427]}},{"properties":{"city":"Minneapolis","% active":"8%","geo_score":0.857,"reps":4,"total accts":213,"id":"a6jixsplk04c","geo_precision":"city","active accts":17,"state":"MN"},"type":"Feature","geometry":{"type":"Point","coordinates":[-93.263836,44.979965]}},{"properties":{"city":"San Antonio","% active":"6%","geo_score":0.857,"reps":2,"total accts":94,"id":"a6jixstwqbjk","geo_precision":"city","active accts":6,"state":"TX"},"type":"Feature","geometry":{"type":"Point","coordinates":[-98.493628,29.424122]}},{"properties":{"city":"Columbus","% active":"6%","geo_score":0.776,"reps":1,"total accts":51,"id":"a6jixso2qdvx","geo_precision":"city","active accts":3,"state":"OH"},"type":"Feature","geometry":{"type":"Point","coordinates":[-82.695724,39.998397]}},{"properties":{"city":"New York","% active":"5%","geo_score":0.857,"reps":4,"total accts":381,"id":"a6jixserad9z","geo_precision":"city","active accts":20,"state":"NY"},"type":"Feature","geometry":{"type":"Point","coordinates":[-74.005973,40.714269]}},{"properties":{"city":"San Francisco","% active":"5%","geo_score":0.857,"reps":4,"total accts":258,"id":"a6jixshd2wra","geo_precision":"city","active accts":12,"state":"CA"},"type":"Feature","geometry":{"type":"Point","coordinates":[-122.419416,37.77493]}},{"properties":{"city":"Seattle","% active":"4%","geo_score":0.857,"reps":4,"total accts":251,"id":"a6jixst7ji8h","geo_precision":"city","active accts":11,"state":"WA"},"type":"Feature","geometry":{"type":"Point","coordinates":[-122.332071,47.60621]}},{"properties":{"city":"New Orleans","% active":"4%","geo_score":0.857,"reps":1,"total accts":50,"id":"a6jixsn2xgp4","geo_precision":"city","active accts":2,"state":"LA"},"type":"Feature","geometry":{"type":"Point","coordinates":[-89.930956,30.068812]}},{"properties":{"city":"Saint Louis","% active":"4%","geo_score":0.857,"reps":2,"total accts":77,"id":"a6jixsrc97wb","geo_precision":"city","active accts":3,"state":"MO"},"type":"Feature","geometry":{"type":"Point","coordinates":[-90.197889,38.627273]}},{"properties":{"city":"Toronto","% active":"4%","geo_score":0.633,"reps":3,"total accts":129,"id":"a6jixso97uwb","geo_precision":"city","active accts":5,"state":"Ontario"},"type":"Feature","geometry":{"type":"Point","coordinates":[-86.768002,33.594533]}},{"properties":{"city":"Dallas","% active":"4%","geo_score":0.857,"reps":3,"total accts":165,"id":"a6jixse17o2x","geo_precision":"city","active accts":6,"state":"TX"},"type":"Feature","geometry":{"type":"Point","coordinates":[-96.806667,32.783056]}},{"properties":{"city":"San Jose","% active":"4%","geo_score":0.857,"reps":1,"total accts":55,"id":"a6jixsketb08","geo_precision":"city","active accts":2,"state":"CA"},"type":"Feature","geometry":{"type":"Point","coordinates":[-121.894956,37.339386]}},{"properties":{"city":"Kansas City","% active":"3%","geo_score":0.857,"reps":1,"total accts":61,"id":"a6jixsn31lt6","geo_precision":"city","active accts":2,"state":"MO"},"type":"Feature","geometry":{"type":"Point","coordinates":[-94.598583,39.102404]}},{"properties":{"city":"Pittsburgh","% active":"3%","geo_score":0.857,"reps":1,"total accts":61,"id":"a6jixsoduflr","geo_precision":"city","active accts":2,"state":"PA"},"type":"Feature","geometry":{"type":"Point","coordinates":[-79.995886,40.440625]}},{"properties":{"city":"Indianapolis","% active":"3%","geo_score":0.857,"reps":1,"total accts":69,"id":"a6jixsm6bpoy","geo_precision":"city","active accts":2,"state":"IN"},"type":"Feature","geometry":{"type":"Point","coordinates":[-86.158042,39.768377]}},{"properties":{"city":"San Diego","% active":"3%","geo_score":0.857,"reps":3,"total accts":190,"id":"a6jixsr76htm","geo_precision":"city","active accts":5,"state":"CA"},"type":"Feature","geometry":{"type":"Point","coordinates":[-117.157255,32.715329]}},{"properties":{"city":"Sacramento","% active":"2%","geo_score":0.857,"reps":1,"total accts":53,"id":"a6jixskpnvqc","geo_precision":"city","active accts":1,"state":"CA"},"type":"Feature","geometry":{"type":"Point","coordinates":[-121.4944,38.581572]}},{"properties":{"city":"Houston","% active":"0%","geo_score":0.816,"reps":3,"total accts":241,"id":"a6jixsm0amzw","geo_precision":"city","active accts":0,"state":"TX"},"type":"Feature","geometry":{"type":"Point","coordinates":[-96.919704,29.845783]}},{"properties":{"city":"Cincinnati","% active":"0%","geo_score":0.857,"reps":1,"total accts":45,"id":"a6jixsk7pbum","geo_precision":"city","active accts":0,"state":"OH"},"type":"Feature","geometry":{"type":"Point","coordinates":[-84.456886,39.162004]}},{"properties":{"city":"Hoboken","% active":"0%","geo_score":0.857,"reps":2,"total accts":1,"id":"a6jixsqtq9ke","geo_precision":"city","active accts":0,"state":"NJ"},"type":"Feature","geometry":{"type":"Point","coordinates":[-74.027972,40.745197]}},{"properties":{"city":"Des Moines","% active":"0%","geo_score":0.857,"reps":1,"total accts":5,"id":"a6jixsrl8tdh","geo_precision":"city","active accts":0,"state":"IA"},"type":"Feature","geometry":{"type":"Point","coordinates":[-93.609106,41.600545]}}],"is_temporal":false,"author":{"url":"","metadata":"","contact_name":"","contact_address":"","source":"","contact_phone":""},"source":"","pagination":{"sort":null,"start":0,"total":44,"limit":1000000},"state":"complete","tags":"","published":"2014-08-12T22:19:22-04:00","id":191024}