{"type":"FeatureCollection","data_type":"Dataset","url_type":null,"permissions":[{"permissions":{"download":true,"view":true},"group_id":"everyone"}],"classification":null,"title":"b2rev4","count":78,"stream_id":192382,"contributor":{"url":"http://geocommons.com/users/12008","name":"pantheon"},"data_attributes":null,"calculation_params":null,"icon_link":null,"link":"http://geocommons.com/overlays/192382.json","extent":[-84.7666,39.7462,-82.9102,41.7128],"geometry_types":["point"],"unique_name":null,"name":"b2rev4","feature_count":78,"description":"","next_feature":null,"is_raster":false,"short_classification":"Y","stats":{"latitude":{"max":41.7128,"mean":40.743983448718,"variance":0.439281037905783,"stdev":0.662782798438359,"min":39.746243,"median":40.76073},"longitude":{"max":-82.910251,"mean":-83.8617202179487,"variance":0.286856272757186,"stdev":0.535589649598633,"min":-84.766617,"median":-83.930258}},"features":[{"properties":{"city":"Oakwood","latitude":41.188481,"zip":"45873","id":"a6etjj75aw9d","longitude":-84.418525,"address":"14730 169 Road","state":"OH"},"type":"Feature","geometry":{"type":"Point","coordinates":[-84.418525,41.188481]}},{"properties":{"city":"Findlay","latitude":41.08113,"zip":"45840","id":"a6etjj5n5v4y","longitude":-83.643818,"address":"310 Rutherford Avenue","state":"OH"},"type":"Feature","geometry":{"type":"Point","coordinates":[-83.643818,41.08113]}},{"properties":{"city":"Findlay","latitude":41.050215,"zip":"45840","id":"a6etjjaiglxs","longitude":-83.794523,"address":"Near 4473 Us Route 224","state":"OH"},"type":"Feature","geometry":{"type":"Point","coordinates":[-83.794523,41.050215]}},{"properties":{"city":"Bluffton","latitude":40.925278,"zip":"45868","id":"a6etjjec8km6","longitude":-83.8207,"address":"3095 County Road 313","state":"OH"},"type":"Feature","geometry":{"type":"Point","coordinates":[-83.8207,40.925278]}},{"properties":{"city":"North Baltimore","latitude":41.185917,"zip":"45872","id":"a6etjjaltjln","longitude":-83.648278,"address":"2253 Grant Road","state":"OH"},"type":"Feature","geometry":{"type":"Point","coordinates":[-83.648278,41.185917]}},{"properties":{"city":"Napoleon","latitude":41.358709,"zip":"43545","id":"a6etjj8wealo","longitude":-84.208073,"address":"17-869 County Road M-1","state":"OH"},"type":"Feature","geometry":{"type":"Point","coordinates":[-84.208073,41.358709]}},{"properties":{"city":"Delphos","latitude":40.840658,"zip":"45833","id":"a6etjj8u4di7","longitude":-84.361509,"address":"23911 State Route 697","state":"OH"},"type":"Feature","geometry":{"type":"Point","coordinates":[-84.361509,40.840658]}},{"properties":{"city":"Ottawa","latitude":41.02305,"zip":"45875","id":"a6etjjfqvpeb","longitude":-84.060629,"address":"132 Riverview Road","state":"OH"},"type":"Feature","geometry":{"type":"Point","coordinates":[-84.060629,41.02305]}},{"properties":{"city":"Ottawa","latitude":40.993889,"zip":"45875","id":"a6etjj5knkj8","longitude":-84.206111,"address":"12829 County Road 18","state":"OH"},"type":"Feature","geometry":{"type":"Point","coordinates":[-84.206111,40.993889]}},{"properties":{"city":"Sidney","latitude":40.300527,"zip":"45365","id":"a6etjjgrayus","longitude":-84.169669,"address":"1380 N. Fourth St.","state":"OH"},"type":"Feature","geometry":{"type":"Point","coordinates":[-84.169669,40.300527]}},{"properties":{"city":"Sidney","latitude":40.283017,"zip":"45365","id":"a6etjj61gv3e","longitude":-84.160797,"address":"223 Rear Walnut Street","state":"OH"},"type":"Feature","geometry":{"type":"Point","coordinates":[-84.160797,40.283017]}},{"properties":{"city":"Saint Marys","latitude":40.549722,"zip":"45885","id":"a6etjjcqvwgf","longitude":-84.377222,"address":"903 Mckinley","state":"OH"},"type":"Feature","geometry":{"type":"Point","coordinates":[-84.377222,40.549722]}},{"properties":{"city":"Wapakoneta","latitude":40.627856,"zip":"45895","id":"a6etjjem9h1r","longitude":-84.13065,"address":"16784 Buckland Holden Rd.","state":"OH"},"type":"Feature","geometry":{"type":"Point","coordinates":[-84.13065,40.627856]}},{"properties":{"city":"Lima","latitude":40.755203,"zip":"45801","id":"a6etjj5u9odn","longitude":-84.088875,"address":"1017 Independence Road","state":"OH"},"type":"Feature","geometry":{"type":"Point","coordinates":[-84.088875,40.755203]}},{"properties":{"city":"Lima","latitude":40.701854,"zip":"45804","id":"a6etjj3q7swv","longitude":-84.107354,"address":"205 West Hanthorn Road","state":"OH"},"type":"Feature","geometry":{"type":"Point","coordinates":[-84.107354,40.701854]}},{"properties":{"city":"Lima","latitude":40.740836,"zip":"45801","id":"a6etjjbmhzn5","longitude":-84.117464,"address":"730 West Market Street","state":"OH"},"type":"Feature","geometry":{"type":"Point","coordinates":[-84.117464,40.740836]}},{"properties":{"city":"Lima","latitude":40.71625,"zip":"45804","id":"a6etjjc5k3wd","longitude":-84.076917,"address":"1812 E. 4th St.","state":"OH"},"type":"Feature","geometry":{"type":"Point","coordinates":[-84.076917,40.71625]}},{"properties":{"city":"Lima","latitude":40.76073,"zip":"45805","id":"a6etjj6ov3nf","longitude":-84.143224,"address":"2120 Elida Road","state":"OH"},"type":"Feature","geometry":{"type":"Point","coordinates":[-84.143224,40.76073]}},{"properties":{"city":"Ada","latitude":40.768553,"zip":"45810","id":"a6etjjfumc06","longitude":-83.830286,"address":"525 South Main Street","state":"OH"},"type":"Feature","geometry":{"type":"Point","coordinates":[-83.830286,40.768553]}},{"properties":{"city":"Harrod","latitude":40.725747,"zip":"45850","id":"a6etjjblq4pr","longitude":-83.930258,"address":"1155 Napoleon Road","state":"OH"},"type":"Feature","geometry":{"type":"Point","coordinates":[-83.930258,40.725747]}},{"properties":{"city":"Celina","latitude":40.575317,"zip":"45822","id":"a6etjjaq9gu6","longitude":-84.493616,"address":"7756 Riley Road","state":"OH"},"type":"Feature","geometry":{"type":"Point","coordinates":[-84.493616,40.575317]}},{"properties":{"city":"Coldwater","latitude":40.49075,"zip":"45828","id":"a6etjj4se8ze","longitude":-84.624583,"address":"793 Weis St.","state":"OH"},"type":"Feature","geometry":{"type":"Point","coordinates":[-84.624583,40.49075]}},{"properties":{"city":"Celina","latitude":40.560431,"zip":"45822","id":"a6etjj73b4kl","longitude":-84.575983,"address":"503 Summit St.","state":"OH"},"type":"Feature","geometry":{"type":"Point","coordinates":[-84.575983,40.560431]}},{"properties":{"city":"Fort Recovery","latitude":40.399719,"zip":"45846","id":"a6etjjbs5f6o","longitude":-84.766617,"address":"1004 Sharpsburg Rd.","state":"OH"},"type":"Feature","geometry":{"type":"Point","coordinates":[-84.766617,40.399719]}},{"properties":{"city":"Latty","latitude":41.081562,"zip":"45879","id":"a6etjjbwghr8","longitude":-84.572408,"address":"7298 Us Route 127","state":"OH"},"type":"Feature","geometry":{"type":"Point","coordinates":[-84.572408,41.081562]}},{"properties":{"city":"Payne","latitude":41.078744,"zip":"45880","id":"a6etjj22prl4","longitude":-84.722511,"address":"312 E. Orchard St.","state":"OH"},"type":"Feature","geometry":{"type":"Point","coordinates":[-84.722511,41.078744]}},{"properties":{"city":"Continental","latitude":41.100942,"zip":"45831","id":"a6etjjb3gw4g","longitude":-84.196015,"address":"17360 County Road E-16","state":"OH"},"type":"Feature","geometry":{"type":"Point","coordinates":[-84.196015,41.100942]}},{"properties":{"city":"Convoy","latitude":40.9166,"zip":"45832","id":"a6etjj2ix67o","longitude":-84.69263,"address":"6764 Convoy Road","state":"OH"},"type":"Feature","geometry":{"type":"Point","coordinates":[-84.69263,40.9166]}},{"properties":{"city":"Van Wert","latitude":40.901581,"zip":"45891","id":"a6etjjfedjln","longitude":-84.572689,"address":"7062 U.S. Route 127","state":"OH"},"type":"Feature","geometry":{"type":"Point","coordinates":[-84.572689,40.901581]}},{"properties":{"city":"Dayton","latitude":39.746243,"zip":"45427","id":"a6etjj2v06mp","longitude":-84.314947,"address":"7275 West 3rd St.","state":"OH"},"type":"Feature","geometry":{"type":"Point","coordinates":[-84.314947,39.746243]}},{"properties":{"city":"New Lebanon","latitude":39.7468,"zip":"45345","id":"a6etjj55d58r","longitude":-84.385234,"address":"420 N. Church St.","state":"OH"},"type":"Feature","geometry":{"type":"Point","coordinates":[-84.385234,39.7468]}},{"properties":{"city":"Dayton","latitude":39.754093,"zip":"45417","id":"a6etjj5fr9aa","longitude":-84.224749,"address":"4219 W. 3rd Street","state":"OH"},"type":"Feature","geometry":{"type":"Point","coordinates":[-84.224749,39.754093]}},{"properties":{"city":"Eaton","latitude":39.758522,"zip":"45320","id":"a6etjj34p6c1","longitude":-84.638641,"address":"201 W. Lexington Rd.","state":"OH"},"type":"Feature","geometry":{"type":"Point","coordinates":[-84.638641,39.758522]}},{"properties":{"city":"Dayton","latitude":39.759987,"zip":"45402","id":"a6etjj98qu3g","longitude":-84.191915,"address":"32 North Main Street","state":"OH"},"type":"Feature","geometry":{"type":"Point","coordinates":[-84.191915,39.759987]}},{"properties":{"city":"Dayton","latitude":39.760512,"zip":"45402","id":"a6etjjev9dby","longitude":-84.21954,"address":"1101 Negley Place","state":"OH"},"type":"Feature","geometry":{"type":"Point","coordinates":[-84.21954,39.760512]}},{"properties":{"city":"Tipp City","latitude":39.90538,"zip":"45371","id":"a6etjj6k7lj3","longitude":-84.143611,"address":"8565 Wildcat Road","state":"OH"},"type":"Feature","geometry":{"type":"Point","coordinates":[-84.143611,39.90538]}},{"properties":{"city":"Enon","latitude":39.91538,"zip":"45344","id":"a6etjjh7yz2z","longitude":-83.968418,"address":"3030 N. Snider Rd","state":"OH"},"type":"Feature","geometry":{"type":"Point","coordinates":[-83.968418,39.91538]}},{"properties":{"city":"Troy","latitude":39.934359,"zip":"45371","id":"a6etjj5k2fna","longitude":-84.198951,"address":"3355 S. County Rd. #25a","state":"OH"},"type":"Feature","geometry":{"type":"Point","coordinates":[-84.198951,39.934359]}},{"properties":{"city":"Columbus","latitude":39.952405,"zip":"43204","id":"a6etjjfl8myx","longitude":-83.074986,"address":"179 S. Powell Ave.","state":"OH"},"type":"Feature","geometry":{"type":"Point","coordinates":[-83.074986,39.952405]}},{"properties":{"city":"Columbus","latitude":39.955923,"zip":"43228","id":"a6etjjg70ehj","longitude":-83.110485,"address":"4130 Surface Road","state":"OH"},"type":"Feature","geometry":{"type":"Point","coordinates":[-83.110485,39.955923]}},{"properties":{"city":"Columbus","latitude":39.956764,"zip":"43204","id":"a6etjjeigy0d","longitude":-83.074472,"address":"591 N. Hague Ave","state":"OH"},"type":"Feature","geometry":{"type":"Point","coordinates":[-83.074472,39.956764]}},{"properties":{"city":"Columbus","latitude":39.958637,"zip":"43119","id":"a6etjj4ob53s","longitude":-83.167029,"address":"377 Alton Darby Creek Road","state":"OH"},"type":"Feature","geometry":{"type":"Point","coordinates":[-83.167029,39.958637]}},{"properties":{"city":"Columbus","latitude":39.962226,"zip":"43215","id":"a6etjj45hl9q","longitude":-83.000642,"address":"57 N. High","state":"OH"},"type":"Feature","geometry":{"type":"Point","coordinates":[-83.000642,39.962226]}},{"properties":{"city":"Columbus","latitude":39.962859,"zip":"43222","id":"a6etjj7bgt2y","longitude":-83.022733,"address":"808 Mckinley Avenue","state":"OH"},"type":"Feature","geometry":{"type":"Point","coordinates":[-83.022733,39.962859]}},{"properties":{"city":"Columbus","latitude":39.963647,"zip":"43215","id":"a6etjj336bfu","longitude":-82.994531,"address":"31-45 S. 5th St","state":"OH"},"type":"Feature","geometry":{"type":"Point","coordinates":[-82.994531,39.963647]}},{"properties":{"city":"Columbus","latitude":39.966704,"zip":"43215","id":"a6etjjczqgzb","longitude":-82.991706,"address":"161-171 North Grant St.","state":"OH"},"type":"Feature","geometry":{"type":"Point","coordinates":[-82.991706,39.966704]}},{"properties":{"city":"Columbus","latitude":39.975105,"zip":"43207","id":"a6etjj54kjti","longitude":-83.003132,"address":"3117 S. High Street","state":"OH"},"type":"Feature","geometry":{"type":"Point","coordinates":[-83.003132,39.975105]}},{"properties":{"city":"Columbus","latitude":40.032615,"zip":"43219","id":"a6etjjcbq0m9","longitude":-82.910251,"address":"3900 Chagrin Street","state":"OH"},"type":"Feature","geometry":{"type":"Point","coordinates":[-82.910251,40.032615]}},{"properties":{"city":"Columbus","latitude":40.037136,"zip":"43224","id":"a6etjjgkv4wt","longitude":-82.956302,"address":"2146 Innis Rd","state":"OH"},"type":"Feature","geometry":{"type":"Point","coordinates":[-82.956302,40.037136]}},{"properties":{"city":"Columbus","latitude":40.058095,"zip":"43219","id":"a6etjj6wkta0","longitude":-82.922688,"address":"3447 Morse Road","state":"OH"},"type":"Feature","geometry":{"type":"Point","coordinates":[-82.922688,40.058095]}},{"properties":{"city":"Troy","latitude":40.065663,"zip":"45373","id":"a6etjj7dlmyv","longitude":-84.227927,"address":"1450 Lytle Road","state":"OH"},"type":"Feature","geometry":{"type":"Point","coordinates":[-84.227927,40.065663]}},{"properties":{"city":"Worthington","latitude":40.10077,"zip":"43085","id":"a6etjjf05g8l","longitude":-83.003377,"address":"6595 Proprietors Rd","state":"OH"},"type":"Feature","geometry":{"type":"Point","coordinates":[-83.003377,40.10077]}},{"properties":{"city":"Columbus","latitude":40.10692,"zip":"43229","id":"a6etjjfnn77z","longitude":-82.966824,"address":"1850 Schrock Road","state":"OH"},"type":"Feature","geometry":{"type":"Point","coordinates":[-82.966824,40.10692]}},{"properties":{"city":"Delaware","latitude":40.320744,"zip":"43015","id":"a6etjj3vti0b","longitude":-83.140889,"address":"3749 State Route 37 W.","state":"OH"},"type":"Feature","geometry":{"type":"Point","coordinates":[-83.140889,40.320744]}},{"properties":{"city":"Piqua","latitude":40.467411,"zip":"45356","id":"a6etjj9kibcx","longitude":-84.240447,"address":"145 R.M. Davis Parkway","state":"OH"},"type":"Feature","geometry":{"type":"Point","coordinates":[-84.240447,40.467411]}},{"properties":{"city":"Bowling Green","latitude":41.345859,"zip":"43402","id":"a6etjj2skdwk","longitude":-83.634905,"address":"13277 Klopfenstein Rd","state":"OH"},"type":"Feature","geometry":{"type":"Point","coordinates":[-83.634905,41.345859]}},{"properties":{"city":"Pemberville","latitude":41.405944,"zip":"43450","id":"a6etjjaiy5o9","longitude":-83.542453,"address":"17540 Dunipace Road","state":"OH"},"type":"Feature","geometry":{"type":"Point","coordinates":[-83.542453,41.405944]}},{"properties":{"city":"Montclova","latitude":41.558781,"zip":"43537","id":"a6etjj2q5q6z","longitude":-83.691829,"address":"6341 Monclova Rd","state":"OH"},"type":"Feature","geometry":{"type":"Point","coordinates":[-83.691829,41.558781]}},{"properties":{"city":"Perrysburg","latitude":41.564775,"zip":"43551","id":"a6etjjekvrap","longitude":-83.618321,"address":"550 E. South Boundary St","state":"OH"},"type":"Feature","geometry":{"type":"Point","coordinates":[-83.618321,41.564775]}},{"properties":{"city":"Maumee","latitude":41.580427,"zip":"43537","id":"a6etjj4572d2","longitude":-83.664702,"address":"1375 Conant St","state":"OH"},"type":"Feature","geometry":{"type":"Point","coordinates":[-83.664702,41.580427]}},{"properties":{"city":"Toledo","latitude":41.598868,"zip":"43614","id":"a6etjj7gct4p","longitude":-83.620083,"address":"2221 Tedrow","state":"OH"},"type":"Feature","geometry":{"type":"Point","coordinates":[-83.620083,41.598868]}},{"properties":{"city":"Holland","latitude":41.615843,"zip":"43528","id":"a6etjj1dme6q","longitude":-83.751733,"address":"1426 Kieswitter Rd","state":"OH"},"type":"Feature","geometry":{"type":"Point","coordinates":[-83.751733,41.615843]}},{"properties":{"city":"Toledo","latitude":41.638307,"zip":"43609","id":"a6etjj5hsqch","longitude":-83.567304,"address":"130 S. Hawley St","state":"OH"},"type":"Feature","geometry":{"type":"Point","coordinates":[-83.567304,41.638307]}},{"properties":{"city":"Holland","latitude":41.639207,"zip":"43528","id":"a6etjj91lee8","longitude":-83.72938,"address":"7858 Hill Avenue","state":"OH"},"type":"Feature","geometry":{"type":"Point","coordinates":[-83.72938,41.639207]}},{"properties":{"city":"Toledo","latitude":41.64886,"zip":"43604","id":"a6etjjc474bw","longitude":-83.541187,"address":"555 N. Erie St","state":"OH"},"type":"Feature","geometry":{"type":"Point","coordinates":[-83.541187,41.64886]}},{"properties":{"city":"Toledo","latitude":41.650175,"zip":"43604","id":"a6etjjai5bc6","longitude":-83.536073,"address":"425 Jefferson Ave Ste 1007","state":"OH"},"type":"Feature","geometry":{"type":"Point","coordinates":[-83.536073,41.650175]}},{"properties":{"city":"Toledo","latitude":41.661781,"zip":"43615","id":"a6etjj4wpaca","longitude":-83.678286,"address":"6505 W. Bancroft St.","state":"OH"},"type":"Feature","geometry":{"type":"Point","coordinates":[-83.678286,41.661781]}},{"properties":{"city":"Toledo","latitude":41.662426,"zip":"43615","id":"a6etjj65hpnx","longitude":-83.650143,"address":"4730 Bancroft St","state":"OH"},"type":"Feature","geometry":{"type":"Point","coordinates":[-83.650143,41.662426]}},{"properties":{"city":"Toledo","latitude":41.663248,"zip":"43607","id":"a6etjjcb2qbk","longitude":-83.604224,"address":"2565 Bancroft","state":"OH"},"type":"Feature","geometry":{"type":"Point","coordinates":[-83.604224,41.663248]}},{"properties":{"city":"Toledo","latitude":41.669146,"zip":"43608","id":"a6etjjg0b898","longitude":-83.529697,"address":"1704 Mulberry Pk","state":"OH"},"type":"Feature","geometry":{"type":"Point","coordinates":[-83.529697,41.669146]}},{"properties":{"city":"Sylvania Twp","latitude":41.677544,"zip":"43617","id":"a6etjjdp3psk","longitude":-83.700369,"address":"6755 Central Rd","state":"OH"},"type":"Feature","geometry":{"type":"Point","coordinates":[-83.700369,41.677544]}},{"properties":{"city":"Toledo","latitude":41.7128,"zip":"43612","id":"a6etjj4gav63","longitude":-83.505827,"address":"1706 Matzinger Rd","state":"OH"},"type":"Feature","geometry":{"type":"Point","coordinates":[-83.505827,41.7128]}},{"properties":{"city":"Defiance","latitude":41.28831,"zip":"43512","id":"a6etjj1q9gmd","longitude":-84.3958,"address":"1700 State Service Road","state":"OH"},"type":"Feature","geometry":{"type":"Point","coordinates":[-84.3958,41.28831]}},{"properties":{"city":"Wauseon","latitude":41.56214,"zip":"43567","id":"a6etjj3s6ycf","longitude":-84.1504,"address":"550 W. Linfoot","state":"OH"},"type":"Feature","geometry":{"type":"Point","coordinates":[-84.1504,41.56214]}},{"properties":{"city":"German Township","latitude":41.53015,"zip":"43502","id":"a6etjjbp4t35","longitude":-84.3207,"address":"23600county Road","state":"OH"},"type":"Feature","geometry":{"type":"Point","coordinates":[-84.3207,41.53015]}},{"properties":{"city":"Napoleon","latitude":41.40425,"zip":"43545","id":"a6etjj60m6uz","longitude":-84.1361,"address":"1515 N. Scott St.","state":"OH"},"type":"Feature","geometry":{"type":"Point","coordinates":[-84.1361,41.40425]}},{"properties":{"city":"Hicksville","latitude":41.29814,"zip":"43526","id":"a6etjj80m9yr","longitude":-84.7625,"address":"306 Elm St.","state":"OH"},"type":"Feature","geometry":{"type":"Point","coordinates":[-84.7625,41.29814]}},{"properties":{"city":"Upper Sandusky","latitude":40.84556,"zip":"43351","id":"a6etjjf4x3uv","longitude":-83.2758,"address":"280 Indian Mill Dr.","state":"OH"},"type":"Feature","geometry":{"type":"Point","coordinates":[-83.2758,40.84556]}}],"is_temporal":false,"author":{"url":"","metadata":"","contact_name":"","contact_address":"","source":"","contact_phone":""},"source":"","pagination":{"sort":null,"start":0,"total":78,"limit":1000000},"state":"complete","tags":"","published":"2014-08-13T00:02:47-04:00","id":192382}