{"type":"FeatureCollection","data_type":"Dataset","url_type":null,"permissions":[{"permissions":{"download":true,"view":true},"group_id":"everyone"}],"classification":null,"title":"b2telecom Final Draft rev 3","count":77,"stream_id":192405,"contributor":{"url":"http://geocommons.com/users/12008","name":"pantheon"},"data_attributes":null,"calculation_params":null,"icon_link":null,"link":"http://geocommons.com/overlays/192405.json","extent":[-84.7666,39.7462,-82.9227,41.7128],"geometry_types":["point"],"unique_name":null,"name":"b2telecom Final Draft rev 3","feature_count":77,"description":"","next_feature":null,"is_raster":false,"short_classification":"Y","stats":{"latitude":{"max":41.7128,"mean":40.7352491688312,"variance":0.432018939779247,"stdev":0.657281476826517,"min":39.746243,"median":40.755203},"longitude":{"max":-82.922688,"mean":-83.8643833636364,"variance":0.290680305766867,"stdev":0.539147758751594,"min":-84.766617,"median":-83.968418}},"features":[{"properties":{"city":"Oakwood","cascade id":"CH03HO033","latitude":41.188481,"zip":"45873","longitude":-84.418525,"id":"a65w8s5xijcf","address":"14730 169 Road","state":"OH"},"type":"Feature","geometry":{"type":"Point","coordinates":[-84.418525,41.188481]}},{"properties":{"city":"Findlay","cascade id":"DE03HO072","latitude":41.08113,"zip":"45840","longitude":-83.643818,"id":"a65w8scguvfo","address":"310 Rutherford Avenue","state":"OH"},"type":"Feature","geometry":{"type":"Point","coordinates":[-83.643818,41.08113]}},{"properties":{"city":"Findlay","cascade id":"DE03HO076","latitude":41.050215,"zip":"45840","longitude":-83.794523,"id":"a65w8s8ork3l","address":"Near 4473 Us Route 224","state":"OH"},"type":"Feature","geometry":{"type":"Point","coordinates":[-83.794523,41.050215]}},{"properties":{"city":"Bluffton","cascade id":"DE03HO132","latitude":40.925278,"zip":"45868","longitude":-83.8207,"id":"a65w8rwf4azs","address":"3095 County Road 313","state":"OH"},"type":"Feature","geometry":{"type":"Point","coordinates":[-83.8207,40.925278]}},{"properties":{"city":"North Baltimore","cascade id":"DE72XC057","latitude":41.185917,"zip":"45872","longitude":-83.648278,"id":"a65w8rxstp16","address":"2253 Grant Road","state":"OH"},"type":"Feature","geometry":{"type":"Point","coordinates":[-83.648278,41.185917]}},{"properties":{"city":"Napoleon","cascade id":"DE03HO166","latitude":41.358709,"zip":"43545","longitude":-84.208073,"id":"a65w8s4003dl","address":"17-869 County Road M-1","state":"OH"},"type":"Feature","geometry":{"type":"Point","coordinates":[-84.208073,41.358709]}},{"properties":{"city":"Delphos","cascade id":"DE03HO050","latitude":40.840658,"zip":"45833","longitude":-84.361509,"id":"a65w8rzb1rv7","address":"23911 State Route 697","state":"OH"},"type":"Feature","geometry":{"type":"Point","coordinates":[-84.361509,40.840658]}},{"properties":{"city":"Ottawa","cascade id":"DE03HO151","latitude":41.02305,"zip":"45875","longitude":-84.060629,"id":"a65w8s3fkn40","address":"132 Riverview Road","state":"OH"},"type":"Feature","geometry":{"type":"Point","coordinates":[-84.060629,41.02305]}},{"properties":{"city":"Ottawa","cascade id":"DE09HO196","latitude":40.993889,"zip":"45875","longitude":-84.206111,"id":"a65w8scmkgd6","address":"12829 County Road 18","state":"OH"},"type":"Feature","geometry":{"type":"Point","coordinates":[-84.206111,40.993889]}},{"properties":{"city":"Sidney","cascade id":"CI03XC524","latitude":40.300527,"zip":"45365","longitude":-84.169669,"id":"a65w8s9o7uno","address":"1380 N. Fourth St.","state":"OH"},"type":"Feature","geometry":{"type":"Point","coordinates":[-84.169669,40.300527]}},{"properties":{"city":"Sidney","cascade id":"CI60XC524","latitude":40.283017,"zip":"45365","longitude":-84.160797,"id":"a65w8s2jrrfi","address":"223 Rear Walnut Street","state":"OH"},"type":"Feature","geometry":{"type":"Point","coordinates":[-84.160797,40.283017]}},{"properties":{"city":"Saint Marys","cascade id":"DE09HO191","latitude":40.549722,"zip":"45885","longitude":-84.377222,"id":"a65w8s6n75as","address":"903 Mckinley","state":"OH"},"type":"Feature","geometry":{"type":"Point","coordinates":[-84.377222,40.549722]}},{"properties":{"city":"Wapakoneta","cascade id":"DE13HO325","latitude":40.627856,"zip":"45895","longitude":-84.13065,"id":"a65w8s3wwcjh","address":"16784 Buckland Holden Rd.","state":"OH"},"type":"Feature","geometry":{"type":"Point","coordinates":[-84.13065,40.627856]}},{"properties":{"city":"Lima","cascade id":"DE03HO129","latitude":40.755203,"zip":"45801","longitude":-84.088875,"id":"a65w8s4juk4c","address":"1017 Independence Road","state":"OH"},"type":"Feature","geometry":{"type":"Point","coordinates":[-84.088875,40.755203]}},{"properties":{"city":"Lima","cascade id":"DE03HO130","latitude":40.701854,"zip":"45804","longitude":-84.107354,"id":"a65w8rzzxqft","address":"205 West Hanthorn Road","state":"OH"},"type":"Feature","geometry":{"type":"Point","coordinates":[-84.107354,40.701854]}},{"properties":{"city":"Lima","cascade id":"DE03HO163","latitude":40.740836,"zip":"45801","longitude":-84.117464,"id":"a65w8ryuf8y2","address":"730 West Market Street","state":"OH"},"type":"Feature","geometry":{"type":"Point","coordinates":[-84.117464,40.740836]}},{"properties":{"city":"Lima","cascade id":"DE11HO964","latitude":40.71625,"zip":"45804","longitude":-84.076917,"id":"a65w8rzx370x","address":"1812 E. 4th St.","state":"OH"},"type":"Feature","geometry":{"type":"Point","coordinates":[-84.076917,40.71625]}},{"properties":{"city":"Lima","cascade id":"DE03HO103","latitude":40.76073,"zip":"45805","longitude":-84.143224,"id":"a65w8s18sssl","address":"2120 Elida Road","state":"OH"},"type":"Feature","geometry":{"type":"Point","coordinates":[-84.143224,40.76073]}},{"properties":{"city":"Ada","cascade id":"DE03HO144","latitude":40.768553,"zip":"45810","longitude":-83.830286,"id":"a65w8sa7s80e","address":"525 South Main Street","state":"OH"},"type":"Feature","geometry":{"type":"Point","coordinates":[-83.830286,40.768553]}},{"properties":{"city":"Harrod","cascade id":"DE03HO054","latitude":40.725747,"zip":"45850","longitude":-83.930258,"id":"a65w8s3tt1iu","address":"1155 Napoleon Road","state":"OH"},"type":"Feature","geometry":{"type":"Point","coordinates":[-83.930258,40.725747]}},{"properties":{"city":"Celina","cascade id":"CI03HO051","latitude":40.575317,"zip":"45822","longitude":-84.493616,"id":"a65w8s5nbwaz","address":"7756 Riley Road","state":"OH"},"type":"Feature","geometry":{"type":"Point","coordinates":[-84.493616,40.575317]}},{"properties":{"city":"Coldwater","cascade id":"CI10HO741","latitude":40.49075,"zip":"45828","longitude":-84.624583,"id":"a65w8s5nj8vl","address":"793 Weis St.","state":"OH"},"type":"Feature","geometry":{"type":"Point","coordinates":[-84.624583,40.49075]}},{"properties":{"city":"Celina","cascade id":"CI11HO742","latitude":40.560431,"zip":"45822","longitude":-84.575983,"id":"a65w8s7dqln0","address":"503 Summit St.","state":"OH"},"type":"Feature","geometry":{"type":"Point","coordinates":[-84.575983,40.560431]}},{"properties":{"city":"Fort Recovery","cascade id":"CI11HO947","latitude":40.399719,"zip":"45846","longitude":-84.766617,"id":"a65w8rx97ums","address":"1004 Sharpsburg Rd.","state":"OH"},"type":"Feature","geometry":{"type":"Point","coordinates":[-84.766617,40.399719]}},{"properties":{"city":"Latty","cascade id":"CH03HO034","latitude":41.081562,"zip":"45879","longitude":-84.572408,"id":"a65w8s9jcxx1","address":"7298 Us Route 127","state":"OH"},"type":"Feature","geometry":{"type":"Point","coordinates":[-84.572408,41.081562]}},{"properties":{"city":"Payne","cascade id":"CH13HO711","latitude":41.078744,"zip":"45880","longitude":-84.722511,"id":"a65w8rwqckya","address":"312 E. Orchard St.","state":"OH"},"type":"Feature","geometry":{"type":"Point","coordinates":[-84.722511,41.078744]}},{"properties":{"city":"Continental","cascade id":"DE03HO036","latitude":41.100942,"zip":"45831","longitude":-84.196015,"id":"a65w8s97u9nl","address":"17360 County Road E-16","state":"OH"},"type":"Feature","geometry":{"type":"Point","coordinates":[-84.196015,41.100942]}},{"properties":{"city":"Convoy","cascade id":"DE03HO047","latitude":40.9166,"zip":"45832","longitude":-84.69263,"id":"a65w8rzg1iyl","address":"6764 Convoy Road","state":"OH"},"type":"Feature","geometry":{"type":"Point","coordinates":[-84.69263,40.9166]}},{"properties":{"city":"Van Wert","cascade id":"DE09HO193","latitude":40.901581,"zip":"45891","longitude":-84.572689,"id":"a65w8rytvojo","address":"7062 U.S. Route 127","state":"OH"},"type":"Feature","geometry":{"type":"Point","coordinates":[-84.572689,40.901581]}},{"properties":{"city":"Dayton","cascade id":"CI54XC091","latitude":39.746243,"zip":"45427","longitude":-84.314947,"id":"a65w8rz920tu","address":"7275 West 3rd St.","state":"OH"},"type":"Feature","geometry":{"type":"Point","coordinates":[-84.314947,39.746243]}},{"properties":{"city":"New Lebanon","cascade id":"CI33XC088","latitude":39.7468,"zip":"45345","longitude":-84.385234,"id":"a65w8rwx1qvy","address":"420 N. Church St.","state":"OH"},"type":"Feature","geometry":{"type":"Point","coordinates":[-84.385234,39.7468]}},{"properties":{"city":"Dayton","cascade id":"CI60XC359","latitude":39.754093,"zip":"45417","longitude":-84.224749,"id":"a65w8sanqjz1","address":"4219 W. 3rd Street","state":"OH"},"type":"Feature","geometry":{"type":"Point","coordinates":[-84.224749,39.754093]}},{"properties":{"city":"Eaton","cascade id":"CI33XC065","latitude":39.758522,"zip":"45320","longitude":-84.638641,"id":"a65w8ryfsn7f","address":"201 W. Lexington Rd.","state":"OH"},"type":"Feature","geometry":{"type":"Point","coordinates":[-84.638641,39.758522]}},{"properties":{"city":"Dayton","cascade id":"CI03XC350","latitude":39.759987,"zip":"45402","longitude":-84.191915,"id":"a65w8s4fmlwo","address":"32 North Main Street","state":"OH"},"type":"Feature","geometry":{"type":"Point","coordinates":[-84.191915,39.759987]}},{"properties":{"city":"Dayton","cascade id":"CI54XC826","latitude":39.760512,"zip":"45402","longitude":-84.21954,"id":"a65w8s9z3elz","address":"1101 Negley Place","state":"OH"},"type":"Feature","geometry":{"type":"Point","coordinates":[-84.21954,39.760512]}},{"properties":{"city":"Tipp City","cascade id":"CI03XC393","latitude":39.90538,"zip":"45371","longitude":-84.143611,"id":"a65w8rzsdaiz","address":"8565 Wildcat Road","state":"OH"},"type":"Feature","geometry":{"type":"Point","coordinates":[-84.143611,39.90538]}},{"properties":{"city":"Enon","cascade id":"CI23XC029","latitude":39.91538,"zip":"45344","longitude":-83.968418,"id":"a65w8s3feaci","address":"3030 N. Snider Rd","state":"OH"},"type":"Feature","geometry":{"type":"Point","coordinates":[-83.968418,39.91538]}},{"properties":{"city":"Troy","cascade id":"CI03XC665","latitude":39.934359,"zip":"45371","longitude":-84.198951,"id":"a65w8sa1vnyc","address":"3355 S. County Rd. #25a","state":"OH"},"type":"Feature","geometry":{"type":"Point","coordinates":[-84.198951,39.934359]}},{"properties":{"city":"Columbus","cascade id":"CB73XC045","latitude":39.952405,"zip":"43204","longitude":-83.074986,"id":"a65w8rxc6hxc","address":"179 S. Powell Ave.","state":"OH"},"type":"Feature","geometry":{"type":"Point","coordinates":[-83.074986,39.952405]}},{"properties":{"city":"Columbus","cascade id":"CB54XC077","latitude":39.955923,"zip":"43228","longitude":-83.110485,"id":"a65w8rwx51cq","address":"4130 Surface Road","state":"OH"},"type":"Feature","geometry":{"type":"Point","coordinates":[-83.110485,39.955923]}},{"properties":{"city":"Columbus","cascade id":"CB03XC006","latitude":39.956764,"zip":"43204","longitude":-83.074472,"id":"a65w8s64nhhx","address":"591 N. Hague Ave","state":"OH"},"type":"Feature","geometry":{"type":"Point","coordinates":[-83.074472,39.956764]}},{"properties":{"city":"Columbus","cascade id":"CB60XC250","latitude":39.958637,"zip":"43119","longitude":-83.167029,"id":"a65w8ryo02jq","address":"377 Alton Darby Creek Road","state":"OH"},"type":"Feature","geometry":{"type":"Point","coordinates":[-83.167029,39.958637]}},{"properties":{"city":"Columbus","cascade id":"CB33XC117","latitude":39.962226,"zip":"43215","longitude":-83.000642,"id":"a65w8rxcywu7","address":"57 N. High","state":"OH"},"type":"Feature","geometry":{"type":"Point","coordinates":[-83.000642,39.962226]}},{"properties":{"city":"Columbus","cascade id":"CB33XC127","latitude":39.962859,"zip":"43222","longitude":-83.022733,"id":"a65w8s64jaqh","address":"808 Mckinley Avenue","state":"OH"},"type":"Feature","geometry":{"type":"Point","coordinates":[-83.022733,39.962859]}},{"properties":{"city":"Columbus","cascade id":"CB03XC003","latitude":39.963647,"zip":"43215","longitude":-82.994531,"id":"a65w8ry32eif","address":"31-45 S. 5th St","state":"OH"},"type":"Feature","geometry":{"type":"Point","coordinates":[-82.994531,39.963647]}},{"properties":{"city":"Columbus","cascade id":"CB73XC041","latitude":39.966704,"zip":"43215","longitude":-82.991706,"id":"a65w8rzhqazc","address":"161-171 North Grant St.","state":"OH"},"type":"Feature","geometry":{"type":"Point","coordinates":[-82.991706,39.966704]}},{"properties":{"city":"Columbus","cascade id":"CB03XC022","latitude":40.037136,"zip":"43224","longitude":-82.956302,"id":"a65w8s2qfjkk","address":"2146 Innis Rd","state":"OH"},"type":"Feature","geometry":{"type":"Point","coordinates":[-82.956302,40.037136]}},{"properties":{"city":"Columbus","cascade id":"CB33XC121","latitude":40.058095,"zip":"43219","longitude":-82.922688,"id":"a65w8s7d895b","address":"3447 Morse Road","state":"OH"},"type":"Feature","geometry":{"type":"Point","coordinates":[-82.922688,40.058095]}},{"properties":{"city":"Troy","cascade id":"CI03XC585","latitude":40.065663,"zip":"45373","longitude":-84.227927,"id":"a65w8s1egdxi","address":"1450 Lytle Road","state":"OH"},"type":"Feature","geometry":{"type":"Point","coordinates":[-84.227927,40.065663]}},{"properties":{"city":"Worthington","cascade id":"CB99XT907","latitude":40.10077,"zip":"43085","longitude":-83.003377,"id":"a65w8ry3pnhc","address":"6595 Proprietors Rd","state":"OH"},"type":"Feature","geometry":{"type":"Point","coordinates":[-83.003377,40.10077]}},{"properties":{"city":"Columbus","cascade id":"CB60XC110","latitude":40.10692,"zip":"43229","longitude":-82.966824,"id":"a65w8s3jjxd2","address":"1850 Schrock Road","state":"OH"},"type":"Feature","geometry":{"type":"Point","coordinates":[-82.966824,40.10692]}},{"properties":{"city":"Delaware","cascade id":"CB73XC035","latitude":40.320744,"zip":"43015","longitude":-83.140889,"id":"a65w8sckxty2","address":"3749 State Route 37 W.","state":"OH"},"type":"Feature","geometry":{"type":"Point","coordinates":[-83.140889,40.320744]}},{"properties":{"city":"Piqua","cascade id":"CI23XC391","latitude":40.467411,"zip":"45356","longitude":-84.240447,"id":"a65w8rz1r5zu","address":"145 R.M. Davis Parkway","state":"OH"},"type":"Feature","geometry":{"type":"Point","coordinates":[-84.240447,40.467411]}},{"properties":{"city":"Bowling Green","cascade id":"DE33XC068","latitude":41.345859,"zip":"43402","longitude":-83.634905,"id":"a65w8s1rskjq","address":"13277 Klopfenstein Rd","state":"OH"},"type":"Feature","geometry":{"type":"Point","coordinates":[-83.634905,41.345859]}},{"properties":{"city":"Pemberville","cascade id":"DE73XC056","latitude":41.405944,"zip":"43450","longitude":-83.542453,"id":"a65w8s92szyg","address":"17540 Dunipace Road","state":"OH"},"type":"Feature","geometry":{"type":"Point","coordinates":[-83.542453,41.405944]}},{"properties":{"city":"Montclova","cascade id":"DE24XC002","latitude":41.558781,"zip":"43537","longitude":-83.691829,"id":"a65w8s6321t1","address":"6341 Monclova Rd","state":"OH"},"type":"Feature","geometry":{"type":"Point","coordinates":[-83.691829,41.558781]}},{"properties":{"city":"Perrysburg","cascade id":"DE04XC024","latitude":41.564775,"zip":"43551","longitude":-83.618321,"id":"a65w8rzqvci6","address":"550 E. South Boundary St","state":"OH"},"type":"Feature","geometry":{"type":"Point","coordinates":[-83.618321,41.564775]}},{"properties":{"city":"Maumee","cascade id":"DE04XC023","latitude":41.580427,"zip":"43537","longitude":-83.664702,"id":"a65w8s1exw0i","address":"1375 Conant St","state":"OH"},"type":"Feature","geometry":{"type":"Point","coordinates":[-83.664702,41.580427]}},{"properties":{"city":"Holland","cascade id":"DE54XC734","latitude":41.615843,"zip":"43528","longitude":-83.751733,"id":"a65w8rzsbj9c","address":"1426 Kieswitter Rd","state":"OH"},"type":"Feature","geometry":{"type":"Point","coordinates":[-83.751733,41.615843]}},{"properties":{"city":"Toledo","cascade id":"DE04XC016","latitude":41.638307,"zip":"43609","longitude":-83.567304,"id":"a65w8sb3zzpd","address":"130 S. Hawley St","state":"OH"},"type":"Feature","geometry":{"type":"Point","coordinates":[-83.567304,41.638307]}},{"properties":{"city":"Holland","cascade id":"DE49XC516","latitude":41.639207,"zip":"43528","longitude":-83.72938,"id":"a65w8scok9q7","address":"7858 Hill Avenue","state":"OH"},"type":"Feature","geometry":{"type":"Point","coordinates":[-83.72938,41.639207]}},{"properties":{"city":"Toledo","cascade id":"DE04XC012","latitude":41.64886,"zip":"43604","longitude":-83.541187,"id":"a65w8rxqfkhx","address":"555 N. Erie St","state":"OH"},"type":"Feature","geometry":{"type":"Point","coordinates":[-83.541187,41.64886]}},{"properties":{"city":"Toledo","cascade id":"DE50XC061","latitude":41.650175,"zip":"43604","longitude":-83.536073,"id":"a65w8s3qj15s","address":"425 Jefferson Ave Ste 1007","state":"OH"},"type":"Feature","geometry":{"type":"Point","coordinates":[-83.536073,41.650175]}},{"properties":{"city":"Toledo","cascade id":"DE73XC921","latitude":41.661781,"zip":"43615","longitude":-83.678286,"id":"a65w8s21gral","address":"6505 W. Bancroft St.","state":"OH"},"type":"Feature","geometry":{"type":"Point","coordinates":[-83.678286,41.661781]}},{"properties":{"city":"Toledo","cascade id":"DE04XC180","latitude":41.662426,"zip":"43615","longitude":-83.650143,"id":"a65w8s9wzusn","address":"4730 Bancroft St","state":"OH"},"type":"Feature","geometry":{"type":"Point","coordinates":[-83.650143,41.662426]}},{"properties":{"city":"Toledo","cascade id":"DE04XC011","latitude":41.663248,"zip":"43607","longitude":-83.604224,"id":"a65w8s46koo6","address":"2565 Bancroft","state":"OH"},"type":"Feature","geometry":{"type":"Point","coordinates":[-83.604224,41.663248]}},{"properties":{"city":"Toledo","cascade id":"DE04XC010","latitude":41.669146,"zip":"43608","longitude":-83.529697,"id":"a65w8s8jgewj","address":"1704 Mulberry Pk","state":"OH"},"type":"Feature","geometry":{"type":"Point","coordinates":[-83.529697,41.669146]}},{"properties":{"city":"Sylvania Twp","cascade id":"DE04XC008","latitude":41.677544,"zip":"43617","longitude":-83.700369,"id":"a65w8rwgtc71","address":"6755 Central Rd","state":"OH"},"type":"Feature","geometry":{"type":"Point","coordinates":[-83.700369,41.677544]}},{"properties":{"city":"Toledo","cascade id":"DE54XC712","latitude":41.7128,"zip":"43612","longitude":-83.505827,"id":"a65w8s1skfbq","address":"1706 Matzinger Rd","state":"OH"},"type":"Feature","geometry":{"type":"Point","coordinates":[-83.505827,41.7128]}},{"properties":{"city":"Defiance","cascade id":"CH03HO032","latitude":41.28831,"zip":"43512","longitude":-84.3958,"id":"a65w8sa8chba","address":"1700 State Service Road","state":"OH"},"type":"Feature","geometry":{"type":"Point","coordinates":[-84.3958,41.28831]}},{"properties":{"city":"Wauseon","cascade id":"DE70XC063","latitude":41.56214,"zip":"43567","longitude":-84.1504,"id":"a65w8s7n1p62","address":"550 W. Linfoot","state":"OH"},"type":"Feature","geometry":{"type":"Point","coordinates":[-84.1504,41.56214]}},{"properties":{"city":"German Township","cascade id":"DE70XC066","latitude":41.53015,"zip":"43502","longitude":-84.3207,"id":"a65w8s4zlizf","address":"23600county Road","state":"OH"},"type":"Feature","geometry":{"type":"Point","coordinates":[-84.3207,41.53015]}},{"properties":{"city":"Napoleon","cascade id":"DE12HO972","latitude":41.40425,"zip":"43545","longitude":-84.1361,"id":"a65w8s257m1n","address":"1515 N. Scott St.","state":"OH"},"type":"Feature","geometry":{"type":"Point","coordinates":[-84.1361,41.40425]}},{"properties":{"city":"Hicksville","cascade id":"CH13HO710","latitude":41.29814,"zip":"43526","longitude":-84.7625,"id":"a65w8rwx6ie4","address":"306 Elm St.","state":"OH"},"type":"Feature","geometry":{"type":"Point","coordinates":[-84.7625,41.29814]}},{"properties":{"city":"Upper Sandusky","cascade id":"DE12HO968","latitude":40.84556,"zip":"43351","longitude":-83.2758,"id":"a65w8rzvdfqw","address":"280 Indian Mill Dr.","state":"OH"},"type":"Feature","geometry":{"type":"Point","coordinates":[-83.2758,40.84556]}},{"properties":{"city":"Columbus","cascade id":"CB03XC043","latitude":40.080104,"zip":"43081","longitude":-82.929842,"id":"a65w8s2z6f0o","address":"4744 E. Dublin-Granville Rd","state":"OH"},"type":"Feature","geometry":{"type":"Point","coordinates":[-82.929842,40.080104]}},{"properties":{"city":"Columbus","cascade id":"CB03XC036","latitude":40.109961,"zip":"43231","longitude":-82.946966,"id":"a65w8s0wvfo4","address":"6776 Lauffer Rd","state":"OH"},"type":"Feature","geometry":{"type":"Point","coordinates":[-82.946966,40.109961]}}],"is_temporal":false,"author":{"url":"","metadata":"","contact_name":"","contact_address":"","source":"","contact_phone":""},"source":"","pagination":{"sort":null,"start":0,"total":77,"limit":1000000},"state":"complete","tags":"","published":"2014-08-13T00:04:05-04:00","id":192405}