{"type":"FeatureCollection","data_type":"Dataset","url_type":null,"permissions":[{"permissions":{"download":true,"view":true},"group_id":"everyone"}],"classification":null,"title":"Nuclear for Madigan","count":104,"stream_id":19258,"contributor":{"url":"http://geocommons.com/users/2943","name":"Margot"},"data_attributes":null,"calculation_params":null,"icon_link":null,"link":"http://geocommons.com/overlays/19258.json","extent":[-121.044,25.7743,-70.6387,46.282],"geometry_types":["point"],"unique_name":null,"name":"Nuclear for Madigan","feature_count":104,"description":"","next_feature":null,"is_raster":false,"short_classification":"Y","stats":{"nrcreg":{"max":4.0,"mean":2.39805825242718,"variance":1.14391776127927,"stdev":1.06954091145653,"min":1.0,"median":2.0},"geo_score":{"max":0.857,"mean":0.837432692307692,"variance":0.00124218960044809,"stdev":0.0352447102477534,"min":0.732,"median":0.857},"docknum":{"max":5000530.0,"mean":5000347.27884615,"variance":5789.15449962658,"stdev":76.0864935427214,"min":5000219.0,"median":5000335.0}},"features":[{"properties":{"city":"Fulton","nrcreg":4.0,"plantname":"Callaway","geo_score":0.857,"owner":"Ameren UE","docknum":5000483.0,"id":"a69rhe0mybcc","geo_precision":"city","reactortype":"PWR","state":"MO"},"type":"Feature","geometry":{"type":"Point","coordinates":[-91.966756,38.830203]}},{"properties":{"city":"Phoenix","nrcreg":4.0,"plantname":"Palo Verde 1","geo_score":0.857,"owner":"Arizona Public Service Co.","docknum":5000528.0,"id":"a69rhdxh1y0d","geo_precision":"city","reactortype":"PWR","state":"AZ"},"type":"Feature","geometry":{"type":"Point","coordinates":[-112.074037,33.448377]}},{"properties":{"city":"Phoenix","nrcreg":4.0,"plantname":"Palo Verde 2","geo_score":0.857,"owner":"Arizona Public Service Co.","docknum":5000529.0,"id":"a69rhe9tz8u1","geo_precision":"city","reactortype":"PWR","state":"AZ"},"type":"Feature","geometry":{"type":"Point","coordinates":[-112.074037,33.448377]}},{"properties":{"city":"Phoenix","nrcreg":4.0,"plantname":"Palo Verde 3","geo_score":0.857,"owner":"Arizona Public Service Co.","docknum":5000530.0,"id":"a69rheb6wa8f","geo_precision":"city","reactortype":"PWR","state":"AZ"},"type":"Feature","geometry":{"type":"Point","coordinates":[-112.074037,33.448377]}},{"properties":{"city":"Annapolis","nrcreg":1.0,"plantname":"Calvert Cliffs 2","geo_score":0.857,"owner":"Constellation Energy","docknum":5000318.0,"id":"a69rhdzwpd2n","geo_precision":"city","reactortype":"PWR","state":"MD"},"type":"Feature","geometry":{"type":"Point","coordinates":[-76.492183,38.978445]}},{"properties":{"city":"Rochester","nrcreg":null,"plantname":"Ginna","geo_score":0.857,"owner":"Constellation Energy","docknum":5000244.0,"id":"a69rhe3daznn","geo_precision":"city","reactortype":"PWR","state":"NY"},"type":"Feature","geometry":{"type":"Point","coordinates":[-77.615557,43.154785]}},{"properties":{"city":"Annapolis","nrcreg":1.0,"plantname":"Calvert Cliffs 1","geo_score":0.857,"owner":"Constellation Energy","docknum":5000317.0,"id":"a69rhe4y2mzh","geo_precision":"city","reactortype":"PWR","state":"MD"},"type":"Feature","geometry":{"type":"Point","coordinates":[-76.492183,38.978445]}},{"properties":{"city":"Oswego","nrcreg":1.0,"plantname":"Nine Mile Point 2","geo_score":0.857,"owner":"Constellation Energy","docknum":5000410.0,"id":"a69rhe1mxpe3","geo_precision":"city","reactortype":"BWR","state":"NY"},"type":"Feature","geometry":{"type":"Point","coordinates":[-76.342172,43.465388]}},{"properties":{"city":"Oswego","nrcreg":1.0,"plantname":"Nine Mile Point 1","geo_score":0.857,"owner":"Constellation Energy","docknum":5000220.0,"id":"a69rhe5k3sc7","geo_precision":"city","reactortype":"BWR","state":"NY"},"type":"Feature","geometry":{"type":"Point","coordinates":[-76.342172,43.465388]}},{"properties":{"city":"Toledo","nrcreg":3.0,"plantname":"Fermi 2","geo_score":0.857,"owner":"Detroit Edison Co.","docknum":5000341.0,"id":"a69rhe8novqz","geo_precision":"city","reactortype":"BWR","state":"OH"},"type":"Feature","geometry":{"type":"Point","coordinates":[-83.555212,41.663938]}},{"properties":{"city":"New London","nrcreg":1.0,"plantname":"Millstone 2","geo_score":0.857,"owner":"Dominion Generation","docknum":5000336.0,"id":"a69rhe4r2as8","geo_precision":"city","reactortype":"PWR","state":"CT"},"type":"Feature","geometry":{"type":"Point","coordinates":[-72.10907,41.413998]}},{"properties":{"city":"Richmond","nrcreg":2.0,"plantname":"North Anna 1","geo_score":0.857,"owner":"Dominion Generation","docknum":5000338.0,"id":"a69rhe9tdroa","geo_precision":"city","reactortype":"PWR","state":"VA"},"type":"Feature","geometry":{"type":"Point","coordinates":[-77.460262,37.553758]}},{"properties":{"city":"Green Bay","nrcreg":3.0,"plantname":"Kewaunee","geo_score":0.857,"owner":"Dominion Generation","docknum":5000305.0,"id":"a69rhe5ee8p3","geo_precision":"city","reactortype":"PWR","state":"WI"},"type":"Feature","geometry":{"type":"Point","coordinates":[-88.019826,44.519159]}},{"properties":{"city":"New London","nrcreg":1.0,"plantname":"Millstone 3","geo_score":0.857,"owner":"Dominion Generation","docknum":5000423.0,"id":"a69rhdyx30x9","geo_precision":"city","reactortype":"PWR","state":"CT"},"type":"Feature","geometry":{"type":"Point","coordinates":[-72.10907,41.413998]}},{"properties":{"city":"Richmond","nrcreg":2.0,"plantname":"North Anna 2","geo_score":0.857,"owner":"Dominion Generation","docknum":5000339.0,"id":"a69rhdvvuza3","geo_precision":"city","reactortype":"PWR","state":"VA"},"type":"Feature","geometry":{"type":"Point","coordinates":[-77.460262,37.553758]}},{"properties":{"city":"Newport News","nrcreg":2.0,"plantname":"Surry 2","geo_score":0.857,"owner":"Dominion Generation","docknum":5000281.0,"id":"a69rhdxlk1cw","geo_precision":"city","reactortype":"PWR","state":"VA"},"type":"Feature","geometry":{"type":"Point","coordinates":[-76.428003,36.978759]}},{"properties":{"city":"Newport News","nrcreg":2.0,"plantname":"Surry 1","geo_score":0.857,"owner":"Dominion Generation","docknum":5000280.0,"id":"a69rhe5bnnwe","geo_precision":"city","reactortype":"PWR","state":"VA"},"type":"Feature","geometry":{"type":"Point","coordinates":[-76.428003,36.978759]}},{"properties":{"city":"Greenville","nrcreg":2.0,"plantname":"Oconee 2","geo_score":0.857,"owner":"Duke Energy Power Company, LLC","docknum":5000270.0,"id":"a69rhe23r00l","geo_precision":"city","reactortype":"PWR","state":"SC"},"type":"Feature","geometry":{"type":"Point","coordinates":[-82.402871,34.848567]}},{"properties":{"city":"Rock Hill","nrcreg":2.0,"plantname":"Catawba 1","geo_score":0.857,"owner":"Duke Energy Power Company, LLC","docknum":5000413.0,"id":"a69rhe91rmiq","geo_precision":"city","reactortype":"PWR","state":"SC"},"type":"Feature","geometry":{"type":"Point","coordinates":[-81.052437,34.909109]}},{"properties":{"city":"Charlotte","nrcreg":2.0,"plantname":"McGuire 1","geo_score":0.857,"owner":"Duke Energy Power Company, LLC","docknum":5000369.0,"id":"a69rhe2eypee","geo_precision":"city","reactortype":"PWR","state":"NC"},"type":"Feature","geometry":{"type":"Point","coordinates":[-80.843127,35.227087]}},{"properties":{"city":"Charlotte","nrcreg":2.0,"plantname":"McGuire 2","geo_score":0.857,"owner":"Duke Energy Power Company, LLC","docknum":5000370.0,"id":"a69rhdy7f0ge","geo_precision":"city","reactortype":"PWR","state":"NC"},"type":"Feature","geometry":{"type":"Point","coordinates":[-80.843127,35.227087]}},{"properties":{"city":"Rock Hill","nrcreg":2.0,"plantname":"Catawba 2","geo_score":0.857,"owner":"Duke Energy Power Company, LLC","docknum":5000414.0,"id":"a69rhdxuqe3a","geo_precision":"city","reactortype":"PWR","state":"SC"},"type":"Feature","geometry":{"type":"Point","coordinates":[-81.052437,34.909109]}},{"properties":{"city":"Greenville","nrcreg":2.0,"plantname":"Oconee 3","geo_score":0.857,"owner":"Duke Energy Power Company, LLC","docknum":5000287.0,"id":"a69rhdvixeu4","geo_precision":"city","reactortype":"PWR","state":"SC"},"type":"Feature","geometry":{"type":"Point","coordinates":[-82.402871,34.848567]}},{"properties":{"city":"Greenville","nrcreg":2.0,"plantname":"Oconee 1","geo_score":0.857,"owner":"Duke Energy Power Company, LLC","docknum":5000269.0,"id":"a69rhe1n1a4s","geo_precision":"city","reactortype":"PWR","state":"SC"},"type":"Feature","geometry":{"type":"Point","coordinates":[-82.402871,34.848567]}},{"properties":{"city":"Richland","nrcreg":4.0,"plantname":"Columbia Generating Station","geo_score":0.857,"owner":"Energy Northwest","docknum":5000397.0,"id":"a69rhdv07vnu","geo_precision":"city","reactortype":"BWR","state":"WA"},"type":"Feature","geometry":{"type":"Point","coordinates":[-119.491659,46.282031]}},{"properties":{"city":"Oswego","nrcreg":1.0,"plantname":"FitzPatrick","geo_score":0.857,"owner":"Entergy Nuclear Operations, Inc.","docknum":5000333.0,"id":"a69rhe6z0rpm","geo_precision":"city","reactortype":"BWR","state":"NY"},"type":"Feature","geometry":{"type":"Point","coordinates":[-76.342172,43.465388]}},{"properties":{"city":"Russellville","nrcreg":4.0,"plantname":"Arkansas Nuclear 2","geo_score":0.857,"owner":"Entergy Nuclear Operations, Inc.","docknum":5000368.0,"id":"a69rheanrp5f","geo_precision":"city","reactortype":"PWR","state":"AR"},"type":"Feature","geometry":{"type":"Point","coordinates":[-93.072885,35.29465]}},{"properties":{"city":"New York City","nrcreg":1.0,"plantname":"Indian Point 3","geo_score":0.805,"owner":"Entergy Nuclear Operations, Inc.","docknum":5000286.0,"id":"a69rhe214hbw","geo_precision":"city","reactortype":"PWR","state":"NY"},"type":"Feature","geometry":{"type":"Point","coordinates":[-74.005973,40.714269]}},{"properties":{"city":"Russellville","nrcreg":4.0,"plantname":"Arkansas Nuclear 1","geo_score":0.857,"owner":"Entergy Nuclear Operations, Inc.","docknum":5000313.0,"id":"a69rhe6x07l9","geo_precision":"city","reactortype":"PWR","state":"AR"},"type":"Feature","geometry":{"type":"Point","coordinates":[-93.072885,35.29465]}},{"properties":{"city":"New Orleans","nrcreg":4.0,"plantname":"Waterford 3","geo_score":0.857,"owner":"Entergy Nuclear Operations, Inc.","docknum":5000382.0,"id":"a69rhe16wnt7","geo_precision":"city","reactortype":"PWR","state":"LA"},"type":"Feature","geometry":{"type":"Point","coordinates":[-89.930956,30.068812]}},{"properties":{"city":"Plymouth","nrcreg":1.0,"plantname":"Pilgrim 1","geo_score":0.857,"owner":"Entergy Nuclear Operations, Inc.","docknum":5000293.0,"id":"a69rhe6ctpih","geo_precision":"city","reactortype":"BWR","state":"MA"},"type":"Feature","geometry":{"type":"Point","coordinates":[-70.638717,41.886207]}},{"properties":{"city":"Baton Rouge","nrcreg":4.0,"plantname":"River Bend 1","geo_score":0.857,"owner":"Entergy Nuclear Operations, Inc.","docknum":5000458.0,"id":"a69rhe26zx0e","geo_precision":"city","reactortype":"BWR","state":"LA"},"type":"Feature","geometry":{"type":"Point","coordinates":[-91.154551,30.450746]}},{"properties":{"city":"New York City","nrcreg":1.0,"plantname":"Indian Point 2","geo_score":0.805,"owner":"Entergy Nuclear Operations, Inc.","docknum":5000247.0,"id":"a69rhe5iv2sd","geo_precision":"city","reactortype":"PWR","state":"NY"},"type":"Feature","geometry":{"type":"Point","coordinates":[-74.005973,40.714269]}},{"properties":{"city":"Brattleboro","nrcreg":1.0,"plantname":"Vermont Yankee","geo_score":0.857,"owner":"Entergy Nuclear Operations, Inc.","docknum":5000271.0,"id":"a69rhe75erfk","geo_precision":"city","reactortype":"BWR","state":"VT"},"type":"Feature","geometry":{"type":"Point","coordinates":[-72.760753,42.884281]}},{"properties":{"city":"South Haven","nrcreg":3.0,"plantname":"Palisades","geo_score":0.857,"owner":"Entergy Nuclear Operations, Inc.","docknum":5000255.0,"id":"a69rhdzu5m50","geo_precision":"city","reactortype":"PWR","state":"MI"},"type":"Feature","geometry":{"type":"Point","coordinates":[-86.138952,42.363778]}},{"properties":{"city":"Vicksburg","nrcreg":4.0,"plantname":"Grand Gulf 1","geo_score":0.857,"owner":"Entergy Nuclear Operations, Inc.","docknum":5000416.0,"id":"a69rhe5czf9c","geo_precision":"city","reactortype":"BWR","state":"MS"},"type":"Feature","geometry":{"type":"Point","coordinates":[-90.834407,32.339533]}},{"properties":{"city":"Moline","nrcreg":3.0,"plantname":"Quad Cities 1","geo_score":0.786,"owner":"Exelon Generation Co., LLC","docknum":5000254.0,"id":"a69rhe21dp2p","geo_precision":"city","reactortype":"BWR","state":"IL"},"type":"Feature","geometry":{"type":"Point","coordinates":[-90.595736,41.420305]}},{"properties":{"city":"Harrisburg","nrcreg":1.0,"plantname":"Three Mile Island 1","geo_score":0.857,"owner":"Exelon Generation Co., LLC","docknum":5000289.0,"id":"a69rheawu3ze","geo_precision":"city","reactortype":"PWR","state":"PA"},"type":"Feature","geometry":{"type":"Point","coordinates":[-76.884418,40.2737]}},{"properties":{"city":"Lancaster","nrcreg":1.0,"plantname":"Peach Bottom 3","geo_score":0.762,"owner":"Exelon Generation Co., LLC","docknum":5000278.0,"id":"a69rhe33tw9o","geo_precision":"city","reactortype":"BWR","state":"PA"},"type":"Feature","geometry":{"type":"Point","coordinates":[-76.658856,39.960376]}},{"properties":{"city":"Ottawa","nrcreg":3.0,"plantname":"La Salle 2","geo_score":0.857,"owner":"Exelon Generation Co., LLC","docknum":5000374.0,"id":"a69rhdwjk2ap","geo_precision":"city","reactortype":"BWR","state":"IL"},"type":"Feature","geometry":{"type":"Point","coordinates":[-88.833337,41.248925]}},{"properties":{"city":"Ottawa","nrcreg":3.0,"plantname":"La Salle 1","geo_score":0.857,"owner":"Exelon Generation Co., LLC","docknum":5000373.0,"id":"a69rhe1h7im1","geo_precision":"city","reactortype":"BWR","state":"IL"},"type":"Feature","geometry":{"type":"Point","coordinates":[-88.833337,41.248925]}},{"properties":{"city":"Morris","nrcreg":3.0,"plantname":"Dresden 3","geo_score":0.857,"owner":"Exelon Generation Co., LLC","docknum":5000249.0,"id":"a69rhe2t66yc","geo_precision":"city","reactortype":"BWR","state":"IL"},"type":"Feature","geometry":{"type":"Point","coordinates":[-88.430183,41.337433]}},{"properties":{"city":"Lancaster","nrcreg":1.0,"plantname":"Peach Bottom 2","geo_score":0.762,"owner":"Exelon Generation Co., LLC","docknum":5000277.0,"id":"a69rhe6p0qxn","geo_precision":"city","reactortype":"BWR","state":"PA"},"type":"Feature","geometry":{"type":"Point","coordinates":[-76.658856,39.960376]}},{"properties":{"city":"Rockford","nrcreg":3.0,"plantname":"Byron 1","geo_score":0.857,"owner":"Exelon Generation Co., LLC","docknum":5000454.0,"id":"a69rhe46ufn7","geo_precision":"city","reactortype":"PWR","state":"IL"},"type":"Feature","geometry":{"type":"Point","coordinates":[-89.093995,42.271131]}},{"properties":{"city":"Rockford","nrcreg":3.0,"plantname":"Byron 2","geo_score":0.857,"owner":"Exelon Generation Co., LLC","docknum":5000455.0,"id":"a69rhdw0sinr","geo_precision":"city","reactortype":"PWR","state":"IL"},"type":"Feature","geometry":{"type":"Point","coordinates":[-89.093995,42.271131]}},{"properties":{"city":"Joilet","nrcreg":3.0,"plantname":"Braidwood 1","geo_score":0.762,"owner":"Exelon Generation Co., LLC","docknum":5000456.0,"id":"a69rhe1zm0mj","geo_precision":"city","reactortype":"PWR","state":"IL"},"type":"Feature","geometry":{"type":"Point","coordinates":[-90.667345,39.124215]}},{"properties":{"city":"Philadelphia","nrcreg":1.0,"plantname":"Limerick 2","geo_score":0.857,"owner":"Exelon Generation Co., LLC","docknum":5000353.0,"id":"a69rhdvw1zns","geo_precision":"city","reactortype":"BWR","state":"PA"},"type":"Feature","geometry":{"type":"Point","coordinates":[-75.163789,39.952335]}},{"properties":{"city":"Philadelphia","nrcreg":1.0,"plantname":"Limerick 1","geo_score":0.857,"owner":"Exelon Generation Co., LLC","docknum":5000352.0,"id":"a69rhe6zsejq","geo_precision":"city","reactortype":"BWR","state":"PA"},"type":"Feature","geometry":{"type":"Point","coordinates":[-75.163789,39.952335]}},{"properties":{"city":"Morris","nrcreg":3.0,"plantname":"Dresden 2","geo_score":0.857,"owner":"Exelon Generation Co., LLC","docknum":5000237.0,"id":"a69rhe3nmy1e","geo_precision":"city","reactortype":"BWR","state":"IL"},"type":"Feature","geometry":{"type":"Point","coordinates":[-88.430183,41.337433]}},{"properties":{"city":"Moline","nrcreg":3.0,"plantname":"Quad Cities 2","geo_score":0.786,"owner":"Exelon Generation Co., LLC","docknum":5000265.0,"id":"a69rhe93dpmd","geo_precision":"city","reactortype":"BWR","state":"IL"},"type":"Feature","geometry":{"type":"Point","coordinates":[-90.595736,41.420305]}},{"properties":{"city":"Joilet","nrcreg":3.0,"plantname":"Braidwood 2","geo_score":0.762,"owner":"Exelon Generation Co., LLC","docknum":5000457.0,"id":"a69rhe56hbo8","geo_precision":"city","reactortype":"PWR","state":"IL"},"type":"Feature","geometry":{"type":"Point","coordinates":[-90.667345,39.124215]}},{"properties":{"city":"Clinton","nrcreg":3.0,"plantname":"Clinton","geo_score":0.857,"owner":"Exelon Generation Co., LLC","docknum":5000461.0,"id":"a69rhdzlmj0t","geo_precision":"city","reactortype":"BWR","state":"IL"},"type":"Feature","geometry":{"type":"Point","coordinates":[-88.947118,40.152822]}},{"properties":{"city":"Toms River","nrcreg":1.0,"plantname":"Oyster Creek","geo_score":0.857,"owner":"Exelon Generation Co., LLC","docknum":5000219.0,"id":"a69rhdzet1zm","geo_precision":"city","reactortype":"BWR","state":"NJ"},"type":"Feature","geometry":{"type":"Point","coordinates":[-74.215336,39.958851]}},{"properties":{"city":"Manitowoc","nrcreg":3.0,"plantname":"Point Beach 1","geo_score":0.8,"owner":"FPL Energy Point Beach, LLC","docknum":5000266.0,"id":"a69rhdxfifqy","geo_precision":"city","reactortype":"PWR","state":"WI"},"type":"Feature","geometry":{"type":"Point","coordinates":[-87.700919,44.099161]}},{"properties":{"city":"Manitowoc","nrcreg":3.0,"plantname":"Point Beach 2","geo_score":0.8,"owner":"FPL Energy Point Beach, LLC","docknum":5000301.0,"id":"a69rhdygparc","geo_precision":"city","reactortype":"PWR","state":"WI"},"type":"Feature","geometry":{"type":"Point","coordinates":[-87.700919,44.099161]}},{"properties":{"city":"McCandless","nrcreg":1.0,"plantname":"Beaver Valley 2","geo_score":0.794,"owner":"FirstEnergy Nuclear Operating Co.","docknum":5000412.0,"id":"a69rhe0audrw","geo_precision":"city","reactortype":"PWR","state":"PA"},"type":"Feature","geometry":{"type":"Point","coordinates":[-80.027993,40.583507]}},{"properties":{"city":"McCandless","nrcreg":1.0,"plantname":"Beaver Valley 1","geo_score":0.794,"owner":"FirstEnergy Nuclear Operating Co.","docknum":5000334.0,"id":"a69rhe511hw7","geo_precision":"city","reactortype":"PWR","state":"PA"},"type":"Feature","geometry":{"type":"Point","coordinates":[-80.027993,40.583507]}},{"properties":{"city":"Toledo","nrcreg":3.0,"plantname":"Davis-Besse","geo_score":0.857,"owner":"FirstEnergy Nuclear Operating Co.","docknum":5000346.0,"id":"a69rhdwc8qf6","geo_precision":"city","reactortype":"PWR","state":"OH"},"type":"Feature","geometry":{"type":"Point","coordinates":[-83.555212,41.663938]}},{"properties":{"city":"Painesville","nrcreg":3.0,"plantname":"Perry 1","geo_score":0.793,"owner":"FirstEnergy Nuclear Operating Co.","docknum":5000440.0,"id":"a69rhe4sxx99","geo_precision":"city","reactortype":"BWR","state":"OH"},"type":"Feature","geometry":{"type":"Point","coordinates":[-81.230935,41.766711]}},{"properties":{"city":"Ft. Pierce","nrcreg":2.0,"plantname":"Saint Lucie 1","geo_score":0.821,"owner":"Florida Power &amp; Light Co.","docknum":5000335.0,"id":"a69rhe3l7mmq","geo_precision":"city","reactortype":"PWR","state":"FL"},"type":"Feature","geometry":{"type":"Point","coordinates":[-81.971473,27.835028]}},{"properties":{"city":"Miami","nrcreg":2.0,"plantname":"Turkey Point 4","geo_score":0.857,"owner":"Florida Power &amp; Light Co.","docknum":5000251.0,"id":"a69rhe4vwrkf","geo_precision":"city","reactortype":"PWR","state":"FL"},"type":"Feature","geometry":{"type":"Point","coordinates":[-80.193659,25.774266]}},{"properties":{"city":"Portsmouth","nrcreg":1.0,"plantname":"Seabrook 1","geo_score":0.857,"owner":"Florida Power &amp; Light Co.","docknum":5000443.0,"id":"a69rhe9w32fo","geo_precision":"city","reactortype":"PWR","state":"NH"},"type":"Feature","geometry":{"type":"Point","coordinates":[-71.013202,43.005895]}},{"properties":{"city":"Ft. Pierce","nrcreg":2.0,"plantname":"Saint Lucie 2","geo_score":0.821,"owner":"Florida Power &amp; Light Co.","docknum":5000389.0,"id":"a69rhdzjvsjk","geo_precision":"city","reactortype":"PWR","state":"FL"},"type":"Feature","geometry":{"type":"Point","coordinates":[-81.971473,27.835028]}},{"properties":{"city":"Cedar Rapids","nrcreg":3.0,"plantname":"Duane Arnold","geo_score":0.857,"owner":"Florida Power &amp; Light Co.","docknum":5000331.0,"id":"a69rhdxo53fy","geo_precision":"city","reactortype":"BWR","state":"IA"},"type":"Feature","geometry":{"type":"Point","coordinates":[-91.644068,42.008333]}},{"properties":{"city":"Miami","nrcreg":2.0,"plantname":"Turkey Point 3","geo_score":0.857,"owner":"Florida Power &amp; Light Co.","docknum":5000250.0,"id":"a69rhe9ixg1r","geo_precision":"city","reactortype":"PWR","state":"FL"},"type":"Feature","geometry":{"type":"Point","coordinates":[-80.193659,25.774266]}},{"properties":{"city":"Benton Harbor","nrcreg":3.0,"plantname":"D.C. Cook 1","geo_score":0.786,"owner":"Indiana/Michigan Power Co.","docknum":5000315.0,"id":"a69rhdzxztmg","geo_precision":"city","reactortype":"PWR","state":"MI"},"type":"Feature","geometry":{"type":"Point","coordinates":[-83.862164,42.12893]}},{"properties":{"city":"Benton Harbor","nrcreg":3.0,"plantname":"D.C. Cook 2","geo_score":0.786,"owner":"IndianaMichigan Power Co.","docknum":5000316.0,"id":"a69rheaz2qp5","geo_precision":"city","reactortype":"PWR","state":"MI"},"type":"Feature","geometry":{"type":"Point","coordinates":[-83.862164,42.12893]}},{"properties":{"city":"Nebraska City","nrcreg":4.0,"plantname":"Cooper","geo_score":0.857,"owner":"Nebraska Public Power District","docknum":5000298.0,"id":"a69rhe3nh4mo","geo_precision":"city","reactortype":"BWR","state":"NE"},"type":"Feature","geometry":{"type":"Point","coordinates":[-95.907718,40.707742]}},{"properties":{"city":"Minneapolis","nrcreg":3.0,"plantname":"Monticello","geo_score":0.857,"owner":"Nuclear Management Co.","docknum":5000263.0,"id":"a69rhe1bfeap","geo_precision":"city","reactortype":"BWR","state":"MN"},"type":"Feature","geometry":{"type":"Point","coordinates":[-93.263836,44.979965]}},{"properties":{"city":"Minneapolis","nrcreg":3.0,"plantname":"Prairie Island 1","geo_score":0.857,"owner":"Nuclear Management Co.","docknum":5000282.0,"id":"a69rhe9d3gae","geo_precision":"city","reactortype":"PWR","state":"MN"},"type":"Feature","geometry":{"type":"Point","coordinates":[-93.263836,44.979965]}},{"properties":{"city":"Minneapolis","nrcreg":3.0,"plantname":"Prairie Island 2","geo_score":0.857,"owner":"Nuclear Management Co.","docknum":5000306.0,"id":"a69rhe7tnvg3","geo_precision":"city","reactortype":"PWR","state":"MN"},"type":"Feature","geometry":{"type":"Point","coordinates":[-93.263836,44.979965]}},{"properties":{"city":"Omaha","nrcreg":4.0,"plantname":"Fort Calhoun","geo_score":0.857,"owner":"Omaha Public Power District","docknum":5000285.0,"id":"a69rhe1r0ula","geo_precision":"city","reactortype":"PWR","state":"NE"},"type":"Feature","geometry":{"type":"Point","coordinates":[-95.937792,41.25861]}},{"properties":{"city":"Berwick","nrcreg":1.0,"plantname":"Susquehanna 1","geo_score":0.857,"owner":"PPL Susquehanna, LLC","docknum":5000387.0,"id":"a69rhe8bucbk","geo_precision":"city","reactortype":"BWR","state":"PA"},"type":"Feature","geometry":{"type":"Point","coordinates":[-76.299844,41.056142]}},{"properties":{"city":"Berwick","nrcreg":1.0,"plantname":"Susquehanna 2","geo_score":0.857,"owner":"PPL Susquehanna, LLC","docknum":5000388.0,"id":"a69rhe3tpjjq","geo_precision":"city","reactortype":"BWR","state":"PA"},"type":"Feature","geometry":{"type":"Point","coordinates":[-76.299844,41.056142]}},{"properties":{"city":"Wilmington","nrcreg":1.0,"plantname":"Salem 2","geo_score":0.857,"owner":"PSE&amp;G Nuclear","docknum":5000311.0,"id":"a69rhe3loe2k","geo_precision":"city","reactortype":"PWR","state":"DE"},"type":"Feature","geometry":{"type":"Point","coordinates":[-75.546589,39.745947]}},{"properties":{"city":"Wilmington","nrcreg":1.0,"plantname":"Salem 1","geo_score":0.857,"owner":"PSE&amp;G Nuclear","docknum":5000272.0,"id":"a69rheb4c5p7","geo_precision":"city","reactortype":"PWR","state":"DE"},"type":"Feature","geometry":{"type":"Point","coordinates":[-75.546589,39.745947]}},{"properties":{"city":"Wilmington","nrcreg":1.0,"plantname":"Hope Creek 1","geo_score":0.857,"owner":"PSE&amp;G Nuclear","docknum":5000354.0,"id":"a69rhe8ai5xl","geo_precision":"city","reactortype":"BWR","state":"DE"},"type":"Feature","geometry":{"type":"Point","coordinates":[-75.546589,39.745947]}},{"properties":{"city":"San Luis Obispo","nrcreg":4.0,"plantname":"Diablo Canyon 2","geo_score":0.736,"owner":"Pacific Gas &amp; Electric Co.","docknum":5000323.0,"id":"a69rhe37ng0d","geo_precision":"city","reactortype":"PWR","state":"CA"},"type":"Feature","geometry":{"type":"Point","coordinates":[-118.345664,37.400762]}},{"properties":{"city":"San Luis Obispo","nrcreg":4.0,"plantname":"Diablo Canyon 1","geo_score":0.736,"owner":"Pacific Gas &amp; Electric Co.","docknum":5000275.0,"id":"a69rhdxwernc","geo_precision":"city","reactortype":"PWR","state":"CA"},"type":"Feature","geometry":{"type":"Point","coordinates":[-118.345664,37.400762]}},{"properties":{"city":"Southport","nrcreg":2.0,"plantname":"Brunswick 2","geo_score":0.857,"owner":"Progress Energy","docknum":5000324.0,"id":"a69rhe5xkfb6","geo_precision":"city","reactortype":"BWR","state":"NC"},"type":"Feature","geometry":{"type":"Point","coordinates":[-78.238126,33.966293]}},{"properties":{"city":"Crystal River","nrcreg":2.0,"plantname":"Crystal River 3","geo_score":0.81,"owner":"Progress Energy","docknum":5000302.0,"id":"a69rhduzea89","geo_precision":"city","reactortype":"PWR","state":"FL"},"type":"Feature","geometry":{"type":"Point","coordinates":[-85.688541,30.444085]}},{"properties":{"city":"Raleigh","nrcreg":2.0,"plantname":"Shearon Harris 1","geo_score":0.857,"owner":"Progress Energy","docknum":5000400.0,"id":"a69rhdzouagx","geo_precision":"city","reactortype":"PWR","state":"NC"},"type":"Feature","geometry":{"type":"Point","coordinates":[-78.638615,35.772096]}},{"properties":{"city":"Florence","nrcreg":2.0,"plantname":"Robinson 2","geo_score":0.857,"owner":"Progress Energy","docknum":5000261.0,"id":"a69rhe21b5hr","geo_precision":"city","reactortype":"PWR","state":"SC"},"type":"Feature","geometry":{"type":"Point","coordinates":[-79.685361,34.049849]}},{"properties":{"city":"Southport","nrcreg":2.0,"plantname":"Brunswick 1","geo_score":0.857,"owner":"Progress Energy","docknum":5000325.0,"id":"a69rhe13a6hu","geo_precision":"city","reactortype":"BWR","state":"NC"},"type":"Feature","geometry":{"type":"Point","coordinates":[-78.238126,33.966293]}},{"properties":{"city":"Bay City","nrcreg":4.0,"plantname":"South Texas 2","geo_score":0.776,"owner":"STP Nuclear Operating Co.","docknum":5000499.0,"id":"a69rheam7fb3","geo_precision":"city","reactortype":"PWR","state":"TX"},"type":"Feature","geometry":{"type":"Point","coordinates":[-96.272199,32.183483]}},{"properties":{"city":"Bay City","nrcreg":4.0,"plantname":"South Texas 1","geo_score":0.776,"owner":"STP Nuclear Operating Co.","docknum":5000498.0,"id":"a69rhe2uryrb","geo_precision":"city","reactortype":"PWR","state":"TX"},"type":"Feature","geometry":{"type":"Point","coordinates":[-96.272199,32.183483]}},{"properties":{"city":"Columbia","nrcreg":2.0,"plantname":"Summer","geo_score":0.857,"owner":"South Carolina Electric &amp; Gas Co.","docknum":5000395.0,"id":"a69rhe1vb7hq","geo_precision":"city","reactortype":"PWR","state":"SC"},"type":"Feature","geometry":{"type":"Point","coordinates":[-81.024864,33.987454]}},{"properties":{"city":"San Clemente","nrcreg":4.0,"plantname":"San Onofre 3","geo_score":0.805,"owner":"Southern California Edison Co.","docknum":5000362.0,"id":"a69rhearugvh","geo_precision":"city","reactortype":"PWR","state":"CA"},"type":"Feature","geometry":{"type":"Point","coordinates":[-121.044252,38.211127]}},{"properties":{"city":"San Clemente","nrcreg":4.0,"plantname":"San Onofre 2","geo_score":0.805,"owner":"Southern California Edison Co.","docknum":5000361.0,"id":"a69rhe2u5vhy","geo_precision":"city","reactortype":"PWR","state":"CA"},"type":"Feature","geometry":{"type":"Point","coordinates":[-121.044252,38.211127]}},{"properties":{"city":"Dothan","nrcreg":2.0,"plantname":"Farley 2","geo_score":0.857,"owner":"Southern Nuclear Operating Co.","docknum":5000364.0,"id":"a69rheamtlts","geo_precision":"city","reactortype":"PWR","state":"AL"},"type":"Feature","geometry":{"type":"Point","coordinates":[-85.371845,31.148124]}},{"properties":{"city":"Augusta","nrcreg":2.0,"plantname":"Vogtle 2","geo_score":0.857,"owner":"Southern Nuclear Operating Co.","docknum":5000425.0,"id":"a69rhe8rmllx","geo_precision":"city","reactortype":"PWR","state":"GA"},"type":"Feature","geometry":{"type":"Point","coordinates":[-81.974838,33.47097]}},{"properties":{"city":"Dothan","nrcreg":2.0,"plantname":"Farley 1","geo_score":0.857,"owner":"Southern Nuclear Operating Co.","docknum":5000348.0,"id":"a69rhdz8ffhl","geo_precision":"city","reactortype":"PWR","state":"AL"},"type":"Feature","geometry":{"type":"Point","coordinates":[-85.371845,31.148124]}},{"properties":{"city":"Augusta","nrcreg":2.0,"plantname":"Vogtle 1","geo_score":0.857,"owner":"Southern Nuclear Operating Co.","docknum":5000424.0,"id":"a69rhe8i01gb","geo_precision":"city","reactortype":"PWR","state":"GA"},"type":"Feature","geometry":{"type":"Point","coordinates":[-81.974838,33.47097]}},{"properties":{"city":"Baxley","nrcreg":2.0,"plantname":"Hatch 2","geo_score":0.857,"owner":"Southern Nuclear Operating Co., Inc.","docknum":5000366.0,"id":"a69rheb09jwu","geo_precision":"city","reactortype":"BWR","state":"GA"},"type":"Feature","geometry":{"type":"Point","coordinates":[-82.350837,31.756861]}},{"properties":{"city":"Baxley","nrcreg":2.0,"plantname":"Hatch 1","geo_score":0.857,"owner":"Southern Nuclear Operating Co., Inc.","docknum":5000321.0,"id":"a69rhe3n11ek","geo_precision":"city","reactortype":"BWR","state":"GA"},"type":"Feature","geometry":{"type":"Point","coordinates":[-82.350837,31.756861]}},{"properties":{"city":"Glen Rose","nrcreg":4.0,"plantname":"Comanche Peak 2","geo_score":0.732,"owner":"TXU Generating Company LP","docknum":5000446.0,"id":"a69rhdv3sx13","geo_precision":"city","reactortype":"PWR","state":"TX"},"type":"Feature","geometry":{"type":"Point","coordinates":[-97.181657,28.705548]}},{"properties":{"city":"Glen Rose","nrcreg":4.0,"plantname":"Comanche Peak 1","geo_score":0.732,"owner":"TXU Generating Company LP","docknum":5000445.0,"id":"a69rhe01yf9b","geo_precision":"city","reactortype":"PWR","state":"TX"},"type":"Feature","geometry":{"type":"Point","coordinates":[-97.181657,28.705548]}},{"properties":{"city":"Spring City","nrcreg":2.0,"plantname":"Watts Bar 1","geo_score":0.814,"owner":"Tennessee Valley Authority","docknum":5000390.0,"id":"a69rhe55mr0c","geo_precision":"city","reactortype":"PWR","state":"TN"},"type":"Feature","geometry":{"type":"Point","coordinates":[-87.604738,36.338387]}},{"properties":{"city":"Decatur","nrcreg":2.0,"plantname":"Browns Ferry 1","geo_score":0.857,"owner":"Tennessee Valley Authority","docknum":5000259.0,"id":"a69rhdvv5tl8","geo_precision":"city","reactortype":"BWR","state":"AL"},"type":"Feature","geometry":{"type":"Point","coordinates":[-86.995551,34.549833]}},{"properties":{"city":"Chattanooga","nrcreg":2.0,"plantname":"Sequoyah 1","geo_score":0.857,"owner":"Tennessee Valley Authority","docknum":5000327.0,"id":"a69rhe0wehym","geo_precision":"city","reactortype":"PWR","state":"TN"},"type":"Feature","geometry":{"type":"Point","coordinates":[-85.30968,35.04563]}},{"properties":{"city":"Decatur","nrcreg":2.0,"plantname":"Browns Ferry 2","geo_score":0.857,"owner":"Tennessee Valley Authority","docknum":5000260.0,"id":"a69rhe02ju6l","geo_precision":"city","reactortype":"BWR","state":"AL"},"type":"Feature","geometry":{"type":"Point","coordinates":[-86.995551,34.549833]}},{"properties":{"city":"Chattanooga","nrcreg":2.0,"plantname":"Sequoyah 2","geo_score":0.857,"owner":"Tennessee Valley Authority","docknum":5000328.0,"id":"a69rhe5g1zjz","geo_precision":"city","reactortype":"PWR","state":"TN"},"type":"Feature","geometry":{"type":"Point","coordinates":[-85.30968,35.04563]}},{"properties":{"city":"Decatur","nrcreg":2.0,"plantname":"Browns Ferry 3","geo_score":0.857,"owner":"Tennessee Valley Authority","docknum":5000296.0,"id":"a69rhdyiv5dp","geo_precision":"city","reactortype":"BWR","state":"AL"},"type":"Feature","geometry":{"type":"Point","coordinates":[-86.995551,34.549833]}},{"properties":{"city":"Burlington","nrcreg":4.0,"plantname":"Wolf Creek 1","geo_score":0.814,"owner":"Wolf Creek Nuclear Operating Corp.","docknum":5000482.0,"id":"a69rhe4nedju","geo_precision":"city","reactortype":"PWR","state":"KS"},"type":"Feature","geometry":{"type":"Point","coordinates":[-95.815754,38.73799]}}],"is_temporal":false,"author":{"url":"","metadata":"","contact_name":"","contact_address":"","source":"","contact_phone":""},"source":"","pagination":{"sort":null,"start":0,"total":104,"limit":1000000},"state":"complete","tags":"","published":"2014-08-11T01:04:37-04:00","id":19258}