{"type":"FeatureCollection","data_type":"Dataset","url_type":null,"permissions":[{"permissions":{"download":true,"view":true},"group_id":"everyone"}],"classification":null,"title":"Nuclear for Madigan from Batchgeocode","count":104,"stream_id":19260,"contributor":{"url":"http://geocommons.com/users/2943","name":"Margot"},"data_attributes":null,"calculation_params":null,"icon_link":null,"link":"http://geocommons.com/overlays/19260.json","extent":[-120.663,25.729,-70.6589,46.2741],"geometry_types":["point"],"unique_name":null,"name":"Nuclear for Madigan from Batchgeocode","feature_count":104,"description":"","next_feature":null,"is_raster":false,"short_classification":"Y","stats":{"latitude":{"max":46.274065,"mean":37.6206176442308,"variance":23.0355224566089,"stdev":4.79953356656758,"min":25.728985,"median":38.9767},"nrcreg":{"max":4.0,"mean":2.39805825242718,"variance":1.14391776127927,"stdev":1.06954091145653,"min":1.0,"median":2.0},"longitude":{"max":-70.658899,"mean":-85.9103122788462,"variance":124.990054306026,"stdev":11.179895093695,"min":-120.662519,"median":-82.593089},"docknum":{"max":5000530.0,"mean":5000347.27884615,"variance":5789.15449962658,"stdev":76.0864935427214,"min":5000219.0,"median":5000335.0}},"features":[{"properties":{"city":"Fulton","latitude":38.846975,"nrcreg":4.0,"plantname":"Callaway","longitude":-91.947068,"docknum":5000483.0,"owner":"Ameren UE","id":"a696s912vr61","state":"MO","reactortype":"PWR"},"type":"Feature","geometry":{"type":"Point","coordinates":[-91.947068,38.846975]}},{"properties":{"city":"Phoenix","latitude":33.44826,"nrcreg":4.0,"plantname":"Palo Verde 1","longitude":-112.075774,"docknum":5000528.0,"owner":"Arizona Public Service Co.","id":"a696s90zcsf4","state":"AZ","reactortype":"PWR"},"type":"Feature","geometry":{"type":"Point","coordinates":[-112.075774,33.44826]}},{"properties":{"city":"Phoenix","latitude":33.44826,"nrcreg":4.0,"plantname":"Palo Verde 2","longitude":-112.075774,"docknum":5000529.0,"owner":"Arizona Public Service Co.","id":"a696s96qmxw2","state":"AZ","reactortype":"PWR"},"type":"Feature","geometry":{"type":"Point","coordinates":[-112.075774,33.44826]}},{"properties":{"city":"Phoenix","latitude":33.44826,"nrcreg":4.0,"plantname":"Palo Verde 3","longitude":-112.075774,"docknum":5000530.0,"owner":"Arizona Public Service Co.","id":"a696s97kaafx","state":"AZ","reactortype":"PWR"},"type":"Feature","geometry":{"type":"Point","coordinates":[-112.075774,33.44826]}},{"properties":{"city":"Annapolis","latitude":38.9767,"nrcreg":1.0,"plantname":"Calvert Cliffs 2","longitude":-76.489934,"docknum":5000318.0,"owner":"Constellation Energy","id":"a696s97da2v8","state":"MD","reactortype":"PWR"},"type":"Feature","geometry":{"type":"Point","coordinates":[-76.489934,38.9767]}},{"properties":{"city":"Rochester","latitude":43.1555,"nrcreg":null,"plantname":"Ginna","longitude":-77.616033,"docknum":5000244.0,"owner":"Constellation Energy","id":"a696s959cpve","state":"NY","reactortype":"PWR"},"type":"Feature","geometry":{"type":"Point","coordinates":[-77.616033,43.1555]}},{"properties":{"city":"Annapolis","latitude":38.9767,"nrcreg":1.0,"plantname":"Calvert Cliffs 1","longitude":-76.489934,"docknum":5000317.0,"owner":"Constellation Energy","id":"a696s922swb6","state":"MD","reactortype":"PWR"},"type":"Feature","geometry":{"type":"Point","coordinates":[-76.489934,38.9767]}},{"properties":{"city":"Oswego","latitude":43.45646,"nrcreg":1.0,"plantname":"Nine Mile Point 2","longitude":-76.511194,"docknum":5000410.0,"owner":"Constellation Energy","id":"a696s96882ff","state":"NY","reactortype":"BWR"},"type":"Feature","geometry":{"type":"Point","coordinates":[-76.511194,43.45646]}},{"properties":{"city":"Oswego","latitude":43.45646,"nrcreg":1.0,"plantname":"Nine Mile Point 1","longitude":-76.511194,"docknum":5000220.0,"owner":"Constellation Energy","id":"a696s945zd3y","state":"NY","reactortype":"BWR"},"type":"Feature","geometry":{"type":"Point","coordinates":[-76.511194,43.45646]}},{"properties":{"city":"Toledo","latitude":41.65381,"nrcreg":3.0,"plantname":"Fermi 2","longitude":-83.536259,"docknum":5000341.0,"owner":"Detroit Edison Co.","id":"a696s8yjrg4y","state":"OH","reactortype":"BWR"},"type":"Feature","geometry":{"type":"Point","coordinates":[-83.536259,41.65381]}},{"properties":{"city":"New London","latitude":41.356445,"nrcreg":1.0,"plantname":"Millstone 2","longitude":-72.096469,"docknum":5000336.0,"owner":"Dominion Generation","id":"a696s90ksx1c","state":"CT","reactortype":"PWR"},"type":"Feature","geometry":{"type":"Point","coordinates":[-72.096469,41.356445]}},{"properties":{"city":"Richmond","latitude":37.5407,"nrcreg":2.0,"plantname":"North Anna 1","longitude":-77.433654,"docknum":5000338.0,"owner":"Dominion Generation","id":"a696s9caiqwt","state":"VA","reactortype":"PWR"},"type":"Feature","geometry":{"type":"Point","coordinates":[-77.433654,37.5407]}},{"properties":{"city":"Green Bay","latitude":44.512795,"nrcreg":3.0,"plantname":"Kewaunee","longitude":-88.010159,"docknum":5000305.0,"owner":"Dominion Generation","id":"a696s92yxtfg","state":"WI","reactortype":"PWR"},"type":"Feature","geometry":{"type":"Point","coordinates":[-88.010159,44.512795]}},{"properties":{"city":"New London","latitude":41.356445,"nrcreg":1.0,"plantname":"Millstone 3","longitude":-72.096469,"docknum":5000423.0,"owner":"Dominion Generation","id":"a696s9ay4cuo","state":"CT","reactortype":"PWR"},"type":"Feature","geometry":{"type":"Point","coordinates":[-72.096469,41.356445]}},{"properties":{"city":"Richmond","latitude":37.5407,"nrcreg":2.0,"plantname":"North Anna 2","longitude":-77.433654,"docknum":5000339.0,"owner":"Dominion Generation","id":"a696s9co0c5a","state":"VA","reactortype":"PWR"},"type":"Feature","geometry":{"type":"Point","coordinates":[-77.433654,37.5407]}},{"properties":{"city":"Newport News","latitude":37.082885,"nrcreg":2.0,"plantname":"Surry 2","longitude":-76.480229,"docknum":5000281.0,"owner":"Dominion Generation","id":"a696s9ct0wvp","state":"VA","reactortype":"PWR"},"type":"Feature","geometry":{"type":"Point","coordinates":[-76.480229,37.082885]}},{"properties":{"city":"Newport News","latitude":37.082885,"nrcreg":2.0,"plantname":"Surry 1","longitude":-76.480229,"docknum":5000280.0,"owner":"Dominion Generation","id":"a696s95a1qoj","state":"VA","reactortype":"PWR"},"type":"Feature","geometry":{"type":"Point","coordinates":[-76.480229,37.082885]}},{"properties":{"city":"Greenville","latitude":34.84802,"nrcreg":2.0,"plantname":"Oconee 2","longitude":-82.400219,"docknum":5000270.0,"owner":"Duke Energy Power Company, LLC","id":"a696s908vp7n","state":"SC","reactortype":"PWR"},"type":"Feature","geometry":{"type":"Point","coordinates":[-82.400219,34.84802]}},{"properties":{"city":"Rock Hill","latitude":34.924025,"nrcreg":2.0,"plantname":"Catawba 1","longitude":-81.026679,"docknum":5000413.0,"owner":"Duke Energy Power Company, LLC","id":"a696s92c8vup","state":"SC","reactortype":"PWR"},"type":"Feature","geometry":{"type":"Point","coordinates":[-81.026679,34.924025]}},{"properties":{"city":"Charlotte","latitude":35.2225,"nrcreg":2.0,"plantname":"McGuire 1","longitude":-80.837539,"docknum":5000369.0,"owner":"Duke Energy Power Company, LLC","id":"a696s94rv7lr","state":"NC","reactortype":"PWR"},"type":"Feature","geometry":{"type":"Point","coordinates":[-80.837539,35.2225]}},{"properties":{"city":"Charlotte","latitude":35.2225,"nrcreg":2.0,"plantname":"McGuire 2","longitude":-80.837539,"docknum":5000370.0,"owner":"Duke Energy Power Company, LLC","id":"a696s9cacb6s","state":"NC","reactortype":"PWR"},"type":"Feature","geometry":{"type":"Point","coordinates":[-80.837539,35.2225]}},{"properties":{"city":"Rock Hill","latitude":34.924025,"nrcreg":2.0,"plantname":"Catawba 2","longitude":-81.026679,"docknum":5000414.0,"owner":"Duke Energy Power Company, LLC","id":"a696s927z3u4","state":"SC","reactortype":"PWR"},"type":"Feature","geometry":{"type":"Point","coordinates":[-81.026679,34.924025]}},{"properties":{"city":"Greenville","latitude":34.84802,"nrcreg":2.0,"plantname":"Oconee 3","longitude":-82.400219,"docknum":5000287.0,"owner":"Duke Energy Power Company, LLC","id":"a696s98vcjxe","state":"SC","reactortype":"PWR"},"type":"Feature","geometry":{"type":"Point","coordinates":[-82.400219,34.84802]}},{"properties":{"city":"Greenville","latitude":34.84802,"nrcreg":2.0,"plantname":"Oconee 1","longitude":-82.400219,"docknum":5000269.0,"owner":"Duke Energy Power Company, LLC","id":"a696s96yxnzo","state":"SC","reactortype":"PWR"},"type":"Feature","geometry":{"type":"Point","coordinates":[-82.400219,34.84802]}},{"properties":{"city":"Richland","latitude":46.274065,"nrcreg":4.0,"plantname":"Columbia Generating Station","longitude":-119.273729,"docknum":5000397.0,"owner":"Energy Northwest","id":"a696s98bnoti","state":"WA","reactortype":"BWR"},"type":"Feature","geometry":{"type":"Point","coordinates":[-119.273729,46.274065]}},{"properties":{"city":"Oswego","latitude":43.45646,"nrcreg":1.0,"plantname":"FitzPatrick","longitude":-76.511194,"docknum":5000333.0,"owner":"Entergy Nuclear Operations, Inc.","id":"a696s98cjlco","state":"NY","reactortype":"BWR"},"type":"Feature","geometry":{"type":"Point","coordinates":[-76.511194,43.45646]}},{"properties":{"city":"Russellville","latitude":35.27827,"nrcreg":4.0,"plantname":"Arkansas Nuclear 2","longitude":-93.134825,"docknum":5000368.0,"owner":"Entergy Nuclear Operations, Inc.","id":"a696s94j8oun","state":"AR","reactortype":"PWR"},"type":"Feature","geometry":{"type":"Point","coordinates":[-93.134825,35.27827]}},{"properties":{"city":"New York City","latitude":40.71455,"nrcreg":1.0,"plantname":"Indian Point 3","longitude":-74.007124,"docknum":5000286.0,"owner":"Entergy Nuclear Operations, Inc.","id":"a696s95xlovl","state":"NY","reactortype":"PWR"},"type":"Feature","geometry":{"type":"Point","coordinates":[-74.007124,40.71455]}},{"properties":{"city":"Russellville","latitude":35.27827,"nrcreg":4.0,"plantname":"Arkansas Nuclear 1","longitude":-93.134825,"docknum":5000313.0,"owner":"Entergy Nuclear Operations, Inc.","id":"a696s94sf57q","state":"AR","reactortype":"PWR"},"type":"Feature","geometry":{"type":"Point","coordinates":[-93.134825,35.27827]}},{"properties":{"city":"New Orleans","latitude":29.95369,"nrcreg":4.0,"plantname":"Waterford 3","longitude":-90.077714,"docknum":5000382.0,"owner":"Entergy Nuclear Operations, Inc.","id":"a696s99jjo3e","state":"LA","reactortype":"PWR"},"type":"Feature","geometry":{"type":"Point","coordinates":[-90.077714,29.95369]}},{"properties":{"city":"Plymouth","latitude":41.953995,"nrcreg":1.0,"plantname":"Pilgrim 1","longitude":-70.658899,"docknum":5000293.0,"owner":"Entergy Nuclear Operations, Inc.","id":"a696s9cn7n7p","state":"MA","reactortype":"BWR"},"type":"Feature","geometry":{"type":"Point","coordinates":[-70.658899,41.953995]}},{"properties":{"city":"Baton Rouge","latitude":30.44336,"nrcreg":4.0,"plantname":"River Bend 1","longitude":-91.186984,"docknum":5000458.0,"owner":"Entergy Nuclear Operations, Inc.","id":"a696s93hx6wc","state":"LA","reactortype":"BWR"},"type":"Feature","geometry":{"type":"Point","coordinates":[-91.186984,30.44336]}},{"properties":{"city":"New York City","latitude":40.71455,"nrcreg":1.0,"plantname":"Indian Point 2","longitude":-74.007124,"docknum":5000247.0,"owner":"Entergy Nuclear Operations, Inc.","id":"a696s91cod4q","state":"NY","reactortype":"PWR"},"type":"Feature","geometry":{"type":"Point","coordinates":[-74.007124,40.71455]}},{"properties":{"city":"Brattleboro","latitude":42.85275,"nrcreg":1.0,"plantname":"Vermont Yankee","longitude":-72.558298,"docknum":5000271.0,"owner":"Entergy Nuclear Operations, Inc.","id":"a696s96kutqb","state":"VT","reactortype":"BWR"},"type":"Feature","geometry":{"type":"Point","coordinates":[-72.558298,42.85275]}},{"properties":{"city":"South Haven","latitude":42.40321,"nrcreg":3.0,"plantname":"Palisades","longitude":-86.272619,"docknum":5000255.0,"owner":"Entergy Nuclear Operations, Inc.","id":"a696s9cqt0rm","state":"MI","reactortype":"PWR"},"type":"Feature","geometry":{"type":"Point","coordinates":[-86.272619,42.40321]}},{"properties":{"city":"Vicksburg","latitude":32.35004,"nrcreg":4.0,"plantname":"Grand Gulf 1","longitude":-90.881554,"docknum":5000416.0,"owner":"Entergy Nuclear Operations, Inc.","id":"a696s94cip37","state":"MS","reactortype":"BWR"},"type":"Feature","geometry":{"type":"Point","coordinates":[-90.881554,32.35004]}},{"properties":{"city":"Moline","latitude":41.491733,"nrcreg":3.0,"plantname":"Quad Cities 1","longitude":-90.489899,"docknum":5000254.0,"owner":"Exelon Generation Co., LLC","id":"a696s91q1ld5","state":"IL","reactortype":"BWR"},"type":"Feature","geometry":{"type":"Point","coordinates":[-90.489899,41.491733]}},{"properties":{"city":"Harrisburg","latitude":40.259864,"nrcreg":1.0,"plantname":"Three Mile Island 1","longitude":-76.882229,"docknum":5000289.0,"owner":"Exelon Generation Co., LLC","id":"a696s8zhzgwp","state":"PA","reactortype":"PWR"},"type":"Feature","geometry":{"type":"Point","coordinates":[-76.882229,40.259864]}},{"properties":{"city":"Lancaster","latitude":40.038045,"nrcreg":1.0,"plantname":"Peach Bottom 3","longitude":-76.301269,"docknum":5000278.0,"owner":"Exelon Generation Co., LLC","id":"a696s93cswtz","state":"PA","reactortype":"BWR"},"type":"Feature","geometry":{"type":"Point","coordinates":[-76.301269,40.038045]}},{"properties":{"city":"Ottawa","latitude":41.346565,"nrcreg":3.0,"plantname":"La Salle 2","longitude":-88.842664,"docknum":5000374.0,"owner":"Exelon Generation Co., LLC","id":"a696s8zi60b7","state":"IL","reactortype":"BWR"},"type":"Feature","geometry":{"type":"Point","coordinates":[-88.842664,41.346565]}},{"properties":{"city":"Ottawa","latitude":41.346565,"nrcreg":3.0,"plantname":"La Salle 1","longitude":-88.842664,"docknum":5000373.0,"owner":"Exelon Generation Co., LLC","id":"a696s92muuf7","state":"IL","reactortype":"BWR"},"type":"Feature","geometry":{"type":"Point","coordinates":[-88.842664,41.346565]}},{"properties":{"city":"Morris","latitude":41.35869,"nrcreg":3.0,"plantname":"Dresden 3","longitude":-88.424949,"docknum":5000249.0,"owner":"Exelon Generation Co., LLC","id":"a696s9c3yzd3","state":"IL","reactortype":"BWR"},"type":"Feature","geometry":{"type":"Point","coordinates":[-88.424949,41.35869]}},{"properties":{"city":"Lancaster","latitude":40.038045,"nrcreg":1.0,"plantname":"Peach Bottom 2","longitude":-76.301269,"docknum":5000277.0,"owner":"Exelon Generation Co., LLC","id":"a696s95e65rh","state":"PA","reactortype":"BWR"},"type":"Feature","geometry":{"type":"Point","coordinates":[-76.301269,40.038045]}},{"properties":{"city":"Rockford","latitude":42.2669,"nrcreg":3.0,"plantname":"Byron 1","longitude":-89.078354,"docknum":5000454.0,"owner":"Exelon Generation Co., LLC","id":"a696s9ca9fng","state":"IL","reactortype":"PWR"},"type":"Feature","geometry":{"type":"Point","coordinates":[-89.078354,42.2669]}},{"properties":{"city":"Rockford","latitude":42.2669,"nrcreg":3.0,"plantname":"Byron 2","longitude":-89.078354,"docknum":5000455.0,"owner":"Exelon Generation Co., LLC","id":"a696s9cjd8sz","state":"IL","reactortype":"PWR"},"type":"Feature","geometry":{"type":"Point","coordinates":[-89.078354,42.2669]}},{"properties":{"city":"Joilet","latitude":39.739262,"nrcreg":3.0,"plantname":"Braidwood 1","longitude":-89.504089,"docknum":5000456.0,"owner":"Exelon Generation Co., LLC","id":"a696s8zg4c7l","state":"IL","reactortype":"PWR"},"type":"Feature","geometry":{"type":"Point","coordinates":[-89.504089,39.739262]}},{"properties":{"city":"Philadelphia","latitude":39.95227,"nrcreg":1.0,"plantname":"Limerick 2","longitude":-75.162369,"docknum":5000353.0,"owner":"Exelon Generation Co., LLC","id":"a696s9cpuf2c","state":"PA","reactortype":"BWR"},"type":"Feature","geometry":{"type":"Point","coordinates":[-75.162369,39.95227]}},{"properties":{"city":"Philadelphia","latitude":39.95227,"nrcreg":1.0,"plantname":"Limerick 1","longitude":-75.162369,"docknum":5000352.0,"owner":"Exelon Generation Co., LLC","id":"a696s970bk5l","state":"PA","reactortype":"BWR"},"type":"Feature","geometry":{"type":"Point","coordinates":[-75.162369,39.95227]}},{"properties":{"city":"Morris","latitude":41.35869,"nrcreg":3.0,"plantname":"Dresden 2","longitude":-88.424949,"docknum":5000237.0,"owner":"Exelon Generation Co., LLC","id":"a696s99crkfl","state":"IL","reactortype":"BWR"},"type":"Feature","geometry":{"type":"Point","coordinates":[-88.424949,41.35869]}},{"properties":{"city":"Moline","latitude":41.491733,"nrcreg":3.0,"plantname":"Quad Cities 2","longitude":-90.489899,"docknum":5000265.0,"owner":"Exelon Generation Co., LLC","id":"a696s9bxeag9","state":"IL","reactortype":"BWR"},"type":"Feature","geometry":{"type":"Point","coordinates":[-90.489899,41.491733]}},{"properties":{"city":"Joilet","latitude":39.739262,"nrcreg":3.0,"plantname":"Braidwood 2","longitude":-89.504089,"docknum":5000457.0,"owner":"Exelon Generation Co., LLC","id":"a696s9d6982j","state":"IL","reactortype":"PWR"},"type":"Feature","geometry":{"type":"Point","coordinates":[-89.504089,39.739262]}},{"properties":{"city":"Clinton","latitude":40.148505,"nrcreg":3.0,"plantname":"Clinton","longitude":-88.963954,"docknum":5000461.0,"owner":"Exelon Generation Co., LLC","id":"a696s90kggk4","state":"IL","reactortype":"BWR"},"type":"Feature","geometry":{"type":"Point","coordinates":[-88.963954,40.148505]}},{"properties":{"city":"Toms River","latitude":39.95288,"nrcreg":1.0,"plantname":"Oyster Creek","longitude":-74.193769,"docknum":5000219.0,"owner":"Exelon Generation Co., LLC","id":"a696s97btjeu","state":"NJ","reactortype":"BWR"},"type":"Feature","geometry":{"type":"Point","coordinates":[-74.193769,39.95288]}},{"properties":{"city":"Manitowoc","latitude":44.10757,"nrcreg":3.0,"plantname":"Point Beach 1","longitude":-87.661724,"docknum":5000266.0,"owner":"FPL Energy Point Beach, LLC","id":"a696s9b34hs4","state":"WI","reactortype":"PWR"},"type":"Feature","geometry":{"type":"Point","coordinates":[-87.661724,44.10757]}},{"properties":{"city":"Manitowoc","latitude":44.10757,"nrcreg":3.0,"plantname":"Point Beach 2","longitude":-87.661724,"docknum":5000301.0,"owner":"FPL Energy Point Beach, LLC","id":"a696s9bgpq8x","state":"WI","reactortype":"PWR"},"type":"Feature","geometry":{"type":"Point","coordinates":[-87.661724,44.10757]}},{"properties":{"city":"McCandless","latitude":40.591333,"nrcreg":1.0,"plantname":"Beaver Valley 2","longitude":-80.020876,"docknum":5000412.0,"owner":"FirstEnergy Nuclear Operating Co.","id":"a696s964qx0m","state":"PA","reactortype":"PWR"},"type":"Feature","geometry":{"type":"Point","coordinates":[-80.020876,40.591333]}},{"properties":{"city":"McCandless","latitude":40.591333,"nrcreg":1.0,"plantname":"Beaver Valley 1","longitude":-80.020876,"docknum":5000334.0,"owner":"FirstEnergy Nuclear Operating Co.","id":"a696s9713b89","state":"PA","reactortype":"PWR"},"type":"Feature","geometry":{"type":"Point","coordinates":[-80.020876,40.591333]}},{"properties":{"city":"Toledo","latitude":41.65381,"nrcreg":3.0,"plantname":"Davis-Besse","longitude":-83.536259,"docknum":5000346.0,"owner":"FirstEnergy Nuclear Operating Co.","id":"a696s93ro3ul","state":"OH","reactortype":"PWR"},"type":"Feature","geometry":{"type":"Point","coordinates":[-83.536259,41.65381]}},{"properties":{"city":"Painesville","latitude":41.724205,"nrcreg":3.0,"plantname":"Perry 1","longitude":-81.245244,"docknum":5000440.0,"owner":"FirstEnergy Nuclear Operating Co.","id":"a696s9975foa","state":"OH","reactortype":"BWR"},"type":"Feature","geometry":{"type":"Point","coordinates":[-81.245244,41.724205]}},{"properties":{"city":"Ft. Pierce","latitude":27.44865,"nrcreg":2.0,"plantname":"Saint Lucie 1","longitude":-80.326614,"docknum":5000335.0,"owner":"Florida Power &amp; Light Co.","id":"a696s90lpyig","state":"FL","reactortype":"PWR"},"type":"Feature","geometry":{"type":"Point","coordinates":[-80.326614,27.44865]}},{"properties":{"city":"Miami","latitude":25.728985,"nrcreg":2.0,"plantname":"Turkey Point 4","longitude":-80.237419,"docknum":5000251.0,"owner":"Florida Power &amp; Light Co.","id":"a696s93vc50r","state":"FL","reactortype":"PWR"},"type":"Feature","geometry":{"type":"Point","coordinates":[-80.237419,25.728985]}},{"properties":{"city":"Portsmouth","latitude":43.070623,"nrcreg":1.0,"plantname":"Seabrook 1","longitude":-70.77212,"docknum":5000443.0,"owner":"Florida Power &amp; Light Co.","id":"a696s96crjkw","state":"NH","reactortype":"PWR"},"type":"Feature","geometry":{"type":"Point","coordinates":[-70.77212,43.070623]}},{"properties":{"city":"Ft. Pierce","latitude":27.44865,"nrcreg":2.0,"plantname":"Saint Lucie 2","longitude":-80.326614,"docknum":5000389.0,"owner":"Florida Power &amp; Light Co.","id":"a696s95ujeij","state":"FL","reactortype":"PWR"},"type":"Feature","geometry":{"type":"Point","coordinates":[-80.326614,27.44865]}},{"properties":{"city":"Cedar Rapids","latitude":41.976345,"nrcreg":3.0,"plantname":"Duane Arnold","longitude":-91.673759,"docknum":5000331.0,"owner":"Florida Power &amp; Light Co.","id":"a696s9b1hcoz","state":"IA","reactortype":"BWR"},"type":"Feature","geometry":{"type":"Point","coordinates":[-91.673759,41.976345]}},{"properties":{"city":"Miami","latitude":25.728985,"nrcreg":2.0,"plantname":"Turkey Point 3","longitude":-80.237419,"docknum":5000250.0,"owner":"Florida Power &amp; Light Co.","id":"a696s9bzbqz9","state":"FL","reactortype":"PWR"},"type":"Feature","geometry":{"type":"Point","coordinates":[-80.237419,25.728985]}},{"properties":{"city":"Benton Harbor","latitude":42.115535,"nrcreg":3.0,"plantname":"D.C. Cook 1","longitude":-86.457484,"docknum":5000315.0,"owner":"Indiana/Michigan Power Co.","id":"a696s9aaub2d","state":"MI","reactortype":"PWR"},"type":"Feature","geometry":{"type":"Point","coordinates":[-86.457484,42.115535]}},{"properties":{"city":"Benton Harbor","latitude":42.115535,"nrcreg":3.0,"plantname":"D.C. Cook 2","longitude":-86.457484,"docknum":5000316.0,"owner":"IndianaMichigan Power Co.","id":"a696s9d17kyq","state":"MI","reactortype":"PWR"},"type":"Feature","geometry":{"type":"Point","coordinates":[-86.457484,42.115535]}},{"properties":{"city":"Nebraska City","latitude":40.677145,"nrcreg":4.0,"plantname":"Cooper","longitude":-95.858899,"docknum":5000298.0,"owner":"Nebraska Public Power District","id":"a696s90saybg","state":"NE","reactortype":"BWR"},"type":"Feature","geometry":{"type":"Point","coordinates":[-95.858899,40.677145]}},{"properties":{"city":"Minneapolis","latitude":44.979035,"nrcreg":3.0,"plantname":"Monticello","longitude":-93.264929,"docknum":5000263.0,"owner":"Nuclear Management Co.","id":"a696s9c98s71","state":"MN","reactortype":"BWR"},"type":"Feature","geometry":{"type":"Point","coordinates":[-93.264929,44.979035]}},{"properties":{"city":"Minneapolis","latitude":44.979035,"nrcreg":3.0,"plantname":"Prairie Island 1","longitude":-93.264929,"docknum":5000282.0,"owner":"Nuclear Management Co.","id":"a696s9304c8w","state":"MN","reactortype":"PWR"},"type":"Feature","geometry":{"type":"Point","coordinates":[-93.264929,44.979035]}},{"properties":{"city":"Minneapolis","latitude":44.979035,"nrcreg":3.0,"plantname":"Prairie Island 2","longitude":-93.264929,"docknum":5000306.0,"owner":"Nuclear Management Co.","id":"a696s918s0yx","state":"MN","reactortype":"PWR"},"type":"Feature","geometry":{"type":"Point","coordinates":[-93.264929,44.979035]}},{"properties":{"city":"Omaha","latitude":41.260675,"nrcreg":4.0,"plantname":"Fort Calhoun","longitude":-95.940469,"docknum":5000285.0,"owner":"Omaha Public Power District","id":"a696s96aq0et","state":"NE","reactortype":"PWR"},"type":"Feature","geometry":{"type":"Point","coordinates":[-95.940469,41.260675]}},{"properties":{"city":"Berwick","latitude":41.050885,"nrcreg":1.0,"plantname":"Susquehanna 1","longitude":-76.243524,"docknum":5000387.0,"owner":"PPL Susquehanna, LLC","id":"a696s92f6iqa","state":"PA","reactortype":"BWR"},"type":"Feature","geometry":{"type":"Point","coordinates":[-76.243524,41.050885]}},{"properties":{"city":"Berwick","latitude":41.050885,"nrcreg":1.0,"plantname":"Susquehanna 2","longitude":-76.243524,"docknum":5000388.0,"owner":"PPL Susquehanna, LLC","id":"a696s9efolxh","state":"PA","reactortype":"BWR"},"type":"Feature","geometry":{"type":"Point","coordinates":[-76.243524,41.050885]}},{"properties":{"city":"Wilmington","latitude":39.740235,"nrcreg":1.0,"plantname":"Salem 2","longitude":-75.550844,"docknum":5000311.0,"owner":"PSE&amp;G Nuclear","id":"a696s91pp2a3","state":"DE","reactortype":"PWR"},"type":"Feature","geometry":{"type":"Point","coordinates":[-75.550844,39.740235]}},{"properties":{"city":"Wilmington","latitude":39.740235,"nrcreg":1.0,"plantname":"Salem 1","longitude":-75.550844,"docknum":5000272.0,"owner":"PSE&amp;G Nuclear","id":"a696s90wqst3","state":"DE","reactortype":"PWR"},"type":"Feature","geometry":{"type":"Point","coordinates":[-75.550844,39.740235]}},{"properties":{"city":"Wilmington","latitude":39.740235,"nrcreg":1.0,"plantname":"Hope Creek 1","longitude":-75.550844,"docknum":5000354.0,"owner":"PSE&amp;G Nuclear","id":"a696s928mh3u","state":"DE","reactortype":"BWR"},"type":"Feature","geometry":{"type":"Point","coordinates":[-75.550844,39.740235]}},{"properties":{"city":"San Luis Obispo","latitude":35.28552,"nrcreg":4.0,"plantname":"Diablo Canyon 2","longitude":-120.662519,"docknum":5000323.0,"owner":"Pacific Gas &amp; Electric Co.","id":"a696s8zpy7jw","state":"CA","reactortype":"PWR"},"type":"Feature","geometry":{"type":"Point","coordinates":[-120.662519,35.28552]}},{"properties":{"city":"San Luis Obispo","latitude":35.28552,"nrcreg":4.0,"plantname":"Diablo Canyon 1","longitude":-120.662519,"docknum":5000275.0,"owner":"Pacific Gas &amp; Electric Co.","id":"a696s97lthlb","state":"CA","reactortype":"PWR"},"type":"Feature","geometry":{"type":"Point","coordinates":[-120.662519,35.28552]}},{"properties":{"city":"Southport","latitude":33.918775,"nrcreg":2.0,"plantname":"Brunswick 2","longitude":-78.019469,"docknum":5000324.0,"owner":"Progress Energy","id":"a696s92pzutk","state":"NC","reactortype":"BWR"},"type":"Feature","geometry":{"type":"Point","coordinates":[-78.019469,33.918775]}},{"properties":{"city":"Crystal River","latitude":28.90015,"nrcreg":2.0,"plantname":"Crystal River 3","longitude":-82.593089,"docknum":5000302.0,"owner":"Progress Energy","id":"a696s8z1elh2","state":"FL","reactortype":"PWR"},"type":"Feature","geometry":{"type":"Point","coordinates":[-82.593089,28.90015]}},{"properties":{"city":"Raleigh","latitude":35.78551,"nrcreg":2.0,"plantname":"Shearon Harris 1","longitude":-78.642669,"docknum":5000400.0,"owner":"Progress Energy","id":"a696s9b1j93v","state":"NC","reactortype":"PWR"},"type":"Feature","geometry":{"type":"Point","coordinates":[-78.642669,35.78551]}},{"properties":{"city":"Florence","latitude":34.19363,"nrcreg":2.0,"plantname":"Robinson 2","longitude":-79.769059,"docknum":5000261.0,"owner":"Progress Energy","id":"a696s9d6lb0p","state":"SC","reactortype":"PWR"},"type":"Feature","geometry":{"type":"Point","coordinates":[-79.769059,34.19363]}},{"properties":{"city":"Southport","latitude":33.918775,"nrcreg":2.0,"plantname":"Brunswick 1","longitude":-78.019469,"docknum":5000325.0,"owner":"Progress Energy","id":"a696s94ojd5x","state":"NC","reactortype":"BWR"},"type":"Feature","geometry":{"type":"Point","coordinates":[-78.019469,33.918775]}},{"properties":{"city":"Bay City","latitude":28.982966,"nrcreg":4.0,"plantname":"South Texas 2","longitude":-95.969414,"docknum":5000499.0,"owner":"STP Nuclear Operating Co.","id":"a696s96fh05a","state":"TX","reactortype":"PWR"},"type":"Feature","geometry":{"type":"Point","coordinates":[-95.969414,28.982966]}},{"properties":{"city":"Bay City","latitude":28.982966,"nrcreg":4.0,"plantname":"South Texas 1","longitude":-95.969414,"docknum":5000498.0,"owner":"STP Nuclear Operating Co.","id":"a696s96i8xbf","state":"TX","reactortype":"PWR"},"type":"Feature","geometry":{"type":"Point","coordinates":[-95.969414,28.982966]}},{"properties":{"city":"Columbia","latitude":33.99855,"nrcreg":2.0,"plantname":"Summer","longitude":-81.045249,"docknum":5000395.0,"owner":"South Carolina Electric &amp; Gas Co.","id":"a696s97vvp4i","state":"SC","reactortype":"PWR"},"type":"Feature","geometry":{"type":"Point","coordinates":[-81.045249,33.99855]}},{"properties":{"city":"San Clemente","latitude":33.428628,"nrcreg":4.0,"plantname":"San Onofre 3","longitude":-117.607327,"docknum":5000362.0,"owner":"Southern California Edison Co.","id":"a696s95844w7","state":"CA","reactortype":"PWR"},"type":"Feature","geometry":{"type":"Point","coordinates":[-117.607327,33.428628]}},{"properties":{"city":"San Clemente","latitude":33.428628,"nrcreg":4.0,"plantname":"San Onofre 2","longitude":-117.607327,"docknum":5000361.0,"owner":"Southern California Edison Co.","id":"a696s8y6xaht","state":"CA","reactortype":"PWR"},"type":"Feature","geometry":{"type":"Point","coordinates":[-117.607327,33.428628]}},{"properties":{"city":"Dothan","latitude":31.22324,"nrcreg":2.0,"plantname":"Farley 2","longitude":-85.3933,"docknum":5000364.0,"owner":"Southern Nuclear Operating Co.","id":"a696s981do2i","state":"AL","reactortype":"PWR"},"type":"Feature","geometry":{"type":"Point","coordinates":[-85.3933,31.22324]}},{"properties":{"city":"Augusta","latitude":33.47909,"nrcreg":2.0,"plantname":"Vogtle 2","longitude":-81.975309,"docknum":5000425.0,"owner":"Southern Nuclear Operating Co.","id":"a696s9b5gam4","state":"GA","reactortype":"PWR"},"type":"Feature","geometry":{"type":"Point","coordinates":[-81.975309,33.47909]}},{"properties":{"city":"Dothan","latitude":31.22324,"nrcreg":2.0,"plantname":"Farley 1","longitude":-85.3933,"docknum":5000348.0,"owner":"Southern Nuclear Operating Co.","id":"a696s90dg73d","state":"AL","reactortype":"PWR"},"type":"Feature","geometry":{"type":"Point","coordinates":[-85.3933,31.22324]}},{"properties":{"city":"Augusta","latitude":33.47909,"nrcreg":2.0,"plantname":"Vogtle 1","longitude":-81.975309,"docknum":5000424.0,"owner":"Southern Nuclear Operating Co.","id":"a696s94z3mwn","state":"GA","reactortype":"PWR"},"type":"Feature","geometry":{"type":"Point","coordinates":[-81.975309,33.47909]}},{"properties":{"city":"Baxley","latitude":31.777214,"nrcreg":2.0,"plantname":"Hatch 2","longitude":-82.34433,"docknum":5000366.0,"owner":"Southern Nuclear Operating Co., Inc.","id":"a696s93nx7bq","state":"GA","reactortype":"BWR"},"type":"Feature","geometry":{"type":"Point","coordinates":[-82.34433,31.777214]}},{"properties":{"city":"Baxley","latitude":31.777214,"nrcreg":2.0,"plantname":"Hatch 1","longitude":-82.34433,"docknum":5000321.0,"owner":"Southern Nuclear Operating Co., Inc.","id":"a696s9e4oazb","state":"GA","reactortype":"BWR"},"type":"Feature","geometry":{"type":"Point","coordinates":[-82.34433,31.777214]}},{"properties":{"city":"Glen Rose","latitude":32.23448,"nrcreg":4.0,"plantname":"Comanche Peak 2","longitude":-97.755149,"docknum":5000446.0,"owner":"TXU Generating Company LP","id":"a696s949ha62","state":"TX","reactortype":"PWR"},"type":"Feature","geometry":{"type":"Point","coordinates":[-97.755149,32.23448]}},{"properties":{"city":"Glen Rose","latitude":32.23448,"nrcreg":4.0,"plantname":"Comanche Peak 1","longitude":-97.755149,"docknum":5000445.0,"owner":"TXU Generating Company LP","id":"a696s93nit0m","state":"TX","reactortype":"PWR"},"type":"Feature","geometry":{"type":"Point","coordinates":[-97.755149,32.23448]}},{"properties":{"city":"Spring City","latitude":35.690879,"nrcreg":2.0,"plantname":"Watts Bar 1","longitude":-84.861657,"docknum":5000390.0,"owner":"Tennessee Valley Authority","id":"a696s93fw2wj","state":"TN","reactortype":"PWR"},"type":"Feature","geometry":{"type":"Point","coordinates":[-84.861657,35.690879]}},{"properties":{"city":"Decatur","latitude":34.607389,"nrcreg":2.0,"plantname":"Browns Ferry 1","longitude":-86.979767,"docknum":5000259.0,"owner":"Tennessee Valley Authority","id":"a696s91eith2","state":"AL","reactortype":"BWR"},"type":"Feature","geometry":{"type":"Point","coordinates":[-86.979767,34.607389]}},{"properties":{"city":"Chattanooga","latitude":35.04644,"nrcreg":2.0,"plantname":"Sequoyah 1","longitude":-85.309464,"docknum":5000327.0,"owner":"Tennessee Valley Authority","id":"a696s92gollc","state":"TN","reactortype":"PWR"},"type":"Feature","geometry":{"type":"Point","coordinates":[-85.309464,35.04644]}},{"properties":{"city":"Decatur","latitude":34.607389,"nrcreg":2.0,"plantname":"Browns Ferry 2","longitude":-86.979767,"docknum":5000260.0,"owner":"Tennessee Valley Authority","id":"a696s94ojd2h","state":"AL","reactortype":"BWR"},"type":"Feature","geometry":{"type":"Point","coordinates":[-86.979767,34.607389]}},{"properties":{"city":"Chattanooga","latitude":35.04644,"nrcreg":2.0,"plantname":"Sequoyah 2","longitude":-85.309464,"docknum":5000328.0,"owner":"Tennessee Valley Authority","id":"a696s9cz3txp","state":"TN","reactortype":"PWR"},"type":"Feature","geometry":{"type":"Point","coordinates":[-85.309464,35.04644]}},{"properties":{"city":"Decatur","latitude":34.607389,"nrcreg":2.0,"plantname":"Browns Ferry 3","longitude":-86.979767,"docknum":5000296.0,"owner":"Tennessee Valley Authority","id":"a696s8ygte52","state":"AL","reactortype":"BWR"},"type":"Feature","geometry":{"type":"Point","coordinates":[-86.979767,34.607389]}},{"properties":{"city":"Burlington","latitude":38.195375,"nrcreg":4.0,"plantname":"Wolf Creek 1","longitude":-95.738619,"docknum":5000482.0,"owner":"Wolf Creek Nuclear Operating Corp.","id":"a696s99w3lwg","state":"KS","reactortype":"PWR"},"type":"Feature","geometry":{"type":"Point","coordinates":[-95.738619,38.195375]}}],"is_temporal":false,"author":{"url":"","metadata":"","contact_name":"","contact_address":"","source":"","contact_phone":""},"source":"","pagination":{"sort":null,"start":0,"total":104,"limit":1000000},"state":"complete","tags":"","published":"2014-08-11T01:04:39-04:00","id":19260}