{"type":"FeatureCollection","data_type":"Dataset","url_type":null,"permissions":[{"permissions":{"download":true,"view":true},"group_id":"everyone"}],"classification":null,"title":"AFSS Discontinued Facilities as of 2/1/10","count":49,"stream_id":19374,"contributor":{"url":"http://geocommons.com/users/3628","name":"agoodman17"},"data_attributes":null,"calculation_params":null,"icon_link":null,"link":"http://geocommons.com/overlays/19374.json","extent":[-157.858,18.466,-66.118,47.909],"geometry_types":["point"],"unique_name":null,"name":"AFSS Discontinued Facilities as of 2/1/10","feature_count":49,"description":"","next_feature":null,"is_raster":false,"short_classification":"Y","stats":{"lat":{"max":47.909,"mean":38.0355283673469,"variance":38.2095604032848,"stdev":6.18138822622271,"min":18.466,"median":38.926},"long":{"max":-66.118,"mean":-94.8840734693877,"variance":322.504922885798,"stdev":17.9584220600196,"min":-157.85833,"median":-90.198}},"features":[{"properties":{"discontinued facility":"Albuquerque","id":"a6kxegt7gn0h","lat":35.08,"long":-106.627,"state":"NM"},"type":"Feature","geometry":{"type":"Point","coordinates":[-106.627,35.08]}},{"properties":{"discontinued facility":"Altoona","id":"a6kxegyknwlw","lat":40.508,"long":-78.4,"state":"PA"},"type":"Feature","geometry":{"type":"Point","coordinates":[-78.4,40.508]}},{"properties":{"discontinued facility":"Anderson","id":"a6kxegyi1f47","lat":34.521,"long":-82.645,"state":"SC"},"type":"Feature","geometry":{"type":"Point","coordinates":[-82.645,34.521]}},{"properties":{"discontinued facility":"Anniston","id":"a6kxegup5vf9","lat":33.657,"long":-85.816,"state":"AL"},"type":"Feature","geometry":{"type":"Point","coordinates":[-85.816,33.657]}},{"properties":{"discontinued facility":"Bangor","id":"a6kxegvl1666","lat":44.836,"long":-68.792,"state":"ME"},"type":"Feature","geometry":{"type":"Point","coordinates":[-68.792,44.836]}},{"properties":{"discontinued facility":"Boise","id":"a6kxegqx7xaf","lat":43.597,"long":-116.3,"state":"ID"},"type":"Feature","geometry":{"type":"Point","coordinates":[-116.3,43.597]}},{"properties":{"discontinued facility":"Bridgeport","id":"a6kxegt3kxfs","lat":41.192,"long":-73.197,"state":"CT"},"type":"Feature","geometry":{"type":"Point","coordinates":[-73.197,41.192]}},{"properties":{"discontinued facility":"Buffalo","id":"a6kxegrb9wy2","lat":42.887,"long":-78.878,"state":"NY"},"type":"Feature","geometry":{"type":"Point","coordinates":[-78.878,42.887]}},{"properties":{"discontinued facility":"Burlington","id":"a6kxeglsm0wl","lat":44.476,"long":-73.211,"state":"VT"},"type":"Feature","geometry":{"type":"Point","coordinates":[-73.211,44.476]}},{"properties":{"discontinued facility":"Casper","id":"a6kxegpfj05i","lat":42.838,"long":-106.328,"state":"WY"},"type":"Feature","geometry":{"type":"Point","coordinates":[-106.328,42.838]}},{"properties":{"discontinued facility":"Cedar City","id":"a6kxegyqn9r9","lat":37.682,"long":-113.088,"state":"UT"},"type":"Feature","geometry":{"type":"Point","coordinates":[-113.088,37.682]}},{"properties":{"discontinued facility":"Cleveland","id":"a6kxegyj50f5","lat":41.5,"long":-81.693,"state":"OH"},"type":"Feature","geometry":{"type":"Point","coordinates":[-81.693,41.5]}},{"properties":{"discontinued facility":"Columbia","id":"a6kxegogzfmk","lat":38.95167,"long":-92.33389,"state":"MO"},"type":"Feature","geometry":{"type":"Point","coordinates":[-92.33389,38.95167]}},{"properties":{"discontinued facility":"Columbus","id":"a6kxeglxecdh","lat":41.431,"long":-97.356,"state":"NE"},"type":"Feature","geometry":{"type":"Point","coordinates":[-97.356,41.431]}},{"properties":{"discontinued facility":"Conroe","id":"a6kxegy5tsuk","lat":30.317,"long":-95.463,"state":"TX"},"type":"Feature","geometry":{"type":"Point","coordinates":[-95.463,30.317]}},{"properties":{"discontinued facility":"Dayton","id":"a6kxegnx3gvt","lat":39.762,"long":-84.205,"state":"OH"},"type":"Feature","geometry":{"type":"Point","coordinates":[-84.205,39.762]}},{"properties":{"discontinued facility":"DeRidder","id":"a6kxegusz00d","lat":30.847,"long":-93.291,"state":"LA"},"type":"Feature","geometry":{"type":"Point","coordinates":[-93.291,30.847]}},{"properties":{"discontinued facility":"Elkins","id":"a6kxegxvy3ky","lat":38.926,"long":-79.858,"state":"WV"},"type":"Feature","geometry":{"type":"Point","coordinates":[-79.858,38.926]}},{"properties":{"discontinued facility":"Fort Dodge","id":"a6kxegokw3c9","lat":42.508,"long":-94.178,"state":"IA"},"type":"Feature","geometry":{"type":"Point","coordinates":[-94.178,42.508]}},{"properties":{"discontinued facility":"Gainsville","id":"a6kxegxbm18i","lat":29.652,"long":-82.339,"state":"FL"},"type":"Feature","geometry":{"type":"Point","coordinates":[-82.339,29.652]}},{"properties":{"discontinued facility":"Grand Forks","id":"a6kxegr27fol","lat":47.909,"long":-97.056,"state":"ND"},"type":"Feature","geometry":{"type":"Point","coordinates":[-97.056,47.909]}},{"properties":{"discontinued facility":"Great Falls","id":"a6kxegtyxmrv","lat":47.506,"long":-111.306,"state":"MT"},"type":"Feature","geometry":{"type":"Point","coordinates":[-111.306,47.506]}},{"properties":{"discontinued facility":"Green Bay","id":"a6kxegzg4xei","lat":44.516,"long":-88.008,"state":"WI"},"type":"Feature","geometry":{"type":"Point","coordinates":[-88.008,44.516]}},{"properties":{"discontinued facility":"Greenwood","id":"a6kxegs9iapi","lat":33.522,"long":-90.193,"state":"MS"},"type":"Feature","geometry":{"type":"Point","coordinates":[-90.193,33.522]}},{"properties":{"discontinued facility":"Hawthorne","id":"a6kxegpnthrk","lat":33.916,"long":-118.353,"state":"CA"},"type":"Feature","geometry":{"type":"Point","coordinates":[-118.353,33.916]}},{"properties":{"discontinued facility":"Honolulu","id":"a6kxegl8whmj","lat":21.30694,"long":-157.85833,"state":"HI"},"type":"Feature","geometry":{"type":"Point","coordinates":[-157.85833,21.30694]}},{"properties":{"discontinued facility":"Huron","id":"a6kxegw0kf9z","lat":44.363,"long":-98.214,"state":"SD"},"type":"Feature","geometry":{"type":"Point","coordinates":[-98.214,44.363]}},{"properties":{"discontinued facility":"Islip","id":"a6kxegmj4ct0","lat":40.731,"long":-73.211,"state":"NY"},"type":"Feature","geometry":{"type":"Point","coordinates":[-73.211,40.731]}},{"properties":{"discontinued facility":"Jackson","id":"a6kxegzy0526","lat":35.64,"long":-88.828,"state":"TN"},"type":"Feature","geometry":{"type":"Point","coordinates":[-88.828,35.64]}},{"properties":{"discontinued facility":"Jonesboro","id":"a6kxegr9zlmp","lat":35.821,"long":-90.682,"state":"AR"},"type":"Feature","geometry":{"type":"Point","coordinates":[-90.682,35.821]}},{"properties":{"discontinued facility":"Kankakee","id":"a6kxegrhrpon","lat":41.12,"long":-87.86111,"state":"IL"},"type":"Feature","geometry":{"type":"Point","coordinates":[-87.86111,41.12]}},{"properties":{"discontinued facility":"Lansing","id":"a6kxegusm7uq","lat":42.7325,"long":-84.55556,"state":"MI"},"type":"Feature","geometry":{"type":"Point","coordinates":[-84.55556,42.7325]}},{"properties":{"discontinued facility":"Louisville","id":"a6kxegpdk1z5","lat":38.256,"long":-85.752,"state":"KY"},"type":"Feature","geometry":{"type":"Point","coordinates":[-85.752,38.256]}},{"properties":{"discontinued facility":"Macon","id":"a6kxegyikgpv","lat":32.841,"long":-83.649,"state":"GA"},"type":"Feature","geometry":{"type":"Point","coordinates":[-83.649,32.841]}},{"properties":{"discontinued facility":"McAlester","id":"a6kxegsubrgi","lat":34.93,"long":-95.758,"state":"OK"},"type":"Feature","geometry":{"type":"Point","coordinates":[-95.758,34.93]}},{"properties":{"discontinued facility":"McMinnville","id":"a6kxegss4daq","lat":45.21,"long":-123.189,"state":"OR"},"type":"Feature","geometry":{"type":"Point","coordinates":[-123.189,45.21]}},{"properties":{"discontinued facility":"Nashville","id":"a6kxegwd9igm","lat":36.16583,"long":-86.78444,"state":"TN"},"type":"Feature","geometry":{"type":"Point","coordinates":[-86.78444,36.16583]}},{"properties":{"discontinued facility":"Oakland","id":"a6kxegy1h1mh","lat":37.772,"long":-122.215,"state":"CA"},"type":"Feature","geometry":{"type":"Point","coordinates":[-122.215,37.772]}},{"properties":{"discontinued facility":"Rancho Murieta","id":"a6kxegufgn97","lat":38.51,"long":-121.08,"state":"CA"},"type":"Feature","geometry":{"type":"Point","coordinates":[-121.08,38.51]}},{"properties":{"discontinued facility":"Reno","id":"a6kxeh0x5ih1","lat":39.53,"long":-119.814,"state":"NV"},"type":"Feature","geometry":{"type":"Point","coordinates":[-119.814,39.53]}},{"properties":{"discontinued facility":"Riverside","id":"a6kxeh0qo8x1","lat":33.947,"long":-117.4,"state":"CA"},"type":"Feature","geometry":{"type":"Point","coordinates":[-117.4,33.947]}},{"properties":{"discontinued facility":"San Angelo","id":"a6kxegwgh0wg","lat":31.465,"long":-100.445,"state":"TX"},"type":"Feature","geometry":{"type":"Point","coordinates":[-100.445,31.465]}},{"properties":{"discontinued facility":"San Juan","id":"a6kxegnrh0x3","lat":18.466,"long":-66.118,"state":"PR"},"type":"Feature","geometry":{"type":"Point","coordinates":[-66.118,18.466]}},{"properties":{"discontinued facility":"Seattle","id":"a6kxeguyfuy3","lat":47.60639,"long":-122.33083,"state":"WA"},"type":"Feature","geometry":{"type":"Point","coordinates":[-122.33083,47.60639]}},{"properties":{"discontinued facility":"St. Louis","id":"a6kxegy6mgyv","lat":38.628,"long":-90.198,"state":"MO"},"type":"Feature","geometry":{"type":"Point","coordinates":[-90.198,38.628]}},{"properties":{"discontinued facility":"St. Petersburg","id":"a6kxegt8irnb","lat":27.77056,"long":-82.67944,"state":"FL"},"type":"Feature","geometry":{"type":"Point","coordinates":[-82.67944,27.77056]}},{"properties":{"discontinued facility":"Terre Haute","id":"a6kxeh0u0wsi","lat":39.466,"long":-87.414,"state":"IN"},"type":"Feature","geometry":{"type":"Point","coordinates":[-87.414,39.466]}},{"properties":{"discontinued facility":"Wichita","id":"a6kxegtjoh4m","lat":37.686,"long":-97.336,"state":"KN"},"type":"Feature","geometry":{"type":"Point","coordinates":[-97.336,37.686]}},{"properties":{"discontinued facility":"Williamsport","id":"a6kxegle06yf","lat":41.239,"long":-77.032,"state":"PA"},"type":"Feature","geometry":{"type":"Point","coordinates":[-77.032,41.239]}}],"is_temporal":false,"author":{"url":"","metadata":"","contact_name":"","contact_address":"","source":"","contact_phone":""},"source":"","pagination":{"sort":null,"start":0,"total":49,"limit":1000000},"state":"complete","tags":"","published":"2014-08-11T01:12:35-04:00","id":19374}