{"type":"FeatureCollection","data_type":"Dataset","url_type":null,"permissions":[{"permissions":{"download":true,"view":true},"group_id":"everyone"}],"classification":null,"title":"Regus-Offices","count":27,"stream_id":194041,"contributor":{"url":"http://geocommons.com/users/29031","name":"wrg20"},"data_attributes":null,"calculation_params":null,"icon_link":null,"link":"http://geocommons.com/overlays/194041.json","extent":[-88.3139,41.8119,-87.6223,42.1393],"geometry_types":["point"],"unique_name":null,"name":"Regus-Offices","feature_count":27,"description":"","next_feature":null,"is_raster":false,"short_classification":"Y","stats":{},"features":[{"properties":{"city":"Chicago","zip":"60602-4270","geo_score":1.0,"id":"a67wygwxvw1t","geo_precision":"range","address":"70 West Madison St.","state":"Illinois"},"type":"Feature","geometry":{"type":"Point","coordinates":[-87.630008,41.881987]}},{"properties":{"city":"Chicago","zip":"60602","geo_score":0.604,"id":"a67wygyt84os","geo_precision":"street","address":"22 W. Washington Street","state":"Illinois"},"type":"Feature","geometry":{"type":"Point","coordinates":[-87.62787,41.883217]}},{"properties":{"city":"Chicago","zip":"60603","geo_score":1.0,"id":"a67wyh2yu78a","geo_precision":"range","address":"1 South Dearborn St","state":"Illinois"},"type":"Feature","geometry":{"type":"Point","coordinates":[-87.629402,41.881997]}},{"properties":{"city":"Chicago","zip":"60606","geo_score":1.0,"id":"a67wygywrft8","geo_precision":"range","address":"30 South Wacker Drive","state":"Illinois"},"type":"Feature","geometry":{"type":"Point","coordinates":[-87.636757,41.88152]}},{"properties":{"city":"Chicago","zip":"60654","geo_score":0.339,"id":"a67wygw26vbt","geo_precision":"street","address":"321 N. Clark Street","state":"Illinois"},"type":"Feature","geometry":{"type":"Point","coordinates":[-87.631106,41.890823]}},{"properties":{"city":"Chicago","zip":"60606","geo_score":1.0,"id":"a67wyguxbafd","geo_precision":"range","address":"10 South Riverside Plaza","state":"Illinois"},"type":"Feature","geometry":{"type":"Point","coordinates":[-87.638852,41.881783]}},{"properties":{"city":"Chicago","zip":"60601","geo_score":0.902,"id":"a67wygr9od09","geo_precision":"range","address":"203 North LaSalle Street","state":"Illinois"},"type":"Feature","geometry":{"type":"Point","coordinates":[-87.632449,41.885814]}},{"properties":{"city":"Chicago","zip":"60606","geo_score":1.0,"id":"a67wygrd29rz","geo_precision":"range","address":"200 South Wacker Drive","state":"Illinois"},"type":"Feature","geometry":{"type":"Point","coordinates":[-87.636703,41.879352]}},{"properties":{"city":"Chicago","zip":"60601","geo_score":0.61,"id":"a67wyh4hs610","geo_precision":"street","address":"180 N. Stetson Street","state":"Illinois"},"type":"Feature","geometry":{"type":"Point","coordinates":[-87.622307,41.885785]}},{"properties":{"city":"Chicago","zip":"60611","geo_score":1.0,"id":"a67wygvhxvvo","geo_precision":"range","address":"401 North Michigan Avenue","state":"Illinois"},"type":"Feature","geometry":{"type":"Point","coordinates":[-87.624355,41.888929]}},{"properties":{"city":"Chicago","zip":"60611","geo_score":1.0,"id":"a67wygvzot14","geo_precision":"range","address":"875 North Michigan Avenue","state":"Illinois"},"type":"Feature","geometry":{"type":"Point","coordinates":[-87.624114,41.898779]}},{"properties":{"city":"Chicago","zip":"60611","geo_score":1.0,"id":"a67wygra4ntg","geo_precision":"range","address":"980 North Michigan Avenue","state":"Illinois"},"type":"Feature","geometry":{"type":"Point","coordinates":[-87.624204,41.90061]}},{"properties":{"city":"Park Ridge","zip":"60068","geo_score":0.842,"id":"a67wygxkaokj","geo_precision":"range","address":"350 S Northwest Highway","state":"Illinois"},"type":"Feature","geometry":{"type":"Point","coordinates":[-87.823997,42.007509]}},{"properties":{"city":"Chicago","zip":"60631-3515","geo_score":1.0,"id":"a67wygtbofei","geo_precision":"range","address":"8770 West Bryn Mawr Ave","state":"Illinois"},"type":"Feature","geometry":{"type":"Point","coordinates":[-87.845382,41.980952]}},{"properties":{"city":"Rosemont","zip":"60018","geo_score":0.927,"id":"a67wygp1soha","geo_precision":"range","address":"5600 N River Road","state":"Illinois"},"type":"Feature","geometry":{"type":"Point","coordinates":[-87.861983,41.980578]}},{"properties":{"city":"Skokie","zip":"60077","geo_score":1.0,"id":"a67wygsp8z5s","geo_precision":"range","address":"5250 Old Orchard Rd","state":"Illinois"},"type":"Feature","geometry":{"type":"Point","coordinates":[-87.756112,42.062519]}},{"properties":{"city":"Westchester","zip":"60154","geo_score":1.0,"id":"a67wygqy86zg","geo_precision":"zip","address":null,"state":"Illinois"},"type":"Feature","geometry":{"type":"Point","coordinates":[-87.68732,41.811929]}},{"properties":{"city":"Oak Brook","zip":"60523","geo_score":1.0,"id":"a67wygsorxl1","geo_precision":"range","address":"700 Commerce Drive","state":"Illinois"},"type":"Feature","geometry":{"type":"Point","coordinates":[-87.940125,41.85067]}},{"properties":{"city":"Oak Brook","zip":"60523","geo_score":0.916,"id":"a67wygqnl8yf","geo_precision":"range","address":"1415 West 22nd Street","state":"Illinois"},"type":"Feature","geometry":{"type":"Point","coordinates":[-87.952647,41.846785]}},{"properties":{"city":"Oakbrook Terrace","zip":"60181","geo_score":0.722,"id":"a67wyh2y94ah","geo_precision":"street","address":"18W140 Butterfield Road","state":"Illinois"},"type":"Feature","geometry":{"type":"Point","coordinates":[-87.982649,41.846585]}},{"properties":{"city":"Northbrook","zip":"60062","geo_score":1.0,"id":"a67wyguha21a","geo_precision":"range","address":"707 Skokie Boulevard","state":"Illinois"},"type":"Feature","geometry":{"type":"Point","coordinates":[-87.792595,42.139335]}},{"properties":{"city":"Rolling Meadows","zip":"60008","geo_score":1.0,"id":"a67wyh1omx1y","geo_precision":"range","address":"1600 Golf Road","state":"Illinois"},"type":"Feature","geometry":{"type":"Point","coordinates":[-87.997753,42.051376]}},{"properties":{"city":"Schaumburg","zip":"60173","geo_score":1.0,"id":"a67wyh2oe2r4","geo_precision":"range","address":"1821 Walden Office Square","state":"Illinois"},"type":"Feature","geometry":{"type":"Point","coordinates":[-88.034468,42.061891]}},{"properties":{"city":"Schaumburg","zip":"60173","geo_score":0.604,"id":"a67wyh2stcgc","geo_precision":"street","address":"10 N. Martingale Road","state":"Illinois"},"type":"Feature","geometry":{"type":"Point","coordinates":[-88.031878,42.025239]}},{"properties":{"city":"Skokie","zip":"60077","geo_score":1.0,"id":"a67wyh4pc7im","geo_precision":"range","address":"5250 Old Orchard Rd","state":"Illinois"},"type":"Feature","geometry":{"type":"Point","coordinates":[-87.756112,42.062519]}},{"properties":{"city":"St. Charles","zip":"60174","geo_score":0.912,"id":"a67wyh41bcab","geo_precision":"range","address":"100 Illinois Street","state":"Illinois"},"type":"Feature","geometry":{"type":"Point","coordinates":[-88.313888,41.911778]}},{"properties":{"city":"Warrenville","zip":"60555","geo_score":0.636,"id":"a67wyh56mgfh","geo_precision":"street","address":"4320 Winfield Road","state":"Illinois"},"type":"Feature","geometry":{"type":"Point","coordinates":[-88.168206,41.831514]}}],"is_temporal":false,"author":{"url":"","metadata":null,"contact_name":null,"contact_address":null,"source":null,"contact_phone":null},"source":"","pagination":{"sort":null,"start":0,"total":27,"limit":1000000},"state":"complete","tags":"","published":"2014-08-13T02:19:20-04:00","id":194041}