{"type":"FeatureCollection","data_type":"Dataset","url_type":null,"permissions":[{"permissions":{"download":true,"view":true},"group_id":"everyone"}],"classification":null,"title":"Members by County City zip2","count":583,"stream_id":194017,"contributor":{"url":"http://geocommons.com/users/29031","name":"wrg20"},"data_attributes":null,"calculation_params":null,"icon_link":null,"link":"http://geocommons.com/overlays/194017.json","extent":[-90.6673,37.9939,-72.8626,42.4783],"geometry_types":["point"],"unique_name":null,"name":"Members by County City zip2","feature_count":583,"description":"","next_feature":null,"is_raster":false,"short_classification":"Y","stats":{"total count":{"max":3198,"mean":228.813513513514,"variance":69544.4610635025,"stdev":263.712838260678,"min":7,"median":159},"survivor":{"max":309,"mean":19.0494117647059,"variance":775.009345172033,"stdev":27.8389896578887,"min":1,"median":11},"inactive":{"max":343,"mean":53.1761006289308,"variance":3933.65799904869,"stdev":62.718880722225,"min":1,"median":26},"annuitant":{"max":854,"mean":32.8564814814815,"variance":3085.64524791614,"stdev":55.5485845716714,"min":1,"median":16},"active":{"max":1701,"mean":78.8935281837161,"variance":14588.584874346,"stdev":120.783214373298,"min":1,"median":38}},"features":[{"properties":{"city":"Alsip","total count":146,"zip":"60803","geo_score":1.0,"survivor":9,"inactive":40,"annuitant":16,"id":"a690dplmwyli","geo_precision":"zip","active":81,"state":"Illinois"},"type":"Feature","geometry":{"type":"Point","coordinates":[-87.68732,41.811929]}},{"properties":{"city":"Argo","total count":null,"zip":"60501","geo_score":0.857,"survivor":null,"inactive":null,"annuitant":null,"id":"a690dpo01qer","geo_precision":"zip","active":1,"state":"Illinois"},"type":"Feature","geometry":{"type":"Point","coordinates":[-87.810334,41.788088]}},{"properties":{"city":"Arlington Heights","total count":461,"zip":"60004","geo_score":1.0,"survivor":51,"inactive":163,"annuitant":85,"id":"a690dpx30zrh","geo_precision":"zip","active":162,"state":"Illinois"},"type":"Feature","geometry":{"type":"Point","coordinates":[-87.99822,42.085626]}},{"properties":{"city":"Arlington Heights","total count":261,"zip":"60005","geo_score":1.0,"survivor":41,"inactive":96,"annuitant":32,"id":"a690dpqmgp1y","geo_precision":"zip","active":92,"state":"Illinois"},"type":"Feature","geometry":{"type":"Point","coordinates":[-87.883073,42.060928]}},{"properties":{"city":"Arlington Heights","total count":null,"zip":"60006","geo_score":1.0,"survivor":null,"inactive":1,"annuitant":1,"id":"a690dpwfbt4t","geo_precision":"zip","active":1,"state":"Illinois"},"type":"Feature","geometry":{"type":"Point","coordinates":[-87.68732,41.811929]}},{"properties":{"city":"Arlington Heights","total count":19,"zip":"60004","geo_score":1.0,"survivor":1,"inactive":6,"annuitant":1,"id":"a690dpkb9elg","geo_precision":"zip","active":11,"state":"Illinois"},"type":"Feature","geometry":{"type":"Point","coordinates":[-87.99822,42.085626]}},{"properties":{"city":"Arlington Heights","total count":18,"zip":"60005","geo_score":1.0,"survivor":2,"inactive":10,"annuitant":1,"id":"a690dplenfpm","geo_precision":"zip","active":5,"state":"Illinois"},"type":"Feature","geometry":{"type":"Point","coordinates":[-87.883073,42.060928]}},{"properties":{"city":"Arlington Heights","total count":null,"zip":"60006","geo_score":1.0,"survivor":null,"inactive":1,"annuitant":null,"id":"a690dpvrnlxo","geo_precision":"zip","active":null,"state":"Illinois"},"type":"Feature","geometry":{"type":"Point","coordinates":[-87.68732,41.811929]}},{"properties":{"city":"Barrington","total count":null,"zip":"60010","geo_score":0.857,"survivor":1,"inactive":null,"annuitant":2,"id":"a690dpsdlb88","geo_precision":"zip","active":null,"state":"Illinois"},"type":"Feature","geometry":{"type":"Point","coordinates":[-88.152025,42.231968]}},{"properties":{"city":"Bartlett","total count":39,"zip":"60103","geo_score":0.883,"survivor":6,"inactive":21,"annuitant":6,"id":"a690dpl2nm7k","geo_precision":"zip","active":6,"state":"Illinois"},"type":"Feature","geometry":{"type":"Point","coordinates":[-88.145074,41.999472]}},{"properties":{"city":"Bartlett","total count":null,"zip":"60133","geo_score":0.871,"survivor":null,"inactive":null,"annuitant":null,"id":"a690dpwg2ime","geo_precision":"zip","active":1,"state":"Illinois"},"type":"Feature","geometry":{"type":"Point","coordinates":[-88.083959,42.030261]}},{"properties":{"city":"Bedford Park","total count":null,"zip":"60501","geo_score":0.857,"survivor":null,"inactive":null,"annuitant":null,"id":"a690dpqahhys","geo_precision":"zip","active":1,"state":"Illinois"},"type":"Feature","geometry":{"type":"Point","coordinates":[-87.810334,41.788088]}},{"properties":{"city":"Bellwood","total count":173,"zip":"60104","geo_score":1.0,"survivor":22,"inactive":42,"annuitant":35,"id":"a690dpla1tqp","geo_precision":"zip","active":74,"state":"Illinois"},"type":"Feature","geometry":{"type":"Point","coordinates":[-87.68732,41.811929]}},{"properties":{"city":"Bensenville","total count":null,"zip":"60647","geo_score":0.857,"survivor":null,"inactive":1,"annuitant":null,"id":"a690dpxjmimn","geo_precision":"zip","active":null,"state":"Illinois"},"type":"Feature","geometry":{"type":"Point","coordinates":[-87.68732,41.811929]}},{"properties":{"city":"Berkeley","total count":50,"zip":"60163","geo_score":1.0,"survivor":6,"inactive":15,"annuitant":6,"id":"a690dpl7xlp3","geo_precision":"zip","active":23,"state":"Illinois"},"type":"Feature","geometry":{"type":"Point","coordinates":[-87.68732,41.811929]}},{"properties":{"city":"Berwyn","total count":479,"zip":"60402","geo_score":0.875,"survivor":28,"inactive":149,"annuitant":60,"id":"a690dpzj2i5a","geo_precision":"zip","active":242,"state":"Illinois"},"type":"Feature","geometry":{"type":"Point","coordinates":[-87.782834,41.821421]}},{"properties":{"city":"Blue Island","total count":117,"zip":"60406","geo_score":1.0,"survivor":24,"inactive":28,"annuitant":15,"id":"a690dpplhcmg","geo_precision":"zip","active":50,"state":"Illinois"},"type":"Feature","geometry":{"type":"Point","coordinates":[-87.68732,41.811929]}},{"properties":{"city":"Bridgeview","total count":85,"zip":"60455","geo_score":1.0,"survivor":18,"inactive":23,"annuitant":9,"id":"a690dpvi3089","geo_precision":"zip","active":35,"state":"Illinois"},"type":"Feature","geometry":{"type":"Point","coordinates":[-87.68732,41.811929]}},{"properties":{"city":"Broadview","total count":null,"zip":"60153","geo_score":1.0,"survivor":null,"inactive":null,"annuitant":1,"id":"a690dppyt67u","geo_precision":"zip","active":null,"state":"Illinois"},"type":"Feature","geometry":{"type":"Point","coordinates":[-87.853393,41.86392]}},{"properties":{"city":"Broadview","total count":87,"zip":"60155","geo_score":1.0,"survivor":12,"inactive":27,"annuitant":15,"id":"a690dpqsam9n","geo_precision":"zip","active":33,"state":"Illinois"},"type":"Feature","geometry":{"type":"Point","coordinates":[-87.68732,41.811929]}},{"properties":{"city":"Brookfield","total count":226,"zip":"60513","geo_score":1.0,"survivor":23,"inactive":67,"annuitant":34,"id":"a690dpnhevkv","geo_precision":"zip","active":102,"state":"Illinois"},"type":"Feature","geometry":{"type":"Point","coordinates":[-87.68732,41.811929]}},{"properties":{"city":"Buffalo Grove","total count":null,"zip":"60089","geo_score":1.0,"survivor":null,"inactive":null,"annuitant":3,"id":"a690dpzcq4tu","geo_precision":"zip","active":null,"state":"Illinois"},"type":"Feature","geometry":{"type":"Point","coordinates":[-87.960771,42.180411]}},{"properties":{"city":"Burbank","total count":150,"zip":"60459","geo_score":1.0,"survivor":15,"inactive":39,"annuitant":21,"id":"a690dppx61z4","geo_precision":"zip","active":75,"state":"Illinois"},"type":"Feature","geometry":{"type":"Point","coordinates":[-87.68732,41.811929]}},{"properties":{"city":"Burnham","total count":25,"zip":"60633","geo_score":1.0,"survivor":2,"inactive":7,"annuitant":4,"id":"a690dpxc5p92","geo_precision":"zip","active":12,"state":"Illinois"},"type":"Feature","geometry":{"type":"Point","coordinates":[-87.556711,41.638924]}},{"properties":{"city":"Burr Ridge","total count":null,"zip":"60525","geo_score":0.867,"survivor":null,"inactive":null,"annuitant":null,"id":"a690dpyk9gg9","geo_precision":"zip","active":1,"state":"Illinois"},"type":"Feature","geometry":{"type":"Point","coordinates":[-87.902281,41.770309]}},{"properties":{"city":"Calumet City","total count":281,"zip":"60409","geo_score":1.0,"survivor":43,"inactive":46,"annuitant":55,"id":"a690dpzjcaez","geo_precision":"zip","active":137,"state":"Illinois"},"type":"Feature","geometry":{"type":"Point","coordinates":[-87.68732,41.811929]}},{"properties":{"city":"Calumet Park","total count":null,"zip":"60643","geo_score":1.0,"survivor":2,"inactive":null,"annuitant":null,"id":"a690dpwxprhv","geo_precision":"zip","active":null,"state":"Illinois"},"type":"Feature","geometry":{"type":"Point","coordinates":[-87.660604,41.662812]}},{"properties":{"city":"Calumet Park","total count":75,"zip":"60827","geo_score":0.883,"survivor":6,"inactive":16,"annuitant":11,"id":"a690dpoue793","geo_precision":"zip","active":42,"state":"Illinois"},"type":"Feature","geometry":{"type":"Point","coordinates":[-87.68732,41.811929]}},{"properties":{"city":"Chicago","total count":null,"zip":"60202","geo_score":0.875,"survivor":null,"inactive":1,"annuitant":null,"id":"a690dpthv8ha","geo_precision":"zip","active":null,"state":"Illinois"},"type":"Feature","geometry":{"type":"Point","coordinates":[-87.687969,42.044529]}},{"properties":{"city":"Chicago","total count":null,"zip":"60302","geo_score":0.878,"survivor":null,"inactive":1,"annuitant":null,"id":"a690dpkmxi6l","geo_precision":"zip","active":null,"state":"Illinois"},"type":"Feature","geometry":{"type":"Point","coordinates":[-87.68732,41.811929]}},{"properties":{"city":"Chicago","total count":174,"zip":"60601","geo_score":1.0,"survivor":11,"inactive":39,"annuitant":53,"id":"a690dpth80fz","geo_precision":"zip","active":71,"state":"Illinois"},"type":"Feature","geometry":{"type":"Point","coordinates":[-87.68732,41.811929]}},{"properties":{"city":"Chicago","total count":40,"zip":"60602","geo_score":1.0,"survivor":20,"inactive":4,"annuitant":8,"id":"a690dpl2m10m","geo_precision":"zip","active":8,"state":"Illinois"},"type":"Feature","geometry":{"type":"Point","coordinates":[-87.68732,41.811929]}},{"properties":{"city":"Chicago","total count":19,"zip":"60603","geo_score":1.0,"survivor":10,"inactive":2,"annuitant":3,"id":"a690dpwt3uwy","geo_precision":"zip","active":4,"state":"Illinois"},"type":"Feature","geometry":{"type":"Point","coordinates":[-87.72596,42.055179]}},{"properties":{"city":"Chicago","total count":null,"zip":"60604","geo_score":1.0,"survivor":null,"inactive":5,"annuitant":null,"id":"a690dpwywvkf","geo_precision":"zip","active":3,"state":"Illinois"},"type":"Feature","geometry":{"type":"Point","coordinates":[-87.68732,41.811929]}},{"properties":{"city":"Chicago","total count":497,"zip":"60605","geo_score":1.0,"survivor":23,"inactive":146,"annuitant":87,"id":"a690dpovbxaj","geo_precision":"zip","active":241,"state":"Illinois"},"type":"Feature","geometry":{"type":"Point","coordinates":[-87.68732,41.811929]}},{"properties":{"city":"Chicago","total count":54,"zip":"60606","geo_score":1.0,"survivor":1,"inactive":22,"annuitant":6,"id":"a690dpvzensm","geo_precision":"zip","active":25,"state":"Illinois"},"type":"Feature","geometry":{"type":"Point","coordinates":[-87.68732,41.811929]}},{"properties":{"city":"Chicago","total count":677,"zip":"60607","geo_score":1.0,"survivor":21,"inactive":159,"annuitant":82,"id":"a690dpml1doz","geo_precision":"zip","active":415,"state":"Illinois"},"type":"Feature","geometry":{"type":"Point","coordinates":[-87.81381,41.928881]}},{"properties":{"city":"Chicago","total count":651,"zip":"60608","geo_score":1.0,"survivor":23,"inactive":189,"annuitant":47,"id":"a690dpk0614q","geo_precision":"zip","active":392,"state":"Illinois"},"type":"Feature","geometry":{"type":"Point","coordinates":[-87.68732,41.811929]}},{"properties":{"city":"Chicago","total count":275,"zip":"60609","geo_score":1.0,"survivor":21,"inactive":81,"annuitant":31,"id":"a690dpo87dwl","geo_precision":"zip","active":142,"state":"Illinois"},"type":"Feature","geometry":{"type":"Point","coordinates":[-87.68732,41.811929]}},{"properties":{"city":"Chicago","total count":441,"zip":"60610","geo_score":1.0,"survivor":45,"inactive":122,"annuitant":87,"id":"a690dpu518cp","geo_precision":"zip","active":187,"state":"Illinois"},"type":"Feature","geometry":{"type":"Point","coordinates":[-87.68732,41.811929]}},{"properties":{"city":"Chicago","total count":460,"zip":"60611","geo_score":1.0,"survivor":40,"inactive":122,"annuitant":120,"id":"a690dpu9moyb","geo_precision":"zip","active":178,"state":"Illinois"},"type":"Feature","geometry":{"type":"Point","coordinates":[-87.68732,41.811929]}},{"properties":{"city":"Chicago","total count":474,"zip":"60612","geo_score":1.0,"survivor":31,"inactive":116,"annuitant":39,"id":"a690dpz98n3k","geo_precision":"zip","active":288,"state":"Illinois"},"type":"Feature","geometry":{"type":"Point","coordinates":[-87.68732,41.811929]}},{"properties":{"city":"Chicago","total count":594,"zip":"60613","geo_score":1.0,"survivor":45,"inactive":176,"annuitant":83,"id":"a690dpkljlj6","geo_precision":"zip","active":290,"state":"Illinois"},"type":"Feature","geometry":{"type":"Point","coordinates":[-87.68732,41.811929]}},{"properties":{"city":"Chicago","total count":611,"zip":"60614","geo_score":1.0,"survivor":40,"inactive":193,"annuitant":101,"id":"a690dputvjub","geo_precision":"zip","active":277,"state":"Illinois"},"type":"Feature","geometry":{"type":"Point","coordinates":[-87.68732,41.811929]}},{"properties":{"city":"Chicago","total count":795,"zip":"60615","geo_score":1.0,"survivor":86,"inactive":198,"annuitant":149,"id":"a690dpu1giqk","geo_precision":"zip","active":362,"state":"Illinois"},"type":"Feature","geometry":{"type":"Point","coordinates":[-87.68732,41.811929]}},{"properties":{"city":"Chicago","total count":582,"zip":"60616","geo_score":1.0,"survivor":45,"inactive":183,"annuitant":72,"id":"a690dpwik0yp","geo_precision":"zip","active":282,"state":"Illinois"},"type":"Feature","geometry":{"type":"Point","coordinates":[-87.68732,41.811929]}},{"properties":{"city":"Chicago","total count":844,"zip":"60617","geo_score":0.94,"survivor":88,"inactive":218,"annuitant":201,"id":"a690dptty0i4","geo_precision":"zip","active":337,"state":"Illinois"},"type":"Feature","geometry":{"type":"Point","coordinates":[-87.536434,41.722813]}},{"properties":{"city":"Chicago","total count":735,"zip":"60618","geo_score":1.0,"survivor":37,"inactive":256,"annuitant":58,"id":"a690dptu37rc","geo_precision":"zip","active":384,"state":"Illinois"},"type":"Feature","geometry":{"type":"Point","coordinates":[-87.68732,41.811929]}},{"properties":{"city":"Chicago","total count":1039,"zip":"60619","geo_score":1.0,"survivor":191,"inactive":232,"annuitant":246,"id":"a690dpkvvb6i","geo_precision":"zip","active":370,"state":"Illinois"},"type":"Feature","geometry":{"type":"Point","coordinates":[-87.68732,41.811929]}},{"properties":{"city":"Chicago","total count":875,"zip":"60620","geo_score":1.0,"survivor":173,"inactive":203,"annuitant":160,"id":"a690dpp91ixs","geo_precision":"zip","active":339,"state":"Illinois"},"type":"Feature","geometry":{"type":"Point","coordinates":[-87.68732,41.811929]}},{"properties":{"city":"Chicago","total count":229,"zip":"60621","geo_score":0.873,"survivor":64,"inactive":34,"annuitant":32,"id":"a690dpyncx8b","geo_precision":"zip","active":99,"state":"Illinois"},"type":"Feature","geometry":{"type":"Point","coordinates":[-87.645884,41.779756]}},{"properties":{"city":"Chicago","total count":605,"zip":"60622","geo_score":1.0,"survivor":30,"inactive":198,"annuitant":34,"id":"a690dpllrm6b","geo_precision":"zip","active":343,"state":"Illinois"},"type":"Feature","geometry":{"type":"Point","coordinates":[-87.68732,41.811929]}},{"properties":{"city":"Chicago","total count":355,"zip":"60623","geo_score":1.0,"survivor":28,"inactive":101,"annuitant":33,"id":"a690dpv0cbmd","geo_precision":"zip","active":193,"state":"Illinois"},"type":"Feature","geometry":{"type":"Point","coordinates":[-87.68732,41.811929]}},{"properties":{"city":"Chicago","total count":243,"zip":"60624","geo_score":1.0,"survivor":39,"inactive":34,"annuitant":39,"id":"a690dpy7aryd","geo_precision":"zip","active":131,"state":"Illinois"},"type":"Feature","geometry":{"type":"Point","coordinates":[-87.68732,41.811929]}},{"properties":{"city":"Chicago","total count":741,"zip":"60625","geo_score":1.0,"survivor":47,"inactive":209,"annuitant":84,"id":"a690dpmiokux","geo_precision":"zip","active":401,"state":"Illinois"},"type":"Feature","geometry":{"type":"Point","coordinates":[-87.68732,41.811929]}},{"properties":{"city":"Chicago","total count":517,"zip":"60626","geo_score":1.0,"survivor":31,"inactive":164,"annuitant":54,"id":"a690dpwwnqeb","geo_precision":"zip","active":268,"state":"Illinois"},"type":"Feature","geometry":{"type":"Point","coordinates":[-87.68732,41.811929]}},{"properties":{"city":"Chicago","total count":948,"zip":"60628","geo_score":1.0,"survivor":173,"inactive":214,"annuitant":207,"id":"a690dpkrjf1v","geo_precision":"zip","active":354,"state":"Illinois"},"type":"Feature","geometry":{"type":"Point","coordinates":[-87.68732,41.811929]}},{"properties":{"city":"Chicago","total count":580,"zip":"60629","geo_score":1.0,"survivor":44,"inactive":149,"annuitant":78,"id":"a690dpz0vune","geo_precision":"zip","active":309,"state":"Illinois"},"type":"Feature","geometry":{"type":"Point","coordinates":[-87.68732,41.811929]}},{"properties":{"city":"Chicago","total count":555,"zip":"60630","geo_score":1.0,"survivor":45,"inactive":174,"annuitant":81,"id":"a690dpznja6z","geo_precision":"zip","active":255,"state":"Illinois"},"type":"Feature","geometry":{"type":"Point","coordinates":[-87.68732,41.811929]}},{"properties":{"city":"Chicago","total count":400,"zip":"60631","geo_score":1.0,"survivor":53,"inactive":139,"annuitant":63,"id":"a690dpoowtze","geo_precision":"zip","active":145,"state":"Illinois"},"type":"Feature","geometry":{"type":"Point","coordinates":[-87.808611,42.00583]}},{"properties":{"city":"Chicago","total count":333,"zip":"60632","geo_score":0.857,"survivor":24,"inactive":102,"annuitant":37,"id":"a690dpyd822p","geo_precision":"zip","active":170,"state":"Illinois"},"type":"Feature","geometry":{"type":"Point","coordinates":[-87.72172,41.793644]}},{"properties":{"city":"Chicago","total count":64,"zip":"60633","geo_score":0.857,"survivor":4,"inactive":25,"annuitant":7,"id":"a690dpkmxziv","geo_precision":"zip","active":28,"state":"Illinois"},"type":"Feature","geometry":{"type":"Point","coordinates":[-87.556711,41.638924]}},{"properties":{"city":"Chicago","total count":600,"zip":"60634","geo_score":0.857,"survivor":59,"inactive":181,"annuitant":87,"id":"a690dpxroy8f","geo_precision":"zip","active":273,"state":"Illinois"},"type":"Feature","geometry":{"type":"Point","coordinates":[-87.796449,41.952809]}},{"properties":{"city":"Chicago","total count":null,"zip":"60635","geo_score":1.0,"survivor":1,"inactive":null,"annuitant":null,"id":"a690dpjxfbv3","geo_precision":"zip","active":null,"state":"Illinois"},"type":"Feature","geometry":{"type":"Point","coordinates":[-87.650052,41.850033]}},{"properties":{"city":"Chicago","total count":259,"zip":"60636","geo_score":1.0,"survivor":43,"inactive":52,"annuitant":57,"id":"a690dpmu1k8h","geo_precision":"zip","active":107,"state":"Illinois"},"type":"Feature","geometry":{"type":"Point","coordinates":[-87.68732,41.811929]}},{"properties":{"city":"Chicago","total count":555,"zip":"60637","geo_score":1.0,"survivor":61,"inactive":114,"annuitant":114,"id":"a690dpuwfov8","geo_precision":"zip","active":266,"state":"Illinois"},"type":"Feature","geometry":{"type":"Point","coordinates":[-87.68732,41.811929]}},{"properties":{"city":"Chicago","total count":479,"zip":"60638","geo_score":0.87,"survivor":43,"inactive":138,"annuitant":59,"id":"a690dplu8qcm","geo_precision":"zip","active":239,"state":"Illinois"},"type":"Feature","geometry":{"type":"Point","coordinates":[-87.800055,41.76281]}},{"properties":{"city":"Chicago","total count":278,"zip":"60639","geo_score":1.0,"survivor":11,"inactive":80,"annuitant":33,"id":"a690dpu57596","geo_precision":"zip","active":154,"state":"Illinois"},"type":"Feature","geometry":{"type":"Point","coordinates":[-87.68732,41.811929]}},{"properties":{"city":"Chicago","total count":849,"zip":"60640","geo_score":1.0,"survivor":59,"inactive":237,"annuitant":113,"id":"a690dprhuyvu","geo_precision":"zip","active":440,"state":"Illinois"},"type":"Feature","geometry":{"type":"Point","coordinates":[-87.68732,41.811929]}},{"properties":{"city":"Chicago","total count":430,"zip":"60641","geo_score":1.0,"survivor":24,"inactive":155,"annuitant":34,"id":"a690dpr87yah","geo_precision":"zip","active":217,"state":"Illinois"},"type":"Feature","geometry":{"type":"Point","coordinates":[-87.68732,41.811929]}},{"properties":{"city":"Chicago","total count":149,"zip":"60642","geo_score":1.0,"survivor":2,"inactive":38,"annuitant":12,"id":"a690dpx9txkm","geo_precision":"zip","active":97,"state":"Illinois"},"type":"Feature","geometry":{"type":"Point","coordinates":[-87.650052,41.850033]}},{"properties":{"city":"Chicago","total count":1060,"zip":"60643","geo_score":0.883,"survivor":159,"inactive":251,"annuitant":214,"id":"a690dpllkik2","geo_precision":"zip","active":436,"state":"Illinois"},"type":"Feature","geometry":{"type":"Point","coordinates":[-87.660604,41.662812]}},{"properties":{"city":"Chicago","total count":346,"zip":"60644","geo_score":1.0,"survivor":75,"inactive":65,"annuitant":63,"id":"a690dpp2j0av","geo_precision":"zip","active":143,"state":"Illinois"},"type":"Feature","geometry":{"type":"Point","coordinates":[-87.68732,41.811929]}},{"properties":{"city":"Chicago","total count":502,"zip":"60645","geo_score":0.883,"survivor":41,"inactive":143,"annuitant":76,"id":"a690dpulw8ox","geo_precision":"zip","active":242,"state":"Illinois"},"type":"Feature","geometry":{"type":"Point","coordinates":[-87.730059,42.004476]}},{"properties":{"city":"Chicago","total count":371,"zip":"60646","geo_score":1.0,"survivor":27,"inactive":125,"annuitant":67,"id":"a690dpq2njmy","geo_precision":"zip","active":152,"state":"Illinois"},"type":"Feature","geometry":{"type":"Point","coordinates":[-87.75901,42.00663]}},{"properties":{"city":"Chicago","total count":709,"zip":"60647","geo_score":1.0,"survivor":29,"inactive":230,"annuitant":56,"id":"a690dpya6pom","geo_precision":"zip","active":394,"state":"Illinois"},"type":"Feature","geometry":{"type":"Point","coordinates":[-87.68732,41.811929]}},{"properties":{"city":"Chicago","total count":591,"zip":"60649","geo_score":1.0,"survivor":97,"inactive":127,"annuitant":114,"id":"a690dpy5umho","geo_precision":"zip","active":253,"state":"Illinois"},"type":"Feature","geometry":{"type":"Point","coordinates":[-87.68732,41.811929]}},{"properties":{"city":"Chicago","total count":375,"zip":"60651","geo_score":1.0,"survivor":47,"inactive":82,"annuitant":59,"id":"a690dpsp9kya","geo_precision":"zip","active":187,"state":"Illinois"},"type":"Feature","geometry":{"type":"Point","coordinates":[-87.68732,41.811929]}},{"properties":{"city":"Chicago","total count":517,"zip":"60652","geo_score":1.0,"survivor":46,"inactive":142,"annuitant":66,"id":"a690dpu4qoke","geo_precision":"zip","active":263,"state":"Illinois"},"type":"Feature","geometry":{"type":"Point","coordinates":[-87.68732,41.811929]}},{"properties":{"city":"Chicago","total count":352,"zip":"60653","geo_score":1.0,"survivor":43,"inactive":80,"annuitant":63,"id":"a690dpsani8n","geo_precision":"zip","active":166,"state":"Illinois"},"type":"Feature","geometry":{"type":"Point","coordinates":[-87.68732,41.811929]}},{"properties":{"city":"Chicago","total count":129,"zip":"60654","geo_score":1.0,"survivor":3,"inactive":38,"annuitant":21,"id":"a690dpymje06","geo_precision":"zip","active":67,"state":"Illinois"},"type":"Feature","geometry":{"type":"Point","coordinates":[-87.68732,41.811929]}},{"properties":{"city":"Chicago","total count":383,"zip":"60655","geo_score":0.876,"survivor":46,"inactive":136,"annuitant":45,"id":"a690dppi6hs9","geo_precision":"zip","active":156,"state":"Illinois"},"type":"Feature","geometry":{"type":"Point","coordinates":[-87.700328,41.6842]}},{"properties":{"city":"Chicago","total count":256,"zip":"60656","geo_score":0.875,"survivor":20,"inactive":80,"annuitant":28,"id":"a690dpz7910j","geo_precision":"zip","active":128,"state":"Illinois"},"type":"Feature","geometry":{"type":"Point","coordinates":[-87.827284,41.963364]}},{"properties":{"city":"Chicago","total count":753,"zip":"60657","geo_score":1.0,"survivor":50,"inactive":204,"annuitant":131,"id":"a690dpn3at9t","geo_precision":"zip","active":368,"state":"Illinois"},"type":"Feature","geometry":{"type":"Point","coordinates":[-87.68732,41.811929]}},{"properties":{"city":"Chicago","total count":380,"zip":"60659","geo_score":1.0,"survivor":25,"inactive":95,"annuitant":67,"id":"a690dpjwghk4","geo_precision":"zip","active":193,"state":"Illinois"},"type":"Feature","geometry":{"type":"Point","coordinates":[-87.716621,41.997247]}},{"properties":{"city":"Chicago","total count":564,"zip":"60660","geo_score":1.0,"survivor":36,"inactive":160,"annuitant":91,"id":"a690dpjpu5e1","geo_precision":"zip","active":277,"state":"Illinois"},"type":"Feature","geometry":{"type":"Point","coordinates":[-87.68732,41.811929]}},{"properties":{"city":"Chicago","total count":128,"zip":"60661","geo_score":1.0,"survivor":3,"inactive":36,"annuitant":5,"id":"a690dpn73y1e","geo_precision":"zip","active":84,"state":"Illinois"},"type":"Feature","geometry":{"type":"Point","coordinates":[-87.68732,41.811929]}},{"properties":{"city":"Chicago","total count":null,"zip":"60664","geo_score":1.0,"survivor":null,"inactive":1,"annuitant":null,"id":"a690dpk07g5g","geo_precision":"zip","active":null,"state":"Illinois"},"type":"Feature","geometry":{"type":"Point","coordinates":[-87.68732,41.811929]}},{"properties":{"city":"Chicago","total count":null,"zip":"60665","geo_score":1.0,"survivor":null,"inactive":1,"annuitant":null,"id":"a690dpoo9ue3","geo_precision":"zip","active":null,"state":"Illinois"},"type":"Feature","geometry":{"type":"Point","coordinates":[-87.68732,41.811929]}},{"properties":{"city":"Chicago","total count":null,"zip":"60670","geo_score":1.0,"survivor":1,"inactive":null,"annuitant":null,"id":"a690dpqxmir2","geo_precision":"zip","active":1,"state":"Illinois"},"type":"Feature","geometry":{"type":"Point","coordinates":[-87.68732,41.811929]}},{"properties":{"city":"Chicago","total count":null,"zip":"60675","geo_score":1.0,"survivor":3,"inactive":null,"annuitant":null,"id":"a690dpomvdde","geo_precision":"zip","active":null,"state":"Illinois"},"type":"Feature","geometry":{"type":"Point","coordinates":[-87.68732,41.811929]}},{"properties":{"city":"Chicago","total count":71,"zip":"60680","geo_score":1.0,"survivor":3,"inactive":28,"annuitant":8,"id":"a690dpy8t3cl","geo_precision":"zip","active":32,"state":"Illinois"},"type":"Feature","geometry":{"type":"Point","coordinates":[-87.68732,41.811929]}},{"properties":{"city":"Chicago","total count":null,"zip":"60688","geo_score":1.0,"survivor":null,"inactive":null,"annuitant":null,"id":"a690dpz7z9ec","geo_precision":"zip","active":1,"state":"Illinois"},"type":"Feature","geometry":{"type":"Point","coordinates":[-87.650052,41.850033]}},{"properties":{"city":"Chicago","total count":22,"zip":"60690","geo_score":1.0,"survivor":5,"inactive":2,"annuitant":5,"id":"a690dpxdyi8s","geo_precision":"zip","active":10,"state":"Illinois"},"type":"Feature","geometry":{"type":"Point","coordinates":[-87.68732,41.811929]}},{"properties":{"city":"Chicago","total count":null,"zip":"60706","geo_score":0.878,"survivor":null,"inactive":3,"annuitant":null,"id":"a690dpmkl87g","geo_precision":"zip","active":2,"state":"Illinois"},"type":"Feature","geometry":{"type":"Point","coordinates":[-87.68732,41.811929]}},{"properties":{"city":"Chicago","total count":208,"zip":"60707","geo_score":0.87,"survivor":14,"inactive":60,"annuitant":28,"id":"a690dpuyfsnr","geo_precision":"zip","active":106,"state":"Illinois"},"type":"Feature","geometry":{"type":"Point","coordinates":[-87.818509,41.923181]}},{"properties":{"city":"Chicago","total count":null,"zip":"60803","geo_score":0.857,"survivor":null,"inactive":1,"annuitant":null,"id":"a690dprma2hs","geo_precision":"zip","active":null,"state":"Illinois"},"type":"Feature","geometry":{"type":"Point","coordinates":[-87.68732,41.811929]}},{"properties":{"city":"Chicago","total count":null,"zip":"60804","geo_score":0.939,"survivor":1,"inactive":null,"annuitant":null,"id":"a690dpxyps09","geo_precision":"zip","active":null,"state":"Illinois"},"type":"Feature","geometry":{"type":"Point","coordinates":[-87.68732,41.811929]}},{"properties":{"city":"Chicago","total count":null,"zip":"60805","geo_score":0.868,"survivor":null,"inactive":null,"annuitant":null,"id":"a690dppp29mk","geo_precision":"zip","active":1,"state":"Illinois"},"type":"Feature","geometry":{"type":"Point","coordinates":[-87.68732,41.811929]}},{"properties":{"city":"Chicago","total count":18,"zip":"60827","geo_score":0.873,"survivor":10,"inactive":3,"annuitant":1,"id":"a690dpmffi7q","geo_precision":"zip","active":4,"state":"Illinois"},"type":"Feature","geometry":{"type":"Point","coordinates":[-87.68732,41.811929]}},{"properties":{"city":"Chicago Heights","total count":236,"zip":"60411","geo_score":0.962,"survivor":27,"inactive":66,"annuitant":45,"id":"a690dpn2vm7v","geo_precision":"zip","active":98,"state":"Illinois"},"type":"Feature","geometry":{"type":"Point","coordinates":[-87.637821,41.480868]}},{"properties":{"city":"Chicago Heights","total count":null,"zip":"60412","geo_score":1.0,"survivor":2,"inactive":null,"annuitant":1,"id":"a690dpm5oj88","geo_precision":"zip","active":2,"state":"Illinois"},"type":"Feature","geometry":{"type":"Point","coordinates":[-87.68732,41.811929]}},{"properties":{"city":"Chicago Heights","total count":null,"zip":"60411","geo_score":0.962,"survivor":null,"inactive":null,"annuitant":null,"id":"a690dpo0wcu6","geo_precision":"zip","active":2,"state":"Illinois"},"type":"Feature","geometry":{"type":"Point","coordinates":[-87.637821,41.480868]}},{"properties":{"city":"Chicago Ridge","total count":76,"zip":"60415","geo_score":1.0,"survivor":11,"inactive":19,"annuitant":14,"id":"a690dpnq5dmm","geo_precision":"zip","active":32,"state":"Illinois"},"type":"Feature","geometry":{"type":"Point","coordinates":[-87.68732,41.811929]}},{"properties":{"city":"Cicero","total count":300,"zip":"60804","geo_score":1.0,"survivor":27,"inactive":81,"annuitant":20,"id":"a690dpvax6qy","geo_precision":"zip","active":172,"state":"Illinois"},"type":"Feature","geometry":{"type":"Point","coordinates":[-87.68732,41.811929]}},{"properties":{"city":"Country Club Hills","total count":null,"zip":"60475","geo_score":0.866,"survivor":1,"inactive":null,"annuitant":null,"id":"a690dptu6fxy","geo_precision":"zip","active":null,"state":"Illinois"},"type":"Feature","geometry":{"type":"Point","coordinates":[-87.68732,41.811929]}},{"properties":{"city":"Country Club Hills","total count":226,"zip":"60478","geo_score":1.0,"survivor":30,"inactive":57,"annuitant":37,"id":"a690dptv7z8w","geo_precision":"zip","active":102,"state":"Illinois"},"type":"Feature","geometry":{"type":"Point","coordinates":[-87.68732,41.811929]}},{"properties":{"city":"Countryside","total count":66,"zip":"60525","geo_score":0.867,"survivor":9,"inactive":20,"annuitant":10,"id":"a690dpvi3fv0","geo_precision":"zip","active":27,"state":"Illinois"},"type":"Feature","geometry":{"type":"Point","coordinates":[-87.902281,41.770309]}},{"properties":{"city":"Crestwood","total count":73,"zip":"60445","geo_score":1.0,"survivor":5,"inactive":18,"annuitant":16,"id":"a690dpodm63y","geo_precision":"zip","active":34,"state":"Illinois"},"type":"Feature","geometry":{"type":"Point","coordinates":[-87.752551,41.661144]}},{"properties":{"city":"Crete","total count":null,"zip":"60417","geo_score":1.0,"survivor":null,"inactive":null,"annuitant":1,"id":"a690dpjj9gp1","geo_precision":"zip","active":null,"state":"Illinois"},"type":"Feature","geometry":{"type":"Point","coordinates":[-87.621223,41.426684]}},{"properties":{"city":"Ctry Clb Hls","total count":null,"zip":"60478","geo_score":0.946,"survivor":null,"inactive":null,"annuitant":1,"id":"a690dpwxwans","geo_precision":"zip","active":1,"state":"Illinois"},"type":"Feature","geometry":{"type":"Point","coordinates":[-87.68732,41.811929]}},{"properties":{"city":"Darien","total count":null,"zip":"60561","geo_score":1.0,"survivor":null,"inactive":null,"annuitant":1,"id":"a690dpsfvs9a","geo_precision":"zip","active":null,"state":"Illinois"},"type":"Feature","geometry":{"type":"Point","coordinates":[-87.98046,41.743437]}},{"properties":{"city":"Des Plaines","total count":445,"zip":"60016","geo_score":1.0,"survivor":49,"inactive":124,"annuitant":70,"id":"a690dpxkw1zm","geo_precision":"zip","active":202,"state":"Illinois"},"type":"Feature","geometry":{"type":"Point","coordinates":[-87.890466,42.048278]}},{"properties":{"city":"Des Plaines","total count":null,"zip":"60017","geo_score":1.0,"survivor":null,"inactive":1,"annuitant":null,"id":"a690dpsk6skx","geo_precision":"zip","active":null,"state":"Illinois"},"type":"Feature","geometry":{"type":"Point","coordinates":[-87.894366,42.028779]}},{"properties":{"city":"Des Plaines","total count":130,"zip":"60018","geo_score":0.886,"survivor":19,"inactive":42,"annuitant":15,"id":"a690dpy5cp9f","geo_precision":"zip","active":54,"state":"Illinois"},"type":"Feature","geometry":{"type":"Point","coordinates":[-87.884509,41.995308]}},{"properties":{"city":"Dixmoor","total count":10,"zip":"60426","geo_score":0.857,"survivor":1,"inactive":1,"annuitant":2,"id":"a690dpkzyqhb","geo_precision":"zip","active":6,"state":"Illinois"},"type":"Feature","geometry":{"type":"Point","coordinates":[-87.634768,41.611146]}},{"properties":{"city":"Dolton","total count":214,"zip":"60419","geo_score":1.0,"survivor":29,"inactive":41,"annuitant":42,"id":"a690dpwi0w3m","geo_precision":"zip","active":102,"state":"Illinois"},"type":"Feature","geometry":{"type":"Point","coordinates":[-87.68732,41.811929]}},{"properties":{"city":"East Hazel Crest","total count":null,"zip":"60429","geo_score":1.0,"survivor":1,"inactive":null,"annuitant":null,"id":"a690dpno7kpl","geo_precision":"zip","active":null,"state":"Illinois"},"type":"Feature","geometry":{"type":"Point","coordinates":[-87.646435,41.573646]}},{"properties":{"city":"Elk Grove Village","total count":260,"zip":"60007","geo_score":1.0,"survivor":29,"inactive":94,"annuitant":35,"id":"a690dpl3jcl3","geo_precision":"zip","active":102,"state":"Illinois"},"type":"Feature","geometry":{"type":"Point","coordinates":[-87.905866,42.020278]}},{"properties":{"city":"Elk Grove Village","total count":null,"zip":"60009","geo_score":1.0,"survivor":null,"inactive":1,"annuitant":null,"id":"a690dpx7ilah","geo_precision":"zip","active":null,"state":"Illinois"},"type":"Feature","geometry":{"type":"Point","coordinates":[-87.68732,41.811929]}},{"properties":{"city":"Elk Grove Village","total count":null,"zip":"60007","geo_score":1.0,"survivor":null,"inactive":3,"annuitant":null,"id":"a690dplke39f","geo_precision":"zip","active":1,"state":"Illinois"},"type":"Feature","geometry":{"type":"Point","coordinates":[-87.905866,42.020278]}},{"properties":{"city":"Elmhurst","total count":null,"zip":"60126","geo_score":0.857,"survivor":null,"inactive":null,"annuitant":null,"id":"a690dpq59yic","geo_precision":"zip","active":1,"state":"Illinois"},"type":"Feature","geometry":{"type":"Point","coordinates":[-87.948396,41.863364]}},{"properties":{"city":"Elmwood Park","total count":286,"zip":"60707","geo_score":1.0,"survivor":20,"inactive":117,"annuitant":41,"id":"a690dpru9cno","geo_precision":"zip","active":108,"state":"Illinois"},"type":"Feature","geometry":{"type":"Point","coordinates":[-87.818509,41.923181]}},{"properties":{"city":"Elwood","total count":null,"zip":"60421","geo_score":1.0,"survivor":null,"inactive":null,"annuitant":1,"id":"a690dppmh54q","geo_precision":"zip","active":null,"state":"Illinois"},"type":"Feature","geometry":{"type":"Point","coordinates":[-88.090588,41.44288]}},{"properties":{"city":"Evanston","total count":524,"zip":"60201","geo_score":1.0,"survivor":71,"inactive":140,"annuitant":145,"id":"a690dppg12fl","geo_precision":"zip","active":168,"state":"Illinois"},"type":"Feature","geometry":{"type":"Point","coordinates":[-87.702155,42.049148]}},{"properties":{"city":"Evanston","total count":540,"zip":"60202","geo_score":1.0,"survivor":49,"inactive":199,"annuitant":84,"id":"a690dpqasc85","geo_precision":"zip","active":208,"state":"Illinois"},"type":"Feature","geometry":{"type":"Point","coordinates":[-87.687969,42.044529]}},{"properties":{"city":"Evanston","total count":81,"zip":"60203","geo_score":1.0,"survivor":8,"inactive":24,"annuitant":19,"id":"a690dprsj3w3","geo_precision":"zip","active":30,"state":"Illinois"},"type":"Feature","geometry":{"type":"Point","coordinates":[-87.718159,42.047928]}},{"properties":{"city":"Evanston","total count":10,"zip":"60204","geo_score":1.0,"survivor":2,"inactive":5,"annuitant":2,"id":"a690dpv35wdu","geo_precision":"zip","active":1,"state":"Illinois"},"type":"Feature","geometry":{"type":"Point","coordinates":[-87.68732,41.811929]}},{"properties":{"city":"Evergreen Park","total count":260,"zip":"60805","geo_score":1.0,"survivor":30,"inactive":70,"annuitant":48,"id":"a690dpwnmu7n","geo_precision":"zip","active":112,"state":"Illinois"},"type":"Feature","geometry":{"type":"Point","coordinates":[-87.68732,41.811929]}},{"properties":{"city":"Flossmoor","total count":292,"zip":"60422","geo_score":0.929,"survivor":30,"inactive":83,"annuitant":53,"id":"a690dpuxzn8u","geo_precision":"zip","active":126,"state":"Illinois"},"type":"Feature","geometry":{"type":"Point","coordinates":[-87.713381,41.546145]}},{"properties":{"city":"Ford Heights","total count":15,"zip":"60411","geo_score":0.917,"survivor":3,"inactive":5,"annuitant":4,"id":"a690dpqttybl","geo_precision":"zip","active":3,"state":"Illinois"},"type":"Feature","geometry":{"type":"Point","coordinates":[-87.637821,41.480868]}},{"properties":{"city":"Forest Park","total count":267,"zip":"60130","geo_score":1.0,"survivor":14,"inactive":90,"annuitant":29,"id":"a690dpn4sy3m","geo_precision":"zip","active":134,"state":"Illinois"},"type":"Feature","geometry":{"type":"Point","coordinates":[-87.68732,41.811929]}},{"properties":{"city":"Forest View","total count":null,"zip":"60402","geo_score":0.871,"survivor":null,"inactive":3,"annuitant":null,"id":"a690dprs0kv6","geo_precision":"zip","active":null,"state":"Illinois"},"type":"Feature","geometry":{"type":"Point","coordinates":[-87.782834,41.821421]}},{"properties":{"city":"Forestview","total count":null,"zip":"60402","geo_score":0.871,"survivor":null,"inactive":null,"annuitant":null,"id":"a690dpp8dst7","geo_precision":"zip","active":1,"state":"Illinois"},"type":"Feature","geometry":{"type":"Point","coordinates":[-87.782834,41.821421]}},{"properties":{"city":"Franklin Park","total count":139,"zip":"60131","geo_score":1.0,"survivor":5,"inactive":68,"annuitant":11,"id":"a690dptshxhz","geo_precision":"zip","active":55,"state":"Illinois"},"type":"Feature","geometry":{"type":"Point","coordinates":[-87.884962,41.93598]}},{"properties":{"city":"Glen Ellyn","total count":null,"zip":"60137","geo_score":0.871,"survivor":null,"inactive":1,"annuitant":null,"id":"a690dpxvrk2e","geo_precision":"zip","active":null,"state":"Illinois"},"type":"Feature","geometry":{"type":"Point","coordinates":[-88.067844,41.830308]}},{"properties":{"city":"Glencoe","total count":70,"zip":"60022","geo_score":1.0,"survivor":9,"inactive":17,"annuitant":21,"id":"a690dpoh49wj","geo_precision":"zip","active":23,"state":"Illinois"},"type":"Feature","geometry":{"type":"Point","coordinates":[-87.815914,42.102927]}},{"properties":{"city":"Glenview","total count":430,"zip":"60025","geo_score":0.886,"survivor":42,"inactive":146,"annuitant":90,"id":"a690dpm2a7f5","geo_precision":"zip","active":152,"state":"Illinois"},"type":"Feature","geometry":{"type":"Point","coordinates":[-87.875345,42.086694]}},{"properties":{"city":"Glenview","total count":117,"zip":"60026","geo_score":0.907,"survivor":9,"inactive":42,"annuitant":24,"id":"a690dpomrk35","geo_precision":"zip","active":42,"state":"Illinois"},"type":"Feature","geometry":{"type":"Point","coordinates":[-87.68732,41.811929]}},{"properties":{"city":"Glenwood","total count":134,"zip":"60425","geo_score":1.0,"survivor":20,"inactive":39,"annuitant":22,"id":"a690dpx6fktn","geo_precision":"zip","active":53,"state":"Illinois"},"type":"Feature","geometry":{"type":"Point","coordinates":[-87.68732,41.811929]}},{"properties":{"city":"Golf","total count":null,"zip":"60029","geo_score":1.0,"survivor":null,"inactive":null,"annuitant":null,"id":"a690dprl1dd0","geo_precision":"zip","active":1,"state":"Illinois"},"type":"Feature","geometry":{"type":"Point","coordinates":[-87.791636,42.058029]}},{"properties":{"city":"Hanover Park","total count":null,"zip":"60103","geo_score":1.0,"survivor":4,"inactive":5,"annuitant":null,"id":"a690dprmnuqk","geo_precision":"zip","active":2,"state":"Illinois"},"type":"Feature","geometry":{"type":"Point","coordinates":[-88.145074,41.999472]}},{"properties":{"city":"Hanover Park","total count":134,"zip":"60133","geo_score":0.87,"survivor":8,"inactive":55,"annuitant":17,"id":"a690dpl4l543","geo_precision":"zip","active":54,"state":"Illinois"},"type":"Feature","geometry":{"type":"Point","coordinates":[-88.083959,42.030261]}},{"properties":{"city":"Harvey","total count":137,"zip":"60426","geo_score":0.878,"survivor":24,"inactive":25,"annuitant":26,"id":"a690dpvxsvin","geo_precision":"zip","active":62,"state":"Illinois"},"type":"Feature","geometry":{"type":"Point","coordinates":[-87.634768,41.611146]}},{"properties":{"city":"Harvey","total count":null,"zip":"60428","geo_score":0.857,"survivor":1,"inactive":null,"annuitant":null,"id":"a690dpvwlq8f","geo_precision":"city","active":null,"state":"Illinois"},"type":"Feature","geometry":{"type":"Point","coordinates":[-87.68732,41.811929]}},{"properties":{"city":"Harwood Heights","total count":null,"zip":"60656","geo_score":0.888,"survivor":1,"inactive":null,"annuitant":null,"id":"a690dpvylmsn","geo_precision":"zip","active":1,"state":"Illinois"},"type":"Feature","geometry":{"type":"Point","coordinates":[-87.827284,41.963364]}},{"properties":{"city":"Harwood Heights","total count":44,"zip":"60706","geo_score":1.0,"survivor":1,"inactive":18,"annuitant":8,"id":"a690dpqiqi7f","geo_precision":"zip","active":17,"state":"Illinois"},"type":"Feature","geometry":{"type":"Point","coordinates":[-87.68732,41.811929]}},{"properties":{"city":"Harwood Heights","total count":null,"zip":"60706","geo_score":1.0,"survivor":null,"inactive":null,"annuitant":null,"id":"a690dpjzk1yg","geo_precision":"zip","active":2,"state":"Illinois"},"type":"Feature","geometry":{"type":"Point","coordinates":[-87.68732,41.811929]}},{"properties":{"city":"Hazel Crest","total count":202,"zip":"60429","geo_score":0.959,"survivor":27,"inactive":49,"annuitant":38,"id":"a690dpjyk6np","geo_precision":"zip","active":88,"state":"Illinois"},"type":"Feature","geometry":{"type":"Point","coordinates":[-87.646435,41.573646]}},{"properties":{"city":"Hickory Hills","total count":125,"zip":"60457","geo_score":1.0,"survivor":20,"inactive":28,"annuitant":28,"id":"a690dpqyq8yw","geo_precision":"zip","active":49,"state":"Illinois"},"type":"Feature","geometry":{"type":"Point","coordinates":[-87.68732,41.811929]}},{"properties":{"city":"Highland Park","total count":null,"zip":"60035","geo_score":0.869,"survivor":null,"inactive":null,"annuitant":1,"id":"a690dpwmtxfm","geo_precision":"zip","active":null,"state":"Illinois"},"type":"Feature","geometry":{"type":"Point","coordinates":[-87.772286,42.152526]}},{"properties":{"city":"Hillside","total count":76,"zip":"60162","geo_score":1.0,"survivor":9,"inactive":23,"annuitant":14,"id":"a690dpn5z9tu","geo_precision":"zip","active":30,"state":"Illinois"},"type":"Feature","geometry":{"type":"Point","coordinates":[-87.68732,41.811929]}},{"properties":{"city":"Hines","total count":null,"zip":"60141","geo_score":1.0,"survivor":null,"inactive":null,"annuitant":1,"id":"a690dpvqljt6","geo_precision":"zip","active":1,"state":"Illinois"},"type":"Feature","geometry":{"type":"Point","coordinates":[-87.68732,41.811929]}},{"properties":{"city":"Hinsdale","total count":null,"zip":"60521","geo_score":0.87,"survivor":1,"inactive":null,"annuitant":1,"id":"a690dpkenphb","geo_precision":"zip","active":null,"state":"Illinois"},"type":"Feature","geometry":{"type":"Point","coordinates":[-87.935893,41.769753]}},{"properties":{"city":"Hodgkins","total count":null,"zip":"60525","geo_score":0.867,"survivor":null,"inactive":1,"annuitant":1,"id":"a690dpl0ouq6","geo_precision":"zip","active":2,"state":"Illinois"},"type":"Feature","geometry":{"type":"Point","coordinates":[-87.902281,41.770309]}},{"properties":{"city":"Hoffman Est","total count":null,"zip":"60169","geo_score":0.816,"survivor":null,"inactive":null,"annuitant":1,"id":"a690dpmqpx93","geo_precision":"city","active":null,"state":"Illinois"},"type":"Feature","geometry":{"type":"Point","coordinates":[-88.079795,42.042805]}},{"properties":{"city":"Hoffman Est","total count":null,"zip":"60192","geo_score":0.857,"survivor":null,"inactive":4,"annuitant":null,"id":"a690dpwxcic8","geo_precision":"zip","active":2,"state":"Illinois"},"type":"Feature","geometry":{"type":"Point","coordinates":[-88.116129,42.092487]}},{"properties":{"city":"Hoffman Est","total count":null,"zip":"60195","geo_score":0.959,"survivor":null,"inactive":null,"annuitant":null,"id":"a690dpvtrtzz","geo_precision":"zip","active":1,"state":"Illinois"},"type":"Feature","geometry":{"type":"Point","coordinates":[-88.079795,42.042805]}},{"properties":{"city":"Hoffman Est","total count":157,"zip":"60169","geo_score":0.816,"survivor":12,"inactive":38,"annuitant":33,"id":"a690dpl46co8","geo_precision":"city","active":74,"state":"Illinois"},"type":"Feature","geometry":{"type":"Point","coordinates":[-88.079795,42.042805]}},{"properties":{"city":"Hoffman Est","total count":124,"zip":"60192","geo_score":0.857,"survivor":2,"inactive":47,"annuitant":19,"id":"a690dpk7q1ax","geo_precision":"zip","active":56,"state":"Illinois"},"type":"Feature","geometry":{"type":"Point","coordinates":[-88.116129,42.092487]}},{"properties":{"city":"Hoffman Est","total count":34,"zip":"60194","geo_score":0.857,"survivor":4,"inactive":19,"annuitant":1,"id":"a690dpp2wpz9","geo_precision":"zip","active":10,"state":"Illinois"},"type":"Feature","geometry":{"type":"Point","coordinates":[-88.116655,42.028926]}},{"properties":{"city":"Hoffman Est","total count":52,"zip":"60195","geo_score":0.959,"survivor":7,"inactive":32,"annuitant":2,"id":"a690dpn8h293","geo_precision":"zip","active":11,"state":"Illinois"},"type":"Feature","geometry":{"type":"Point","coordinates":[-88.079795,42.042805]}},{"properties":{"city":"Hometown","total count":34,"zip":"60456","geo_score":1.0,"survivor":9,"inactive":7,"annuitant":6,"id":"a690dpymkbmc","geo_precision":"zip","active":12,"state":"Illinois"},"type":"Feature","geometry":{"type":"Point","coordinates":[-87.68732,41.811929]}},{"properties":{"city":"Homewood","total count":499,"zip":"60430","geo_score":0.857,"survivor":47,"inactive":164,"annuitant":92,"id":"a690dpqjspxd","geo_precision":"zip","active":196,"state":"Illinois"},"type":"Feature","geometry":{"type":"Point","coordinates":[-87.693935,41.535868]}},{"properties":{"city":"Hopkins Park","total count":null,"zip":"60944","geo_score":1.0,"survivor":1,"inactive":null,"annuitant":null,"id":"a690dprcp17v","geo_precision":"zip","active":null,"state":"Illinois"},"type":"Feature","geometry":{"type":"Point","coordinates":[-87.888971,41.146464]}},{"properties":{"city":"Indian Head Park","total count":58,"zip":"60525","geo_score":1.0,"survivor":12,"inactive":4,"annuitant":22,"id":"a690dptx2gfu","geo_precision":"zip","active":20,"state":"Illinois"},"type":"Feature","geometry":{"type":"Point","coordinates":[-87.902281,41.770309]}},{"properties":{"city":"Indian Head Park","total count":null,"zip":"60525","geo_score":1.0,"survivor":null,"inactive":null,"annuitant":null,"id":"a690dpktrvix","geo_precision":"zip","active":1,"state":"Illinois"},"type":"Feature","geometry":{"type":"Point","coordinates":[-87.902281,41.770309]}},{"properties":{"city":"Indian Head Park","total count":null,"zip":"60525","geo_score":1.0,"survivor":1,"inactive":3,"annuitant":null,"id":"a690dpvk70wv","geo_precision":"zip","active":1,"state":"Illinois"},"type":"Feature","geometry":{"type":"Point","coordinates":[-87.902281,41.770309]}},{"properties":{"city":"Inverness","total count":28,"zip":"60067","geo_score":1.0,"survivor":3,"inactive":4,"annuitant":13,"id":"a690dproarla","geo_precision":"zip","active":8,"state":"Illinois"},"type":"Feature","geometry":{"type":"Point","coordinates":[-88.096187,42.118082]}},{"properties":{"city":"Justice","total count":55,"zip":"60458","geo_score":1.0,"survivor":6,"inactive":13,"annuitant":12,"id":"a690dptwwz03","geo_precision":"zip","active":24,"state":"Illinois"},"type":"Feature","geometry":{"type":"Point","coordinates":[-87.68732,41.811929]}},{"properties":{"city":"Kenilworth","total count":null,"zip":"60043","geo_score":1.0,"survivor":null,"inactive":4,"annuitant":6,"id":"a690dpl20884","geo_precision":"zip","active":3,"state":"Illinois"},"type":"Feature","geometry":{"type":"Point","coordinates":[-87.71456,42.088428]}},{"properties":{"city":"La Grange","total count":251,"zip":"60525","geo_score":0.888,"survivor":35,"inactive":79,"annuitant":50,"id":"a690dpust17a","geo_precision":"zip","active":87,"state":"Illinois"},"type":"Feature","geometry":{"type":"Point","coordinates":[-87.902281,41.770309]}},{"properties":{"city":"La Grange Highlands","total count":11,"zip":"60525","geo_score":0.891,"survivor":1,"inactive":2,"annuitant":2,"id":"a690dptdgc64","geo_precision":"zip","active":6,"state":"Illinois"},"type":"Feature","geometry":{"type":"Point","coordinates":[-87.902281,41.770309]}},{"properties":{"city":"La Grange Park","total count":194,"zip":"60526","geo_score":1.0,"survivor":29,"inactive":66,"annuitant":38,"id":"a690dpplajw9","geo_precision":"zip","active":61,"state":"Illinois"},"type":"Feature","geometry":{"type":"Point","coordinates":[-87.68732,41.811929]}},{"properties":{"city":"La Grange Park","total count":null,"zip":"60526","geo_score":1.0,"survivor":null,"inactive":2,"annuitant":null,"id":"a690dps13e4v","geo_precision":"zip","active":1,"state":"Illinois"},"type":"Feature","geometry":{"type":"Point","coordinates":[-87.68732,41.811929]}},{"properties":{"city":"Lagrange","total count":null,"zip":"60525","geo_score":0.888,"survivor":6,"inactive":null,"annuitant":null,"id":"a690dprzhyvx","geo_precision":"zip","active":null,"state":"Illinois"},"type":"Feature","geometry":{"type":"Point","coordinates":[-87.902281,41.770309]}},{"properties":{"city":"Lagrange Hlds","total count":null,"zip":"60525","geo_score":0.888,"survivor":null,"inactive":2,"annuitant":null,"id":"a690dpjrkgo6","geo_precision":"zip","active":2,"state":"Illinois"},"type":"Feature","geometry":{"type":"Point","coordinates":[-87.902281,41.770309]}},{"properties":{"city":"Lansing","total count":231,"zip":"60438","geo_score":0.878,"survivor":19,"inactive":44,"annuitant":36,"id":"a690dporzpx7","geo_precision":"zip","active":132,"state":"Illinois"},"type":"Feature","geometry":{"type":"Point","coordinates":[-87.558376,41.563091]}},{"properties":{"city":"Lemont","total count":226,"zip":"60439","geo_score":0.857,"survivor":20,"inactive":59,"annuitant":45,"id":"a690dpr7yjhc","geo_precision":"zip","active":102,"state":"Illinois"},"type":"Feature","geometry":{"type":"Point","coordinates":[-87.933113,41.688365]}},{"properties":{"city":"Lincolnshire","total count":null,"zip":"60069","geo_score":0.869,"survivor":null,"inactive":null,"annuitant":1,"id":"a690dpkazq72","geo_precision":"zip","active":null,"state":"Illinois"},"type":"Feature","geometry":{"type":"Point","coordinates":[-87.955628,42.199191]}},{"properties":{"city":"Lincolnwood","total count":null,"zip":"60645","geo_score":1.0,"survivor":1,"inactive":1,"annuitant":null,"id":"a690dpzduz64","geo_precision":"zip","active":null,"state":"Illinois"},"type":"Feature","geometry":{"type":"Point","coordinates":[-87.730059,42.004476]}},{"properties":{"city":"Lincolnwood","total count":null,"zip":"60646","geo_score":0.883,"survivor":null,"inactive":1,"annuitant":null,"id":"a690dpjgx7t6","geo_precision":"zip","active":1,"state":"Illinois"},"type":"Feature","geometry":{"type":"Point","coordinates":[-87.75901,42.00663]}},{"properties":{"city":"Lincolnwood","total count":184,"zip":"60712","geo_score":1.0,"survivor":18,"inactive":49,"annuitant":47,"id":"a690dpldcls8","geo_precision":"zip","active":70,"state":"Illinois"},"type":"Feature","geometry":{"type":"Point","coordinates":[-87.736135,42.00798]}},{"properties":{"city":"Lombard","total count":null,"zip":"60148","geo_score":0.871,"survivor":null,"inactive":null,"annuitant":null,"id":"a690dpl0u4uk","geo_precision":"zip","active":1,"state":"Illinois"},"type":"Feature","geometry":{"type":"Point","coordinates":[-87.987842,41.856974]}},{"properties":{"city":"Lynwood","total count":102,"zip":"60411","geo_score":0.865,"survivor":11,"inactive":21,"annuitant":20,"id":"a690dpnrbbxk","geo_precision":"zip","active":50,"state":"Illinois"},"type":"Feature","geometry":{"type":"Point","coordinates":[-87.637821,41.480868]}},{"properties":{"city":"Lyons","total count":57,"zip":"60534","geo_score":1.0,"survivor":2,"inactive":16,"annuitant":10,"id":"a690dpvzpyzr","geo_precision":"zip","active":29,"state":"Illinois"},"type":"Feature","geometry":{"type":"Point","coordinates":[-87.68732,41.811929]}},{"properties":{"city":"Marengo","total count":null,"zip":"60152","geo_score":0.878,"survivor":null,"inactive":null,"annuitant":1,"id":"a690dpwgqusv","geo_precision":"zip","active":null,"state":"Illinois"},"type":"Feature","geometry":{"type":"Point","coordinates":[-88.564536,42.217245]}},{"properties":{"city":"Markham","total count":23,"zip":"60426","geo_score":0.857,"survivor":13,"inactive":7,"annuitant":1,"id":"a690dpsuuc7g","geo_precision":"zip","active":2,"state":"Illinois"},"type":"Feature","geometry":{"type":"Point","coordinates":[-87.634768,41.611146]}},{"properties":{"city":"Markham","total count":76,"zip":"60428","geo_score":0.857,"survivor":8,"inactive":19,"annuitant":13,"id":"a690dpzidjjy","geo_precision":"city","active":36,"state":"Illinois"},"type":"Feature","geometry":{"type":"Point","coordinates":[-87.69477,41.593645]}},{"properties":{"city":"Matteson","total count":319,"zip":"60443","geo_score":0.88,"survivor":29,"inactive":100,"annuitant":62,"id":"a690dplc0dhz","geo_precision":"zip","active":128,"state":"Illinois"},"type":"Feature","geometry":{"type":"Point","coordinates":[-87.71338,41.520868]}},{"properties":{"city":"Maywood","total count":205,"zip":"60153","geo_score":0.873,"survivor":27,"inactive":74,"annuitant":43,"id":"a690dpvkjs4y","geo_precision":"zip","active":61,"state":"Illinois"},"type":"Feature","geometry":{"type":"Point","coordinates":[-87.853393,41.86392]}},{"properties":{"city":"Maywood","total count":null,"zip":"60155","geo_score":0.873,"survivor":null,"inactive":null,"annuitant":null,"id":"a690dppb9mkb","geo_precision":"zip","active":1,"state":"Illinois"},"type":"Feature","geometry":{"type":"Point","coordinates":[-87.68732,41.811929]}},{"properties":{"city":"Mc Cook","total count":null,"zip":"60525","geo_score":0.867,"survivor":null,"inactive":1,"annuitant":null,"id":"a690dprn4zi4","geo_precision":"zip","active":null,"state":"Illinois"},"type":"Feature","geometry":{"type":"Point","coordinates":[-87.902281,41.770309]}},{"properties":{"city":"Melrose Park","total count":196,"zip":"60160","geo_score":1.0,"survivor":17,"inactive":67,"annuitant":24,"id":"a690dpn61o2c","geo_precision":"zip","active":88,"state":"Illinois"},"type":"Feature","geometry":{"type":"Point","coordinates":[-87.858707,41.91488]}},{"properties":{"city":"Melrose Park","total count":null,"zip":"60161","geo_score":1.0,"survivor":null,"inactive":null,"annuitant":null,"id":"a690dpzwgqba","geo_precision":"zip","active":1,"state":"Illinois"},"type":"Feature","geometry":{"type":"Point","coordinates":[-87.68732,41.811929]}},{"properties":{"city":"Melrose Park","total count":57,"zip":"60164","geo_score":0.883,"survivor":6,"inactive":26,"annuitant":10,"id":"a690dpnnfo7w","geo_precision":"zip","active":15,"state":"Illinois"},"type":"Feature","geometry":{"type":"Point","coordinates":[-87.895619,41.917253]}},{"properties":{"city":"Merrionette Park","total count":null,"zip":"60655","geo_score":1.0,"survivor":1,"inactive":null,"annuitant":null,"id":"a690dpz0eenv","geo_precision":"zip","active":null,"state":"Illinois"},"type":"Feature","geometry":{"type":"Point","coordinates":[-87.700328,41.6842]}},{"properties":{"city":"Merrionette Park","total count":15,"zip":"60803","geo_score":0.876,"survivor":1,"inactive":4,"annuitant":2,"id":"a690dpyy1yc9","geo_precision":"zip","active":8,"state":"Illinois"},"type":"Feature","geometry":{"type":"Point","coordinates":[-87.68732,41.811929]}},{"properties":{"city":"Midlothian","total count":75,"zip":"60445","geo_score":0.871,"survivor":9,"inactive":26,"annuitant":7,"id":"a690dpty7y04","geo_precision":"zip","active":33,"state":"Illinois"},"type":"Feature","geometry":{"type":"Point","coordinates":[-87.752551,41.661144]}},{"properties":{"city":"Mokena","total count":null,"zip":"60448","geo_score":0.881,"survivor":null,"inactive":null,"annuitant":1,"id":"a690dplf9n6a","geo_precision":"zip","active":null,"state":"Illinois"},"type":"Feature","geometry":{"type":"Point","coordinates":[-87.92561,41.548643]}},{"properties":{"city":"Monee","total count":null,"zip":"60429","geo_score":0.878,"survivor":1,"inactive":null,"annuitant":null,"id":"a690dpsjdt7s","geo_precision":"zip","active":null,"state":"Illinois"},"type":"Feature","geometry":{"type":"Point","coordinates":[-87.646435,41.573646]}},{"properties":{"city":"Monee","total count":null,"zip":"60449","geo_score":1.0,"survivor":null,"inactive":null,"annuitant":1,"id":"a690dpp881wm","geo_precision":"zip","active":null,"state":"Illinois"},"type":"Feature","geometry":{"type":"Point","coordinates":[-87.786645,41.412269]}},{"properties":{"city":"Morton Grove","total count":285,"zip":"60053","geo_score":1.0,"survivor":28,"inactive":86,"annuitant":67,"id":"a690dpu99q18","geo_precision":"zip","active":104,"state":"Illinois"},"type":"Feature","geometry":{"type":"Point","coordinates":[-87.793815,42.039329]}},{"properties":{"city":"Mount Prospect","total count":334,"zip":"60056","geo_score":0.89,"survivor":31,"inactive":106,"annuitant":64,"id":"a690dpqyzdgr","geo_precision":"zip","active":133,"state":"Illinois"},"type":"Feature","geometry":{"type":"Point","coordinates":[-87.895067,42.076695]}},{"properties":{"city":"Mt Prospect","total count":77,"zip":"60056","geo_score":0.87,"survivor":10,"inactive":30,"annuitant":2,"id":"a690dpx8kgip","geo_precision":"zip","active":35,"state":"Illinois"},"type":"Feature","geometry":{"type":"Point","coordinates":[-87.895067,42.076695]}},{"properties":{"city":"N Riverside","total count":null,"zip":"60546","geo_score":0.959,"survivor":null,"inactive":3,"annuitant":null,"id":"a690dpujahpu","geo_precision":"zip","active":1,"state":"Illinois"},"type":"Feature","geometry":{"type":"Point","coordinates":[-87.823114,41.842809]}},{"properties":{"city":"Niles","total count":211,"zip":"60714","geo_score":1.0,"survivor":22,"inactive":65,"annuitant":34,"id":"a690dpnymvyc","geo_precision":"zip","active":90,"state":"Illinois"},"type":"Feature","geometry":{"type":"Point","coordinates":[-87.811163,42.031179]}},{"properties":{"city":"No Riverside","total count":null,"zip":"60546","geo_score":0.969,"survivor":null,"inactive":null,"annuitant":null,"id":"a690dpw72qv8","geo_precision":"zip","active":1,"state":"Illinois"},"type":"Feature","geometry":{"type":"Point","coordinates":[-87.823114,41.842809]}},{"properties":{"city":"Norridge","total count":87,"zip":"60706","geo_score":0.888,"survivor":12,"inactive":30,"annuitant":16,"id":"a690dpp9tox0","geo_precision":"zip","active":29,"state":"Illinois"},"type":"Feature","geometry":{"type":"Point","coordinates":[-87.68732,41.811929]}},{"properties":{"city":"North Riverside","total count":69,"zip":"60546","geo_score":1.0,"survivor":9,"inactive":22,"annuitant":11,"id":"a690dpyfhn09","geo_precision":"zip","active":27,"state":"Illinois"},"type":"Feature","geometry":{"type":"Point","coordinates":[-87.823114,41.842809]}},{"properties":{"city":"Northbrook","total count":364,"zip":"60062","geo_score":1.0,"survivor":55,"inactive":107,"annuitant":79,"id":"a690dpzdltgx","geo_precision":"zip","active":123,"state":"Illinois"},"type":"Feature","geometry":{"type":"Point","coordinates":[-87.838815,42.120176]}},{"properties":{"city":"Northbrook","total count":null,"zip":"60065","geo_score":1.0,"survivor":2,"inactive":null,"annuitant":2,"id":"a690dpy8r7uk","geo_precision":"zip","active":1,"state":"Illinois"},"type":"Feature","geometry":{"type":"Point","coordinates":[-87.68732,41.811929]}},{"properties":{"city":"Northfield","total count":61,"zip":"60093","geo_score":0.886,"survivor":3,"inactive":24,"annuitant":14,"id":"a690dpmerl74","geo_precision":"zip","active":20,"state":"Illinois"},"type":"Feature","geometry":{"type":"Point","coordinates":[-87.647822,41.501702]}},{"properties":{"city":"Northlake","total count":83,"zip":"60164","geo_score":1.0,"survivor":7,"inactive":41,"annuitant":5,"id":"a690dpowrl2v","geo_precision":"zip","active":30,"state":"Illinois"},"type":"Feature","geometry":{"type":"Point","coordinates":[-87.895619,41.917253]}},{"properties":{"city":"Oak Forest","total count":201,"zip":"60452","geo_score":1.0,"survivor":23,"inactive":53,"annuitant":34,"id":"a690dpy8dcho","geo_precision":"zip","active":91,"state":"Illinois"},"type":"Feature","geometry":{"type":"Point","coordinates":[-87.68732,41.811929]}},{"properties":{"city":"Oak Lawn","total count":624,"zip":"60453","geo_score":1.0,"survivor":101,"inactive":153,"annuitant":98,"id":"a690dpu4x4jh","geo_precision":"zip","active":272,"state":"Illinois"},"type":"Feature","geometry":{"type":"Point","coordinates":[-87.68732,41.811929]}},{"properties":{"city":"Oak Lawn","total count":null,"zip":"60454","geo_score":1.0,"survivor":null,"inactive":4,"annuitant":null,"id":"a690dpnvsyuz","geo_precision":"zip","active":4,"state":"Illinois"},"type":"Feature","geometry":{"type":"Point","coordinates":[-87.68732,41.811929]}},{"properties":{"city":"Oak Park","total count":null,"zip":"6032","geo_score":0.714,"survivor":null,"inactive":1,"annuitant":null,"id":"a690dpufz2tc","geo_precision":"zip","active":null,"state":"Illinois"},"type":"Feature","geometry":{"type":"Point","coordinates":[-72.8626,41.744822]}},{"properties":{"city":"Oak Park","total count":62,"zip":"60301","geo_score":1.0,"survivor":7,"inactive":16,"annuitant":9,"id":"a690dpym565a","geo_precision":"zip","active":30,"state":"Illinois"},"type":"Feature","geometry":{"type":"Point","coordinates":[-87.68732,41.811929]}},{"properties":{"city":"Oak Park","total count":1120,"zip":"60302","geo_score":1.0,"survivor":79,"inactive":343,"annuitant":193,"id":"a690dpxa4g6k","geo_precision":"zip","active":505,"state":"Illinois"},"type":"Feature","geometry":{"type":"Point","coordinates":[-87.68732,41.811929]}},{"properties":{"city":"Oak Park","total count":null,"zip":"60303","geo_score":1.0,"survivor":null,"inactive":7,"annuitant":4,"id":"a690dpnwo7w5","geo_precision":"zip","active":11,"state":"Illinois"},"type":"Feature","geometry":{"type":"Point","coordinates":[-87.68732,41.811929]}},{"properties":{"city":"Oak Park","total count":640,"zip":"60304","geo_score":1.0,"survivor":42,"inactive":207,"annuitant":73,"id":"a690dpvgee0y","geo_precision":"zip","active":318,"state":"Illinois"},"type":"Feature","geometry":{"type":"Point","coordinates":[-87.68732,41.811929]}},{"properties":{"city":"Olmpia Fields","total count":null,"zip":"60461","geo_score":0.989,"survivor":1,"inactive":null,"annuitant":null,"id":"a690dpsj3sam","geo_precision":"zip","active":null,"state":"Illinois"},"type":"Feature","geometry":{"type":"Point","coordinates":[-87.68732,41.811929]}},{"properties":{"city":"Olympia Fields","total count":159,"zip":"60461","geo_score":1.0,"survivor":13,"inactive":42,"annuitant":43,"id":"a690dpyvr4l7","geo_precision":"zip","active":61,"state":"Illinois"},"type":"Feature","geometry":{"type":"Point","coordinates":[-87.68732,41.811929]}},{"properties":{"city":"Olympia Flds","total count":null,"zip":"60461","geo_score":0.978,"survivor":null,"inactive":2,"annuitant":null,"id":"a690dpm3pk3a","geo_precision":"zip","active":1,"state":"Illinois"},"type":"Feature","geometry":{"type":"Point","coordinates":[-87.68732,41.811929]}},{"properties":{"city":"Orland Hills","total count":null,"zip":"60477","geo_score":1.0,"survivor":null,"inactive":4,"annuitant":null,"id":"a690dpwx2lpw","geo_precision":"zip","active":7,"state":"Illinois"},"type":"Feature","geometry":{"type":"Point","coordinates":[-87.843108,41.585311]}},{"properties":{"city":"Orland Hills","total count":38,"zip":"60487","geo_score":0.753,"survivor":5,"inactive":10,"annuitant":2,"id":"a690dprg72yd","geo_precision":"city","active":21,"state":"Illinois"},"type":"Feature","geometry":{"type":"Point","coordinates":[-89.670103,40.596705]}},{"properties":{"city":"Orland Park","total count":508,"zip":"60462","geo_score":0.886,"survivor":59,"inactive":146,"annuitant":98,"id":"a690dpqtrqy3","geo_precision":"zip","active":205,"state":"Illinois"},"type":"Feature","geometry":{"type":"Point","coordinates":[-87.823385,41.570033]}},{"properties":{"city":"Orland Park","total count":328,"zip":"60467","geo_score":1.0,"survivor":32,"inactive":78,"annuitant":71,"id":"a690dptqny8b","geo_precision":"zip","active":147,"state":"Illinois"},"type":"Feature","geometry":{"type":"Point","coordinates":[-87.68732,41.811929]}},{"properties":{"city":"Palatine","total count":null,"zip":"60018","geo_score":0.875,"survivor":null,"inactive":1,"annuitant":null,"id":"a690dpr191qj","geo_precision":"zip","active":null,"state":"Illinois"},"type":"Feature","geometry":{"type":"Point","coordinates":[-87.884509,41.995308]}},{"properties":{"city":"Palatine","total count":437,"zip":"60067","geo_score":0.873,"survivor":42,"inactive":143,"annuitant":69,"id":"a690dprq1lgd","geo_precision":"zip","active":183,"state":"Illinois"},"type":"Feature","geometry":{"type":"Point","coordinates":[-88.096187,42.118082]}},{"properties":{"city":"Palatine","total count":228,"zip":"60074","geo_score":1.0,"survivor":17,"inactive":87,"annuitant":34,"id":"a690dpvmu304","geo_precision":"zip","active":90,"state":"Illinois"},"type":"Feature","geometry":{"type":"Point","coordinates":[-88.049424,42.129875]}},{"properties":{"city":"Palatine","total count":null,"zip":"60078","geo_score":1.0,"survivor":null,"inactive":2,"annuitant":2,"id":"a690dpo0i21n","geo_precision":"zip","active":1,"state":"Illinois"},"type":"Feature","geometry":{"type":"Point","coordinates":[-87.68732,41.811929]}},{"properties":{"city":"Palatine","total count":null,"zip":"60622","geo_score":0.857,"survivor":null,"inactive":null,"annuitant":null,"id":"a690dpplk702","geo_precision":"zip","active":1,"state":"Illinois"},"type":"Feature","geometry":{"type":"Point","coordinates":[-87.68732,41.811929]}},{"properties":{"city":"Palos Heights","total count":248,"zip":"60463","geo_score":1.0,"survivor":28,"inactive":75,"annuitant":53,"id":"a690dpm0k7zd","geo_precision":"zip","active":92,"state":"Illinois"},"type":"Feature","geometry":{"type":"Point","coordinates":[-87.68732,41.811929]}},{"properties":{"city":"Palos Hills","total count":209,"zip":"60465","geo_score":1.0,"survivor":24,"inactive":41,"annuitant":39,"id":"a690dpu65wng","geo_precision":"zip","active":105,"state":"Illinois"},"type":"Feature","geometry":{"type":"Point","coordinates":[-87.68732,41.811929]}},{"properties":{"city":"Palos Park","total count":173,"zip":"60464","geo_score":1.0,"survivor":18,"inactive":44,"annuitant":38,"id":"a690dpmi2xu4","geo_precision":"zip","active":73,"state":"Illinois"},"type":"Feature","geometry":{"type":"Point","coordinates":[-87.68732,41.811929]}},{"properties":{"city":"Park Forest","total count":379,"zip":"60466","geo_score":0.867,"survivor":49,"inactive":89,"annuitant":88,"id":"a690dpsfhvjm","geo_precision":"zip","active":153,"state":"Illinois"},"type":"Feature","geometry":{"type":"Point","coordinates":[-87.685325,41.592257]}},{"properties":{"city":"Park Ridge","total count":498,"zip":"60068","geo_score":1.0,"survivor":60,"inactive":160,"annuitant":104,"id":"a690dpurhtaj","geo_precision":"zip","active":174,"state":"Illinois"},"type":"Feature","geometry":{"type":"Point","coordinates":[-87.843714,42.037228]}},{"properties":{"city":"Phoenix","total count":19,"zip":"60426","geo_score":1.0,"survivor":2,"inactive":4,"annuitant":3,"id":"a690dps1yxvh","geo_precision":"zip","active":10,"state":"Illinois"},"type":"Feature","geometry":{"type":"Point","coordinates":[-87.634768,41.611146]}},{"properties":{"city":"Posen","total count":null,"zip":"60469","geo_score":1.0,"survivor":null,"inactive":2,"annuitant":6,"id":"a690dpyq674c","geo_precision":"zip","active":6,"state":"Illinois"},"type":"Feature","geometry":{"type":"Point","coordinates":[-87.68732,41.811929]}},{"properties":{"city":"Prospect Heights","total count":71,"zip":"60070","geo_score":1.0,"survivor":3,"inactive":25,"annuitant":20,"id":"a690dptpuhu7","geo_precision":"zip","active":23,"state":"Illinois"},"type":"Feature","geometry":{"type":"Point","coordinates":[-87.939519,42.105805]}},{"properties":{"city":"Prospect Heights","total count":null,"zip":"60070","geo_score":1.0,"survivor":4,"inactive":3,"annuitant":null,"id":"a690dpvcsdbh","geo_precision":"zip","active":4,"state":"Illinois"},"type":"Feature","geometry":{"type":"Point","coordinates":[-87.939519,42.105805]}},{"properties":{"city":"Richton Park","total count":182,"zip":"60471","geo_score":1.0,"survivor":19,"inactive":43,"annuitant":30,"id":"a690dpn2dceo","geo_precision":"zip","active":90,"state":"Illinois"},"type":"Feature","geometry":{"type":"Point","coordinates":[-87.68732,41.811929]}},{"properties":{"city":"River Forest","total count":305,"zip":"60305","geo_score":1.0,"survivor":25,"inactive":99,"annuitant":72,"id":"a690dpzwud5c","geo_precision":"zip","active":109,"state":"Illinois"},"type":"Feature","geometry":{"type":"Point","coordinates":[-87.68732,41.811929]}},{"properties":{"city":"River Grove","total count":116,"zip":"60171","geo_score":1.0,"survivor":18,"inactive":43,"annuitant":15,"id":"a690dplekbft","geo_precision":"zip","active":40,"state":"Illinois"},"type":"Feature","geometry":{"type":"Point","coordinates":[-87.83931,41.923168]}},{"properties":{"city":"Riverdale","total count":null,"zip":"60627","geo_score":0.873,"survivor":2,"inactive":null,"annuitant":null,"id":"a690dpx96pm8","geo_precision":"zip","active":null,"state":"Illinois"},"type":"Feature","geometry":{"type":"Point","coordinates":[-87.650052,41.850033]}},{"properties":{"city":"Riverdale","total count":91,"zip":"60827","geo_score":1.0,"survivor":11,"inactive":15,"annuitant":15,"id":"a690dpwbba0w","geo_precision":"zip","active":50,"state":"Illinois"},"type":"Feature","geometry":{"type":"Point","coordinates":[-87.68732,41.811929]}},{"properties":{"city":"Riverside","total count":203,"zip":"60546","geo_score":0.949,"survivor":18,"inactive":83,"annuitant":36,"id":"a690dpys4wol","geo_precision":"zip","active":66,"state":"Illinois"},"type":"Feature","geometry":{"type":"Point","coordinates":[-87.823114,41.842809]}},{"properties":{"city":"Robbins","total count":null,"zip":"60472","geo_score":1.0,"survivor":3,"inactive":null,"annuitant":11,"id":"a690dptonzbu","geo_precision":"zip","active":11,"state":"Illinois"},"type":"Feature","geometry":{"type":"Point","coordinates":[-87.878888,41.95273]}},{"properties":{"city":"Rockford","total count":null,"zip":"61109","geo_score":0.914,"survivor":1,"inactive":null,"annuitant":null,"id":"a690dps5tylb","geo_precision":"zip","active":null,"state":"Illinois"},"type":"Feature","geometry":{"type":"Point","coordinates":[-89.067881,42.186967]}},{"properties":{"city":"Rolling Mdws","total count":null,"zip":"60008","geo_score":0.969,"survivor":1,"inactive":1,"annuitant":null,"id":"a690dpzgzpxu","geo_precision":"zip","active":null,"state":"Illinois"},"type":"Feature","geometry":{"type":"Point","coordinates":[-88.026871,42.074226]}},{"properties":{"city":"Rolling Meadows","total count":147,"zip":"60008","geo_score":1.0,"survivor":10,"inactive":57,"annuitant":30,"id":"a690dpxmputc","geo_precision":"zip","active":50,"state":"Illinois"},"type":"Feature","geometry":{"type":"Point","coordinates":[-88.026871,42.074226]}},{"properties":{"city":"Roselle","total count":null,"zip":"60172","geo_score":0.909,"survivor":null,"inactive":null,"annuitant":1,"id":"a690dpvjviuf","geo_precision":"zip","active":null,"state":"Illinois"},"type":"Feature","geometry":{"type":"Point","coordinates":[-88.12035,41.967528]}},{"properties":{"city":"Rosemont","total count":12,"zip":"60018","geo_score":1.0,"survivor":1,"inactive":5,"annuitant":2,"id":"a690dpwqqq5l","geo_precision":"zip","active":4,"state":"Illinois"},"type":"Feature","geometry":{"type":"Point","coordinates":[-87.884509,41.995308]}},{"properties":{"city":"S Chicago Heights","total count":null,"zip":"60411","geo_score":0.97,"survivor":1,"inactive":1,"annuitant":null,"id":"a690dpm8iv1j","geo_precision":"zip","active":3,"state":"Illinois"},"type":"Feature","geometry":{"type":"Point","coordinates":[-87.637821,41.480868]}},{"properties":{"city":"Sauk Village","total count":49,"zip":"60411","geo_score":0.895,"survivor":6,"inactive":9,"annuitant":7,"id":"a690dpkdpm6h","geo_precision":"zip","active":27,"state":"Illinois"},"type":"Feature","geometry":{"type":"Point","coordinates":[-87.637821,41.480868]}},{"properties":{"city":"Schaumburg","total count":null,"zip":"60159","geo_score":1.0,"survivor":null,"inactive":2,"annuitant":null,"id":"a690dpxtg6rp","geo_precision":"zip","active":null,"state":"Illinois"},"type":"Feature","geometry":{"type":"Point","coordinates":[-87.68732,41.811929]}},{"properties":{"city":"Schaumburg","total count":null,"zip":"60168","geo_score":1.0,"survivor":null,"inactive":1,"annuitant":null,"id":"a690dpke6kez","geo_precision":"zip","active":null,"state":"Illinois"},"type":"Feature","geometry":{"type":"Point","coordinates":[-87.68732,41.811929]}},{"properties":{"city":"Schaumburg","total count":null,"zip":"60169","geo_score":0.857,"survivor":null,"inactive":null,"annuitant":null,"id":"a690dpymxp5x","geo_precision":"city","active":1,"state":"Illinois"},"type":"Feature","geometry":{"type":"Point","coordinates":[-88.083959,42.030261]}},{"properties":{"city":"Schaumburg","total count":81,"zip":"60173","geo_score":1.0,"survivor":5,"inactive":34,"annuitant":7,"id":"a690dpwhs4qr","geo_precision":"zip","active":35,"state":"Illinois"},"type":"Feature","geometry":{"type":"Point","coordinates":[-88.046403,42.079837]}},{"properties":{"city":"Schaumburg","total count":368,"zip":"60193","geo_score":1.0,"survivor":35,"inactive":126,"annuitant":53,"id":"a690dpy7ldmh","geo_precision":"zip","active":154,"state":"Illinois"},"type":"Feature","geometry":{"type":"Point","coordinates":[-88.117844,42.016827]}},{"properties":{"city":"Schaumburg","total count":168,"zip":"60194","geo_score":1.0,"survivor":7,"inactive":58,"annuitant":25,"id":"a690dpt4ymmo","geo_precision":"zip","active":78,"state":"Illinois"},"type":"Feature","geometry":{"type":"Point","coordinates":[-88.116655,42.028926]}},{"properties":{"city":"Schaumburg","total count":26,"zip":"60195","geo_score":0.867,"survivor":3,"inactive":5,"annuitant":4,"id":"a690dpwu22h0","geo_precision":"zip","active":14,"state":"Illinois"},"type":"Feature","geometry":{"type":"Point","coordinates":[-88.079795,42.042805]}},{"properties":{"city":"Schiller Park","total count":72,"zip":"60176","geo_score":1.0,"survivor":4,"inactive":35,"annuitant":4,"id":"a690dpvzp1n6","geo_precision":"zip","active":29,"state":"Illinois"},"type":"Feature","geometry":{"type":"Point","coordinates":[-87.873412,41.95918]}},{"properties":{"city":"Skokie","total count":451,"zip":"60076","geo_score":1.0,"survivor":37,"inactive":143,"annuitant":84,"id":"a690dptzhfxr","geo_precision":"zip","active":187,"state":"Illinois"},"type":"Feature","geometry":{"type":"Point","coordinates":[-87.883566,42.057878]}},{"properties":{"city":"Skokie","total count":257,"zip":"60077","geo_score":1.0,"survivor":26,"inactive":73,"annuitant":34,"id":"a690dpr1219j","geo_precision":"zip","active":124,"state":"Illinois"},"type":"Feature","geometry":{"type":"Point","coordinates":[-87.76266,42.03468]}},{"properties":{"city":"South Barrington","total count":null,"zip":"60010","geo_score":0.876,"survivor":null,"inactive":null,"annuitant":1,"id":"a690dpycp07t","geo_precision":"zip","active":null,"state":"Illinois"},"type":"Feature","geometry":{"type":"Point","coordinates":[-88.152025,42.231968]}},{"properties":{"city":"South Chicago Height","total count":null,"zip":"60411","geo_score":0.992,"survivor":1,"inactive":3,"annuitant":null,"id":"a690dppiyghg","geo_precision":"zip","active":7,"state":"Illinois"},"type":"Feature","geometry":{"type":"Point","coordinates":[-87.637821,41.480868]}},{"properties":{"city":"South Chicago Hts","total count":null,"zip":"60411","geo_score":0.97,"survivor":1,"inactive":null,"annuitant":null,"id":"a690dpn02kt4","geo_precision":"zip","active":null,"state":"Illinois"},"type":"Feature","geometry":{"type":"Point","coordinates":[-87.637821,41.480868]}},{"properties":{"city":"South Holland","total count":379,"zip":"60473","geo_score":0.875,"survivor":47,"inactive":81,"annuitant":78,"id":"a690dpqw7s4e","geo_precision":"zip","active":173,"state":"Illinois"},"type":"Feature","geometry":{"type":"Point","coordinates":[-87.606989,41.589202]}},{"properties":{"city":"Steger","total count":74,"zip":"60475","geo_score":1.0,"survivor":6,"inactive":17,"annuitant":8,"id":"a690dpllu79g","geo_precision":"zip","active":43,"state":"Illinois"},"type":"Feature","geometry":{"type":"Point","coordinates":[-87.68732,41.811929]}},{"properties":{"city":"Stickney","total count":32,"zip":"60402","geo_score":1.0,"survivor":1,"inactive":10,"annuitant":5,"id":"a690dprjm2oz","geo_precision":"zip","active":16,"state":"Illinois"},"type":"Feature","geometry":{"type":"Point","coordinates":[-87.782834,41.821421]}},{"properties":{"city":"Stone Park","total count":21,"zip":"60165","geo_score":1.0,"survivor":2,"inactive":8,"annuitant":2,"id":"a690dpulct4x","geo_precision":"zip","active":9,"state":"Illinois"},"type":"Feature","geometry":{"type":"Point","coordinates":[-87.878011,41.90743]}},{"properties":{"city":"Streamwood","total count":220,"zip":"60107","geo_score":1.0,"survivor":10,"inactive":95,"annuitant":14,"id":"a690dpnx18sq","geo_precision":"zip","active":101,"state":"Illinois"},"type":"Feature","geometry":{"type":"Point","coordinates":[-88.178475,42.019093]}},{"properties":{"city":"Summit","total count":22,"zip":"60501","geo_score":1.0,"survivor":2,"inactive":8,"annuitant":2,"id":"a690dpx9n951","geo_precision":"zip","active":10,"state":"Illinois"},"type":"Feature","geometry":{"type":"Point","coordinates":[-87.810334,41.788088]}},{"properties":{"city":"Summit Argo","total count":null,"zip":"60501","geo_score":0.943,"survivor":null,"inactive":2,"annuitant":null,"id":"a690dpple26w","geo_precision":"zip","active":1,"state":"Illinois"},"type":"Feature","geometry":{"type":"Point","coordinates":[-87.810334,41.788088]}},{"properties":{"city":"Techny","total count":null,"zip":"60082","geo_score":1.0,"survivor":2,"inactive":null,"annuitant":1,"id":"a690dprbc1ts","geo_precision":"zip","active":null,"state":"Illinois"},"type":"Feature","geometry":{"type":"Point","coordinates":[-87.812064,42.116377]}},{"properties":{"city":"Thornton","total count":30,"zip":"60476","geo_score":1.0,"survivor":6,"inactive":7,"annuitant":2,"id":"a690dpxkoyr0","geo_precision":"zip","active":15,"state":"Illinois"},"type":"Feature","geometry":{"type":"Point","coordinates":[-87.68732,41.811929]}},{"properties":{"city":"Tinley Park","total count":404,"zip":"60477","geo_score":0.857,"survivor":42,"inactive":131,"annuitant":69,"id":"a690dps1thp1","geo_precision":"zip","active":162,"state":"Illinois"},"type":"Feature","geometry":{"type":"Point","coordinates":[-87.843108,41.585311]}},{"properties":{"city":"Tinley Park","total count":158,"zip":"60487","geo_score":0.857,"survivor":12,"inactive":44,"annuitant":38,"id":"a690dpwl0qkn","geo_precision":"city","active":64,"state":"Illinois"},"type":"Feature","geometry":{"type":"Point","coordinates":[-88.026517,42.143475]}},{"properties":{"city":"University Park","total count":31,"zip":"60466","geo_score":1.0,"survivor":4,"inactive":15,"annuitant":1,"id":"a690dpputo4r","geo_precision":"zip","active":11,"state":"Illinois"},"type":"Feature","geometry":{"type":"Point","coordinates":[-87.685325,41.592257]}},{"properties":{"city":"Vernon Hills","total count":null,"zip":"60061","geo_score":1.0,"survivor":null,"inactive":1,"annuitant":null,"id":"a690dpxeorqf","geo_precision":"zip","active":null,"state":"Illinois"},"type":"Feature","geometry":{"type":"Point","coordinates":[-87.962973,42.231183]}},{"properties":{"city":"Westchester","total count":246,"zip":"60154","geo_score":1.0,"survivor":22,"inactive":97,"annuitant":45,"id":"a690dpzrezti","geo_precision":"zip","active":82,"state":"Illinois"},"type":"Feature","geometry":{"type":"Point","coordinates":[-87.68732,41.811929]}},{"properties":{"city":"Western Sprgs","total count":null,"zip":"60558","geo_score":0.98,"survivor":null,"inactive":1,"annuitant":null,"id":"a690dpq2u4of","geo_precision":"zip","active":null,"state":"Illinois"},"type":"Feature","geometry":{"type":"Point","coordinates":[-87.68732,41.811929]}},{"properties":{"city":"Western Springs","total count":194,"zip":"60558","geo_score":1.0,"survivor":20,"inactive":66,"annuitant":45,"id":"a690dprct97t","geo_precision":"zip","active":63,"state":"Illinois"},"type":"Feature","geometry":{"type":"Point","coordinates":[-87.68732,41.811929]}},{"properties":{"city":"Wheeling","total count":164,"zip":"60090","geo_score":1.0,"survivor":19,"inactive":61,"annuitant":13,"id":"a690dpo8xzhy","geo_precision":"zip","active":71,"state":"Illinois"},"type":"Feature","geometry":{"type":"Point","coordinates":[-87.933819,42.124176]}},{"properties":{"city":"Willmette","total count":null,"zip":"60091","geo_score":0.984,"survivor":1,"inactive":null,"annuitant":null,"id":"a690dptrtrpq","geo_precision":"zip","active":null,"state":"Illinois"},"type":"Feature","geometry":{"type":"Point","coordinates":[-87.72836,42.079228]}},{"properties":{"city":"Willow Sprgs","total count":null,"zip":"60480","geo_score":0.978,"survivor":null,"inactive":1,"annuitant":null,"id":"a690dpn6k0eg","geo_precision":"zip","active":null,"state":"Illinois"},"type":"Feature","geometry":{"type":"Point","coordinates":[-87.68732,41.811929]}},{"properties":{"city":"Willow Springs","total count":59,"zip":"60480","geo_score":1.0,"survivor":4,"inactive":18,"annuitant":12,"id":"a690dpx8l5d6","geo_precision":"zip","active":25,"state":"Illinois"},"type":"Feature","geometry":{"type":"Point","coordinates":[-87.68732,41.811929]}},{"properties":{"city":"Wilmette","total count":377,"zip":"60091","geo_score":1.0,"survivor":47,"inactive":121,"annuitant":92,"id":"a690dpx0jtm6","geo_precision":"zip","active":117,"state":"Illinois"},"type":"Feature","geometry":{"type":"Point","coordinates":[-87.72836,42.079228]}},{"properties":{"city":"Wilmington","total count":null,"zip":"60481","geo_score":0.914,"survivor":null,"inactive":null,"annuitant":1,"id":"a690dpss64k5","geo_precision":"zip","active":null,"state":"Illinois"},"type":"Feature","geometry":{"type":"Point","coordinates":[-88.052554,41.328643]}},{"properties":{"city":"Winnetka","total count":99,"zip":"60093","geo_score":0.886,"survivor":19,"inactive":33,"annuitant":30,"id":"a690dpk2ygqf","geo_precision":"zip","active":17,"state":"Illinois"},"type":"Feature","geometry":{"type":"Point","coordinates":[-87.647822,41.501702]}},{"properties":{"city":"Worth","total count":74,"zip":"60482","geo_score":0.871,"survivor":8,"inactive":18,"annuitant":12,"id":"a690dpveop4r","geo_precision":"zip","active":36,"state":"Illinois"},"type":"Feature","geometry":{"type":"Point","coordinates":[-87.740051,41.683367]}},{"properties":{"city":"Big Rock","total count":null,"zip":"60511","geo_score":1.0,"survivor":1,"inactive":null,"annuitant":null,"id":"a690dpvhf1zq","geo_precision":"zip","active":null,"state":"Illinois"},"type":"Feature","geometry":{"type":"Point","coordinates":[-88.54574,41.764324]}},{"properties":{"city":"Caledonia","total count":null,"zip":"61011","geo_score":0.949,"survivor":null,"inactive":null,"annuitant":1,"id":"a690dpysy40u","geo_precision":"zip","active":null,"state":"Illinois"},"type":"Feature","geometry":{"type":"Point","coordinates":[-88.892604,42.369463]}},{"properties":{"city":"Chicago","total count":null,"zip":"60115","geo_score":0.878,"survivor":null,"inactive":1,"annuitant":null,"id":"a690dpnypmc9","geo_precision":"zip","active":null,"state":"Illinois"},"type":"Feature","geometry":{"type":"Point","coordinates":[-88.776197,41.864196]}},{"properties":{"city":"Clare","total count":16,"zip":"60111","geo_score":1.0,"survivor":2,"inactive":2,"annuitant":6,"id":"a690dpvo2l7m","geo_precision":"zip","active":6,"state":"Illinois"},"type":"Feature","geometry":{"type":"Point","coordinates":[-88.83055,42.008626]}},{"properties":{"city":"Cortland","total count":144,"zip":"60112","geo_score":1.0,"survivor":13,"inactive":24,"annuitant":20,"id":"a690dpqwz23f","geo_precision":"zip","active":87,"state":"Illinois"},"type":"Feature","geometry":{"type":"Point","coordinates":[-88.684007,41.926177]}},{"properties":{"city":"De Kalb","total count":21,"zip":"60115","geo_score":0.881,"survivor":17,"inactive":1,"annuitant":1,"id":"a690dpy3u6qy","geo_precision":"zip","active":2,"state":"Illinois"},"type":"Feature","geometry":{"type":"Point","coordinates":[-88.776197,41.864196]}},{"properties":{"city":"Dekalb","total count":3198,"zip":"60115","geo_score":0.881,"survivor":309,"inactive":334,"annuitant":854,"id":"a690dptznokx","geo_precision":"zip","active":1701,"state":"Illinois"},"type":"Feature","geometry":{"type":"Point","coordinates":[-88.776197,41.864196]}},{"properties":{"city":"Dekalb","total count":null,"zip":"60145","geo_score":0.878,"survivor":null,"inactive":1,"annuitant":null,"id":"a690dpjwjsw7","geo_precision":"zip","active":null,"state":"Illinois"},"type":"Feature","geometry":{"type":"Point","coordinates":[-88.776207,42.154747]}},{"properties":{"city":"Esmond","total count":15,"zip":"60129","geo_score":1.0,"survivor":3,"inactive":2,"annuitant":3,"id":"a690dpzpsv4k","geo_precision":"zip","active":7,"state":"Illinois"},"type":"Feature","geometry":{"type":"Point","coordinates":[-88.919791,42.042932]}},{"properties":{"city":"Freeport","total count":null,"zip":"61032","geo_score":0.871,"survivor":null,"inactive":null,"annuitant":1,"id":"a690dpph8ze8","geo_precision":"zip","active":null,"state":"Illinois"},"type":"Feature","geometry":{"type":"Point","coordinates":[-89.527338,42.344462]}},{"properties":{"city":"Genoa","total count":138,"zip":"60135","geo_score":1.0,"survivor":17,"inactive":29,"annuitant":33,"id":"a690dpyt3f7j","geo_precision":"zip","active":59,"state":"Illinois"},"type":"Feature","geometry":{"type":"Point","coordinates":[-88.718101,42.10153]}},{"properties":{"city":"Hinckley","total count":79,"zip":"60520","geo_score":1.0,"survivor":16,"inactive":13,"annuitant":12,"id":"a690dpwo24bj","geo_precision":"zip","active":38,"state":"Illinois"},"type":"Feature","geometry":{"type":"Point","coordinates":[-88.686052,41.740713]}},{"properties":{"city":"Il","total count":null,"zip":"60115","geo_score":0.893,"survivor":1,"inactive":null,"annuitant":null,"id":"a690dpnzjtkv","geo_precision":"zip","active":null,"state":"Illinois"},"type":"Feature","geometry":{"type":"Point","coordinates":[-88.776197,41.864196]}},{"properties":{"city":"Kingston","total count":71,"zip":"60145","geo_score":0.857,"survivor":13,"inactive":13,"annuitant":18,"id":"a690dpv5xnpi","geo_precision":"zip","active":27,"state":"Illinois"},"type":"Feature","geometry":{"type":"Point","coordinates":[-88.776207,42.154747]}},{"properties":{"city":"Kirkland","total count":50,"zip":"60146","geo_score":0.893,"survivor":9,"inactive":10,"annuitant":9,"id":"a690dpqwe7h4","geo_precision":"zip","active":22,"state":"Illinois"},"type":"Feature","geometry":{"type":"Point","coordinates":[-88.932876,42.100025]}},{"properties":{"city":"Macomb","total count":null,"zip":"61455","geo_score":1.0,"survivor":1,"inactive":null,"annuitant":null,"id":"a690dpuau216","geo_precision":"zip","active":null,"state":"Illinois"},"type":"Feature","geometry":{"type":"Point","coordinates":[-90.660675,40.459904]}},{"properties":{"city":"Malta","total count":124,"zip":"60150","geo_score":1.0,"survivor":12,"inactive":18,"annuitant":46,"id":"a690dpoadefe","geo_precision":"zip","active":48,"state":"Illinois"},"type":"Feature","geometry":{"type":"Point","coordinates":[-88.88516,41.931731]}},{"properties":{"city":"Sandwich","total count":137,"zip":"60548","geo_score":1.0,"survivor":18,"inactive":34,"annuitant":26,"id":"a690dpkr033t","geo_precision":"zip","active":59,"state":"Illinois"},"type":"Feature","geometry":{"type":"Point","coordinates":[-88.688906,41.702091]}},{"properties":{"city":"Shabbona","total count":78,"zip":"60550","geo_score":1.0,"survivor":11,"inactive":8,"annuitant":18,"id":"a690dpze73rz","geo_precision":"zip","active":41,"state":"Illinois"},"type":"Feature","geometry":{"type":"Point","coordinates":[-88.836821,41.746774]}},{"properties":{"city":"Somonauk","total count":47,"zip":"60552","geo_score":0.875,"survivor":1,"inactive":17,"annuitant":7,"id":"a690dpyr2h11","geo_precision":"zip","active":22,"state":"Illinois"},"type":"Feature","geometry":{"type":"Point","coordinates":[-88.679801,41.710863]}},{"properties":{"city":"Sycamore","total count":1263,"zip":"60178","geo_score":0.881,"survivor":147,"inactive":167,"annuitant":312,"id":"a690dpkg0ds9","geo_precision":"zip","active":637,"state":"Illinois"},"type":"Feature","geometry":{"type":"Point","coordinates":[-88.631477,42.066415]}},{"properties":{"city":"Waterman","total count":88,"zip":"60556","geo_score":0.875,"survivor":11,"inactive":4,"annuitant":16,"id":"a690dpllb4ko","geo_precision":"zip","active":57,"state":"Illinois"},"type":"Feature","geometry":{"type":"Point","coordinates":[-88.802308,41.817529]}},{"properties":{"city":"Addison","total count":161,"zip":"60101","geo_score":1.0,"survivor":20,"inactive":59,"annuitant":37,"id":"a690dpu8hojm","geo_precision":"zip","active":45,"state":"Illinois"},"type":"Feature","geometry":{"type":"Point","coordinates":[-88.022516,41.887579]}},{"properties":{"city":"Aurora","total count":202,"zip":"60502","geo_score":0.857,"survivor":6,"inactive":78,"annuitant":25,"id":"a690dpjjqw9t","geo_precision":"city","active":93,"state":"Illinois"},"type":"Feature","geometry":{"type":"Point","coordinates":[-88.136616,41.768399]}},{"properties":{"city":"Aurora","total count":60,"zip":"60503","geo_score":0.857,"survivor":1,"inactive":33,"annuitant":6,"id":"a690dpoq5ow4","geo_precision":"city","active":20,"state":"Illinois"},"type":"Feature","geometry":{"type":"Point","coordinates":[-88.136616,41.768399]}},{"properties":{"city":"Aurora","total count":373,"zip":"60504","geo_score":1.0,"survivor":13,"inactive":163,"annuitant":17,"id":"a690dpohrn1k","geo_precision":"zip","active":180,"state":"Illinois"},"type":"Feature","geometry":{"type":"Point","coordinates":[-88.136616,41.768399]}},{"properties":{"city":"Aurora","total count":14,"zip":"60505","geo_score":1.0,"survivor":6,"inactive":3,"annuitant":1,"id":"a690dpq8d2xn","geo_precision":"zip","active":4,"state":"Illinois"},"type":"Feature","geometry":{"type":"Point","coordinates":[-88.405446,41.765478]}},{"properties":{"city":"Aurora","total count":null,"zip":"60506","geo_score":1.0,"survivor":null,"inactive":null,"annuitant":null,"id":"a690dpopzyes","geo_precision":"zip","active":1,"state":"Illinois"},"type":"Feature","geometry":{"type":"Point","coordinates":[-88.416837,41.79083]}},{"properties":{"city":"Aurora","total count":null,"zip":"60598","geo_score":1.0,"survivor":null,"inactive":null,"annuitant":1,"id":"a690dpo8nm6s","geo_precision":"zip","active":3,"state":"Illinois"},"type":"Feature","geometry":{"type":"Point","coordinates":[-88.088716,41.839679]}},{"properties":{"city":"Bartlett","total count":288,"zip":"60103","geo_score":0.883,"survivor":21,"inactive":126,"annuitant":13,"id":"a690dpuwqhed","geo_precision":"zip","active":128,"state":"Illinois"},"type":"Feature","geometry":{"type":"Point","coordinates":[-88.145074,41.999472]}},{"properties":{"city":"Batavia","total count":null,"zip":"60126","geo_score":0.873,"survivor":null,"inactive":1,"annuitant":null,"id":"a690dpma1ao2","geo_precision":"zip","active":null,"state":"Illinois"},"type":"Feature","geometry":{"type":"Point","coordinates":[-87.948396,41.863364]}},{"properties":{"city":"Bensenville","total count":86,"zip":"60106","geo_score":1.0,"survivor":8,"inactive":34,"annuitant":12,"id":"a690dpveejv0","geo_precision":"zip","active":32,"state":"Illinois"},"type":"Feature","geometry":{"type":"Point","coordinates":[-88.088716,41.839679]}},{"properties":{"city":"Benton","total count":null,"zip":"62812","geo_score":0.893,"survivor":null,"inactive":null,"annuitant":1,"id":"a690dpz5gr8g","geo_precision":"zip","active":null,"state":"Illinois"},"type":"Feature","geometry":{"type":"Point","coordinates":[-88.935069,37.993939]}},{"properties":{"city":"Bloomingdale","total count":193,"zip":"60108","geo_score":1.0,"survivor":39,"inactive":70,"annuitant":24,"id":"a690dpmums7k","geo_precision":"zip","active":60,"state":"Illinois"},"type":"Feature","geometry":{"type":"Point","coordinates":[-88.088716,41.839679]}},{"properties":{"city":"Bolingbrook","total count":null,"zip":"60440","geo_score":1.0,"survivor":null,"inactive":null,"annuitant":2,"id":"a690dpp0gbrm","geo_precision":"zip","active":null,"state":"Illinois"},"type":"Feature","geometry":{"type":"Point","coordinates":[-88.022464,41.623336]}},{"properties":{"city":"Burr Ridge","total count":null,"zip":"60521","geo_score":0.857,"survivor":5,"inactive":5,"annuitant":null,"id":"a690dpkppq0e","geo_precision":"zip","active":null,"state":"Illinois"},"type":"Feature","geometry":{"type":"Point","coordinates":[-87.935893,41.769753]}},{"properties":{"city":"Burr Ridge","total count":167,"zip":"60527","geo_score":0.873,"survivor":10,"inactive":61,"annuitant":42,"id":"a690dpxz90yl","geo_precision":"zip","active":54,"state":"Illinois"},"type":"Feature","geometry":{"type":"Point","coordinates":[-88.088716,41.839679]}},{"properties":{"city":"Carol Stream","total count":264,"zip":"60188","geo_score":1.0,"survivor":25,"inactive":88,"annuitant":33,"id":"a690dpxkwqy5","geo_precision":"zip","active":118,"state":"Illinois"},"type":"Feature","geometry":{"type":"Point","coordinates":[-88.088716,41.839679]}},{"properties":{"city":"Chicago","total count":null,"zip":"60540","geo_score":0.857,"survivor":null,"inactive":1,"annuitant":null,"id":"a690dpz3be1z","geo_precision":"zip","active":null,"state":"Illinois"},"type":"Feature","geometry":{"type":"Point","coordinates":[-88.232846,41.744752]}},{"properties":{"city":"Clarendon Hills","total count":112,"zip":"60514","geo_score":1.0,"survivor":11,"inactive":45,"annuitant":19,"id":"a690dpk1ygyd","geo_precision":"zip","active":37,"state":"Illinois"},"type":"Feature","geometry":{"type":"Point","coordinates":[-87.966094,41.774295]}},{"properties":{"city":"Clarendon Hls","total count":null,"zip":"60514","geo_score":0.98,"survivor":null,"inactive":2,"annuitant":null,"id":"a690dpxkgf6m","geo_precision":"zip","active":1,"state":"Illinois"},"type":"Feature","geometry":{"type":"Point","coordinates":[-87.966094,41.774295]}},{"properties":{"city":"Darien","total count":null,"zip":"60559","geo_score":0.875,"survivor":1,"inactive":null,"annuitant":null,"id":"a690dpxb6dm8","geo_precision":"zip","active":null,"state":"Illinois"},"type":"Feature","geometry":{"type":"Point","coordinates":[-87.970713,41.799876]}},{"properties":{"city":"Darien","total count":326,"zip":"60561","geo_score":1.0,"survivor":24,"inactive":96,"annuitant":74,"id":"a690dpp47eyb","geo_precision":"zip","active":132,"state":"Illinois"},"type":"Feature","geometry":{"type":"Point","coordinates":[-87.98046,41.743437]}},{"properties":{"city":"Davis","total count":null,"zip":"61019","geo_score":0.879,"survivor":null,"inactive":null,"annuitant":1,"id":"a690dpsmo74f","geo_precision":"zip","active":null,"state":"Illinois"},"type":"Feature","geometry":{"type":"Point","coordinates":[-89.389559,42.454458]}},{"properties":{"city":"Downers Grove","total count":386,"zip":"60515","geo_score":1.0,"survivor":39,"inactive":143,"annuitant":75,"id":"a690dpyac4it","geo_precision":"zip","active":129,"state":"Illinois"},"type":"Feature","geometry":{"type":"Point","coordinates":[-88.012267,41.796279]}},{"properties":{"city":"Downers Grove","total count":387,"zip":"60516","geo_score":1.0,"survivor":36,"inactive":140,"annuitant":73,"id":"a690dpzeqek8","geo_precision":"zip","active":138,"state":"Illinois"},"type":"Feature","geometry":{"type":"Point","coordinates":[-88.021797,41.75231]}},{"properties":{"city":"Downers Grove","total count":null,"zip":"60517","geo_score":0.893,"survivor":null,"inactive":null,"annuitant":null,"id":"a690dpzkfqez","geo_precision":"zip","active":1,"state":"Illinois"},"type":"Feature","geometry":{"type":"Point","coordinates":[-88.041731,41.736788]}},{"properties":{"city":"Elmhurst","total count":551,"zip":"60126","geo_score":0.857,"survivor":46,"inactive":210,"annuitant":109,"id":"a690dpjmw5sw","geo_precision":"zip","active":186,"state":"Illinois"},"type":"Feature","geometry":{"type":"Point","coordinates":[-87.948396,41.863364]}},{"properties":{"city":"Glen Ellyn","total count":659,"zip":"60137","geo_score":0.871,"survivor":55,"inactive":219,"annuitant":145,"id":"a690dprkeume","geo_precision":"zip","active":240,"state":"Illinois"},"type":"Feature","geometry":{"type":"Point","coordinates":[-88.067844,41.830308]}},{"properties":{"city":"Glen Ellyn","total count":null,"zip":"60138","geo_score":1.0,"survivor":null,"inactive":2,"annuitant":1,"id":"a690dpnwym4g","geo_precision":"zip","active":1,"state":"Illinois"},"type":"Feature","geometry":{"type":"Point","coordinates":[-88.088716,41.839679]}},{"properties":{"city":"Glendale Heights","total count":146,"zip":"60139","geo_score":1.0,"survivor":7,"inactive":58,"annuitant":23,"id":"a690dpss2926","geo_precision":"zip","active":58,"state":"Illinois"},"type":"Feature","geometry":{"type":"Point","coordinates":[-88.088716,41.839679]}},{"properties":{"city":"Glendale Hts","total count":18,"zip":"60139","geo_score":0.962,"survivor":1,"inactive":4,"annuitant":2,"id":"a690dppt1buw","geo_precision":"zip","active":11,"state":"Illinois"},"type":"Feature","geometry":{"type":"Point","coordinates":[-88.088716,41.839679]}},{"properties":{"city":"Hinsdale","total count":186,"zip":"60521","geo_score":0.87,"survivor":21,"inactive":68,"annuitant":30,"id":"a690dpy4gavo","geo_precision":"zip","active":67,"state":"Illinois"},"type":"Feature","geometry":{"type":"Point","coordinates":[-87.935893,41.769753]}},{"properties":{"city":"Hinsdale","total count":null,"zip":"60524","geo_score":0.857,"survivor":1,"inactive":null,"annuitant":null,"id":"a690dpwt2xvj","geo_precision":"city","active":null,"state":"Illinois"},"type":"Feature","geometry":{"type":"Point","coordinates":[-87.966845,41.78213]}},{"properties":{"city":"Hinsdale","total count":null,"zip":"60527","geo_score":1.0,"survivor":null,"inactive":1,"annuitant":null,"id":"a690dpsw7k8n","geo_precision":"zip","active":null,"state":"Illinois"},"type":"Feature","geometry":{"type":"Point","coordinates":[-88.088716,41.839679]}},{"properties":{"city":"Hoffman Estates","total count":null,"zip":"60194","geo_score":0.867,"survivor":3,"inactive":null,"annuitant":null,"id":"a690dpurpxiq","geo_precision":"zip","active":null,"state":"Illinois"},"type":"Feature","geometry":{"type":"Point","coordinates":[-88.116655,42.028926]}},{"properties":{"city":"Itasca","total count":64,"zip":"60143","geo_score":1.0,"survivor":3,"inactive":22,"annuitant":12,"id":"a690dppch3hm","geo_precision":"zip","active":27,"state":"Illinois"},"type":"Feature","geometry":{"type":"Point","coordinates":[-88.088716,41.839679]}},{"properties":{"city":"Lemont","total count":41,"zip":"60439","geo_score":0.857,"survivor":6,"inactive":17,"annuitant":10,"id":"a690dpw0hgpu","geo_precision":"zip","active":8,"state":"Illinois"},"type":"Feature","geometry":{"type":"Point","coordinates":[-87.933113,41.688365]}},{"properties":{"city":"Lisle","total count":373,"zip":"60532","geo_score":1.0,"survivor":30,"inactive":139,"annuitant":49,"id":"a690dpn3t8pd","geo_precision":"zip","active":155,"state":"Illinois"},"type":"Feature","geometry":{"type":"Point","coordinates":[-88.037714,41.79818]}},{"properties":{"city":"Lombard","total count":562,"zip":"60148","geo_score":0.871,"survivor":59,"inactive":200,"annuitant":112,"id":"a690dpnl15tf","geo_precision":"zip","active":191,"state":"Illinois"},"type":"Feature","geometry":{"type":"Point","coordinates":[-87.987842,41.856974]}},{"properties":{"city":"Medinah","total count":23,"zip":"60157","geo_score":1.0,"survivor":2,"inactive":12,"annuitant":3,"id":"a690dpn42wz3","geo_precision":"zip","active":6,"state":"Illinois"},"type":"Feature","geometry":{"type":"Point","coordinates":[-88.088716,41.839679]}},{"properties":{"city":"Montgomery","total count":null,"zip":"60538","geo_score":0.87,"survivor":null,"inactive":1,"annuitant":null,"id":"a690dppesoxe","geo_precision":"zip","active":null,"state":"Illinois"},"type":"Feature","geometry":{"type":"Point","coordinates":[-88.336182,41.71253]}},{"properties":{"city":"Naperville","total count":561,"zip":"60540","geo_score":0.857,"survivor":49,"inactive":214,"annuitant":71,"id":"a690dpt833fe","geo_precision":"zip","active":227,"state":"Illinois"},"type":"Feature","geometry":{"type":"Point","coordinates":[-88.232846,41.744752]}},{"properties":{"city":"Naperville","total count":431,"zip":"60563","geo_score":1.0,"survivor":26,"inactive":148,"annuitant":59,"id":"a690dpv86339","geo_precision":"zip","active":198,"state":"Illinois"},"type":"Feature","geometry":{"type":"Point","coordinates":[-88.149884,41.782455]}},{"properties":{"city":"Naperville","total count":537,"zip":"60565","geo_score":1.0,"survivor":30,"inactive":223,"annuitant":60,"id":"a690dpxf0ng6","geo_precision":"zip","active":224,"state":"Illinois"},"type":"Feature","geometry":{"type":"Point","coordinates":[-88.112714,41.737929]}},{"properties":{"city":"Naperville","total count":null,"zip":"60566","geo_score":1.0,"survivor":null,"inactive":2,"annuitant":null,"id":"a690dppn6cvx","geo_precision":"zip","active":1,"state":"Illinois"},"type":"Feature","geometry":{"type":"Point","coordinates":[-88.088716,41.839679]}},{"properties":{"city":"Naperville","total count":null,"zip":"60567","geo_score":1.0,"survivor":null,"inactive":5,"annuitant":null,"id":"a690dpqgjh1w","geo_precision":"zip","active":2,"state":"Illinois"},"type":"Feature","geometry":{"type":"Point","coordinates":[-88.088716,41.839679]}},{"properties":{"city":"Northwoods","total count":null,"zip":"60185","geo_score":0.857,"survivor":null,"inactive":null,"annuitant":null,"id":"a690dpoqjb7l","geo_precision":"zip","active":2,"state":"Illinois"},"type":"Feature","geometry":{"type":"Point","coordinates":[-88.173684,41.942806]}},{"properties":{"city":"Oak Brook","total count":null,"zip":"60521","geo_score":0.922,"survivor":null,"inactive":1,"annuitant":null,"id":"a690dppoyl9n","geo_precision":"zip","active":null,"state":"Illinois"},"type":"Feature","geometry":{"type":"Point","coordinates":[-87.935893,41.769753]}},{"properties":{"city":"Oak Brook","total count":null,"zip":"60522","geo_score":0.857,"survivor":null,"inactive":3,"annuitant":1,"id":"a690dpt9jtyr","geo_precision":"zip","active":3,"state":"Illinois"},"type":"Feature","geometry":{"type":"Point","coordinates":[-88.088716,41.839679]}},{"properties":{"city":"Oak Brook","total count":161,"zip":"60523","geo_score":1.0,"survivor":16,"inactive":58,"annuitant":57,"id":"a690dppll32e","geo_precision":"zip","active":30,"state":"Illinois"},"type":"Feature","geometry":{"type":"Point","coordinates":[-87.963759,41.83713]}},{"properties":{"city":"Oakbrook Ter","total count":null,"zip":"60181","geo_score":0.869,"survivor":null,"inactive":1,"annuitant":null,"id":"a690dpnkaazz","geo_precision":"zip","active":1,"state":"Illinois"},"type":"Feature","geometry":{"type":"Point","coordinates":[-87.988677,41.90503]}},{"properties":{"city":"Oakbrook Terrace","total count":26,"zip":"60181","geo_score":0.857,"survivor":1,"inactive":8,"annuitant":5,"id":"a690dpywboom","geo_precision":"zip","active":12,"state":"Illinois"},"type":"Feature","geometry":{"type":"Point","coordinates":[-87.988677,41.90503]}},{"properties":{"city":"Olympia Fields","total count":null,"zip":"60461","geo_score":1.0,"survivor":null,"inactive":null,"annuitant":1,"id":"a690dpo0nasf","geo_precision":"zip","active":null,"state":"Illinois"},"type":"Feature","geometry":{"type":"Point","coordinates":[-87.68732,41.811929]}},{"properties":{"city":"Ontarioville","total count":null,"zip":"60103","geo_score":0.869,"survivor":null,"inactive":null,"annuitant":null,"id":"a690dplsv6zn","geo_precision":"zip","active":1,"state":"Illinois"},"type":"Feature","geometry":{"type":"Point","coordinates":[-88.145074,41.999472]}},{"properties":{"city":"Plainfield","total count":null,"zip":"60544","geo_score":0.871,"survivor":null,"inactive":1,"annuitant":null,"id":"a690dpx7gava","geo_precision":"zip","active":null,"state":"Illinois"},"type":"Feature","geometry":{"type":"Point","coordinates":[-88.181452,41.590308]}},{"properties":{"city":"Roselle","total count":173,"zip":"60172","geo_score":0.909,"survivor":18,"inactive":74,"annuitant":13,"id":"a690dptoogmx","geo_precision":"zip","active":68,"state":"Illinois"},"type":"Feature","geometry":{"type":"Point","coordinates":[-88.12035,41.967528]}},{"properties":{"city":"Schaumburg","total count":null,"zip":"60194","geo_score":1.0,"survivor":null,"inactive":null,"annuitant":1,"id":"a690dpyukk9b","geo_precision":"zip","active":null,"state":"Illinois"},"type":"Feature","geometry":{"type":"Point","coordinates":[-88.116655,42.028926]}},{"properties":{"city":"Sycamore","total count":null,"zip":"60178","geo_score":0.881,"survivor":null,"inactive":null,"annuitant":1,"id":"a690dpontiwf","geo_precision":"zip","active":null,"state":"Illinois"},"type":"Feature","geometry":{"type":"Point","coordinates":[-88.631477,42.066415]}},{"properties":{"city":"Villa Park","total count":183,"zip":"60181","geo_score":0.869,"survivor":13,"inactive":68,"annuitant":21,"id":"a690dpzdohzg","geo_precision":"zip","active":81,"state":"Illinois"},"type":"Feature","geometry":{"type":"Point","coordinates":[-87.988677,41.90503]}},{"properties":{"city":"Warrenville","total count":147,"zip":"60555","geo_score":0.935,"survivor":16,"inactive":52,"annuitant":26,"id":"a690dppnw23d","geo_precision":"zip","active":53,"state":"Illinois"},"type":"Feature","geometry":{"type":"Point","coordinates":[-88.214237,41.822807]}},{"properties":{"city":"Wayne","total count":16,"zip":"60184","geo_score":1.0,"survivor":3,"inactive":7,"annuitant":3,"id":"a690dpt5ctgp","geo_precision":"zip","active":3,"state":"Illinois"},"type":"Feature","geometry":{"type":"Point","coordinates":[-88.088716,41.839679]}},{"properties":{"city":"West Chicago","total count":226,"zip":"60185","geo_score":0.87,"survivor":12,"inactive":79,"annuitant":44,"id":"a690dprw0g08","geo_precision":"zip","active":91,"state":"Illinois"},"type":"Feature","geometry":{"type":"Point","coordinates":[-88.173684,41.942806]}},{"properties":{"city":"Westmont","total count":255,"zip":"60559","geo_score":1.0,"survivor":15,"inactive":101,"annuitant":41,"id":"a690dpqmqbfm","geo_precision":"zip","active":98,"state":"Illinois"},"type":"Feature","geometry":{"type":"Point","coordinates":[-87.970713,41.799876]}},{"properties":{"city":"Westmont","total count":null,"zip":"60561","geo_score":0.875,"survivor":null,"inactive":1,"annuitant":null,"id":"a690dpluf2h4","geo_precision":"zip","active":null,"state":"Illinois"},"type":"Feature","geometry":{"type":"Point","coordinates":[-87.98046,41.743437]}},{"properties":{"city":"Wheaton","total count":605,"zip":"60187","geo_score":1.0,"survivor":56,"inactive":255,"annuitant":75,"id":"a690dppt7u9c","geo_precision":"zip","active":219,"state":"Illinois"},"type":"Feature","geometry":{"type":"Point","coordinates":[-88.088716,41.839679]}},{"properties":{"city":"Wheaton","total count":null,"zip":"60188","geo_score":0.87,"survivor":null,"inactive":1,"annuitant":null,"id":"a690dputmc3n","geo_precision":"zip","active":3,"state":"Illinois"},"type":"Feature","geometry":{"type":"Point","coordinates":[-88.088716,41.839679]}},{"properties":{"city":"Wheaton","total count":403,"zip":"60189","geo_score":1.0,"survivor":21,"inactive":85,"annuitant":106,"id":"a690dps03xc8","geo_precision":"zip","active":191,"state":"Illinois"},"type":"Feature","geometry":{"type":"Point","coordinates":[-88.088716,41.839679]}},{"properties":{"city":"Willowbrook","total count":null,"zip":"60514","geo_score":0.867,"survivor":1,"inactive":2,"annuitant":null,"id":"a690dpo1hvfi","geo_precision":"zip","active":3,"state":"Illinois"},"type":"Feature","geometry":{"type":"Point","coordinates":[-87.966094,41.774295]}},{"properties":{"city":"Willowbrook","total count":178,"zip":"60527","geo_score":0.87,"survivor":15,"inactive":64,"annuitant":28,"id":"a690dpqrbyxz","geo_precision":"zip","active":71,"state":"Illinois"},"type":"Feature","geometry":{"type":"Point","coordinates":[-88.088716,41.839679]}},{"properties":{"city":"Winfield","total count":180,"zip":"60190","geo_score":1.0,"survivor":20,"inactive":62,"annuitant":35,"id":"a690dpxom6ws","geo_precision":"zip","active":63,"state":"Illinois"},"type":"Feature","geometry":{"type":"Point","coordinates":[-88.088716,41.839679]}},{"properties":{"city":"Wood Dale","total count":81,"zip":"60191","geo_score":1.0,"survivor":12,"inactive":25,"annuitant":13,"id":"a690dpo0kcba","geo_precision":"zip","active":31,"state":"Illinois"},"type":"Feature","geometry":{"type":"Point","coordinates":[-88.088716,41.839679]}},{"properties":{"city":"Woodridge","total count":340,"zip":"60517","geo_score":1.0,"survivor":28,"inactive":119,"annuitant":42,"id":"a690dpoy9j17","geo_precision":"zip","active":151,"state":"Illinois"},"type":"Feature","geometry":{"type":"Point","coordinates":[-88.041731,41.736788]}},{"properties":{"city":"Aurora","total count":149,"zip":"60505","geo_score":1.0,"survivor":12,"inactive":63,"annuitant":13,"id":"a690dpth56j5","geo_precision":"zip","active":61,"state":"Illinois"},"type":"Feature","geometry":{"type":"Point","coordinates":[-88.405446,41.765478]}},{"properties":{"city":"Aurora","total count":531,"zip":"60506","geo_score":1.0,"survivor":37,"inactive":181,"annuitant":63,"id":"a690dpufbxin","geo_precision":"zip","active":250,"state":"Illinois"},"type":"Feature","geometry":{"type":"Point","coordinates":[-88.416837,41.79083]}},{"properties":{"city":"Aurora","total count":null,"zip":"60507","geo_score":1.0,"survivor":null,"inactive":3,"annuitant":5,"id":"a690dpxxy8m6","geo_precision":"zip","active":1,"state":"Illinois"},"type":"Feature","geometry":{"type":"Point","coordinates":[-88.420178,41.936977]}},{"properties":{"city":"Batavia","total count":430,"zip":"60510","geo_score":0.879,"survivor":36,"inactive":148,"annuitant":62,"id":"a690dpz18qde","geo_precision":"zip","active":184,"state":"Illinois"},"type":"Feature","geometry":{"type":"Point","coordinates":[-88.281462,41.849473]}},{"properties":{"city":"Big Rock","total count":31,"zip":"60511","geo_score":1.0,"survivor":4,"inactive":10,"annuitant":2,"id":"a690dpsmoexh","geo_precision":"zip","active":15,"state":"Illinois"},"type":"Feature","geometry":{"type":"Point","coordinates":[-88.54574,41.764324]}},{"properties":{"city":"Burlington","total count":8,"zip":"60109","geo_score":1.0,"survivor":1,"inactive":4,"annuitant":2,"id":"a690dpm52vdt","geo_precision":"zip","active":1,"state":"Illinois"},"type":"Feature","geometry":{"type":"Point","coordinates":[-88.539027,42.045792]}},{"properties":{"city":"Campton Hills","total count":null,"zip":"60175","geo_score":0.905,"survivor":null,"inactive":1,"annuitant":1,"id":"a690dplpqntl","geo_precision":"zip","active":1,"state":"Illinois"},"type":"Feature","geometry":{"type":"Point","coordinates":[-88.386905,41.943171]}},{"properties":{"city":"Carpentersville","total count":152,"zip":"60110","geo_score":1.0,"survivor":8,"inactive":60,"annuitant":11,"id":"a690dpukljpv","geo_precision":"zip","active":73,"state":"Illinois"},"type":"Feature","geometry":{"type":"Point","coordinates":[-88.297238,42.125008]}},{"properties":{"city":"Chicago","total count":null,"zip":"60506","geo_score":0.857,"survivor":null,"inactive":1,"annuitant":null,"id":"a690dpxasqst","geo_precision":"zip","active":null,"state":"Illinois"},"type":"Feature","geometry":{"type":"Point","coordinates":[-88.416837,41.79083]}},{"properties":{"city":"Dundee","total count":28,"zip":"60118","geo_score":0.943,"survivor":5,"inactive":12,"annuitant":2,"id":"a690dpqn7f64","geo_precision":"zip","active":9,"state":"Illinois"},"type":"Feature","geometry":{"type":"Point","coordinates":[-88.282858,42.098081]}},{"properties":{"city":"E Dundee","total count":null,"zip":"60118","geo_score":0.957,"survivor":null,"inactive":null,"annuitant":null,"id":"a690dpjwf1pc","geo_precision":"zip","active":1,"state":"Illinois"},"type":"Feature","geometry":{"type":"Point","coordinates":[-88.282858,42.098081]}},{"properties":{"city":"East Dundee","total count":31,"zip":"60118","geo_score":0.971,"survivor":6,"inactive":12,"annuitant":2,"id":"a690dpka66fa","geo_precision":"zip","active":11,"state":"Illinois"},"type":"Feature","geometry":{"type":"Point","coordinates":[-88.282858,42.098081]}},{"properties":{"city":"Elburn","total count":154,"zip":"60119","geo_score":0.867,"survivor":12,"inactive":41,"annuitant":25,"id":"a690dpy7m2bw","geo_precision":"zip","active":76,"state":"Illinois"},"type":"Feature","geometry":{"type":"Point","coordinates":[-88.465355,41.829751]}},{"properties":{"city":"Elgin","total count":409,"zip":"60120","geo_score":0.905,"survivor":33,"inactive":158,"annuitant":47,"id":"a690dpwdvd93","geo_precision":"zip","active":171,"state":"Illinois"},"type":"Feature","geometry":{"type":"Point","coordinates":[-88.235354,42.002805]}},{"properties":{"city":"Elgin","total count":8,"zip":"60121","geo_score":0.871,"survivor":2,"inactive":1,"annuitant":1,"id":"a690dpohhevy","geo_precision":"zip","active":4,"state":"Illinois"},"type":"Feature","geometry":{"type":"Point","coordinates":[-88.340634,41.990583]}},{"properties":{"city":"Elgin","total count":620,"zip":"60123","geo_score":1.0,"survivor":46,"inactive":203,"annuitant":88,"id":"a690dpw6lce3","geo_precision":"zip","active":283,"state":"Illinois"},"type":"Feature","geometry":{"type":"Point","coordinates":[-88.371044,42.036325]}},{"properties":{"city":"Elgin","total count":222,"zip":"60124","geo_score":0.857,"survivor":13,"inactive":59,"annuitant":55,"id":"a690dplwx12p","geo_precision":"city","active":95,"state":"Illinois"},"type":"Feature","geometry":{"type":"Point","coordinates":[-88.429777,41.990689]}},{"properties":{"city":"Geneva","total count":434,"zip":"60134","geo_score":1.0,"survivor":22,"inactive":147,"annuitant":63,"id":"a690dpmnj9hn","geo_precision":"zip","active":202,"state":"Illinois"},"type":"Feature","geometry":{"type":"Point","coordinates":[-88.406165,41.97974]}},{"properties":{"city":"Gilberts","total count":71,"zip":"60136","geo_score":1.0,"survivor":3,"inactive":29,"annuitant":5,"id":"a690dppfjac1","geo_precision":"zip","active":34,"state":"Illinois"},"type":"Feature","geometry":{"type":"Point","coordinates":[-88.379932,42.102524]}},{"properties":{"city":"Hampshire","total count":96,"zip":"60140","geo_score":0.873,"survivor":9,"inactive":31,"annuitant":15,"id":"a690dpoge9w7","geo_precision":"zip","active":41,"state":"Illinois"},"type":"Feature","geometry":{"type":"Point","coordinates":[-88.456751,42.088359]}},{"properties":{"city":"Huntley","total count":null,"zip":"60142","geo_score":1.0,"survivor":1,"inactive":null,"annuitant":1,"id":"a690dpy7prm9","geo_precision":"zip","active":null,"state":"Illinois"},"type":"Feature","geometry":{"type":"Point","coordinates":[-88.450815,42.197379]}},{"properties":{"city":"Kaneville","total count":null,"zip":"60144","geo_score":1.0,"survivor":1,"inactive":1,"annuitant":null,"id":"a690dpy7c9gs","geo_precision":"zip","active":4,"state":"Illinois"},"type":"Feature","geometry":{"type":"Point","coordinates":[-88.420178,41.936977]}},{"properties":{"city":"Lafox","total count":null,"zip":"60147","geo_score":1.0,"survivor":null,"inactive":1,"annuitant":null,"id":"a690dpnwce8z","geo_precision":"zip","active":1,"state":"Illinois"},"type":"Feature","geometry":{"type":"Point","coordinates":[-88.420178,41.936977]}},{"properties":{"city":"Maple Park","total count":75,"zip":"60151","geo_score":0.873,"survivor":10,"inactive":14,"annuitant":11,"id":"a690dpxb2wmn","geo_precision":"zip","active":40,"state":"Illinois"},"type":"Feature","geometry":{"type":"Point","coordinates":[-88.59647,41.834196]}},{"properties":{"city":"Millstadt","total count":null,"zip":"62260","geo_score":0.873,"survivor":null,"inactive":null,"annuitant":1,"id":"a690dpv7el0h","geo_precision":"zip","active":null,"state":"Illinois"},"type":"Feature","geometry":{"type":"Point","coordinates":[-90.04094,38.463107]}},{"properties":{"city":"N Aurora","total count":null,"zip":"60542","geo_score":0.948,"survivor":2,"inactive":null,"annuitant":null,"id":"a690dps97xlj","geo_precision":"zip","active":null,"state":"Illinois"},"type":"Feature","geometry":{"type":"Point","coordinates":[-88.335182,41.807369]}},{"properties":{"city":"NORTHERN IRELAND","total count":null,"zip":"60120","geo_score":0.876,"survivor":null,"inactive":1,"annuitant":null,"id":"a690dpl3t26l","geo_precision":"zip","active":null,"state":"Illinois"},"type":"Feature","geometry":{"type":"Point","coordinates":[-88.235354,42.002805]}},{"properties":{"city":"North Aurora","total count":190,"zip":"60542","geo_score":1.0,"survivor":12,"inactive":77,"annuitant":15,"id":"a690dpulrwgp","geo_precision":"zip","active":86,"state":"Illinois"},"type":"Feature","geometry":{"type":"Point","coordinates":[-88.335182,41.807369]}},{"properties":{"city":"Pingree Grove","total count":null,"zip":"60140","geo_score":0.869,"survivor":null,"inactive":10,"annuitant":null,"id":"a690dpms3172","geo_precision":"zip","active":15,"state":"Illinois"},"type":"Feature","geometry":{"type":"Point","coordinates":[-88.456751,42.088359]}},{"properties":{"city":"Plato Center","total count":null,"zip":"60124","geo_score":0.74,"survivor":null,"inactive":null,"annuitant":null,"id":"a690dpnrw66e","geo_precision":"city","active":2,"state":"Illinois"},"type":"Feature","geometry":{"type":"Point","coordinates":[-87.667527,39.282538]}},{"properties":{"city":"Saint Charles","total count":237,"zip":"60174","geo_score":0.881,"survivor":18,"inactive":95,"annuitant":59,"id":"a690dpu4jdmu","geo_precision":"zip","active":65,"state":"Illinois"},"type":"Feature","geometry":{"type":"Point","coordinates":[-88.298966,41.966138]}},{"properties":{"city":"Saint Charles","total count":178,"zip":"60175","geo_score":1.0,"survivor":12,"inactive":61,"annuitant":38,"id":"a690dpps6txb","geo_precision":"zip","active":67,"state":"Illinois"},"type":"Feature","geometry":{"type":"Point","coordinates":[-88.386905,41.943171]}},{"properties":{"city":"Sleepy Hollow","total count":55,"zip":"60118","geo_score":0.869,"survivor":4,"inactive":17,"annuitant":10,"id":"a690dpl8tj34","geo_precision":"zip","active":24,"state":"Illinois"},"type":"Feature","geometry":{"type":"Point","coordinates":[-88.282858,42.098081]}},{"properties":{"city":"South Elgin","total count":200,"zip":"60177","geo_score":0.867,"survivor":9,"inactive":61,"annuitant":21,"id":"a690dpwvj7k9","geo_precision":"zip","active":109,"state":"Illinois"},"type":"Feature","geometry":{"type":"Point","coordinates":[-88.309799,41.971694]}},{"properties":{"city":"St. Charles","total count":122,"zip":"60174","geo_score":0.871,"survivor":8,"inactive":41,"annuitant":7,"id":"a690dpwzzta8","geo_precision":"zip","active":66,"state":"Illinois"},"type":"Feature","geometry":{"type":"Point","coordinates":[-88.298966,41.966138]}},{"properties":{"city":"St. Charles","total count":99,"zip":"60175","geo_score":0.964,"survivor":6,"inactive":32,"annuitant":5,"id":"a690dprcn301","geo_precision":"zip","active":56,"state":"Illinois"},"type":"Feature","geometry":{"type":"Point","coordinates":[-88.386905,41.943171]}},{"properties":{"city":"St. Charles","total count":null,"zip":"60174","geo_score":0.871,"survivor":null,"inactive":1,"annuitant":null,"id":"a690dpk2baj9","geo_precision":"zip","active":1,"state":"Illinois"},"type":"Feature","geometry":{"type":"Point","coordinates":[-88.298966,41.966138]}},{"properties":{"city":"Sugar Grove","total count":264,"zip":"60554","geo_score":1.0,"survivor":14,"inactive":94,"annuitant":32,"id":"a690dpmrf4du","geo_precision":"zip","active":124,"state":"Illinois"},"type":"Feature","geometry":{"type":"Point","coordinates":[-88.451655,41.776787]}},{"properties":{"city":"Sycamore","total count":null,"zip":"60178","geo_score":0.881,"survivor":1,"inactive":null,"annuitant":null,"id":"a690dpyd3dc1","geo_precision":"zip","active":null,"state":"Illinois"},"type":"Feature","geometry":{"type":"Point","coordinates":[-88.631477,42.066415]}},{"properties":{"city":"Wasco","total count":null,"zip":"60183","geo_score":0.857,"survivor":null,"inactive":null,"annuitant":2,"id":"a690dpmton4c","geo_precision":"zip","active":3,"state":"Illinois"},"type":"Feature","geometry":{"type":"Point","coordinates":[-88.477859,41.948916]}},{"properties":{"city":"West Dundee","total count":77,"zip":"60118","geo_score":1.0,"survivor":5,"inactive":19,"annuitant":12,"id":"a690dpy4sj82","geo_precision":"zip","active":41,"state":"Illinois"},"type":"Feature","geometry":{"type":"Point","coordinates":[-88.282858,42.098081]}},{"properties":{"city":"Antioch","total count":134,"zip":"60002","geo_score":0.886,"survivor":13,"inactive":26,"annuitant":30,"id":"a690dpzekz6f","geo_precision":"zip","active":65,"state":"Illinois"},"type":"Feature","geometry":{"type":"Point","coordinates":[-89.146751,41.498089]}},{"properties":{"city":"Bannockburn","total count":null,"zip":"60015","geo_score":0.857,"survivor":null,"inactive":4,"annuitant":null,"id":"a690dpjix46k","geo_precision":"zip","active":3,"state":"Illinois"},"type":"Feature","geometry":{"type":"Point","coordinates":[-87.897014,42.167525]}},{"properties":{"city":"Barrington","total count":257,"zip":"60010","geo_score":0.857,"survivor":23,"inactive":91,"annuitant":50,"id":"a690dps2kkq2","geo_precision":"zip","active":93,"state":"Illinois"},"type":"Feature","geometry":{"type":"Point","coordinates":[-88.152025,42.231968]}},{"properties":{"city":"Barrington","total count":null,"zip":"60011","geo_score":1.0,"survivor":1,"inactive":null,"annuitant":null,"id":"a690dpklz7a3","geo_precision":"zip","active":1,"state":"Illinois"},"type":"Feature","geometry":{"type":"Point","coordinates":[-87.610053,42.322814]}},{"properties":{"city":"Bartlett","total count":null,"zip":"60103","geo_score":0.883,"survivor":null,"inactive":1,"annuitant":null,"id":"a690dpooj8s9","geo_precision":"zip","active":null,"state":"Illinois"},"type":"Feature","geometry":{"type":"Point","coordinates":[-88.145074,41.999472]}},{"properties":{"city":"Beach Park","total count":12,"zip":"60083","geo_score":0.873,"survivor":3,"inactive":3,"annuitant":2,"id":"a690dpobshnj","geo_precision":"zip","active":4,"state":"Illinois"},"type":"Feature","geometry":{"type":"Point","coordinates":[-87.952578,42.465298]}},{"properties":{"city":"Beach Park","total count":null,"zip":"60087","geo_score":0.873,"survivor":null,"inactive":4,"annuitant":2,"id":"a690dptqsei4","geo_precision":"zip","active":5,"state":"Illinois"},"type":"Feature","geometry":{"type":"Point","coordinates":[-87.868471,42.372921]}},{"properties":{"city":"Beach Park","total count":null,"zip":"60099","geo_score":1.0,"survivor":null,"inactive":3,"annuitant":3,"id":"a690dps8ukzq","geo_precision":"zip","active":12,"state":"Illinois"},"type":"Feature","geometry":{"type":"Point","coordinates":[-87.857296,42.422244]}},{"properties":{"city":"Buffalo Grove","total count":316,"zip":"60089","geo_score":1.0,"survivor":26,"inactive":131,"annuitant":37,"id":"a690dpvju7c5","geo_precision":"zip","active":122,"state":"Illinois"},"type":"Feature","geometry":{"type":"Point","coordinates":[-87.960771,42.180411]}},{"properties":{"city":"Deer Park","total count":19,"zip":"60010","geo_score":0.9,"survivor":1,"inactive":7,"annuitant":5,"id":"a690dpk95bso","geo_precision":"zip","active":6,"state":"Illinois"},"type":"Feature","geometry":{"type":"Point","coordinates":[-88.152025,42.231968]}},{"properties":{"city":"Deerfield","total count":195,"zip":"60015","geo_score":0.886,"survivor":17,"inactive":70,"annuitant":31,"id":"a690dpqypriq","geo_precision":"zip","active":77,"state":"Illinois"},"type":"Feature","geometry":{"type":"Point","coordinates":[-87.897014,42.167525]}},{"properties":{"city":"Dekalb","total count":null,"zip":"60115","geo_score":0.881,"survivor":null,"inactive":1,"annuitant":null,"id":"a690dpy32ldt","geo_precision":"zip","active":null,"state":"Illinois"},"type":"Feature","geometry":{"type":"Point","coordinates":[-88.776197,41.864196]}},{"properties":{"city":"Fox Lake","total count":55,"zip":"60020","geo_score":0.883,"survivor":3,"inactive":18,"annuitant":12,"id":"a690dpv2yyz8","geo_precision":"zip","active":22,"state":"Illinois"},"type":"Feature","geometry":{"type":"Point","coordinates":[-88.180918,42.384188]}},{"properties":{"city":"Gages Lake","total count":8,"zip":"60030","geo_score":0.857,"survivor":2,"inactive":1,"annuitant":1,"id":"a690dpupsq5p","geo_precision":"zip","active":4,"state":"Illinois"},"type":"Feature","geometry":{"type":"Point","coordinates":[-87.998133,42.3428]}},{"properties":{"city":"Grayslake","total count":452,"zip":"60030","geo_score":0.857,"survivor":33,"inactive":115,"annuitant":90,"id":"a690dpjfsq9o","geo_precision":"zip","active":214,"state":"Illinois"},"type":"Feature","geometry":{"type":"Point","coordinates":[-87.998133,42.3428]}},{"properties":{"city":"Great Lakes","total count":null,"zip":"60088","geo_score":1.0,"survivor":1,"inactive":2,"annuitant":null,"id":"a690dpz9itf9","geo_precision":"zip","active":2,"state":"Illinois"},"type":"Feature","geometry":{"type":"Point","coordinates":[-87.85427,42.309272]}},{"properties":{"city":"Gurnee","total count":364,"zip":"60031","geo_score":0.889,"survivor":20,"inactive":108,"annuitant":45,"id":"a690dplaajhv","geo_precision":"zip","active":191,"state":"Illinois"},"type":"Feature","geometry":{"type":"Point","coordinates":[-87.903406,42.290023]}},{"properties":{"city":"Hainesville","total count":null,"zip":"60030","geo_score":0.87,"survivor":null,"inactive":8,"annuitant":null,"id":"a690dpt1koh4","geo_precision":"zip","active":13,"state":"Illinois"},"type":"Feature","geometry":{"type":"Point","coordinates":[-87.998133,42.3428]}},{"properties":{"city":"Hainesville","total count":null,"zip":"60073","geo_score":0.883,"survivor":null,"inactive":2,"annuitant":null,"id":"a690dpjwpnc4","geo_precision":"zip","active":5,"state":"Illinois"},"type":"Feature","geometry":{"type":"Point","coordinates":[-88.167861,42.326133]}},{"properties":{"city":"Hawthorn Woods","total count":null,"zip":"60047","geo_score":0.868,"survivor":1,"inactive":null,"annuitant":1,"id":"a690dppzqk8h","geo_precision":"zip","active":null,"state":"Illinois"},"type":"Feature","geometry":{"type":"Point","coordinates":[-88.047853,42.170581]}},{"properties":{"city":"Hawthorn Woods","total count":67,"zip":"60047","geo_score":0.868,"survivor":4,"inactive":26,"annuitant":15,"id":"a690dpvdsgm6","geo_precision":"zip","active":22,"state":"Illinois"},"type":"Feature","geometry":{"type":"Point","coordinates":[-88.047853,42.170581]}},{"properties":{"city":"Highland Park","total count":297,"zip":"60035","geo_score":0.869,"survivor":33,"inactive":86,"annuitant":81,"id":"a690dpr8wfey","geo_precision":"zip","active":97,"state":"Illinois"},"type":"Feature","geometry":{"type":"Point","coordinates":[-87.772286,42.152526]}},{"properties":{"city":"Highwood","total count":13,"zip":"60040","geo_score":1.0,"survivor":3,"inactive":5,"annuitant":1,"id":"a690dpqmigv0","geo_precision":"zip","active":4,"state":"Illinois"},"type":"Feature","geometry":{"type":"Point","coordinates":[-87.814666,42.207374]}},{"properties":{"city":"Hoffman Estates","total count":null,"zip":"60010","geo_score":0.908,"survivor":null,"inactive":null,"annuitant":null,"id":"a690dpjospwx","geo_precision":"zip","active":1,"state":"Illinois"},"type":"Feature","geometry":{"type":"Point","coordinates":[-88.152025,42.231968]}},{"properties":{"city":"Indian Creek","total count":null,"zip":"60061","geo_score":0.87,"survivor":1,"inactive":2,"annuitant":null,"id":"a690dpqb8e9m","geo_precision":"zip","active":3,"state":"Illinois"},"type":"Feature","geometry":{"type":"Point","coordinates":[-87.962973,42.231183]}},{"properties":{"city":"Ingleside","total count":62,"zip":"60041","geo_score":0.905,"survivor":11,"inactive":9,"annuitant":15,"id":"a690dpr7ikce","geo_precision":"zip","active":27,"state":"Illinois"},"type":"Feature","geometry":{"type":"Point","coordinates":[-88.127583,42.370855]}},{"properties":{"city":"Inverness","total count":14,"zip":"60010","geo_score":0.9,"survivor":1,"inactive":6,"annuitant":4,"id":"a690dpt3p7x8","geo_precision":"zip","active":3,"state":"Illinois"},"type":"Feature","geometry":{"type":"Point","coordinates":[-88.152025,42.231968]}},{"properties":{"city":"Island Lake","total count":55,"zip":"60042","geo_score":1.0,"survivor":1,"inactive":22,"annuitant":7,"id":"a690dpp87535","geo_precision":"zip","active":25,"state":"Illinois"},"type":"Feature","geometry":{"type":"Point","coordinates":[-88.188464,42.27179]}},{"properties":{"city":"Kildeer","total count":26,"zip":"60047","geo_score":1.0,"survivor":1,"inactive":14,"annuitant":2,"id":"a690dppw4s3i","geo_precision":"zip","active":9,"state":"Illinois"},"type":"Feature","geometry":{"type":"Point","coordinates":[-88.047853,42.170581]}},{"properties":{"city":"Lake Barrington","total count":34,"zip":"60010","geo_score":0.878,"survivor":4,"inactive":14,"annuitant":5,"id":"a690dpk57nze","geo_precision":"zip","active":11,"state":"Illinois"},"type":"Feature","geometry":{"type":"Point","coordinates":[-88.152025,42.231968]}},{"properties":{"city":"Lake Barrington","total count":null,"zip":"60084","geo_score":0.867,"survivor":null,"inactive":1,"annuitant":null,"id":"a690dpnqbui9","geo_precision":"zip","active":1,"state":"Illinois"},"type":"Feature","geometry":{"type":"Point","coordinates":[-88.183415,42.25419]}},{"properties":{"city":"Lake Bluff","total count":79,"zip":"60044","geo_score":0.873,"survivor":8,"inactive":28,"annuitant":19,"id":"a690dpqt19xh","geo_precision":"zip","active":24,"state":"Illinois"},"type":"Feature","geometry":{"type":"Point","coordinates":[-87.89535,42.280023]}},{"properties":{"city":"Lake Forest","total count":139,"zip":"60045","geo_score":0.959,"survivor":16,"inactive":49,"annuitant":28,"id":"a690dpqz8p7e","geo_precision":"zip","active":46,"state":"Illinois"},"type":"Feature","geometry":{"type":"Point","coordinates":[-87.873126,42.221968]}},{"properties":{"city":"Lake Villa","total count":199,"zip":"60046","geo_score":0.914,"survivor":12,"inactive":64,"annuitant":31,"id":"a690dpqqvlja","geo_precision":"zip","active":92,"state":"Illinois"},"type":"Feature","geometry":{"type":"Point","coordinates":[-88.052581,42.398632]}},{"properties":{"city":"Lake Zurich","total count":164,"zip":"60047","geo_score":0.871,"survivor":20,"inactive":62,"annuitant":15,"id":"a690dpxjtkv9","geo_precision":"zip","active":67,"state":"Illinois"},"type":"Feature","geometry":{"type":"Point","coordinates":[-88.047853,42.170581]}},{"properties":{"city":"Libertyville","total count":316,"zip":"60048","geo_score":0.881,"survivor":25,"inactive":103,"annuitant":62,"id":"a690dptutkl6","geo_precision":"zip","active":126,"state":"Illinois"},"type":"Feature","geometry":{"type":"Point","coordinates":[-87.925906,42.233357]}},{"properties":{"city":"Lincolnshire","total count":61,"zip":"60069","geo_score":0.869,"survivor":8,"inactive":24,"annuitant":12,"id":"a690dpwbo6yf","geo_precision":"zip","active":17,"state":"Illinois"},"type":"Feature","geometry":{"type":"Point","coordinates":[-87.955628,42.199191]}},{"properties":{"city":"Lindenhurst","total count":126,"zip":"60046","geo_score":0.876,"survivor":3,"inactive":38,"annuitant":14,"id":"a690dpxap4j9","geo_precision":"zip","active":71,"state":"Illinois"},"type":"Feature","geometry":{"type":"Point","coordinates":[-88.052581,42.398632]}},{"properties":{"city":"Long Grove","total count":58,"zip":"60047","geo_score":0.857,"survivor":3,"inactive":27,"annuitant":7,"id":"a690dpymml1h","geo_precision":"zip","active":21,"state":"Illinois"},"type":"Feature","geometry":{"type":"Point","coordinates":[-88.047853,42.170581]}},{"properties":{"city":"Long Grove","total count":null,"zip":"60060","geo_score":0.871,"survivor":null,"inactive":null,"annuitant":null,"id":"a690dplbu1rc","geo_precision":"zip","active":1,"state":"Illinois"},"type":"Feature","geometry":{"type":"Point","coordinates":[-88.052855,42.243913]}},{"properties":{"city":"Mettawa","total count":null,"zip":"60045","geo_score":0.888,"survivor":null,"inactive":1,"annuitant":null,"id":"a690dpk1l1q1","geo_precision":"zip","active":null,"state":"Illinois"},"type":"Feature","geometry":{"type":"Point","coordinates":[-87.873126,42.221968]}},{"properties":{"city":"Mundelein","total count":221,"zip":"60060","geo_score":0.871,"survivor":20,"inactive":79,"annuitant":30,"id":"a690dplnbkh2","geo_precision":"zip","active":92,"state":"Illinois"},"type":"Feature","geometry":{"type":"Point","coordinates":[-88.052855,42.243913]}},{"properties":{"city":"North Barrington","total count":15,"zip":"60010","geo_score":0.876,"survivor":5,"inactive":7,"annuitant":2,"id":"a690dpy3xz8a","geo_precision":"zip","active":1,"state":"Illinois"},"type":"Feature","geometry":{"type":"Point","coordinates":[-88.152025,42.231968]}},{"properties":{"city":"North Chicago","total count":33,"zip":"60064","geo_score":1.0,"survivor":4,"inactive":10,"annuitant":4,"id":"a690dprr43t4","geo_precision":"zip","active":15,"state":"Illinois"},"type":"Feature","geometry":{"type":"Point","coordinates":[-87.962976,42.347324]}},{"properties":{"city":"Northbrook","total count":null,"zip":"60062","geo_score":1.0,"survivor":null,"inactive":null,"annuitant":1,"id":"a690dpvs5yho","geo_precision":"zip","active":null,"state":"Illinois"},"type":"Feature","geometry":{"type":"Point","coordinates":[-87.838815,42.120176]}},{"properties":{"city":"Old Mill Creek","total count":null,"zip":"60083","geo_score":0.881,"survivor":null,"inactive":2,"annuitant":null,"id":"a690dpyvng33","geo_precision":"zip","active":2,"state":"Illinois"},"type":"Feature","geometry":{"type":"Point","coordinates":[-87.952578,42.465298]}},{"properties":{"city":"Park City","total count":13,"zip":"60085","geo_score":1.0,"survivor":1,"inactive":2,"annuitant":2,"id":"a690dpw6m2b4","geo_precision":"zip","active":8,"state":"Illinois"},"type":"Feature","geometry":{"type":"Point","coordinates":[-87.88424,42.348355]}},{"properties":{"city":"Port Barrington","total count":null,"zip":"60010","geo_score":0.878,"survivor":null,"inactive":2,"annuitant":null,"id":"a690dpv6tgnt","geo_precision":"zip","active":4,"state":"Illinois"},"type":"Feature","geometry":{"type":"Point","coordinates":[-88.152025,42.231968]}},{"properties":{"city":"Prairie View","total count":13,"zip":"60069","geo_score":1.0,"survivor":6,"inactive":4,"annuitant":1,"id":"a690dpy88neu","geo_precision":"zip","active":2,"state":"Illinois"},"type":"Feature","geometry":{"type":"Point","coordinates":[-87.955628,42.199191]}},{"properties":{"city":"Riverwoods","total count":31,"zip":"60015","geo_score":1.0,"survivor":4,"inactive":12,"annuitant":10,"id":"a690dpqowyyr","geo_precision":"zip","active":5,"state":"Illinois"},"type":"Feature","geometry":{"type":"Point","coordinates":[-87.897014,42.167525]}},{"properties":{"city":"Round Lake","total count":131,"zip":"60073","geo_score":0.889,"survivor":3,"inactive":53,"annuitant":10,"id":"a690dpr4x4lt","geo_precision":"zip","active":65,"state":"Illinois"},"type":"Feature","geometry":{"type":"Point","coordinates":[-88.167861,42.326133]}},{"properties":{"city":"Round Lake Beach","total count":99,"zip":"60073","geo_score":0.878,"survivor":6,"inactive":20,"annuitant":11,"id":"a690dpttbp95","geo_precision":"zip","active":62,"state":"Illinois"},"type":"Feature","geometry":{"type":"Point","coordinates":[-88.167861,42.326133]}},{"properties":{"city":"Round Lake Heights","total count":null,"zip":"60073","geo_score":0.875,"survivor":null,"inactive":3,"annuitant":null,"id":"a690dpwirf26","geo_precision":"zip","active":6,"state":"Illinois"},"type":"Feature","geometry":{"type":"Point","coordinates":[-88.167861,42.326133]}},{"properties":{"city":"Round Lake Park","total count":null,"zip":"60073","geo_score":0.879,"survivor":1,"inactive":5,"annuitant":null,"id":"a690dpsv8xf1","geo_precision":"zip","active":9,"state":"Illinois"},"type":"Feature","geometry":{"type":"Point","coordinates":[-88.167861,42.326133]}},{"properties":{"city":"Rounds Lake Beach","total count":null,"zip":"60073","geo_score":0.876,"survivor":null,"inactive":null,"annuitant":null,"id":"a690dpqscfcn","geo_precision":"zip","active":1,"state":"Illinois"},"type":"Feature","geometry":{"type":"Point","coordinates":[-88.167861,42.326133]}},{"properties":{"city":"S Barrington","total count":null,"zip":"60010","geo_score":0.87,"survivor":null,"inactive":1,"annuitant":null,"id":"a690dpjyieyx","geo_precision":"zip","active":1,"state":"Illinois"},"type":"Feature","geometry":{"type":"Point","coordinates":[-88.152025,42.231968]}},{"properties":{"city":"South Barrington","total count":29,"zip":"60010","geo_score":0.876,"survivor":2,"inactive":11,"annuitant":4,"id":"a690dpl99p5n","geo_precision":"zip","active":12,"state":"Illinois"},"type":"Feature","geometry":{"type":"Point","coordinates":[-88.152025,42.231968]}},{"properties":{"city":"Third Lake","total count":null,"zip":"60030","geo_score":0.889,"survivor":null,"inactive":5,"annuitant":null,"id":"a690dpy4ks31","geo_precision":"zip","active":14,"state":"Illinois"},"type":"Feature","geometry":{"type":"Point","coordinates":[-87.998133,42.3428]}},{"properties":{"city":"Tower Lakes","total count":7,"zip":"60010","geo_score":1.0,"survivor":2,"inactive":2,"annuitant":1,"id":"a690dpz5lcss","geo_precision":"zip","active":2,"state":"Illinois"},"type":"Feature","geometry":{"type":"Point","coordinates":[-88.152025,42.231968]}},{"properties":{"city":"Vernon Hills","total count":168,"zip":"60061","geo_score":1.0,"survivor":18,"inactive":67,"annuitant":15,"id":"a690dpogczdt","geo_precision":"zip","active":68,"state":"Illinois"},"type":"Feature","geometry":{"type":"Point","coordinates":[-87.962973,42.231183]}},{"properties":{"city":"Volo","total count":null,"zip":"60020","geo_score":0.87,"survivor":null,"inactive":1,"annuitant":1,"id":"a690dpvfb7kb","geo_precision":"zip","active":4,"state":"Illinois"},"type":"Feature","geometry":{"type":"Point","coordinates":[-88.180918,42.384188]}},{"properties":{"city":"Volo","total count":null,"zip":"60073","geo_score":1.0,"survivor":null,"inactive":1,"annuitant":null,"id":"a690dpzsfzxb","geo_precision":"zip","active":4,"state":"Illinois"},"type":"Feature","geometry":{"type":"Point","coordinates":[-88.167861,42.326133]}},{"properties":{"city":"Wadsworth","total count":53,"zip":"60083","geo_score":0.873,"survivor":4,"inactive":14,"annuitant":10,"id":"a690dptjojux","geo_precision":"zip","active":25,"state":"Illinois"},"type":"Feature","geometry":{"type":"Point","coordinates":[-87.952578,42.465298]}},{"properties":{"city":"Wauconda","total count":96,"zip":"60084","geo_score":0.881,"survivor":5,"inactive":33,"annuitant":6,"id":"a690dpu07h03","geo_precision":"zip","active":52,"state":"Illinois"},"type":"Feature","geometry":{"type":"Point","coordinates":[-88.183415,42.25419]}},{"properties":{"city":"Waukegan","total count":null,"zip":"60079","geo_score":1.0,"survivor":null,"inactive":3,"annuitant":1,"id":"a690dpr1caic","geo_precision":"zip","active":1,"state":"Illinois"},"type":"Feature","geometry":{"type":"Point","coordinates":[-87.610053,42.322814]}},{"properties":{"city":"Waukegan","total count":166,"zip":"60085","geo_score":0.893,"survivor":17,"inactive":42,"annuitant":19,"id":"a690dpv3h7a8","geo_precision":"zip","active":88,"state":"Illinois"},"type":"Feature","geometry":{"type":"Point","coordinates":[-87.88424,42.348355]}},{"properties":{"city":"Waukegan","total count":108,"zip":"60087","geo_score":1.0,"survivor":9,"inactive":24,"annuitant":16,"id":"a690dpuyicn3","geo_precision":"zip","active":59,"state":"Illinois"},"type":"Feature","geometry":{"type":"Point","coordinates":[-87.868471,42.372921]}},{"properties":{"city":"Winthrop Harbor","total count":37,"zip":"60096","geo_score":1.0,"survivor":1,"inactive":12,"annuitant":4,"id":"a690dpvr5n6j","geo_precision":"zip","active":20,"state":"Illinois"},"type":"Feature","geometry":{"type":"Point","coordinates":[-87.834222,42.47832]}},{"properties":{"city":"Winthrop Hbr","total count":null,"zip":"60096","geo_score":0.969,"survivor":null,"inactive":1,"annuitant":null,"id":"a690dpo7bzmk","geo_precision":"zip","active":null,"state":"Illinois"},"type":"Feature","geometry":{"type":"Point","coordinates":[-87.834222,42.47832]}},{"properties":{"city":"Zion","total count":95,"zip":"60099","geo_score":0.857,"survivor":5,"inactive":20,"annuitant":11,"id":"a690dpmigiom","geo_precision":"zip","active":59,"state":"Illinois"},"type":"Feature","geometry":{"type":"Point","coordinates":[-87.857296,42.422244]}},{"properties":{"city":"Algonquin","total count":239,"zip":"60102","geo_score":0.896,"survivor":16,"inactive":83,"annuitant":33,"id":"a690dpobjna3","geo_precision":"zip","active":107,"state":"Illinois"},"type":"Feature","geometry":{"type":"Point","coordinates":[-88.260638,42.188913]}},{"properties":{"city":"Bull Valley","total count":null,"zip":"60050","geo_score":0.886,"survivor":null,"inactive":null,"annuitant":1,"id":"a690dpsy2yor","geo_precision":"zip","active":null,"state":"Illinois"},"type":"Feature","geometry":{"type":"Point","coordinates":[-88.226198,42.389465]}},{"properties":{"city":"Bull Valley","total count":null,"zip":"60097","geo_score":0.871,"survivor":null,"inactive":null,"annuitant":null,"id":"a690dpzc344u","geo_precision":"zip","active":1,"state":"Illinois"},"type":"Feature","geometry":{"type":"Point","coordinates":[-88.332794,42.355165]}},{"properties":{"city":"Bull Valley","total count":null,"zip":"60098","geo_score":0.871,"survivor":null,"inactive":1,"annuitant":2,"id":"a690dprhr0qb","geo_precision":"zip","active":5,"state":"Illinois"},"type":"Feature","geometry":{"type":"Point","coordinates":[-88.507317,42.363632]}},{"properties":{"city":"Cary","total count":215,"zip":"60013","geo_score":0.883,"survivor":13,"inactive":73,"annuitant":23,"id":"a690dpnyg5ly","geo_precision":"zip","active":106,"state":"Illinois"},"type":"Feature","geometry":{"type":"Point","coordinates":[-88.253416,42.19808]}},{"properties":{"city":"Crystal Lake","total count":149,"zip":"60012","geo_score":0.87,"survivor":7,"inactive":58,"annuitant":21,"id":"a690dpjv8le2","geo_precision":"zip","active":63,"state":"Illinois"},"type":"Feature","geometry":{"type":"Point","coordinates":[-88.361476,42.268356]}},{"properties":{"city":"Crystal Lake","total count":465,"zip":"60014","geo_score":0.87,"survivor":27,"inactive":152,"annuitant":84,"id":"a690dpz42zj4","geo_precision":"zip","active":202,"state":"Illinois"},"type":"Feature","geometry":{"type":"Point","coordinates":[-88.300642,42.281689]}},{"properties":{"city":"Crystal Lake","total count":8,"zip":"60039","geo_score":1.0,"survivor":1,"inactive":2,"annuitant":3,"id":"a690dplc8gd5","geo_precision":"zip","active":2,"state":"Illinois"},"type":"Feature","geometry":{"type":"Point","coordinates":[-88.452481,42.324761]}},{"properties":{"city":"East Dundee","total count":null,"zip":"60118","geo_score":0.971,"survivor":null,"inactive":null,"annuitant":1,"id":"a690dpzwdtg4","geo_precision":"zip","active":null,"state":"Illinois"},"type":"Feature","geometry":{"type":"Point","coordinates":[-88.282858,42.098081]}},{"properties":{"city":"Fox River Grove","total count":32,"zip":"60021","geo_score":1.0,"survivor":2,"inactive":16,"annuitant":1,"id":"a690dpq66g9k","geo_precision":"zip","active":13,"state":"Illinois"},"type":"Feature","geometry":{"type":"Point","coordinates":[-88.250406,42.213058]}},{"properties":{"city":"Fox River Grv","total count":null,"zip":"60021","geo_score":0.978,"survivor":null,"inactive":2,"annuitant":null,"id":"a690dpussj52","geo_precision":"zip","active":null,"state":"Illinois"},"type":"Feature","geometry":{"type":"Point","coordinates":[-88.250406,42.213058]}},{"properties":{"city":"Gurnee","total count":null,"zip":"60051","geo_score":0.878,"survivor":1,"inactive":null,"annuitant":null,"id":"a690dpz29p5h","geo_precision":"zip","active":null,"state":"Illinois"},"type":"Feature","geometry":{"type":"Point","coordinates":[-88.452481,42.324761]}},{"properties":{"city":"Harvard","total count":78,"zip":"60033","geo_score":0.893,"survivor":5,"inactive":23,"annuitant":18,"id":"a690dpwlfdl5","geo_precision":"zip","active":32,"state":"Illinois"},"type":"Feature","geometry":{"type":"Point","coordinates":[-88.641211,42.441129]}},{"properties":{"city":"Hebron","total count":8,"zip":"60034","geo_score":1.0,"survivor":1,"inactive":3,"annuitant":1,"id":"a690dpojh4b6","geo_precision":"zip","active":3,"state":"Illinois"},"type":"Feature","geometry":{"type":"Point","coordinates":[-88.430802,42.455151]}},{"properties":{"city":"Holiday Hills","total count":null,"zip":"60051","geo_score":0.869,"survivor":null,"inactive":null,"annuitant":null,"id":"a690dpxqek1o","geo_precision":"zip","active":2,"state":"Illinois"},"type":"Feature","geometry":{"type":"Point","coordinates":[-88.452481,42.324761]}},{"properties":{"city":"Huntley","total count":228,"zip":"60142","geo_score":1.0,"survivor":22,"inactive":48,"annuitant":82,"id":"a690dprs8sxc","geo_precision":"zip","active":76,"state":"Illinois"},"type":"Feature","geometry":{"type":"Point","coordinates":[-88.450815,42.197379]}},{"properties":{"city":"Johnsburg","total count":null,"zip":"60050","geo_score":0.873,"survivor":2,"inactive":3,"annuitant":null,"id":"a690dpv34v7m","geo_precision":"zip","active":null,"state":"Illinois"},"type":"Feature","geometry":{"type":"Point","coordinates":[-88.226198,42.389465]}},{"properties":{"city":"Johnsburg","total count":22,"zip":"60051","geo_score":0.889,"survivor":1,"inactive":6,"annuitant":4,"id":"a690dpsvorsn","geo_precision":"zip","active":11,"state":"Illinois"},"type":"Feature","geometry":{"type":"Point","coordinates":[-88.452481,42.324761]}},{"properties":{"city":"Lake In the Hills","total count":null,"zip":"60102","geo_score":0.878,"survivor":2,"inactive":1,"annuitant":null,"id":"a690dpp39kf9","geo_precision":"zip","active":3,"state":"Illinois"},"type":"Feature","geometry":{"type":"Point","coordinates":[-88.260638,42.188913]}},{"properties":{"city":"Lake In the Hills","total count":160,"zip":"60156","geo_score":0.898,"survivor":8,"inactive":62,"annuitant":9,"id":"a690dpyqpzgp","geo_precision":"zip","active":81,"state":"Illinois"},"type":"Feature","geometry":{"type":"Point","coordinates":[-88.383794,42.222769]}},{"properties":{"city":"Lakemoor","total count":18,"zip":"60051","geo_score":0.875,"survivor":3,"inactive":7,"annuitant":1,"id":"a690dpnz4cve","geo_precision":"zip","active":7,"state":"Illinois"},"type":"Feature","geometry":{"type":"Point","coordinates":[-88.452481,42.324761]}},{"properties":{"city":"Lakewood","total count":null,"zip":"60014","geo_score":0.871,"survivor":null,"inactive":null,"annuitant":null,"id":"a690dpse928e","geo_precision":"zip","active":1,"state":"Illinois"},"type":"Feature","geometry":{"type":"Point","coordinates":[-88.300642,42.281689]}},{"properties":{"city":"Lk In the Hls","total count":null,"zip":"60156","geo_score":0.871,"survivor":null,"inactive":1,"annuitant":null,"id":"a690dprbcvgp","geo_precision":"zip","active":1,"state":"Illinois"},"type":"Feature","geometry":{"type":"Point","coordinates":[-88.383794,42.222769]}},{"properties":{"city":"Marengo","total count":95,"zip":"60152","geo_score":0.878,"survivor":6,"inactive":31,"annuitant":20,"id":"a690dpxizmke","geo_precision":"zip","active":38,"state":"Illinois"},"type":"Feature","geometry":{"type":"Point","coordinates":[-88.564536,42.217245]}},{"properties":{"city":"McHenry","total count":206,"zip":"60050","geo_score":0.857,"survivor":27,"inactive":67,"annuitant":24,"id":"a690dplzqvfb","geo_precision":"zip","active":88,"state":"Illinois"},"type":"Feature","geometry":{"type":"Point","coordinates":[-88.226198,42.389465]}},{"properties":{"city":"McHenry","total count":55,"zip":"60051","geo_score":1.0,"survivor":4,"inactive":18,"annuitant":14,"id":"a690dpxyd44g","geo_precision":"zip","active":19,"state":"Illinois"},"type":"Feature","geometry":{"type":"Point","coordinates":[-88.452481,42.324761]}},{"properties":{"city":"Oakwood Hills","total count":null,"zip":"60013","geo_score":0.881,"survivor":null,"inactive":2,"annuitant":1,"id":"a690dpxfyh6h","geo_precision":"zip","active":4,"state":"Illinois"},"type":"Feature","geometry":{"type":"Point","coordinates":[-88.253416,42.19808]}},{"properties":{"city":"Richmond","total count":23,"zip":"60071","geo_score":1.0,"survivor":3,"inactive":7,"annuitant":4,"id":"a690dpml0nef","geo_precision":"zip","active":9,"state":"Illinois"},"type":"Feature","geometry":{"type":"Point","coordinates":[-88.429864,42.328463]}},{"properties":{"city":"Ringwood","total count":null,"zip":"60072","geo_score":1.0,"survivor":null,"inactive":null,"annuitant":1,"id":"a690dpv9q3k2","geo_precision":"zip","active":3,"state":"Illinois"},"type":"Feature","geometry":{"type":"Point","coordinates":[-88.305439,42.404829]}},{"properties":{"city":"Schaumburg","total count":null,"zip":"60173","geo_score":1.0,"survivor":null,"inactive":1,"annuitant":null,"id":"a690dpsocyup","geo_precision":"zip","active":null,"state":"Illinois"},"type":"Feature","geometry":{"type":"Point","coordinates":[-88.046403,42.079837]}},{"properties":{"city":"Spring Grove","total count":74,"zip":"60081","geo_score":0.87,"survivor":5,"inactive":24,"annuitant":11,"id":"a690dpni70zj","geo_precision":"zip","active":34,"state":"Illinois"},"type":"Feature","geometry":{"type":"Point","coordinates":[-88.173141,42.421965]}},{"properties":{"city":"Trout Valley","total count":null,"zip":"60013","geo_score":1.0,"survivor":null,"inactive":1,"annuitant":null,"id":"a690dps4f5fq","geo_precision":"zip","active":1,"state":"Illinois"},"type":"Feature","geometry":{"type":"Point","coordinates":[-88.253416,42.19808]}},{"properties":{"city":"Union","total count":14,"zip":"60180","geo_score":1.0,"survivor":4,"inactive":1,"annuitant":3,"id":"a690dpkaxd0x","geo_precision":"zip","active":6,"state":"Illinois"},"type":"Feature","geometry":{"type":"Point","coordinates":[-88.525091,42.222569]}},{"properties":{"city":"Village of Lakewood","total count":17,"zip":"60014","geo_score":0.882,"survivor":2,"inactive":6,"annuitant":1,"id":"a690dplh38ts","geo_precision":"zip","active":8,"state":"Illinois"},"type":"Feature","geometry":{"type":"Point","coordinates":[-88.300642,42.281689]}},{"properties":{"city":"Wonder Lake","total count":46,"zip":"60097","geo_score":1.0,"survivor":5,"inactive":11,"annuitant":9,"id":"a690dpmj0q1m","geo_precision":"zip","active":21,"state":"Illinois"},"type":"Feature","geometry":{"type":"Point","coordinates":[-88.332794,42.355165]}},{"properties":{"city":"Woodstock","total count":351,"zip":"60098","geo_score":0.857,"survivor":40,"inactive":108,"annuitant":59,"id":"a690dpsv4jxg","geo_precision":"zip","active":144,"state":"Illinois"},"type":"Feature","geometry":{"type":"Point","coordinates":[-88.507317,42.363632]}},{"properties":{"city":"Aurora","total count":59,"zip":"60503","geo_score":0.857,"survivor":1,"inactive":11,"annuitant":2,"id":"a690dpli4xa2","geo_precision":"city","active":45,"state":"Illinois"},"type":"Feature","geometry":{"type":"Point","coordinates":[-88.136616,41.768399]}},{"properties":{"city":"Beecher","total count":61,"zip":"60401","geo_score":0.857,"survivor":4,"inactive":15,"annuitant":10,"id":"a690dpjknaz1","geo_precision":"zip","active":32,"state":"Illinois"},"type":"Feature","geometry":{"type":"Point","coordinates":[-87.634761,41.293367]}},{"properties":{"city":"Bolingbrook","total count":389,"zip":"60440","geo_score":1.0,"survivor":38,"inactive":134,"annuitant":58,"id":"a690dpp1wa94","geo_precision":"zip","active":159,"state":"Illinois"},"type":"Feature","geometry":{"type":"Point","coordinates":[-88.022464,41.623336]}},{"properties":{"city":"Bolingbrook","total count":213,"zip":"60490","geo_score":1.0,"survivor":7,"inactive":104,"annuitant":16,"id":"a690dpzabhgq","geo_precision":"zip","active":86,"state":"Illinois"},"type":"Feature","geometry":{"type":"Point","coordinates":[-88.140332,41.679041]}},{"properties":{"city":"Braidwood","total count":null,"zip":"60408","geo_score":1.0,"survivor":null,"inactive":13,"annuitant":6,"id":"a690dpwezj0e","geo_precision":"zip","active":25,"state":"Illinois"},"type":"Feature","geometry":{"type":"Point","coordinates":[-88.017171,41.285878]}},{"properties":{"city":"Channahon","total count":129,"zip":"60410","geo_score":1.0,"survivor":8,"inactive":49,"annuitant":11,"id":"a690dpzrpd12","geo_precision":"zip","active":61,"state":"Illinois"},"type":"Feature","geometry":{"type":"Point","coordinates":[-88.199325,41.43313]}},{"properties":{"city":"Chicago","total count":null,"zip":"60440","geo_score":0.883,"survivor":null,"inactive":2,"annuitant":null,"id":"a690dpyspue4","geo_precision":"zip","active":null,"state":"Illinois"},"type":"Feature","geometry":{"type":"Point","coordinates":[-88.022464,41.623336]}},{"properties":{"city":"Chicago","total count":null,"zip":"60564","geo_score":0.857,"survivor":null,"inactive":1,"annuitant":null,"id":"a690dpm69ck9","geo_precision":"zip","active":null,"state":"Illinois"},"type":"Feature","geometry":{"type":"Point","coordinates":[-88.201424,41.681479]}},{"properties":{"city":"Crest Hill","total count":126,"zip":"60403","geo_score":0.857,"survivor":13,"inactive":26,"annuitant":37,"id":"a690dpy0a0jc","geo_precision":"city","active":50,"state":"Illinois"},"type":"Feature","geometry":{"type":"Point","coordinates":[-88.098671,41.554753]}},{"properties":{"city":"Crest Hill","total count":18,"zip":"60435","geo_score":0.873,"survivor":2,"inactive":10,"annuitant":1,"id":"a690dpm2a7cw","geo_precision":"zip","active":5,"state":"Illinois"},"type":"Feature","geometry":{"type":"Point","coordinates":[-88.090337,41.554753]}},{"properties":{"city":"Cresthill","total count":null,"zip":"60403","geo_score":0.857,"survivor":1,"inactive":2,"annuitant":null,"id":"a690dpzi0kgl","geo_precision":"city","active":2,"state":"Illinois"},"type":"Feature","geometry":{"type":"Point","coordinates":[-88.098671,41.554753]}},{"properties":{"city":"Crete","total count":257,"zip":"60417","geo_score":1.0,"survivor":29,"inactive":74,"annuitant":63,"id":"a690dpoy9an2","geo_precision":"zip","active":91,"state":"Illinois"},"type":"Feature","geometry":{"type":"Point","coordinates":[-87.621223,41.426684]}},{"properties":{"city":"Custer Park","total count":null,"zip":"60481","geo_score":0.886,"survivor":null,"inactive":2,"annuitant":4,"id":"a690dpqclgd8","geo_precision":"zip","active":6,"state":"Illinois"},"type":"Feature","geometry":{"type":"Point","coordinates":[-88.052554,41.328643]}},{"properties":{"city":"Elwood","total count":33,"zip":"60421","geo_score":1.0,"survivor":3,"inactive":12,"annuitant":4,"id":"a690dpspmnd9","geo_precision":"zip","active":14,"state":"Illinois"},"type":"Feature","geometry":{"type":"Point","coordinates":[-88.090588,41.44288]}},{"properties":{"city":"Frankfort","total count":397,"zip":"60423","geo_score":0.878,"survivor":25,"inactive":137,"annuitant":67,"id":"a690dplrhh0d","geo_precision":"zip","active":168,"state":"Illinois"},"type":"Feature","geometry":{"type":"Point","coordinates":[-87.806994,41.502534]}},{"properties":{"city":"Homer Glen","total count":null,"zip":"60441","geo_score":0.868,"survivor":null,"inactive":1,"annuitant":null,"id":"a690dpue7qev","geo_precision":"zip","active":2,"state":"Illinois"},"type":"Feature","geometry":{"type":"Point","coordinates":[-88.054503,41.573087]}},{"properties":{"city":"Homer Glen","total count":162,"zip":"60491","geo_score":0.857,"survivor":17,"inactive":42,"annuitant":41,"id":"a690dpy2r395","geo_precision":"city","active":62,"state":"Illinois"},"type":"Feature","geometry":{"type":"Point","coordinates":[-87.938111,41.600032]}},{"properties":{"city":"Joliet","total count":16,"zip":"60404","geo_score":0.738,"survivor":1,"inactive":3,"annuitant":6,"id":"a690dpjoo4ys","geo_precision":"city","active":6,"state":"Illinois"},"type":"Feature","geometry":{"type":"Point","coordinates":[-90.667345,39.124215]}},{"properties":{"city":"Joliet","total count":224,"zip":"60431","geo_score":0.888,"survivor":10,"inactive":77,"annuitant":26,"id":"a690dpzu4kf3","geo_precision":"zip","active":111,"state":"Illinois"},"type":"Feature","geometry":{"type":"Point","coordinates":[-88.081724,41.491698]}},{"properties":{"city":"Joliet","total count":67,"zip":"60432","geo_score":0.881,"survivor":3,"inactive":26,"annuitant":4,"id":"a690dpt02a7e","geo_precision":"zip","active":34,"state":"Illinois"},"type":"Feature","geometry":{"type":"Point","coordinates":[-87.777556,41.804754]}},{"properties":{"city":"Joliet","total count":77,"zip":"60433","geo_score":1.0,"survivor":8,"inactive":17,"annuitant":15,"id":"a690dpwjzhe5","geo_precision":"zip","active":37,"state":"Illinois"},"type":"Feature","geometry":{"type":"Point","coordinates":[-87.882249,41.476265]}},{"properties":{"city":"Joliet","total count":11,"zip":"60434","geo_score":1.0,"survivor":1,"inactive":3,"annuitant":4,"id":"a690dplusk66","geo_precision":"zip","active":3,"state":"Illinois"},"type":"Feature","geometry":{"type":"Point","coordinates":[-88.084208,41.52543]}},{"properties":{"city":"Joliet","total count":464,"zip":"60435","geo_score":0.881,"survivor":42,"inactive":152,"annuitant":76,"id":"a690dpyss2e0","geo_precision":"zip","active":194,"state":"Illinois"},"type":"Feature","geometry":{"type":"Point","coordinates":[-88.090337,41.554753]}},{"properties":{"city":"Joliet","total count":92,"zip":"60436","geo_score":0.873,"survivor":8,"inactive":25,"annuitant":17,"id":"a690dpvth9qc","geo_precision":"zip","active":42,"state":"Illinois"},"type":"Feature","geometry":{"type":"Point","coordinates":[-88.201729,41.520031]}},{"properties":{"city":"Lockport","total count":261,"zip":"60441","geo_score":0.945,"survivor":24,"inactive":103,"annuitant":26,"id":"a690dpuvyvu6","geo_precision":"zip","active":108,"state":"Illinois"},"type":"Feature","geometry":{"type":"Point","coordinates":[-88.054503,41.573087]}},{"properties":{"city":"Lockport","total count":null,"zip":"60446","geo_score":0.871,"survivor":null,"inactive":null,"annuitant":null,"id":"a690dppfl2p6","geo_precision":"zip","active":1,"state":"Illinois"},"type":"Feature","geometry":{"type":"Point","coordinates":[-88.069621,41.64038]}},{"properties":{"city":"Lockport","total count":9,"zip":"60491","geo_score":0.857,"survivor":2,"inactive":4,"annuitant":1,"id":"a690dptg9rvv","geo_precision":"city","active":2,"state":"Illinois"},"type":"Feature","geometry":{"type":"Point","coordinates":[-88.031268,41.552615]}},{"properties":{"city":"Manhattan","total count":101,"zip":"60442","geo_score":0.881,"survivor":10,"inactive":27,"annuitant":7,"id":"a690dplx1vrm","geo_precision":"zip","active":57,"state":"Illinois"},"type":"Feature","geometry":{"type":"Point","coordinates":[-87.959773,41.351421]}},{"properties":{"city":"Mokena","total count":239,"zip":"60448","geo_score":0.881,"survivor":16,"inactive":80,"annuitant":29,"id":"a690dpn5hbjf","geo_precision":"zip","active":114,"state":"Illinois"},"type":"Feature","geometry":{"type":"Point","coordinates":[-87.92561,41.548643]}},{"properties":{"city":"Monee","total count":97,"zip":"60449","geo_score":1.0,"survivor":9,"inactive":28,"annuitant":16,"id":"a690dpmqgd6b","geo_precision":"zip","active":44,"state":"Illinois"},"type":"Feature","geometry":{"type":"Point","coordinates":[-87.786645,41.412269]}},{"properties":{"city":"Naperville","total count":378,"zip":"60564","geo_score":1.0,"survivor":19,"inactive":170,"annuitant":30,"id":"a690dppkq2ks","geo_precision":"zip","active":159,"state":"Illinois"},"type":"Feature","geometry":{"type":"Point","coordinates":[-88.201424,41.681479]}},{"properties":{"city":"Naperville","total count":null,"zip":"60565","geo_score":1.0,"survivor":1,"inactive":null,"annuitant":null,"id":"a690dpp2kw9m","geo_precision":"zip","active":null,"state":"Illinois"},"type":"Feature","geometry":{"type":"Point","coordinates":[-88.112714,41.737929]}},{"properties":{"city":"New Lenox","total count":411,"zip":"60451","geo_score":0.875,"survivor":32,"inactive":138,"annuitant":64,"id":"a690dpsjinud","geo_precision":"zip","active":177,"state":"Illinois"},"type":"Feature","geometry":{"type":"Point","coordinates":[-87.94172,41.498088]}},{"properties":{"city":"Orland Park","total count":null,"zip":"60467","geo_score":1.0,"survivor":null,"inactive":null,"annuitant":1,"id":"a690dpssf17b","geo_precision":"zip","active":null,"state":"Illinois"},"type":"Feature","geometry":{"type":"Point","coordinates":[-87.68732,41.811929]}},{"properties":{"city":"Park Forest","total count":null,"zip":"60466","geo_score":0.867,"survivor":null,"inactive":null,"annuitant":1,"id":"a690dpxjtqkx","geo_precision":"zip","active":null,"state":"Illinois"},"type":"Feature","geometry":{"type":"Point","coordinates":[-87.685325,41.592257]}},{"properties":{"city":"Park Forest","total count":null,"zip":"60484","geo_score":0.786,"survivor":null,"inactive":null,"annuitant":1,"id":"a690dpzov97f","geo_precision":"city","active":null,"state":"Illinois"},"type":"Feature","geometry":{"type":"Point","coordinates":[-88.393085,40.754176]}},{"properties":{"city":"Peotone","total count":59,"zip":"60468","geo_score":0.857,"survivor":5,"inactive":11,"annuitant":11,"id":"a690dpxtdqb9","geo_precision":"zip","active":32,"state":"Illinois"},"type":"Feature","geometry":{"type":"Point","coordinates":[-87.882548,41.371699]}},{"properties":{"city":"Plainfield","total count":320,"zip":"60544","geo_score":0.871,"survivor":31,"inactive":143,"annuitant":39,"id":"a690dplnh9a6","geo_precision":"zip","active":107,"state":"Illinois"},"type":"Feature","geometry":{"type":"Point","coordinates":[-88.181452,41.590308]}},{"properties":{"city":"Plainfield","total count":155,"zip":"60585","geo_score":0.857,"survivor":13,"inactive":61,"annuitant":13,"id":"a690dpsrj2qw","geo_precision":"city","active":68,"state":"Illinois"},"type":"Feature","geometry":{"type":"Point","coordinates":[-88.169698,41.632457]}},{"properties":{"city":"Plainfield","total count":265,"zip":"60586","geo_score":0.857,"survivor":12,"inactive":93,"annuitant":22,"id":"a690dpjf39x4","geo_precision":"city","active":138,"state":"Illinois"},"type":"Feature","geometry":{"type":"Point","coordinates":[-88.169698,41.632457]}},{"properties":{"city":"Rockdale","total count":null,"zip":"60436","geo_score":0.873,"survivor":null,"inactive":4,"annuitant":2,"id":"a690dpr1110e","geo_precision":"zip","active":3,"state":"Illinois"},"type":"Feature","geometry":{"type":"Point","coordinates":[-88.201729,41.520031]}},{"properties":{"city":"Romeoville","total count":196,"zip":"60446","geo_score":1.0,"survivor":11,"inactive":54,"annuitant":27,"id":"a690dpubul7g","geo_precision":"zip","active":104,"state":"Illinois"},"type":"Feature","geometry":{"type":"Point","coordinates":[-88.069621,41.64038]}},{"properties":{"city":"Shorewood","total count":195,"zip":"60404","geo_score":0.857,"survivor":18,"inactive":54,"annuitant":35,"id":"a690dpo7ucj5","geo_precision":"city","active":88,"state":"Illinois"},"type":"Feature","geometry":{"type":"Point","coordinates":[-88.201729,41.520031]}},{"properties":{"city":"Shorewood","total count":null,"zip":"60431","geo_score":0.888,"survivor":2,"inactive":28,"annuitant":null,"id":"a690dpqh6hg5","geo_precision":"zip","active":18,"state":"Illinois"},"type":"Feature","geometry":{"type":"Point","coordinates":[-88.081724,41.491698]}},{"properties":{"city":"Sullivan","total count":null,"zip":"61951","geo_score":0.871,"survivor":null,"inactive":null,"annuitant":1,"id":"a690dpwoinaf","geo_precision":"zip","active":null,"state":"Illinois"},"type":"Feature","geometry":{"type":"Point","coordinates":[-88.668398,39.570591]}},{"properties":{"city":"University Park","total count":null,"zip":"60466","geo_score":1.0,"survivor":1,"inactive":null,"annuitant":null,"id":"a690dpqn2pqx","geo_precision":"zip","active":null,"state":"Illinois"},"type":"Feature","geometry":{"type":"Point","coordinates":[-87.685325,41.592257]}},{"properties":{"city":"University Park","total count":58,"zip":"60484","geo_score":0.857,"survivor":6,"inactive":7,"annuitant":16,"id":"a690dpuo2ciy","geo_precision":"city","active":29,"state":"Illinois"},"type":"Feature","geometry":{"type":"Point","coordinates":[-87.685325,41.592257]}},{"properties":{"city":"University Park","total count":null,"zip":"60484","geo_score":0.857,"survivor":null,"inactive":null,"annuitant":null,"id":"a690dpkq9ss7","geo_precision":"city","active":1,"state":"Illinois"},"type":"Feature","geometry":{"type":"Point","coordinates":[-87.685325,41.592257]}},{"properties":{"city":"Wilmington","total count":57,"zip":"60481","geo_score":0.914,"survivor":5,"inactive":15,"annuitant":5,"id":"a690dplaolk5","geo_precision":"zip","active":32,"state":"Illinois"},"type":"Feature","geometry":{"type":"Point","coordinates":[-88.052554,41.328643]}}],"is_temporal":false,"author":{"url":"","metadata":"","contact_name":"","contact_address":"","source":"","contact_phone":""},"source":"","pagination":{"sort":null,"start":0,"total":583,"limit":1000000},"state":"complete","tags":"","published":"2014-08-13T02:17:33-04:00","id":194017}