{"type":"FeatureCollection","data_type":"Dataset","url_type":null,"permissions":[{"permissions":{"download":true,"view":true},"group_id":"everyone"}],"classification":null,"title":"38degree_sample","count":1024,"stream_id":19415,"contributor":{"url":"http://geocommons.com/users/10262","name":"mapperz_maps"},"data_attributes":null,"calculation_params":null,"icon_link":null,"link":"http://geocommons.com/overlays/19415.json","extent":[-7.27889,50.1211,1.75489,60.1468],"geometry_types":["point"],"unique_name":null,"name":"38degree_sample","feature_count":1024,"description":"","next_feature":null,"is_raster":false,"short_classification":"Y","stats":{"size":{"max":19.9827573299,"mean":10.47421955876,"variance":30.885482532318,"stdev":5.55747087552585,"min":1.00096678734,"median":10.2497706413},"lng":{"max":1.75489,"mean":-1.68384750390625,"variance":2.59707661668524,"stdev":1.61154479201952,"min":-7.27889,"median":-1.53869},"lat":{"max":60.14677,"mean":53.2480127080078,"variance":4.93340665837193,"stdev":2.22112733952197,"min":50.121132,"median":52.273529}},"features":[{"properties":{"size":1.94930291176,"lng":-2.11044,"Postcode":"AB10 1RT","id":"a64j0ai3nhhv","lat":57.146641},"type":"Feature","geometry":{"type":"Point","coordinates":[-2.11044,57.146641]}},{"properties":{"size":16.6129360199,"lng":-2.11225,"Postcode":"AB10 1UJ","id":"a64j0a6vu3vr","lat":57.14542},"type":"Feature","geometry":{"type":"Point","coordinates":[-2.11225,57.14542]}},{"properties":{"size":11.3092515469,"lng":-2.11863,"Postcode":"AB10 6HP","id":"a64j0ae6ivnd","lat":57.134998},"type":"Feature","geometry":{"type":"Point","coordinates":[-2.11863,57.134998]}},{"properties":{"size":7.47787332535,"lng":-2.12277,"Postcode":"AB10 6RW","id":"a64j0a4zt09l","lat":57.137829},"type":"Feature","geometry":{"type":"Point","coordinates":[-2.12277,57.137829]}},{"properties":{"size":18.3531293869,"lng":-2.0926,"Postcode":"AB11 5BB","id":"a64j0a6fbhzd","lat":57.147991},"type":"Feature","geometry":{"type":"Point","coordinates":[-2.0926,57.147991]}},{"properties":{"size":3.43730425835,"lng":-2.10271,"Postcode":"AB11 6FF","id":"a64j0abujinf","lat":57.142071},"type":"Feature","geometry":{"type":"Point","coordinates":[-2.10271,57.142071]}},{"properties":{"size":4.04781675339,"lng":-2.10132,"Postcode":"AB11 6HQ","id":"a64j0a7pfcyn","lat":57.141659},"type":"Feature","geometry":{"type":"Point","coordinates":[-2.10132,57.141659]}},{"properties":{"size":18.3771679401,"lng":-2.11269,"Postcode":"AB116XT","id":"a64j0a5f6btt","lat":57.13921},"type":"Feature","geometry":{"type":"Point","coordinates":[-2.11269,57.13921]}},{"properties":{"size":15.6564483643,"lng":-2.23442,"Postcode":"AB12 5FS","id":"a64j0ahktly9","lat":57.083912},"type":"Feature","geometry":{"type":"Point","coordinates":[-2.23442,57.083912]}},{"properties":{"size":16.7666051388,"lng":-2.11145,"Postcode":"AB12 5HT","id":"a64j0aant9a4","lat":57.118259},"type":"Feature","geometry":{"type":"Point","coordinates":[-2.11145,57.118259]}},{"properties":{"size":13.3421406746,"lng":-2.16975,"Postcode":"AB12 5XT","id":"a64j0a6p8dq7","lat":57.104919},"type":"Feature","geometry":{"type":"Point","coordinates":[-2.16975,57.104919]}},{"properties":{"size":7.64751648903,"lng":-2.2575,"Postcode":"AB14 0QL","id":"a64j0ajhii0b","lat":57.096828},"type":"Feature","geometry":{"type":"Point","coordinates":[-2.2575,57.096828]}},{"properties":{"size":1.38544178009,"lng":-2.12845,"Postcode":"AB15 5JA","id":"a64j0a6cghgz","lat":57.149712},"type":"Feature","geometry":{"type":"Point","coordinates":[-2.12845,57.149712]}},{"properties":{"size":3.95950770378,"lng":-2.14578,"Postcode":"AB15 7XH","id":"a64j0aje2q2a","lat":57.137749},"type":"Feature","geometry":{"type":"Point","coordinates":[-2.14578,57.137749]}},{"properties":{"size":3.62378454208,"lng":-2.16118,"Postcode":"AB15 8FL","id":"a64j0ah5i1k6","lat":57.134079},"type":"Feature","geometry":{"type":"Point","coordinates":[-2.16118,57.134079]}},{"properties":{"size":6.22153019905,"lng":-2.24605,"Postcode":"AB15 8QQ","id":"a64j0ah03nzk","lat":57.140339},"type":"Feature","geometry":{"type":"Point","coordinates":[-2.24605,57.140339]}},{"properties":{"size":2.40656471252,"lng":-2.20217,"Postcode":"AB15 9BB","id":"a64j0abxyy2s","lat":57.115559},"type":"Feature","geometry":{"type":"Point","coordinates":[-2.20217,57.115559]}},{"properties":{"size":15.666646719,"lng":-2.20005,"Postcode":"AB15 9DS","id":"a64j0ag49wih","lat":57.112061},"type":"Feature","geometry":{"type":"Point","coordinates":[-2.20005,57.112061]}},{"properties":{"size":9.19084405899,"lng":-2.16924,"Postcode":"AB15 9NL","id":"a64j0a5fgvqm","lat":57.116348},"type":"Feature","geometry":{"type":"Point","coordinates":[-2.16924,57.116348]}},{"properties":{"size":12.4549219608,"lng":-2.15435,"Postcode":"AB15 9PL","id":"a64j0ab0kw3w","lat":57.12244},"type":"Feature","geometry":{"type":"Point","coordinates":[-2.15435,57.12244]}},{"properties":{"size":19.9026784897,"lng":-2.1513,"Postcode":"AB157QB","id":"a64j0ak8vkzc","lat":57.131081},"type":"Feature","geometry":{"type":"Point","coordinates":[-2.1513,57.131081]}},{"properties":{"size":19.5894382,"lng":-2.15528,"Postcode":"AB16 5LP","id":"a64j0a522a8s","lat":57.16217},"type":"Feature","geometry":{"type":"Point","coordinates":[-2.15528,57.16217]}},{"properties":{"size":13.1890711784,"lng":-2.16344,"Postcode":"AB16 6RE","id":"a64j0ad62m9m","lat":57.15411},"type":"Feature","geometry":{"type":"Point","coordinates":[-2.16344,57.15411]}},{"properties":{"size":18.160435915,"lng":-2.18131,"Postcode":"AB21 9HJ","id":"a64j0adh5hq7","lat":57.186729},"type":"Feature","geometry":{"type":"Point","coordinates":[-2.18131,57.186729]}},{"properties":{"size":14.6855506897,"lng":-2.12248,"Postcode":"AB22 8FD","id":"a64j0af4prlk","lat":57.1791},"type":"Feature","geometry":{"type":"Point","coordinates":[-2.12248,57.1791]}},{"properties":{"size":4.54257941246,"lng":-2.11714,"Postcode":"AB22 8QY","id":"a64j0ahgp0sg","lat":57.194271},"type":"Feature","geometry":{"type":"Point","coordinates":[-2.11714,57.194271]}},{"properties":{"size":15.4243741035,"lng":-2.10959,"Postcode":"AB22 8WP","id":"a64j0a6hsdmd","lat":57.188622},"type":"Feature","geometry":{"type":"Point","coordinates":[-2.10959,57.188622]}},{"properties":{"size":9.51654887199,"lng":-2.09183,"Postcode":"AB23 8JN","id":"a64j0adhwmr1","lat":57.177219},"type":"Feature","geometry":{"type":"Point","coordinates":[-2.09183,57.177219]}},{"properties":{"size":5.17034745216,"lng":-2.11318,"Postcode":"AB23 8NP","id":"a64j0a8e7289","lat":57.210609},"type":"Feature","geometry":{"type":"Point","coordinates":[-2.11318,57.210609]}},{"properties":{"size":17.5083551407,"lng":-2.09318,"Postcode":"AB23 8UE","id":"a64j0adkpd21","lat":57.227989},"type":"Feature","geometry":{"type":"Point","coordinates":[-2.09318,57.227989]}},{"properties":{"size":5.17531728745,"lng":-2.08652,"Postcode":"AB23 8ZP","id":"a64j0ad8ytbd","lat":57.250622},"type":"Feature","geometry":{"type":"Point","coordinates":[-2.08652,57.250622]}},{"properties":{"size":6.89896321297,"lng":-2.10297,"Postcode":"AB24 1WU","id":"a64j0abimhi7","lat":57.176262},"type":"Feature","geometry":{"type":"Point","coordinates":[-2.10297,57.176262]}},{"properties":{"size":4.37817192078,"lng":-2.11516,"Postcode":"AB24 2RJ","id":"a64j0agn5vfr","lat":57.171242},"type":"Feature","geometry":{"type":"Point","coordinates":[-2.11516,57.171242]}},{"properties":{"size":17.7401063442,"lng":-2.1081,"Postcode":"AB24 2TN","id":"a64j0ahaq8bg","lat":57.170029},"type":"Feature","geometry":{"type":"Point","coordinates":[-2.1081,57.170029]}},{"properties":{"size":19.0056214333,"lng":-2.09319,"Postcode":"AB24 5DN","id":"a64j0a7vc5uk","lat":57.158989},"type":"Feature","geometry":{"type":"Point","coordinates":[-2.09319,57.158989]}},{"properties":{"size":14.905121088,"lng":-2.10622,"Postcode":"AB242TZ","id":"a64j0aengj9v","lat":57.167889},"type":"Feature","geometry":{"type":"Point","coordinates":[-2.10622,57.167889]}},{"properties":{"size":16.8684873581,"lng":-2.10294,"Postcode":"AB25 1DG","id":"a64j0a8qphnm","lat":57.152489},"type":"Feature","geometry":{"type":"Point","coordinates":[-2.10294,57.152489]}},{"properties":{"size":15.7427928448,"lng":-2.09874,"Postcode":"AB25 1DS","id":"a64j0aivc44g","lat":57.15263},"type":"Feature","geometry":{"type":"Point","coordinates":[-2.09874,57.15263]}},{"properties":{"size":3.57666349411,"lng":-2.11458,"Postcode":"AB25 1TU","id":"a64j0a4ra3zm","lat":57.14856},"type":"Feature","geometry":{"type":"Point","coordinates":[-2.11458,57.14856]}},{"properties":{"size":10.454690218,"lng":-2.11799,"Postcode":"AB25 2NT","id":"a64j0aencbns","lat":57.14819},"type":"Feature","geometry":{"type":"Point","coordinates":[-2.11799,57.14819]}},{"properties":{"size":7.43169403076,"lng":-2.126,"Postcode":"AB25 2QE","id":"a64j0a93rj8i","lat":57.152512},"type":"Feature","geometry":{"type":"Point","coordinates":[-2.126,57.152512]}},{"properties":{"size":17.4174306393,"lng":-2.11447,"Postcode":"AB25 2RL","id":"a64j0aizcd7e","lat":57.15152},"type":"Feature","geometry":{"type":"Point","coordinates":[-2.11447,57.15152]}},{"properties":{"size":3.45997667313,"lng":-2.11584,"Postcode":"AB25 2RS","id":"a64j0ahny0z5","lat":57.150921},"type":"Feature","geometry":{"type":"Point","coordinates":[-2.11584,57.150921]}},{"properties":{"size":1.08307099342,"lng":-2.11683,"Postcode":"AB25 2SY","id":"a64j0ajc0m5b","lat":57.151039},"type":"Feature","geometry":{"type":"Point","coordinates":[-2.11683,57.151039]}},{"properties":{"size":9.71159076691,"lng":-2.11133,"Postcode":"AB25 2TH","id":"a64j0ajuvl5r","lat":57.152809},"type":"Feature","geometry":{"type":"Point","coordinates":[-2.11133,57.152809]}},{"properties":{"size":13.0826232433,"lng":-2.11766,"Postcode":"AB252QB","id":"a64j0aau79ak","lat":57.149609},"type":"Feature","geometry":{"type":"Point","coordinates":[-2.11766,57.149609]}},{"properties":{"size":13.9497504234,"lng":-2.48284,"Postcode":"AB301EJ","id":"a64j0a72f5v4","lat":56.856319},"type":"Feature","geometry":{"type":"Point","coordinates":[-2.48284,56.856319]}},{"properties":{"size":2.15769505501,"lng":-2.39389,"Postcode":"AB31 5HL","id":"a64j0ag41803","lat":57.090729},"type":"Feature","geometry":{"type":"Point","coordinates":[-2.39389,57.090729]}},{"properties":{"size":13.8558826447,"lng":-2.51128,"Postcode":"AB31 5RS","id":"a64j0a9u5snh","lat":57.054249},"type":"Feature","geometry":{"type":"Point","coordinates":[-2.51128,57.054249]}},{"properties":{"size":3.54525542259,"lng":-2.50608,"Postcode":"AB31 5TG","id":"a64j0agsotiv","lat":57.05143},"type":"Feature","geometry":{"type":"Point","coordinates":[-2.50608,57.05143]}},{"properties":{"size":18.8753304482,"lng":-2.4841,"Postcode":"AB31 5YP","id":"a64j0ai2t959","lat":57.052731},"type":"Feature","geometry":{"type":"Point","coordinates":[-2.4841,57.052731]}},{"properties":{"size":3.44052529335,"lng":-2.49066,"Postcode":"AB31 5ZG","id":"a64j0a7ejrww","lat":57.058189},"type":"Feature","geometry":{"type":"Point","coordinates":[-2.49066,57.058189]}},{"properties":{"size":6.82868099213,"lng":-2.58207,"Postcode":"AB31 6NS","id":"a64j0ah6x7hs","lat":57.019581},"type":"Feature","geometry":{"type":"Point","coordinates":[-2.58207,57.019581]}},{"properties":{"size":19.1629931927,"lng":-2.58832,"Postcode":"AB314NR","id":"a64j0aim64xt","lat":57.11499},"type":"Feature","geometry":{"type":"Point","coordinates":[-2.58832,57.11499]}},{"properties":{"size":13.4137187004,"lng":-2.48618,"Postcode":"AB315YU","id":"a64j0abtbhss","lat":57.052662},"type":"Feature","geometry":{"type":"Point","coordinates":[-2.48618,57.052662]}},{"properties":{"size":17.7230033875,"lng":-2.2779,"Postcode":"AB32 6HY","id":"a64j0ac1k43j","lat":57.149899},"type":"Feature","geometry":{"type":"Point","coordinates":[-2.2779,57.149899]}},{"properties":{"size":3.9067838192,"lng":-2.7095,"Postcode":"AB33 8AQ","id":"a64j0ad9kq66","lat":57.248741},"type":"Feature","geometry":{"type":"Point","coordinates":[-2.7095,57.248741]}},{"properties":{"size":11.9020733833,"lng":-2.62828,"Postcode":"AB33 8DS","id":"a64j0aerc2ee","lat":57.251411},"type":"Feature","geometry":{"type":"Point","coordinates":[-2.62828,57.251411]}},{"properties":{"size":12.0263121128,"lng":-2.78166,"Postcode":"AB33 8LS","id":"a64j0aibp7ss","lat":57.17569},"type":"Feature","geometry":{"type":"Point","coordinates":[-2.78166,57.17569]}},{"properties":{"size":8.07327365875,"lng":-2.85841,"Postcode":"AB34 4YN","id":"a64j0ab7zykn","lat":57.12619},"type":"Feature","geometry":{"type":"Point","coordinates":[-2.85841,57.12619]}},{"properties":{"size":4.42335581779,"lng":-2.81269,"Postcode":"AB34 5JE","id":"a64j0a528zj6","lat":57.077141},"type":"Feature","geometry":{"type":"Point","coordinates":[-2.81269,57.077141]}},{"properties":{"size":19.8883507252,"lng":-2.2095,"Postcode":"AB39 2AX","id":"a64j0a7d2yzi","lat":56.96476},"type":"Feature","geometry":{"type":"Point","coordinates":[-2.2095,56.96476]}},{"properties":{"size":7.16782188416,"lng":-2.22799,"Postcode":"AB39 2ES","id":"a64j0ab01nm8","lat":56.972198},"type":"Feature","geometry":{"type":"Point","coordinates":[-2.22799,56.972198]}},{"properties":{"size":4.09771895409,"lng":-2.25594,"Postcode":"AB39 3RA","id":"a64j0ae8ewna","lat":57.031761},"type":"Feature","geometry":{"type":"Point","coordinates":[-2.25594,57.031761]}},{"properties":{"size":15.7530961037,"lng":-2.15034,"Postcode":"AB39 3RW","id":"a64j0aaowj31","lat":57.036652},"type":"Feature","geometry":{"type":"Point","coordinates":[-2.15034,57.036652]}},{"properties":{"size":17.2017595768,"lng":-2.33705,"Postcode":"AB393XA","id":"a64j0a984nps","lat":56.93129},"type":"Feature","geometry":{"type":"Point","coordinates":[-2.33705,56.93129]}},{"properties":{"size":12.3613843918,"lng":-2.04952,"Postcode":"AB41 6AX","id":"a64j0aeh5vt6","lat":57.304939},"type":"Feature","geometry":{"type":"Point","coordinates":[-2.04952,57.304939]}},{"properties":{"size":2.1156642437,"lng":-2.00994,"Postcode":"AB41 6DU","id":"a64j0ajqx25s","lat":57.31588},"type":"Feature","geometry":{"type":"Point","coordinates":[-2.00994,57.31588]}},{"properties":{"size":5.90336179733,"lng":-2.21559,"Postcode":"AB41 6SQ","id":"a64j0a6xsnj0","lat":57.306301},"type":"Feature","geometry":{"type":"Point","coordinates":[-2.21559,57.306301]}},{"properties":{"size":19.1386578083,"lng":-2.18759,"Postcode":"AB41 7GB","id":"a64j0ahuw94k","lat":57.339729},"type":"Feature","geometry":{"type":"Point","coordinates":[-2.18759,57.339729]}},{"properties":{"size":14.3876037598,"lng":-2.22333,"Postcode":"AB41 7NZ","id":"a64j0addhib7","lat":57.367722},"type":"Feature","geometry":{"type":"Point","coordinates":[-2.22333,57.367722]}},{"properties":{"size":17.5262639523,"lng":-2.05918,"Postcode":"AB41 8AL","id":"a64j0agfe1gf","lat":57.372589},"type":"Feature","geometry":{"type":"Point","coordinates":[-2.05918,57.372589]}},{"properties":{"size":19.6406958103,"lng":-2.02684,"Postcode":"AB41 8EX","id":"a64j0abk0gmv","lat":57.42646},"type":"Feature","geometry":{"type":"Point","coordinates":[-2.02684,57.42646]}},{"properties":{"size":7.67152881622,"lng":-1.9372,"Postcode":"AB41 8RS","id":"a64j0adn1fk5","lat":57.346432},"type":"Feature","geometry":{"type":"Point","coordinates":[-1.9372,57.346432]}},{"properties":{"size":18.3043715954,"lng":-1.91424,"Postcode":"AB41 8ST","id":"a64j0ak4qcjw","lat":57.361019},"type":"Feature","geometry":{"type":"Point","coordinates":[-1.91424,57.361019]}},{"properties":{"size":12.9815552235,"lng":-2.08231,"Postcode":"AB41 9BZ","id":"a64j0ab65sb6","lat":57.36208},"type":"Feature","geometry":{"type":"Point","coordinates":[-2.08231,57.36208]}},{"properties":{"size":5.64211463928,"lng":-2.08928,"Postcode":"AB41 9FS","id":"a64j0a9xqzd1","lat":57.371639},"type":"Feature","geometry":{"type":"Point","coordinates":[-2.08928,57.371639]}},{"properties":{"size":15.4131219387,"lng":-1.98347,"Postcode":"AB42 0TS","id":"a64j0a5znd91","lat":57.431969},"type":"Feature","geometry":{"type":"Point","coordinates":[-1.98347,57.431969]}},{"properties":{"size":1.59204339981,"lng":-2.03872,"Postcode":"AB42 5DY","id":"a64j0ab95c1y","lat":57.497318},"type":"Feature","geometry":{"type":"Point","coordinates":[-2.03872,57.497318]}},{"properties":{"size":1.04472255707,"lng":-2.69117,"Postcode":"AB452PA","id":"a64j0aed2jm9","lat":57.68399},"type":"Feature","geometry":{"type":"Point","coordinates":[-2.69117,57.68399]}},{"properties":{"size":16.7914960384,"lng":-2.32057,"Postcode":"AB51 0EN","id":"a64j0aebz61a","lat":57.33675},"type":"Feature","geometry":{"type":"Point","coordinates":[-2.32057,57.33675]}},{"properties":{"size":1.86643099785,"lng":-2.39519,"Postcode":"AB51 4FP","id":"a64j0a6ov1qg","lat":57.29348},"type":"Feature","geometry":{"type":"Point","coordinates":[-2.39519,57.29348]}},{"properties":{"size":9.24871778488,"lng":-2.52371,"Postcode":"AB51 7HF","id":"a64j0a51cfd2","lat":57.228771},"type":"Feature","geometry":{"type":"Point","coordinates":[-2.52371,57.228771]}},{"properties":{"size":1.30962109566,"lng":-2.57194,"Postcode":"AB51 7SP","id":"a64j0a6o9n69","lat":57.202129},"type":"Feature","geometry":{"type":"Point","coordinates":[-2.57194,57.202129]}},{"properties":{"size":11.2536201477,"lng":-2.41929,"Postcode":"AB51 8UX","id":"a64j0a5idle4","lat":57.390072},"type":"Feature","geometry":{"type":"Point","coordinates":[-2.41929,57.390072]}},{"properties":{"size":12.8182492256,"lng":-2.44181,"Postcode":"AB53 4PU","id":"a64j0aio1n8x","lat":57.538021},"type":"Feature","geometry":{"type":"Point","coordinates":[-2.44181,57.538021]}},{"properties":{"size":10.566847086,"lng":-2.46594,"Postcode":"AB53 4WA","id":"a64j0acpfk81","lat":57.54364},"type":"Feature","geometry":{"type":"Point","coordinates":[-2.46594,57.54364]}},{"properties":{"size":8.58448123932,"lng":-2.33118,"Postcode":"AB53 5QJ","id":"a64j0af4gk38","lat":57.609249},"type":"Feature","geometry":{"type":"Point","coordinates":[-2.33118,57.609249]}},{"properties":{"size":15.6417021751,"lng":-2.88422,"Postcode":"AB54 4HG","id":"a64j0aaqouk2","lat":57.345242},"type":"Feature","geometry":{"type":"Point","coordinates":[-2.88422,57.345242]}},{"properties":{"size":14.4912955761,"lng":-2.78233,"Postcode":"AB54 8JE","id":"a64j0ad963vd","lat":57.448471},"type":"Feature","geometry":{"type":"Point","coordinates":[-2.78233,57.448471]}},{"properties":{"size":19.3279335499,"lng":-2.97843,"Postcode":"AB56 5BB","id":"a64j0afmsrrm","lat":57.65876},"type":"Feature","geometry":{"type":"Point","coordinates":[-2.97843,57.65876]}},{"properties":{"size":15.60688591,"lng":-0.30335,"Postcode":"AL4 0UZ","id":"a64j0aiyx7av","lat":51.757309},"type":"Feature","geometry":{"type":"Point","coordinates":[-0.30335,51.757309]}},{"properties":{"size":18.5070893764,"lng":-0.21151,"Postcode":"AL9 5AJ","id":"a64j0a7sf7br","lat":51.762329},"type":"Feature","geometry":{"type":"Point","coordinates":[-0.21151,51.762329]}},{"properties":{"size":13.3452973366,"lng":-0.21262,"Postcode":"AL9 5DS","id":"a64j0aj6qr42","lat":51.771622},"type":"Feature","geometry":{"type":"Point","coordinates":[-0.21262,51.771622]}},{"properties":{"size":1.96421837807,"lng":-1.9088,"Postcode":"B1 2JX","id":"a64j0ak5mo4d","lat":52.476189},"type":"Feature","geometry":{"type":"Point","coordinates":[-1.9088,52.476189]}},{"properties":{"size":5.45682048798,"lng":-1.87735,"Postcode":"B12 8BP","id":"a64j0agwbccv","lat":52.451889},"type":"Feature","geometry":{"type":"Point","coordinates":[-1.87735,52.451889]}},{"properties":{"size":16.6529116631,"lng":-1.89339,"Postcode":"B12 9HF","id":"a64j0aiwm2ad","lat":52.46096},"type":"Feature","geometry":{"type":"Point","coordinates":[-1.89339,52.46096]}},{"properties":{"size":7.55407071114,"lng":-1.88543,"Postcode":"B13 0PA","id":"a64j0acguv9n","lat":52.423069},"type":"Feature","geometry":{"type":"Point","coordinates":[-1.88543,52.423069]}},{"properties":{"size":7.14917755127,"lng":-1.94723,"Postcode":"B17 0HH","id":"a64j0a6a32a9","lat":52.458359},"type":"Feature","geometry":{"type":"Point","coordinates":[-1.94723,52.458359]}},{"properties":{"size":5.21810507774,"lng":-1.96511,"Postcode":"B17 8QN","id":"a64j0a5wqia6","lat":52.466961},"type":"Feature","geometry":{"type":"Point","coordinates":[-1.96511,52.466961]}},{"properties":{"size":19.1985783577,"lng":-1.91474,"Postcode":"B18 6ES","id":"a64j0afk9ntc","lat":52.48875},"type":"Feature","geometry":{"type":"Point","coordinates":[-1.91474,52.48875]}},{"properties":{"size":16.4453909397,"lng":-1.9261,"Postcode":"B18 7JA","id":"a64j0aaz49dc","lat":52.491009},"type":"Feature","geometry":{"type":"Point","coordinates":[-1.9261,52.491009]}},{"properties":{"size":15.890255928,"lng":-1.89691,"Postcode":"B19 2QE","id":"a64j0a7i1dzv","lat":52.49371},"type":"Feature","geometry":{"type":"Point","coordinates":[-1.89691,52.49371]}},{"properties":{"size":17.7497527599,"lng":-1.99545,"Postcode":"B32 3LA","id":"a64j0aavfhfd","lat":52.43589},"type":"Feature","geometry":{"type":"Point","coordinates":[-1.99545,52.43589]}},{"properties":{"size":10.3389868736,"lng":-1.92357,"Postcode":"B42 1NQ","id":"a64j0ad7iyo5","lat":52.53167},"type":"Feature","geometry":{"type":"Point","coordinates":[-1.92357,52.53167]}},{"properties":{"size":1.81811070442,"lng":-2.07351,"Postcode":"B60 3PD","id":"a64j0a7y70b2","lat":52.318691},"type":"Feature","geometry":{"type":"Point","coordinates":[-2.07351,52.318691]}},{"properties":{"size":8.39026069641,"lng":-1.97495,"Postcode":"B67 6BW","id":"a64j0a8hw58g","lat":52.48925},"type":"Feature","geometry":{"type":"Point","coordinates":[-1.97495,52.48925]}},{"properties":{"size":19.3952462673,"lng":-2.00368,"Postcode":"B680AH","id":"a64j0aesjcff","lat":52.463619},"type":"Feature","geometry":{"type":"Point","coordinates":[-2.00368,52.463619]}},{"properties":{"size":12.965982914,"lng":-1.788,"Postcode":"B92 8HG","id":"a64j0a5skz7x","lat":52.448421},"type":"Feature","geometry":{"type":"Point","coordinates":[-1.788,52.448421]}},{"properties":{"size":16.2466928959,"lng":-1.74264,"Postcode":"B93 9LS","id":"a64j0a5krfdx","lat":52.397339},"type":"Feature","geometry":{"type":"Point","coordinates":[-1.74264,52.397339]}},{"properties":{"size":3.17580318451,"lng":-1.93277,"Postcode":"B987NA","id":"a64j0a63n4hi","lat":52.29348},"type":"Feature","geometry":{"type":"Point","coordinates":[-1.93277,52.29348]}},{"properties":{"size":5.90240097046,"lng":-2.34652,"Postcode":"BA1 6RA","id":"a64j0afehpxx","lat":51.397709},"type":"Feature","geometry":{"type":"Point","coordinates":[-2.34652,51.397709]}},{"properties":{"size":5.82475161552,"lng":-2.3165,"Postcode":"BA11 1LX","id":"a64j0a8miid3","lat":51.226971},"type":"Feature","geometry":{"type":"Point","coordinates":[-2.3165,51.226971]}},{"properties":{"size":6.31906843185,"lng":-2.33299,"Postcode":"BA11 3ET","id":"a64j0ai2276m","lat":51.233341},"type":"Feature","geometry":{"type":"Point","coordinates":[-2.33299,51.233341]}},{"properties":{"size":3.26263165474,"lng":-2.16853,"Postcode":"BA12 9JN","id":"a64j0ad2xl4p","lat":51.200508},"type":"Feature","geometry":{"type":"Point","coordinates":[-2.16853,51.200508]}},{"properties":{"size":11.3217160702,"lng":-2.37462,"Postcode":"BA2 3LE","id":"a64j0a71vlyp","lat":51.376331},"type":"Feature","geometry":{"type":"Point","coordinates":[-2.37462,51.376331]}},{"properties":{"size":13.7979016304,"lng":-2.36374,"Postcode":"BA2 5LS","id":"a64j0abn1fy3","lat":51.3591},"type":"Feature","geometry":{"type":"Point","coordinates":[-2.36374,51.3591]}},{"properties":{"size":13.9169523716,"lng":-2.71161,"Postcode":"BA6 8HL","id":"a64j0ajr3c0f","lat":51.15229},"type":"Feature","geometry":{"type":"Point","coordinates":[-2.71161,51.15229]}},{"properties":{"size":19.6669778824,"lng":-2.25653,"Postcode":"BB114JU","id":"a64j0ahvq3md","lat":53.784599},"type":"Feature","geometry":{"type":"Point","coordinates":[-2.25653,53.784599]}},{"properties":{"size":17.8453681469,"lng":-2.19,"Postcode":"BB18 5LR","id":"a64j0ajv3j66","lat":53.9156},"type":"Feature","geometry":{"type":"Point","coordinates":[-2.19,53.9156]}},{"properties":{"size":15.7747969627,"lng":-2.51342,"Postcode":"BB2 6SG","id":"a64j0a7mb6oc","lat":53.74868},"type":"Feature","geometry":{"type":"Point","coordinates":[-2.51342,53.74868]}},{"properties":{"size":8.34271168709,"lng":-2.16471,"Postcode":"BB8 0PE","id":"a64j0afijn6g","lat":53.864521},"type":"Feature","geometry":{"type":"Point","coordinates":[-2.16471,53.864521]}},{"properties":{"size":9.09321761131,"lng":-1.79133,"Postcode":"BD18 4PL","id":"a64j0ag9vnqp","lat":53.837158},"type":"Feature","geometry":{"type":"Point","coordinates":[-1.79133,53.837158]}},{"properties":{"size":7.40722513199,"lng":-1.9181,"Postcode":"BD21 1HP","id":"a64j0aed06f6","lat":53.85931},"type":"Feature","geometry":{"type":"Point","coordinates":[-1.9181,53.85931]}},{"properties":{"size":2.31749749184,"lng":-1.77737,"Postcode":"BD6 1RY","id":"a64j0a7ibtv5","lat":53.77095},"type":"Feature","geometry":{"type":"Point","coordinates":[-1.77737,53.77095]}},{"properties":{"size":16.7797956467,"lng":-1.91635,"Postcode":"BH21 5QA","id":"a64j0a60qc2v","lat":50.916458},"type":"Feature","geometry":{"type":"Point","coordinates":[-1.91635,50.916458]}},{"properties":{"size":9.56355547905,"lng":-1.81368,"Postcode":"BH6 3QA","id":"a64j0ahfwcaq","lat":50.7243},"type":"Feature","geometry":{"type":"Point","coordinates":[-1.81368,50.7243]}},{"properties":{"size":1.45031309128,"lng":-1.79752,"Postcode":"BH6 4AE","id":"a64j0afbo996","lat":50.720909},"type":"Feature","geometry":{"type":"Point","coordinates":[-1.79752,50.720909]}},{"properties":{"size":18.8259289265,"lng":-1.81144,"Postcode":"BH63PX","id":"a64j0acip0j5","lat":50.722649},"type":"Feature","geometry":{"type":"Point","coordinates":[-1.81144,50.722649]}},{"properties":{"size":16.3414154053,"lng":-2.43014,"Postcode":"BL1 2JN","id":"a64j0aeap9tt","lat":53.584431},"type":"Feature","geometry":{"type":"Point","coordinates":[-2.43014,53.584431]}},{"properties":{"size":8.61795401573,"lng":-2.40226,"Postcode":"BL2 6BS","id":"a64j0ae8w6z5","lat":53.578579},"type":"Feature","geometry":{"type":"Point","coordinates":[-2.40226,53.578579]}},{"properties":{"size":16.0693440437,"lng":-2.52105,"Postcode":"BL5 2EU","id":"a64j0a9dc4m2","lat":53.539211},"type":"Feature","geometry":{"type":"Point","coordinates":[-2.52105,53.539211]}},{"properties":{"size":4.62215638161,"lng":-2.29201,"Postcode":"BL9 9TY","id":"a64j0ab9w858","lat":53.573608},"type":"Feature","geometry":{"type":"Point","coordinates":[-2.29201,53.573608]}},{"properties":{"size":14.9927721024,"lng":-0.14284,"Postcode":"BN1 3PH","id":"a64j0ajmrxxn","lat":50.830349},"type":"Feature","geometry":{"type":"Point","coordinates":[-0.14284,50.830349]}},{"properties":{"size":9.54376673698,"lng":-0.13392,"Postcode":"BN1 4SE","id":"a64j0a4qxmi0","lat":50.834518},"type":"Feature","geometry":{"type":"Point","coordinates":[-0.13392,50.834518]}},{"properties":{"size":7.65225744247,"lng":-0.36536,"Postcode":"BN11 1PD","id":"a64j0agh8ak9","lat":50.813091},"type":"Feature","geometry":{"type":"Point","coordinates":[-0.36536,50.813091]}},{"properties":{"size":11.7923614979,"lng":-0.38035,"Postcode":"BN11 3JS","id":"a64j0af0vm9l","lat":50.809959},"type":"Feature","geometry":{"type":"Point","coordinates":[-0.38035,50.809959]}},{"properties":{"size":12.725320816,"lng":-0.32702,"Postcode":"BN15 8QD","id":"a64j0abe0ws1","lat":50.8251},"type":"Feature","geometry":{"type":"Point","coordinates":[-0.32702,50.8251]}},{"properties":{"size":3.61662840843,"lng":-0.13274,"Postcode":"BN2 1TT","id":"a64j0ai85x37","lat":50.820599},"type":"Feature","geometry":{"type":"Point","coordinates":[-0.13274,50.820599]}},{"properties":{"size":8.62214899063,"lng":-0.12849,"Postcode":"BN2 3HJ","id":"a64j0ajmiqjb","lat":50.834122},"type":"Feature","geometry":{"type":"Point","coordinates":[-0.12849,50.834122]}},{"properties":{"size":4.31725716591,"lng":-0.12529,"Postcode":"BN2 9SL","id":"a64j0a8erbep","lat":50.82814},"type":"Feature","geometry":{"type":"Point","coordinates":[-0.12529,50.82814]}},{"properties":{"size":13.8469228745,"lng":-0.17104,"Postcode":"BN3 2PN","id":"a64j0aacy1ay","lat":50.826939},"type":"Feature","geometry":{"type":"Point","coordinates":[-0.17104,50.826939]}},{"properties":{"size":9.1629550457,"lng":-0.1679,"Postcode":"BN3 3EA","id":"a64j0a8akmq2","lat":50.833382},"type":"Feature","geometry":{"type":"Point","coordinates":[-0.1679,50.833382]}},{"properties":{"size":10.2497706413,"lng":-0.16326,"Postcode":"BN36FT","id":"a64j0abv56qn","lat":50.834019},"type":"Feature","geometry":{"type":"Point","coordinates":[-0.16326,50.834019]}},{"properties":{"size":9.63458752632,"lng":-0.2617,"Postcode":"BN43 6HF","id":"a64j0agna6jn","lat":50.84391},"type":"Feature","geometry":{"type":"Point","coordinates":[-0.2617,50.84391]}},{"properties":{"size":12.2943458557,"lng":-0.27035,"Postcode":"BN5 9JS","id":"a64j0aeai7gt","lat":50.93679},"type":"Feature","geometry":{"type":"Point","coordinates":[-0.27035,50.93679]}},{"properties":{"size":15.6224439144,"lng":0.01388,"Postcode":"BN7 2AF","id":"a64j0a75nlu3","lat":50.874069},"type":"Feature","geometry":{"type":"Point","coordinates":[0.01388,50.874069]}},{"properties":{"size":10.4660305977,"lng":-0.05812,"Postcode":"BN7 3AB","id":"a64j0aczjf4g","lat":50.927189},"type":"Feature","geometry":{"type":"Point","coordinates":[-0.05812,50.927189]}},{"properties":{"size":15.2016279697,"lng":0.01142,"Postcode":"BN7 3DA","id":"a64j0aath1ht","lat":50.87207},"type":"Feature","geometry":{"type":"Point","coordinates":[0.01142,50.87207]}},{"properties":{"size":1.94576358795,"lng":0.00869,"Postcode":"BR2 7PL","id":"a64j0a5sghjc","lat":51.383331},"type":"Feature","geometry":{"type":"Point","coordinates":[0.00869,51.383331]}},{"properties":{"size":12.6105735302,"lng":0.04984,"Postcode":"BR28ED","id":"a64j0aa7etgy","lat":51.388191},"type":"Feature","geometry":{"type":"Point","coordinates":[0.04984,51.388191]}},{"properties":{"size":6.67449331284,"lng":-0.03642,"Postcode":"BR3 3QA","id":"a64j0a5yqdxv","lat":51.400551},"type":"Feature","geometry":{"type":"Point","coordinates":[-0.03642,51.400551]}},{"properties":{"size":10.0576851368,"lng":-0.01899,"Postcode":"BR3 5BA","id":"a64j0a5wj866","lat":51.412998},"type":"Feature","geometry":{"type":"Point","coordinates":[-0.01899,51.412998]}},{"properties":{"size":11.9332561493,"lng":0.07748,"Postcode":"BR5 1EW","id":"a64j0a9z7cpo","lat":51.381001},"type":"Feature","geometry":{"type":"Point","coordinates":[0.07748,51.381001]}},{"properties":{"size":3.98110365868,"lng":0.1107,"Postcode":"BR5 4AB","id":"a64j0agpi6j7","lat":51.387032},"type":"Feature","geometry":{"type":"Point","coordinates":[0.1107,51.387032]}},{"properties":{"size":13.5638794899,"lng":0.07502,"Postcode":"BR7 6JR","id":"a64j0aiogs3t","lat":51.429611},"type":"Feature","geometry":{"type":"Point","coordinates":[0.07502,51.429611]}},{"properties":{"size":6.95530986786,"lng":0.17888,"Postcode":"BR8 2ED","id":"a64j0adqug3c","lat":51.393841},"type":"Feature","geometry":{"type":"Point","coordinates":[0.17888,51.393841]}},{"properties":{"size":11.3865969181,"lng":0.19479,"Postcode":"BR8 7NF","id":"a64j0a7ni381","lat":51.404942},"type":"Feature","geometry":{"type":"Point","coordinates":[0.19479,51.404942]}},{"properties":{"size":6.88857531548,"lng":-2.49017,"Postcode":"BS16 6TR","id":"a64j0af4ntpr","lat":51.49987},"type":"Feature","geometry":{"type":"Point","coordinates":[-2.49017,51.49987]}},{"properties":{"size":5.920566082,"lng":-2.5774,"Postcode":"BS2 9YN","id":"a64j0ajzl9lf","lat":51.47393},"type":"Feature","geometry":{"type":"Point","coordinates":[-2.5774,51.47393]}},{"properties":{"size":16.0792324543,"lng":-2.75964,"Postcode":"BS20 7AB","id":"a64j0abbg8be","lat":51.492119},"type":"Feature","geometry":{"type":"Point","coordinates":[-2.75964,51.492119]}},{"properties":{"size":12.5893173218,"lng":-2.92715,"Postcode":"BS24 7HJ","id":"a64j0a8qckg1","lat":51.347099},"type":"Feature","geometry":{"type":"Point","coordinates":[-2.92715,51.347099]}},{"properties":{"size":15.8508107662,"lng":-2.64018,"Postcode":"BS35 4QF","id":"a64j0a4glsbz","lat":51.561642},"type":"Feature","geometry":{"type":"Point","coordinates":[-2.64018,51.561642]}},{"properties":{"size":6.44108629227,"lng":-2.40243,"Postcode":"BS376JG","id":"a64j0a76e3za","lat":51.53389},"type":"Feature","geometry":{"type":"Point","coordinates":[-2.40243,51.53389]}},{"properties":{"size":17.295992136,"lng":-2.55555,"Postcode":"BS5 6LG","id":"a64j0a6oovnp","lat":51.47123},"type":"Feature","geometry":{"type":"Point","coordinates":[-2.55555,51.47123]}},{"properties":{"size":5.60407733917,"lng":-2.55057,"Postcode":"BS5 7AF","id":"a64j0a6v0ve4","lat":51.46207},"type":"Feature","geometry":{"type":"Point","coordinates":[-2.55057,51.46207]}},{"properties":{"size":11.8114135265,"lng":-2.55788,"Postcode":"BS5 9LF","id":"a64j0a7ofh0i","lat":51.458431},"type":"Feature","geometry":{"type":"Point","coordinates":[-2.55788,51.458431]}},{"properties":{"size":18.5446295738,"lng":-2.58853,"Postcode":"BS7 8QS","id":"a64j0a8gfq0d","lat":51.48085},"type":"Feature","geometry":{"type":"Point","coordinates":[-2.58853,51.48085]}},{"properties":{"size":6.02930760384,"lng":-2.62174,"Postcode":"BS8 4PL","id":"a64j0agh9a37","lat":51.452461},"type":"Feature","geometry":{"type":"Point","coordinates":[-2.62174,51.452461]}},{"properties":{"size":9.27229499817,"lng":-5.9743,"Postcode":"BT13 3QB","id":"a64j0ae1a1j3","lat":54.601631},"type":"Feature","geometry":{"type":"Point","coordinates":[-5.9743,54.601631]}},{"properties":{"size":16.202268362,"lng":-5.67525,"Postcode":"BT20 4HP","id":"a64j0acvb9ch","lat":54.647411},"type":"Feature","geometry":{"type":"Point","coordinates":[-5.67525,54.647411]}},{"properties":{"size":4.18554162979,"lng":-5.68141,"Postcode":"BT23 7PH","id":"a64j0ahr0ftf","lat":54.609421},"type":"Feature","geometry":{"type":"Point","coordinates":[-5.68141,54.609421]}},{"properties":{"size":17.6661417484,"lng":-5.66857,"Postcode":"BT23 8WS","id":"a64j0a4s7h7s","lat":54.592949},"type":"Feature","geometry":{"type":"Point","coordinates":[-5.66857,54.592949]}},{"properties":{"size":13.6830816269,"lng":-5.95758,"Postcode":"BT27 6UU","id":"a64j0ab5v8bj","lat":54.46954},"type":"Feature","geometry":{"type":"Point","coordinates":[-5.95758,54.46954]}},{"properties":{"size":10.0060412884,"lng":-5.84933,"Postcode":"BT33 0NB","id":"a64j0ac12fbj","lat":54.257149},"type":"Feature","geometry":{"type":"Point","coordinates":[-5.84933,54.257149]}},{"properties":{"size":6.6658244133,"lng":-5.89913,"Postcode":"BT37 0TG","id":"a64j0ahf0zhm","lat":54.67709},"type":"Feature","geometry":{"type":"Point","coordinates":[-5.89913,54.67709]}},{"properties":{"size":3.5504887104,"lng":-6.01586,"Postcode":"BT39 9YR","id":"a64j0ahj6mc8","lat":54.74913},"type":"Feature","geometry":{"type":"Point","coordinates":[-6.01586,54.74913]}},{"properties":{"size":1.05445480347,"lng":-7.27889,"Postcode":"BT47 6BX","id":"a64j0ajgj3u5","lat":55.000259},"type":"Feature","geometry":{"type":"Point","coordinates":[-7.27889,55.000259]}},{"properties":{"size":17.8186795712,"lng":-6.51845,"Postcode":"BT60 1JW","id":"a64j0a5wpvpu","lat":54.337761},"type":"Feature","geometry":{"type":"Point","coordinates":[-6.51845,54.337761]}},{"properties":{"size":18.4476361275,"lng":-2.89068,"Postcode":"CA11 0QU","id":"a64j0a8687ot","lat":54.640411},"type":"Feature","geometry":{"type":"Point","coordinates":[-2.89068,54.640411]}},{"properties":{"size":7.54587388039,"lng":-3.55303,"Postcode":"CA14 3LN","id":"a64j0aa1oonq","lat":54.630871},"type":"Feature","geometry":{"type":"Point","coordinates":[-3.55303,54.630871]}},{"properties":{"size":16.045838356,"lng":0.13009,"Postcode":"CB1 1EL","id":"a64j0a5ufjhq","lat":52.205818},"type":"Feature","geometry":{"type":"Point","coordinates":[0.13009,52.205818]}},{"properties":{"size":16.911911726,"lng":0.14917,"Postcode":"CB1 3EE","id":"a64j0a55xnlg","lat":52.206181},"type":"Feature","geometry":{"type":"Point","coordinates":[0.14917,52.206181]}},{"properties":{"size":13.9657912254,"lng":0.14305,"Postcode":"CB1 3LS","id":"a64j0adgd1w0","lat":52.196671},"type":"Feature","geometry":{"type":"Point","coordinates":[0.14305,52.196671]}},{"properties":{"size":7.597853899,"lng":0.15461,"Postcode":"CB1 3NS","id":"a64j0a48fbdj","lat":52.195358},"type":"Feature","geometry":{"type":"Point","coordinates":[0.15461,52.195358]}},{"properties":{"size":1.07056236267,"lng":0.12172,"Postcode":"CB2 1QA","id":"a64j0ak2rn6x","lat":52.198959},"type":"Feature","geometry":{"type":"Point","coordinates":[0.12172,52.198959]}},{"properties":{"size":11.2957475185,"lng":0.14792,"Postcode":"CB22 4YS","id":"a64j0abg0p52","lat":52.112179},"type":"Feature","geometry":{"type":"Point","coordinates":[0.14792,52.112179]}},{"properties":{"size":7.44026041031,"lng":0.09399,"Postcode":"CB3 9NQ","id":"a64j0ak9cktt","lat":52.182949},"type":"Feature","geometry":{"type":"Point","coordinates":[0.09399,52.182949]}},{"properties":{"size":2.29651665688,"lng":0.13175,"Postcode":"CB4 1HS","id":"a64j0abvivwi","lat":52.213669},"type":"Feature","geometry":{"type":"Point","coordinates":[0.13175,52.213669]}},{"properties":{"size":16.6083631516,"lng":0.13119,"Postcode":"CB4 1LE","id":"a64j0aj6vjbv","lat":52.218689},"type":"Feature","geometry":{"type":"Point","coordinates":[0.13119,52.218689]}},{"properties":{"size":10.7809779644,"lng":0.14709,"Postcode":"CB4 1LU","id":"a64j0a7d48v1","lat":52.222679},"type":"Feature","geometry":{"type":"Point","coordinates":[0.14709,52.222679]}},{"properties":{"size":15.6886706352,"lng":0.13592,"Postcode":"CB4 1NE","id":"a64j0adazqzf","lat":52.21629},"type":"Feature","geometry":{"type":"Point","coordinates":[0.13592,52.21629]}},{"properties":{"size":2.43898129463,"lng":0.11613,"Postcode":"CB4 3AA","id":"a64j0a6g8bpg","lat":52.211948},"type":"Feature","geometry":{"type":"Point","coordinates":[0.11613,52.211948]}},{"properties":{"size":6.51788330078,"lng":0.10672,"Postcode":"CB4 3QB","id":"a64j0a69ihly","lat":52.21833},"type":"Feature","geometry":{"type":"Point","coordinates":[0.10672,52.21833]}},{"properties":{"size":15.0416753292,"lng":0.25817,"Postcode":"CB7 4JA","id":"a64j0ack0rnx","lat":52.397388},"type":"Feature","geometry":{"type":"Point","coordinates":[0.25817,52.397388]}},{"properties":{"size":5.9388051033,"lng":-3.17047,"Postcode":"CF10 4BZ","id":"a64j0adjko7f","lat":51.47583},"type":"Feature","geometry":{"type":"Point","coordinates":[-3.17047,51.47583]}},{"properties":{"size":7.5918982029,"lng":-3.1909,"Postcode":"CF11 6TA","id":"a64j0a4f01d1","lat":51.472561},"type":"Feature","geometry":{"type":"Point","coordinates":[-3.1909,51.472561]}},{"properties":{"size":8.34917163849,"lng":-3.19951,"Postcode":"CF14 3BP","id":"a64j0agzdiru","lat":51.50782},"type":"Feature","geometry":{"type":"Point","coordinates":[-3.19951,51.50782]}},{"properties":{"size":2.67769312859,"lng":-3.19315,"Postcode":"CF14 3LG","id":"a64j0a5oasy4","lat":51.50145},"type":"Feature","geometry":{"type":"Point","coordinates":[-3.19315,51.50145]}},{"properties":{"size":8.64110326767,"lng":-3.16353,"Postcode":"CF23 5BT","id":"a64j0a5teo6n","lat":51.49575},"type":"Feature","geometry":{"type":"Point","coordinates":[-3.16353,51.49575]}},{"properties":{"size":7.65394902229,"lng":-3.50586,"Postcode":"CF35 5LW","id":"a64j0a5kllqy","lat":51.514111},"type":"Feature","geometry":{"type":"Point","coordinates":[-3.50586,51.514111]}},{"properties":{"size":8.6561832428,"lng":-3.31496,"Postcode":"CF37 4HG","id":"a64j0a6lzhn0","lat":51.61787},"type":"Feature","geometry":{"type":"Point","coordinates":[-3.31496,51.61787]}},{"properties":{"size":5.27716612816,"lng":-3.31496,"Postcode":"CF374HG","id":"a64j0akmbanl","lat":51.61787},"type":"Feature","geometry":{"type":"Point","coordinates":[-3.31496,51.61787]}},{"properties":{"size":15.2811608315,"lng":-3.45459,"Postcode":"CF44 8NH","id":"a64j0aiuxp55","lat":51.72086},"type":"Feature","geometry":{"type":"Point","coordinates":[-3.45459,51.72086]}},{"properties":{"size":9.41834664345,"lng":-3.45894,"Postcode":"CF448LL","id":"a64j0aiwwy6r","lat":51.722752},"type":"Feature","geometry":{"type":"Point","coordinates":[-3.45894,51.722752]}},{"properties":{"size":3.30927944183,"lng":-3.37602,"Postcode":"CF45 4BW","id":"a64j0afa95g9","lat":51.684078},"type":"Feature","geometry":{"type":"Point","coordinates":[-3.37602,51.684078]}},{"properties":{"size":6.47901034355,"lng":-3.28677,"Postcode":"CF46 6EA","id":"a64j0a79we6r","lat":51.65424},"type":"Feature","geometry":{"type":"Point","coordinates":[-3.28677,51.65424]}},{"properties":{"size":1.19222974777,"lng":-3.33658,"Postcode":"CF48 4RS","id":"a64j0aa4y79k","lat":51.686699},"type":"Feature","geometry":{"type":"Point","coordinates":[-3.33658,51.686699]}},{"properties":{"size":8.13533520699,"lng":-3.24496,"Postcode":"CF5 2DG","id":"a64j0aewiy8o","lat":51.506741},"type":"Feature","geometry":{"type":"Point","coordinates":[-3.24496,51.506741]}},{"properties":{"size":2.80772781372,"lng":-3.25006,"Postcode":"CF53EH","id":"a64j0aazusbt","lat":51.489571},"type":"Feature","geometry":{"type":"Point","coordinates":[-3.25006,51.489571]}},{"properties":{"size":6.03542304039,"lng":-3.24771,"Postcode":"CF83 2UB","id":"a64j0a938epx","lat":51.58268},"type":"Feature","geometry":{"type":"Point","coordinates":[-3.24771,51.58268]}},{"properties":{"size":13.3677182198,"lng":-2.89526,"Postcode":"CH1 4AH","id":"a64j0a5kk3uh","lat":53.19656},"type":"Feature","geometry":{"type":"Point","coordinates":[-2.89526,53.19656]}},{"properties":{"size":4.07469010353,"lng":-2.87479,"Postcode":"CH2 3BB","id":"a64j0aappj3s","lat":53.19957},"type":"Feature","geometry":{"type":"Point","coordinates":[-2.87479,53.19957]}},{"properties":{"size":2.59220218658,"lng":-3.04221,"Postcode":"CH41 8AL","id":"a64j0aiupdxv","lat":53.39772},"type":"Feature","geometry":{"type":"Point","coordinates":[-3.04221,53.39772]}},{"properties":{"size":8.8743827343,"lng":-3.04675,"Postcode":"CH43 1XF","id":"a64j0ak92i19","lat":53.385029},"type":"Feature","geometry":{"type":"Point","coordinates":[-3.04675,53.385029]}},{"properties":{"size":3.27369070053,"lng":-3.04667,"Postcode":"CH44 5XB","id":"a64j0a5nzvw2","lat":53.418652},"type":"Feature","geometry":{"type":"Point","coordinates":[-3.04667,53.418652]}},{"properties":{"size":4.08821797371,"lng":-3.10588,"Postcode":"CH46 9QR","id":"a64j0ac0ipvu","lat":53.399712},"type":"Feature","geometry":{"type":"Point","coordinates":[-3.10588,53.399712]}},{"properties":{"size":18.3572826385,"lng":-3.17526,"Postcode":"CH48 5HZ","id":"a64j0ac2ca71","lat":53.37838},"type":"Feature","geometry":{"type":"Point","coordinates":[-3.17526,53.37838]}},{"properties":{"size":19.1621491909,"lng":-3.09089,"Postcode":"CH49 9PG","id":"a64j0af0z538","lat":53.380989},"type":"Feature","geometry":{"type":"Point","coordinates":[-3.09089,53.380989]}},{"properties":{"size":4.66136789322,"lng":-3.19355,"Postcode":"CH66JA","id":"a64j0ah7vqik","lat":53.277302},"type":"Feature","geometry":{"type":"Point","coordinates":[-3.19355,53.277302]}},{"properties":{"size":8.17225670815,"lng":0.14876,"Postcode":"CM17 9HJ","id":"a64j0agdbl6q","lat":51.763329},"type":"Feature","geometry":{"type":"Point","coordinates":[0.14876,51.763329]}},{"properties":{"size":6.36395549774,"lng":0.4726,"Postcode":"CM2 0ND","id":"a64j0a6ftxdq","lat":51.73148},"type":"Feature","geometry":{"type":"Point","coordinates":[0.4726,51.73148]}},{"properties":{"size":19.3657634258,"lng":0.55979,"Postcode":"CM7 3BX","id":"a64j0ahv62af","lat":51.87664},"type":"Feature","geometry":{"type":"Point","coordinates":[0.55979,51.87664]}},{"properties":{"size":16.3796267509,"lng":0.68622,"Postcode":"CM9 5JD","id":"a64j0aisjm1i","lat":51.725769},"type":"Feature","geometry":{"type":"Point","coordinates":[0.68622,51.725769]}},{"properties":{"size":1.03017544746,"lng":0.74765,"Postcode":"CO6 1AZ","id":"a64j0a78q3if","lat":51.900688},"type":"Feature","geometry":{"type":"Point","coordinates":[0.74765,51.900688]}},{"properties":{"size":8.75211334229,"lng":0.8525,"Postcode":"CO6 3JJ","id":"a64j0agpb9mj","lat":51.916752},"type":"Feature","geometry":{"type":"Point","coordinates":[0.8525,51.916752]}},{"properties":{"size":14.3155477047,"lng":0.86291,"Postcode":"CO6 4BZ","id":"a64j0akh0jo4","lat":51.947208},"type":"Feature","geometry":{"type":"Point","coordinates":[0.86291,51.947208]}},{"properties":{"size":10.1875004768,"lng":-0.08349,"Postcode":"CR0 5UU","id":"a64j0a8n2j62","lat":51.36993},"type":"Feature","geometry":{"type":"Point","coordinates":[-0.08349,51.36993]}},{"properties":{"size":8.63487458229,"lng":-0.10302,"Postcode":"CR2 6AZ","id":"a64j0adbmr3u","lat":51.361328},"type":"Feature","geometry":{"type":"Point","coordinates":[-0.10302,51.361328]}},{"properties":{"size":3.85305500031,"lng":-0.15122,"Postcode":"CR5","id":"a64j0af14jf2","lat":51.302471},"type":"Feature","geometry":{"type":"Point","coordinates":[-0.15122,51.302471]}},{"properties":{"size":3.56667852402,"lng":-0.1087,"Postcode":"CR8 1BW","id":"a64j0a5pq2ch","lat":51.33157},"type":"Feature","geometry":{"type":"Point","coordinates":[-0.1087,51.33157]}},{"properties":{"size":19.7912857533,"lng":1.09878,"Postcode":"CT1 1YL","id":"a64j0ahbfxe5","lat":51.26762},"type":"Feature","geometry":{"type":"Point","coordinates":[1.09878,51.26762]}},{"properties":{"size":1.50198554993,"lng":1.0823,"Postcode":"CT1 3JT","id":"a64j0ab5k5pq","lat":51.27166},"type":"Feature","geometry":{"type":"Point","coordinates":[1.0823,51.27166]}},{"properties":{"size":18.9663217068,"lng":1.3997,"Postcode":"CT14 6HD","id":"a64j0a7oinfu","lat":51.222839},"type":"Feature","geometry":{"type":"Point","coordinates":[1.3997,51.222839]}},{"properties":{"size":17.5340065956,"lng":1.38981,"Postcode":"CT15 6DT","id":"a64j0ad7cpeg","lat":51.154308},"type":"Feature","geometry":{"type":"Point","coordinates":[1.38981,51.154308]}},{"properties":{"size":12.698871851,"lng":1.22007,"Postcode":"CT15 7ND","id":"a64j0a99c225","lat":51.180382},"type":"Feature","geometry":{"type":"Point","coordinates":[1.22007,51.180382]}},{"properties":{"size":3.35051631927,"lng":1.28858,"Postcode":"CT17 0JD","id":"a64j0abyhh55","lat":51.139259},"type":"Feature","geometry":{"type":"Point","coordinates":[1.28858,51.139259]}},{"properties":{"size":16.7068622112,"lng":1.29575,"Postcode":"CT17 9QR","id":"a64j0ahg5ub8","lat":51.12225},"type":"Feature","geometry":{"type":"Point","coordinates":[1.29575,51.12225]}},{"properties":{"size":19.4539866447,"lng":1.30335,"Postcode":"CT17 9RE","id":"a64j0aadgrmd","lat":51.124088},"type":"Feature","geometry":{"type":"Point","coordinates":[1.30335,51.124088]}},{"properties":{"size":6.51412701607,"lng":1.11263,"Postcode":"CT21 5XW","id":"a64j0aharp0e","lat":51.072811},"type":"Feature","geometry":{"type":"Point","coordinates":[1.11263,51.072811]}},{"properties":{"size":8.17916488647,"lng":1.26879,"Postcode":"CT3 2HR","id":"a64j0af6wocy","lat":51.27808},"type":"Feature","geometry":{"type":"Point","coordinates":[1.26879,51.27808]}},{"properties":{"size":8.39767432213,"lng":1.02839,"Postcode":"CT5 1HX","id":"a64j0aij9h0w","lat":51.359501},"type":"Feature","geometry":{"type":"Point","coordinates":[1.02839,51.359501]}},{"properties":{"size":10.8512768745,"lng":1.13181,"Postcode":"CT6 7HD","id":"a64j0afjxf6w","lat":51.353378},"type":"Feature","geometry":{"type":"Point","coordinates":[1.13181,51.353378]}},{"properties":{"size":17.9130766392,"lng":1.13181,"Postcode":"CT6 7HD","id":"a64j0akbuly8","lat":51.353378},"type":"Feature","geometry":{"type":"Point","coordinates":[1.13181,51.353378]}},{"properties":{"size":2.20985507965,"lng":-1.46775,"Postcode":"CV2 3NW","id":"a64j0ad7xqps","lat":52.421398},"type":"Feature","geometry":{"type":"Point","coordinates":[-1.46775,52.421398]}},{"properties":{"size":6.6229865551,"lng":-1.52149,"Postcode":"CV31 1BZ","id":"a64j0ad99u7n","lat":52.285721},"type":"Feature","geometry":{"type":"Point","coordinates":[-1.52149,52.285721]}},{"properties":{"size":2.65377736092,"lng":-1.45671,"Postcode":"CV33 9HT","id":"a64j0a9ufsqv","lat":52.235481},"type":"Feature","geometry":{"type":"Point","coordinates":[-1.45671,52.235481]}},{"properties":{"size":14.4184169769,"lng":-1.55567,"Postcode":"CV4 7JL","id":"a64j0a99s9rb","lat":52.388168},"type":"Feature","geometry":{"type":"Point","coordinates":[-1.55567,52.388168]}},{"properties":{"size":15.7053086758,"lng":-1.55361,"Postcode":"CV4 8GH","id":"a64j0ae6pze3","lat":52.390991},"type":"Feature","geometry":{"type":"Point","coordinates":[-1.55361,52.390991]}},{"properties":{"size":2.13881707191,"lng":-1.5327,"Postcode":"CV5 6FF","id":"a64j0aenjz9u","lat":52.396801},"type":"Feature","geometry":{"type":"Point","coordinates":[-1.5327,52.396801]}},{"properties":{"size":16.8470869064,"lng":-1.5559,"Postcode":"CV5 7AF","id":"a64j0ak6hdm4","lat":52.406559},"type":"Feature","geometry":{"type":"Point","coordinates":[-1.5559,52.406559]}},{"properties":{"size":10.7679316998,"lng":-2.44047,"Postcode":"CW10 0SE","id":"a64j0aj7hbhb","lat":53.176281},"type":"Feature","geometry":{"type":"Point","coordinates":[-2.44047,53.176281]}},{"properties":{"size":13.6184344292,"lng":-2.51228,"Postcode":"CW5 6HZ","id":"a64j0aesgmnk","lat":53.066109},"type":"Feature","geometry":{"type":"Point","coordinates":[-2.51228,53.066109]}},{"properties":{"size":14.9778149128,"lng":0.11251,"Postcode":"DA15 9NN","id":"a64j0afhpd34","lat":51.449471},"type":"Feature","geometry":{"type":"Point","coordinates":[0.11251,51.449471]}},{"properties":{"size":9.91700744629,"lng":0.13577,"Postcode":"DA7 4PP","id":"a64j0aipielx","lat":51.465469},"type":"Feature","geometry":{"type":"Point","coordinates":[0.13577,51.465469]}},{"properties":{"size":1.79742789268,"lng":-2.60909,"Postcode":"DD11 2HG","id":"a64j0aaibuia","lat":56.562119},"type":"Feature","geometry":{"type":"Point","coordinates":[-2.60909,56.562119]}},{"properties":{"size":14.8121724129,"lng":-2.5913,"Postcode":"DD11 3AH","id":"a64j0ais9r55","lat":56.56002},"type":"Feature","geometry":{"type":"Point","coordinates":[-2.5913,56.56002]}},{"properties":{"size":13.5499212742,"lng":-2.57211,"Postcode":"DD11 5HT","id":"a64j0a8b6nyg","lat":56.567242},"type":"Feature","geometry":{"type":"Point","coordinates":[-2.57211,56.567242]}},{"properties":{"size":12.7407274246,"lng":-2.59232,"Postcode":"DD114HE","id":"a64j0a51t82u","lat":56.570389},"type":"Feature","geometry":{"type":"Point","coordinates":[-2.59232,56.570389]}},{"properties":{"size":2.70615077019,"lng":-2.99122,"Postcode":"DD3 8EW","id":"a64j0ak5s1e5","lat":56.478378},"type":"Feature","geometry":{"type":"Point","coordinates":[-2.99122,56.478378]}},{"properties":{"size":8.94635534286,"lng":-2.99593,"Postcode":"DD3 8RR","id":"a64j0abwsqd5","lat":56.488529},"type":"Feature","geometry":{"type":"Point","coordinates":[-2.99593,56.488529]}},{"properties":{"size":5.56631779671,"lng":-2.90814,"Postcode":"DD51QB","id":"a64j0aiw4yff","lat":56.473049},"type":"Feature","geometry":{"type":"Point","coordinates":[-2.90814,56.473049]}},{"properties":{"size":18.4347019196,"lng":-2.82446,"Postcode":"DD8 2LS","id":"a64j0a7t7hs6","lat":56.60638},"type":"Feature","geometry":{"type":"Point","coordinates":[-2.82446,56.60638]}},{"properties":{"size":5.39473509789,"lng":-2.85988,"Postcode":"DD83SH","id":"a64j0aa57fxk","lat":56.712631},"type":"Feature","geometry":{"type":"Point","coordinates":[-2.85988,56.712631]}},{"properties":{"size":6.56907892227,"lng":-1.61912,"Postcode":"DE159DY","id":"a64j0ajsq3sm","lat":52.797039},"type":"Feature","geometry":{"type":"Point","coordinates":[-1.61912,52.797039]}},{"properties":{"size":14.4317922592,"lng":-1.49488,"Postcode":"DE22 3AF","id":"a64j0a6j7rcr","lat":52.92638},"type":"Feature","geometry":{"type":"Point","coordinates":[-1.49488,52.92638]}},{"properties":{"size":18.8145968914,"lng":-1.30087,"Postcode":"DE7 4PW","id":"a64j0a9o3b5k","lat":52.955528},"type":"Feature","geometry":{"type":"Point","coordinates":[-1.30087,52.955528]}},{"properties":{"size":7.07609510422,"lng":-3.60555,"Postcode":"DG1 1LX","id":"a64j0a9e5sdx","lat":55.072159},"type":"Feature","geometry":{"type":"Point","coordinates":[-3.60555,55.072159]}},{"properties":{"size":1.81186413765,"lng":-3.4323,"Postcode":"DG11 1RB","id":"a64j0a9e2jg5","lat":55.126751},"type":"Feature","geometry":{"type":"Point","coordinates":[-3.4323,55.126751]}},{"properties":{"size":7.79376602173,"lng":-3.61454,"Postcode":"DG2 7JP","id":"a64j0a57w7s5","lat":55.061771},"type":"Feature","geometry":{"type":"Point","coordinates":[-3.61454,55.061771]}},{"properties":{"size":13.0304334164,"lng":-4.3632,"Postcode":"DG8 8LS","id":"a64j0ag3g24d","lat":54.70145},"type":"Feature","geometry":{"type":"Point","coordinates":[-4.3632,54.70145]}},{"properties":{"size":6.52331209183,"lng":-1.69506,"Postcode":"DH7 9PS","id":"a64j0a62dcvd","lat":54.773609},"type":"Feature","geometry":{"type":"Point","coordinates":[-1.69506,54.773609]}},{"properties":{"size":2.18603348732,"lng":-1.87709,"Postcode":"DH8 9RG","id":"a64j0aikvv8b","lat":54.83292},"type":"Feature","geometry":{"type":"Point","coordinates":[-1.87709,54.83292]}},{"properties":{"size":15.5237970352,"lng":-2.05588,"Postcode":"DH8 9TA","id":"a64j0a6d02fe","lat":54.84848},"type":"Feature","geometry":{"type":"Point","coordinates":[-2.05588,54.84848]}},{"properties":{"size":8.2827231884,"lng":-1.46492,"Postcode":"DL2 1UJ","id":"a64j0ahst919","lat":54.51841},"type":"Feature","geometry":{"type":"Point","coordinates":[-1.46492,54.51841]}},{"properties":{"size":10.4392943382,"lng":-1.58337,"Postcode":"DL3 0UD","id":"a64j0a6jhu0r","lat":54.540081},"type":"Feature","geometry":{"type":"Point","coordinates":[-1.58337,54.540081]}},{"properties":{"size":6.41953206062,"lng":-1.11863,"Postcode":"DN11 9NJ","id":"a64j0ajwc0q8","lat":53.429192},"type":"Feature","geometry":{"type":"Point","coordinates":[-1.11863,53.429192]}},{"properties":{"size":19.8789653778,"lng":-0.58984,"Postcode":"DN15 0DG","id":"a64j0abcgyrq","lat":53.59737},"type":"Feature","geometry":{"type":"Point","coordinates":[-0.58984,53.59737]}},{"properties":{"size":9.05022597313,"lng":-0.6476,"Postcode":"DN15 6HL","id":"a64j0adjbxdw","lat":53.593029},"type":"Feature","geometry":{"type":"Point","coordinates":[-0.6476,53.593029]}},{"properties":{"size":11.6377625465,"lng":-0.68267,"Postcode":"DN17 1UJ","id":"a64j0ablaztj","lat":53.576248},"type":"Feature","geometry":{"type":"Point","coordinates":[-0.68267,53.576248]}},{"properties":{"size":17.3211977482,"lng":-1.12412,"Postcode":"DN4 5DB","id":"a64j0af0h2mw","lat":53.514679},"type":"Feature","geometry":{"type":"Point","coordinates":[-1.12412,53.514679]}},{"properties":{"size":8.68275737762,"lng":-2.46929,"Postcode":"DT35NQ","id":"a64j0adqq7un","lat":50.65453},"type":"Feature","geometry":{"type":"Point","coordinates":[-2.46929,50.65453]}},{"properties":{"size":3.11248278618,"lng":-2.45482,"Postcode":"DT48TJ","id":"a64j0a7hqj9a","lat":50.606789},"type":"Feature","geometry":{"type":"Point","coordinates":[-2.45482,50.606789]}},{"properties":{"size":13.0300936699,"lng":-2.44482,"Postcode":"DT5 1EH","id":"a64j0aijw0p7","lat":50.56242},"type":"Feature","geometry":{"type":"Point","coordinates":[-2.44482,50.56242]}},{"properties":{"size":7.40689969063,"lng":-2.43587,"Postcode":"DT51BX","id":"a64j0aeyg5m6","lat":50.545399},"type":"Feature","geometry":{"type":"Point","coordinates":[-2.43587,50.545399]}},{"properties":{"size":5.61231589317,"lng":-2.75862,"Postcode":"DT6 3QH","id":"a64j0abodrow","lat":50.72517},"type":"Feature","geometry":{"type":"Point","coordinates":[-2.75862,50.72517]}},{"properties":{"size":15.4378209114,"lng":-2.1033,"Postcode":"DY1 3QG","id":"a64j0ae93m3c","lat":52.527222},"type":"Feature","geometry":{"type":"Point","coordinates":[-2.1033,52.527222]}},{"properties":{"size":15.4620382786,"lng":-0.06528,"Postcode":"E1 1LZ","id":"a64j0a9ecz3d","lat":51.513721},"type":"Feature","geometry":{"type":"Point","coordinates":[-0.06528,51.513721]}},{"properties":{"size":15.6371889114,"lng":-0.05314,"Postcode":"E1 3AT","id":"a64j0afa4mnh","lat":51.51902},"type":"Feature","geometry":{"type":"Point","coordinates":[-0.05314,51.51902]}},{"properties":{"size":8.11832880974,"lng":-0.00237,"Postcode":"E10 6PJ","id":"a64j0aacdkzw","lat":51.564629},"type":"Feature","geometry":{"type":"Point","coordinates":[-0.00237,51.564629]}},{"properties":{"size":10.4051337242,"lng":-0.0212,"Postcode":"E10 7BQ","id":"a64j0acyfd8a","lat":51.566639},"type":"Feature","geometry":{"type":"Point","coordinates":[-0.0212,51.566639]}},{"properties":{"size":12.6874063015,"lng":0.00685,"Postcode":"E11 1AT","id":"a64j0aja09ig","lat":51.57053},"type":"Feature","geometry":{"type":"Point","coordinates":[0.00685,51.57053]}},{"properties":{"size":15.2258501053,"lng":0.01098,"Postcode":"E11 1NF","id":"a64j0a9fmwv0","lat":51.573662},"type":"Feature","geometry":{"type":"Point","coordinates":[0.01098,51.573662]}},{"properties":{"size":8.10404515266,"lng":0.01908,"Postcode":"E11 3GA","id":"a64j0a58dcwu","lat":51.562},"type":"Feature","geometry":{"type":"Point","coordinates":[0.01908,51.562]}},{"properties":{"size":10.0793323517,"lng":-0.00327,"Postcode":"E11 4EU","id":"a64j0adqt3m3","lat":51.55579},"type":"Feature","geometry":{"type":"Point","coordinates":[-0.00327,51.55579]}},{"properties":{"size":18.0113778114,"lng":-0.00324,"Postcode":"E15 2TG","id":"a64j0ag9x5l5","lat":51.535568},"type":"Feature","geometry":{"type":"Point","coordinates":[-0.00324,51.535568]}},{"properties":{"size":6.34488320351,"lng":0.00984,"Postcode":"E15 4HA","id":"a64j0a99i9bf","lat":51.541481},"type":"Feature","geometry":{"type":"Point","coordinates":[0.00984,51.541481]}},{"properties":{"size":17.1781072617,"lng":0.01053,"Postcode":"E16 1AR","id":"a64j0af1q78f","lat":51.506851},"type":"Feature","geometry":{"type":"Point","coordinates":[0.01053,51.506851]}},{"properties":{"size":10.9272143841,"lng":0.02379,"Postcode":"E16 1UA","id":"a64j0a7l9iel","lat":51.503349},"type":"Feature","geometry":{"type":"Point","coordinates":[0.02379,51.503349]}},{"properties":{"size":9.68355512619,"lng":-0.02183,"Postcode":"E17 5AZ","id":"a64j0abfjufq","lat":51.596779},"type":"Feature","geometry":{"type":"Point","coordinates":[-0.02183,51.596779]}},{"properties":{"size":17.1535465717,"lng":-0.02253,"Postcode":"E17 8QR","id":"a64j0aimmcq2","lat":51.578918},"type":"Feature","geometry":{"type":"Point","coordinates":[-0.02253,51.578918]}},{"properties":{"size":12.2765312195,"lng":-0.02141,"Postcode":"E17 8QW","id":"a64j0aisd9br","lat":51.577961},"type":"Feature","geometry":{"type":"Point","coordinates":[-0.02141,51.577961]}},{"properties":{"size":8.0587003231,"lng":-0.01009,"Postcode":"E17 9LR","id":"a64j0ajobi9l","lat":51.5839},"type":"Feature","geometry":{"type":"Point","coordinates":[-0.01009,51.5839]}},{"properties":{"size":16.0088238716,"lng":-0.04831,"Postcode":"E1W 3DX","id":"a64j0ab3lz24","lat":51.51025},"type":"Feature","geometry":{"type":"Point","coordinates":[-0.04831,51.51025]}},{"properties":{"size":10.018560648,"lng":-0.05258,"Postcode":"E2 0JA","id":"a64j0ai73nbu","lat":51.527771},"type":"Feature","geometry":{"type":"Point","coordinates":[-0.05258,51.527771]}},{"properties":{"size":3.15902805328,"lng":-0.04239,"Postcode":"E2 0SP","id":"a64j0a529vdm","lat":51.529369},"type":"Feature","geometry":{"type":"Point","coordinates":[-0.04239,51.529369]}},{"properties":{"size":11.9785926342,"lng":-0.065,"Postcode":"E2 6AH","id":"a64j0ahescl1","lat":51.52652},"type":"Feature","geometry":{"type":"Point","coordinates":[-0.065,51.52652]}},{"properties":{"size":19.5469985008,"lng":-0.06241,"Postcode":"E2 9BB","id":"a64j0a8niwl4","lat":51.53458},"type":"Feature","geometry":{"type":"Point","coordinates":[-0.06241,51.53458]}},{"properties":{"size":18.5104820728,"lng":-0.03609,"Postcode":"E3 5NA","id":"a64j0a7mw9co","lat":51.53326},"type":"Feature","geometry":{"type":"Point","coordinates":[-0.03609,51.53326]}},{"properties":{"size":5.36392784119,"lng":-0.04651,"Postcode":"E5 0EY","id":"a64j0ak08jh4","lat":51.554359},"type":"Feature","geometry":{"type":"Point","coordinates":[-0.04651,51.554359]}},{"properties":{"size":7.32190108299,"lng":-0.04897,"Postcode":"E5 0PT","id":"a64j0abj0vf6","lat":51.554359},"type":"Feature","geometry":{"type":"Point","coordinates":[-0.04897,51.554359]}},{"properties":{"size":12.6430497169,"lng":-0.05474,"Postcode":"E5 0RP","id":"a64j0a4lkrdi","lat":51.556789},"type":"Feature","geometry":{"type":"Point","coordinates":[-0.05474,51.556789]}},{"properties":{"size":6.84439873695,"lng":-0.05209,"Postcode":"E5 9NA","id":"a64j0a6drfyg","lat":51.564831},"type":"Feature","geometry":{"type":"Point","coordinates":[-0.05209,51.564831]}},{"properties":{"size":2.49596691132,"lng":-0.05347,"Postcode":"E5 9PR","id":"a64j0aidpju6","lat":51.562569},"type":"Feature","geometry":{"type":"Point","coordinates":[-0.05347,51.562569]}},{"properties":{"size":14.5244166851,"lng":0.03749,"Postcode":"E7 0JS","id":"a64j0ac3vu10","lat":51.555069},"type":"Feature","geometry":{"type":"Point","coordinates":[0.03749,51.555069]}},{"properties":{"size":1.44242978096,"lng":-0.06021,"Postcode":"E8 1LP","id":"a64j0ab4xfif","lat":51.54808},"type":"Feature","geometry":{"type":"Point","coordinates":[-0.06021,51.54808]}},{"properties":{"size":11.5387878418,"lng":-0.07411,"Postcode":"E8 2LG","id":"a64j0agboxwj","lat":51.54826},"type":"Feature","geometry":{"type":"Point","coordinates":[-0.07411,51.54826]}},{"properties":{"size":13.8852117062,"lng":-0.0708,"Postcode":"E8 3TD","id":"a64j0akfflxj","lat":51.544102},"type":"Feature","geometry":{"type":"Point","coordinates":[-0.0708,51.544102]}},{"properties":{"size":7.68944597244,"lng":-0.07661,"Postcode":"E8 4DE","id":"a64j0a8653yk","lat":51.53899},"type":"Feature","geometry":{"type":"Point","coordinates":[-0.07661,51.53899]}},{"properties":{"size":7.49622559547,"lng":-0.07688,"Postcode":"E8 4DT","id":"a64j0aivhr8v","lat":51.538361},"type":"Feature","geometry":{"type":"Point","coordinates":[-0.07688,51.538361]}},{"properties":{"size":13.1674394608,"lng":-0.0288,"Postcode":"E9 5HP","id":"a64j0ad7tuoq","lat":51.542259},"type":"Feature","geometry":{"type":"Point","coordinates":[-0.0288,51.542259]}},{"properties":{"size":14.6291396618,"lng":-0.04955,"Postcode":"E9 6EW","id":"a64j0aai0xis","lat":51.549679},"type":"Feature","geometry":{"type":"Point","coordinates":[-0.04955,51.549679]}},{"properties":{"size":13.5680136681,"lng":-0.093,"Postcode":"EC1V 9ND","id":"a64j0ajqfk1n","lat":51.524979},"type":"Feature","geometry":{"type":"Point","coordinates":[-0.093,51.524979]}},{"properties":{"size":10.5294678211,"lng":-0.09569,"Postcode":"EC1Y 0RT","id":"a64j0abbzwj5","lat":51.523762},"type":"Feature","geometry":{"type":"Point","coordinates":[-0.09569,51.523762]}},{"properties":{"size":7.06087684631,"lng":-3.19438,"Postcode":"EH1 2HE","id":"a64j0ach6ex7","lat":55.948391},"type":"Feature","geometry":{"type":"Point","coordinates":[-3.19438,55.948391]}},{"properties":{"size":8.96933531761,"lng":-3.21699,"Postcode":"EH10 4PA","id":"a64j0advpvfb","lat":55.938129},"type":"Feature","geometry":{"type":"Point","coordinates":[-3.21699,55.938129]}},{"properties":{"size":7.48590326309,"lng":-3.20778,"Postcode":"EH10 4XD","id":"a64j0a8cghzz","lat":55.93298},"type":"Feature","geometry":{"type":"Point","coordinates":[-3.20778,55.93298]}},{"properties":{"size":2.96036934853,"lng":-3.22267,"Postcode":"EH10 5QA","id":"a64j0aa9fro6","lat":55.921242},"type":"Feature","geometry":{"type":"Point","coordinates":[-3.22267,55.921242]}},{"properties":{"size":12.2144613266,"lng":-3.22406,"Postcode":"EH10 5XD","id":"a64j0ah4aza2","lat":55.91713},"type":"Feature","geometry":{"type":"Point","coordinates":[-3.22406,55.91713]}},{"properties":{"size":11.1697146893,"lng":-3.20169,"Postcode":"EH10 7GZ","id":"a64j0ablaiv2","lat":55.897572},"type":"Feature","geometry":{"type":"Point","coordinates":[-3.20169,55.897572]}},{"properties":{"size":12.9013667107,"lng":-3.22066,"Postcode":"EH11 1EZ","id":"a64j0akechv6","lat":55.938099},"type":"Feature","geometry":{"type":"Point","coordinates":[-3.22066,55.938099]}},{"properties":{"size":1.60747504234,"lng":-3.21894,"Postcode":"EH11 2AU","id":"a64j0aj11pfc","lat":55.943039},"type":"Feature","geometry":{"type":"Point","coordinates":[-3.21894,55.943039]}},{"properties":{"size":15.6641743183,"lng":-3.22627,"Postcode":"EH11 2JW","id":"a64j0ajs3v1k","lat":55.937988},"type":"Feature","geometry":{"type":"Point","coordinates":[-3.22627,55.937988]}},{"properties":{"size":12.2524604797,"lng":-3.22101,"Postcode":"EH11 2TB","id":"a64j0a77a86m","lat":55.944328},"type":"Feature","geometry":{"type":"Point","coordinates":[-3.22101,55.944328]}},{"properties":{"size":14.9328122139,"lng":-3.2355,"Postcode":"EH12 5NQ","id":"a64j0ae4j3al","lat":55.945751},"type":"Feature","geometry":{"type":"Point","coordinates":[-3.2355,55.945751]}},{"properties":{"size":14.5356581211,"lng":-3.30185,"Postcode":"EH12 9EJ","id":"a64j0aa3qxpd","lat":55.93536},"type":"Feature","geometry":{"type":"Point","coordinates":[-3.30185,55.93536]}},{"properties":{"size":5.74054813385,"lng":-3.24968,"Postcode":"EH14 1JX","id":"a64j0aj80xdu","lat":55.9165},"type":"Feature","geometry":{"type":"Point","coordinates":[-3.24968,55.9165]}},{"properties":{"size":15.8355948925,"lng":-3.33738,"Postcode":"EH14 7AB","id":"a64j0aa56s0l","lat":55.88372},"type":"Feature","geometry":{"type":"Point","coordinates":[-3.33738,55.88372]}},{"properties":{"size":13.1713042259,"lng":-3.11778,"Postcode":"EH15 1DT","id":"a64j0acxzjry","lat":55.95747},"type":"Feature","geometry":{"type":"Point","coordinates":[-3.11778,55.95747]}},{"properties":{"size":2.05162739754,"lng":-3.11297,"Postcode":"EH15 1EY","id":"a64j0a6eggiv","lat":55.953609},"type":"Feature","geometry":{"type":"Point","coordinates":[-3.11297,55.953609]}},{"properties":{"size":1.49830436707,"lng":-3.11444,"Postcode":"EH15 1LW","id":"a64j0aeei80a","lat":55.95108},"type":"Feature","geometry":{"type":"Point","coordinates":[-3.11444,55.95108]}},{"properties":{"size":18.6453340054,"lng":-3.1652,"Postcode":"EH16 5JR","id":"a64j0aavydrm","lat":55.932968},"type":"Feature","geometry":{"type":"Point","coordinates":[-3.1652,55.932968]}},{"properties":{"size":19.4930634499,"lng":-3.1602,"Postcode":"EH16 6JL","id":"a64j0ajvgoqd","lat":55.914509},"type":"Feature","geometry":{"type":"Point","coordinates":[-3.1602,55.914509]}},{"properties":{"size":3.83342003822,"lng":-3.16528,"Postcode":"EH16 6NL","id":"a64j0ad3am4j","lat":55.911789},"type":"Feature","geometry":{"type":"Point","coordinates":[-3.16528,55.911789]}},{"properties":{"size":18.9117155075,"lng":-3.0744,"Postcode":"EH21 6UW","id":"a64j0a9k4r5h","lat":55.937881},"type":"Feature","geometry":{"type":"Point","coordinates":[-3.0744,55.937881]}},{"properties":{"size":3.12873339653,"lng":-3.0548,"Postcode":"EH23 4BW","id":"a64j0afj26y7","lat":55.847092},"type":"Feature","geometry":{"type":"Point","coordinates":[-3.0548,55.847092]}},{"properties":{"size":13.2456741333,"lng":-3.20924,"Postcode":"EH26 0RH","id":"a64j0a6uo7fm","lat":55.8442},"type":"Feature","geometry":{"type":"Point","coordinates":[-3.20924,55.8442]}},{"properties":{"size":14.7411153316,"lng":-3.37902,"Postcode":"EH28 8RB","id":"a64j0af7noex","lat":55.921928},"type":"Feature","geometry":{"type":"Point","coordinates":[-3.37902,55.921928]}},{"properties":{"size":7.19204759598,"lng":-3.40563,"Postcode":"EH299AP","id":"a64j0aajsmig","lat":55.956921},"type":"Feature","geometry":{"type":"Point","coordinates":[-3.40563,55.956921]}},{"properties":{"size":2.77748322487,"lng":-3.19937,"Postcode":"EH3 6QQ","id":"a64j0ag4rjto","lat":55.957741},"type":"Feature","geometry":{"type":"Point","coordinates":[-3.19937,55.957741]}},{"properties":{"size":5.95647907257,"lng":-3.37372,"Postcode":"EH30 9TT","id":"a64j0a80uae7","lat":55.982632},"type":"Feature","geometry":{"type":"Point","coordinates":[-3.37372,55.982632]}},{"properties":{"size":4.05999517441,"lng":-2.89533,"Postcode":"EH32 0LH","id":"a64j0afbdh2j","lat":55.979549},"type":"Feature","geometry":{"type":"Point","coordinates":[-2.89533,55.979549]}},{"properties":{"size":15.9675858021,"lng":-2.85672,"Postcode":"EH32 0SF","id":"a64j0ai5lt2h","lat":56.010571},"type":"Feature","geometry":{"type":"Point","coordinates":[-2.85672,56.010571]}},{"properties":{"size":2.36552214622,"lng":-3.21538,"Postcode":"EH4 1PX","id":"a64j0ab51w10","lat":55.95591},"type":"Feature","geometry":{"type":"Point","coordinates":[-3.21538,55.95591]}},{"properties":{"size":10.6176552773,"lng":-3.22185,"Postcode":"EH4 1QH","id":"a64j0a5ozz6a","lat":55.967529},"type":"Feature","geometry":{"type":"Point","coordinates":[-3.22185,55.967529]}},{"properties":{"size":3.60417580605,"lng":-3.29745,"Postcode":"EH4 8DA","id":"a64j0ajm64t9","lat":55.95425},"type":"Feature","geometry":{"type":"Point","coordinates":[-3.29745,55.95425]}},{"properties":{"size":17.6670978069,"lng":-2.66776,"Postcode":"EH40 3BP","id":"a64j0a54der9","lat":55.989712},"type":"Feature","geometry":{"type":"Point","coordinates":[-2.66776,55.989712]}},{"properties":{"size":2.35452985764,"lng":-3.35372,"Postcode":"EH46 7EH","id":"a64j0acxmkgm","lat":55.75045},"type":"Feature","geometry":{"type":"Point","coordinates":[-3.35372,55.75045]}},{"properties":{"size":18.3465538025,"lng":-3.22094,"Postcode":"EH5 1AQ","id":"a64j0adojx83","lat":55.977428},"type":"Feature","geometry":{"type":"Point","coordinates":[-3.22094,55.977428]}},{"properties":{"size":1.80175757408,"lng":-3.61824,"Postcode":"EH510LN","id":"a64j0ajw3rg1","lat":56.008099},"type":"Feature","geometry":{"type":"Point","coordinates":[-3.61824,56.008099]}},{"properties":{"size":18.9202771187,"lng":-3.53775,"Postcode":"EH52 6LB","id":"a64j0ab3nkeq","lat":55.921921},"type":"Feature","geometry":{"type":"Point","coordinates":[-3.53775,55.921921]}},{"properties":{"size":8.86232590675,"lng":-3.18054,"Postcode":"EH6 4AS","id":"a64j0a9jyw8l","lat":55.977131},"type":"Feature","geometry":{"type":"Point","coordinates":[-3.18054,55.977131]}},{"properties":{"size":3.89335727692,"lng":-3.18945,"Postcode":"EH6 4BW","id":"a64j0aaqw27b","lat":55.972599},"type":"Feature","geometry":{"type":"Point","coordinates":[-3.18945,55.972599]}},{"properties":{"size":17.9787299633,"lng":-3.19217,"Postcode":"EH6 4JR","id":"a64j0a5pg6d4","lat":55.979221},"type":"Feature","geometry":{"type":"Point","coordinates":[-3.19217,55.979221]}},{"properties":{"size":16.9372115135,"lng":-3.16952,"Postcode":"EH6 6QN","id":"a64j0a5tcf7n","lat":55.976261},"type":"Feature","geometry":{"type":"Point","coordinates":[-3.16952,55.976261]}},{"properties":{"size":18.9070949554,"lng":-3.16826,"Postcode":"EH6 6QR","id":"a64j0acuaqfs","lat":55.976971},"type":"Feature","geometry":{"type":"Point","coordinates":[-3.16826,55.976971]}},{"properties":{"size":11.1455247402,"lng":-3.16627,"Postcode":"EH6 7BT","id":"a64j0ac1plbv","lat":55.976059},"type":"Feature","geometry":{"type":"Point","coordinates":[-3.16627,55.976059]}},{"properties":{"size":7.81280374527,"lng":-3.16784,"Postcode":"EH6 7EX","id":"a64j0a5e18ef","lat":55.973492},"type":"Feature","geometry":{"type":"Point","coordinates":[-3.16784,55.973492]}},{"properties":{"size":1.41326165199,"lng":-3.15872,"Postcode":"EH67LY","id":"a64j0ahhncce","lat":55.96983},"type":"Feature","geometry":{"type":"Point","coordinates":[-3.15872,55.96983]}},{"properties":{"size":18.5550031662,"lng":-3.18962,"Postcode":"EH7 4DL","id":"a64j0abennq4","lat":55.96183},"type":"Feature","geometry":{"type":"Point","coordinates":[-3.18962,55.96183]}},{"properties":{"size":7.05043292046,"lng":-3.17748,"Postcode":"EH7 5EX","id":"a64j0ab3va0g","lat":55.959518},"type":"Feature","geometry":{"type":"Point","coordinates":[-3.17748,55.959518]}},{"properties":{"size":6.83282589912,"lng":-3.16292,"Postcode":"EH75TX","id":"a64j0akak81d","lat":55.957142},"type":"Feature","geometry":{"type":"Point","coordinates":[-3.16292,55.957142]}},{"properties":{"size":16.3832244873,"lng":-3.18291,"Postcode":"EH8 8BQ","id":"a64j0a9uq6pt","lat":55.950878},"type":"Feature","geometry":{"type":"Point","coordinates":[-3.18291,55.950878]}},{"properties":{"size":16.3050267696,"lng":-3.16865,"Postcode":"EH8 8HE","id":"a64j0aezlv1r","lat":55.954521},"type":"Feature","geometry":{"type":"Point","coordinates":[-3.16865,55.954521]}},{"properties":{"size":9.57062578201,"lng":-3.18068,"Postcode":"EH8 9QU","id":"a64j0ad5r9w4","lat":55.941769},"type":"Feature","geometry":{"type":"Point","coordinates":[-3.18068,55.941769]}},{"properties":{"size":14.4308111668,"lng":-3.18326,"Postcode":"EH8 9TA","id":"a64j0a9knlg3","lat":55.94772},"type":"Feature","geometry":{"type":"Point","coordinates":[-3.18326,55.94772]}},{"properties":{"size":14.6293077469,"lng":-3.19506,"Postcode":"EH9 1HZ","id":"a64j0akkmltp","lat":55.93869},"type":"Feature","geometry":{"type":"Point","coordinates":[-3.19506,55.93869]}},{"properties":{"size":3.44665980339,"lng":-3.19342,"Postcode":"EH9 1JB","id":"a64j0a8u5doz","lat":55.939301},"type":"Feature","geometry":{"type":"Point","coordinates":[-3.19342,55.939301]}},{"properties":{"size":7.50607824326,"lng":-3.18088,"Postcode":"EH9 1QG","id":"a64j0adxjpmi","lat":55.937809},"type":"Feature","geometry":{"type":"Point","coordinates":[-3.18088,55.937809]}},{"properties":{"size":7.54339909554,"lng":-0.00251,"Postcode":"EN11 0JN","id":"a64j0a7yb8ct","lat":51.76585},"type":"Feature","geometry":{"type":"Point","coordinates":[-0.00251,51.76585]}},{"properties":{"size":19.5347080231,"lng":-0.08532,"Postcode":"EN2 0JP","id":"a64j0afluzji","lat":51.662491},"type":"Feature","geometry":{"type":"Point","coordinates":[-0.08532,51.662491]}},{"properties":{"size":1.00096678734,"lng":-0.03445,"Postcode":"EN3 6NG","id":"a64j0a8ydw94","lat":51.672852},"type":"Feature","geometry":{"type":"Point","coordinates":[-0.03445,51.672852]}},{"properties":{"size":3.03163385391,"lng":-0.17798,"Postcode":"EN6 1RH","id":"a64j0aarfou3","lat":51.701988},"type":"Feature","geometry":{"type":"Point","coordinates":[-0.17798,51.701988]}},{"properties":{"size":1.40130257607,"lng":-3.23567,"Postcode":"EX10 9BL","id":"a64j0ahfc8dx","lat":50.68811},"type":"Feature","geometry":{"type":"Point","coordinates":[-3.23567,50.68811]}},{"properties":{"size":1.65728664398,"lng":-3.27997,"Postcode":"EX11 1DQ","id":"a64j0ai541eh","lat":50.752338},"type":"Feature","geometry":{"type":"Point","coordinates":[-3.27997,50.752338]}},{"properties":{"size":8.54436373711,"lng":-3.7936,"Postcode":"EX17 6JU","id":"a64j0ad2qhzi","lat":50.787941},"type":"Feature","geometry":{"type":"Point","coordinates":[-3.7936,50.787941]}},{"properties":{"size":3.66804456711,"lng":-4.15917,"Postcode":"EX33 2BB","id":"a64j0ah91nks","lat":51.102119},"type":"Feature","geometry":{"type":"Point","coordinates":[-4.15917,51.102119]}},{"properties":{"size":14.692265749,"lng":-3.55543,"Postcode":"EX4 1ND","id":"a64j0acyn6zd","lat":50.715649},"type":"Feature","geometry":{"type":"Point","coordinates":[-3.55543,50.715649]}},{"properties":{"size":1.18381118774,"lng":-3.47523,"Postcode":"EX6 8NA","id":"a64j0a4y1mv9","lat":50.639591},"type":"Feature","geometry":{"type":"Point","coordinates":[-3.47523,50.639591]}},{"properties":{"size":16.7665479183,"lng":-3.4172,"Postcode":"EX81DW","id":"a64j0ait93xd","lat":50.61869},"type":"Feature","geometry":{"type":"Point","coordinates":[-3.4172,50.61869]}},{"properties":{"size":3.59621858597,"lng":-3.72275,"Postcode":"FK10 4LT","id":"a64j0acrsfej","lat":56.068272},"type":"Feature","geometry":{"type":"Point","coordinates":[-3.72275,56.068272]}},{"properties":{"size":6.1235640049,"lng":-3.88102,"Postcode":"FK15 9QT","id":"a64j0a8epdwp","lat":56.264519},"type":"Feature","geometry":{"type":"Point","coordinates":[-3.88102,56.264519]}},{"properties":{"size":18.2424554825,"lng":-4.21324,"Postcode":"FK178EL","id":"a64j0a5vvwbl","lat":56.245251},"type":"Feature","geometry":{"type":"Point","coordinates":[-4.21324,56.245251]}},{"properties":{"size":16.5329978466,"lng":-3.72433,"Postcode":"FK3 8BN","id":"a64j0a4ll7gd","lat":56.016521},"type":"Feature","geometry":{"type":"Point","coordinates":[-3.72433,56.016521]}},{"properties":{"size":16.4697203636,"lng":-3.95406,"Postcode":"FK7 9PZ","id":"a64j0a8i1441","lat":56.083241},"type":"Feature","geometry":{"type":"Point","coordinates":[-3.95406,56.083241]}},{"properties":{"size":15.9845039845,"lng":-3.97335,"Postcode":"FK79NH","id":"a64j0a7276ta","lat":56.108452},"type":"Feature","geometry":{"type":"Point","coordinates":[-3.97335,56.108452]}},{"properties":{"size":8.21529960632,"lng":-3.93946,"Postcode":"FK8 1HQ","id":"a64j0agd28ii","lat":56.12112},"type":"Feature","geometry":{"type":"Point","coordinates":[-3.93946,56.12112]}},{"properties":{"size":12.9474732876,"lng":-4.08481,"Postcode":"FK8 3BX","id":"a64j0a9u37b8","lat":56.124279},"type":"Feature","geometry":{"type":"Point","coordinates":[-4.08481,56.124279]}},{"properties":{"size":2.05082988739,"lng":-4.08481,"Postcode":"FK8 3BX","id":"a64j0a6eewk5","lat":56.124279},"type":"Feature","geometry":{"type":"Point","coordinates":[-4.08481,56.124279]}},{"properties":{"size":13.2272706032,"lng":-4.11877,"Postcode":"FK8 3QD","id":"a64j0a6jz24u","lat":56.167179},"type":"Feature","geometry":{"type":"Point","coordinates":[-4.11877,56.167179]}},{"properties":{"size":12.7089235783,"lng":-4.38179,"Postcode":"FK8 3UQ","id":"a64j0afott0a","lat":56.178268},"type":"Feature","geometry":{"type":"Point","coordinates":[-4.38179,56.178268]}},{"properties":{"size":4.41451525688,"lng":-3.0502,"Postcode":"FY2 9AB","id":"a64j0a5kur69","lat":53.856651},"type":"Feature","geometry":{"type":"Point","coordinates":[-3.0502,53.856651]}},{"properties":{"size":4.90524625778,"lng":-4.24595,"Postcode":"G1 1QS","id":"a64j0a6p22nf","lat":55.860931},"type":"Feature","geometry":{"type":"Point","coordinates":[-4.24595,55.860931]}},{"properties":{"size":4.43769192696,"lng":-4.30292,"Postcode":"G11 5DZ","id":"a64j0aeqsp60","lat":55.87331},"type":"Feature","geometry":{"type":"Point","coordinates":[-4.30292,55.87331]}},{"properties":{"size":11.5764389038,"lng":-4.31967,"Postcode":"G11 7LA","id":"a64j0afufgt3","lat":55.875961},"type":"Feature","geometry":{"type":"Point","coordinates":[-4.31967,55.875961]}},{"properties":{"size":6.70194602013,"lng":-4.34923,"Postcode":"G13 3PY","id":"a64j0abjvs80","lat":55.894199},"type":"Feature","geometry":{"type":"Point","coordinates":[-4.34923,55.894199]}},{"properties":{"size":10.4501805305,"lng":-4.33116,"Postcode":"G14 9JR","id":"a64j0abn3oxz","lat":55.880959},"type":"Feature","geometry":{"type":"Point","coordinates":[-4.33116,55.880959]}},{"properties":{"size":15.5812094212,"lng":-4.28875,"Postcode":"G20 8QW","id":"a64j0ae0u3c8","lat":55.881859},"type":"Feature","geometry":{"type":"Point","coordinates":[-4.28875,55.881859]}},{"properties":{"size":19.8109254837,"lng":-4.26746,"Postcode":"G3 6LQ","id":"a64j0ajr1oeo","lat":55.865971},"type":"Feature","geometry":{"type":"Point","coordinates":[-4.26746,55.865971]}},{"properties":{"size":2.00336909294,"lng":-4.26118,"Postcode":"G3 6PL","id":"a64j0agq2s2z","lat":55.867359},"type":"Feature","geometry":{"type":"Point","coordinates":[-4.26118,55.867359]}},{"properties":{"size":9.5312628746,"lng":-4.29239,"Postcode":"G3 8AH","id":"a64j0ah1w8p7","lat":55.86776},"type":"Feature","geometry":{"type":"Point","coordinates":[-4.29239,55.86776]}},{"properties":{"size":8.38190770149,"lng":-4.293,"Postcode":"G3 8AQ","id":"a64j0adjqc6h","lat":55.867378},"type":"Feature","geometry":{"type":"Point","coordinates":[-4.293,55.867378]}},{"properties":{"size":16.2769947052,"lng":-4.27479,"Postcode":"G3 8BW","id":"a64j0aakmwde","lat":55.857182},"type":"Feature","geometry":{"type":"Point","coordinates":[-4.27479,55.857182]}},{"properties":{"size":13.000669241,"lng":-4.27924,"Postcode":"G41 3DU","id":"a64j0abol9qg","lat":55.82626},"type":"Feature","geometry":{"type":"Point","coordinates":[-4.27924,55.82626]}},{"properties":{"size":9.47674965858,"lng":-4.28339,"Postcode":"G41 3LG","id":"a64j0abirkvx","lat":55.828098},"type":"Feature","geometry":{"type":"Point","coordinates":[-4.28339,55.828098]}},{"properties":{"size":17.3137578964,"lng":-4.28854,"Postcode":"G41 3PZ","id":"a64j0a7ovqih","lat":55.826988},"type":"Feature","geometry":{"type":"Point","coordinates":[-4.28854,55.826988]}},{"properties":{"size":1.92651247978,"lng":-4.28172,"Postcode":"G413XH","id":"a64j0a8tatyv","lat":55.832539},"type":"Feature","geometry":{"type":"Point","coordinates":[-4.28172,55.832539]}},{"properties":{"size":2.46691083908,"lng":-4.26502,"Postcode":"G42 8LF","id":"a64j0a7t5yad","lat":55.83736},"type":"Feature","geometry":{"type":"Point","coordinates":[-4.26502,55.83736]}},{"properties":{"size":1.45972943306,"lng":-4.26731,"Postcode":"G42 8RE","id":"a64j0adgta38","lat":55.834759},"type":"Feature","geometry":{"type":"Point","coordinates":[-4.26731,55.834759]}},{"properties":{"size":11.3892326355,"lng":-4.27084,"Postcode":"G44 3PS","id":"a64j0agqh3gq","lat":55.807961},"type":"Feature","geometry":{"type":"Point","coordinates":[-4.27084,55.807961]}},{"properties":{"size":14.6268460751,"lng":-4.30364,"Postcode":"G46 6RW","id":"a64j0ae5d7hw","lat":55.79248},"type":"Feature","geometry":{"type":"Point","coordinates":[-4.30364,55.79248]}},{"properties":{"size":4.58563661575,"lng":-4.31626,"Postcode":"G51 3BN","id":"a64j0a7yf10l","lat":55.86348},"type":"Feature","geometry":{"type":"Point","coordinates":[-4.31626,55.86348]}},{"properties":{"size":19.4443724155,"lng":-4.34878,"Postcode":"G52 3HA","id":"a64j0a9k1jjj","lat":55.843201},"type":"Feature","geometry":{"type":"Point","coordinates":[-4.34878,55.843201]}},{"properties":{"size":9.41284275055,"lng":-4.20993,"Postcode":"G64 1HU","id":"a64j0a4oxcxq","lat":55.905769},"type":"Feature","geometry":{"type":"Point","coordinates":[-4.20993,55.905769]}},{"properties":{"size":9.6233985424,"lng":-4.14437,"Postcode":"G66 3AT","id":"a64j0ahqgs2p","lat":55.92569},"type":"Feature","geometry":{"type":"Point","coordinates":[-4.14437,55.92569]}},{"properties":{"size":17.3938307762,"lng":-3.94929,"Postcode":"G67 3BB","id":"a64j0afvac7g","lat":55.96104},"type":"Feature","geometry":{"type":"Point","coordinates":[-3.94929,55.96104]}},{"properties":{"size":12.6262352467,"lng":-4.02848,"Postcode":"G67 4EA","id":"a64j0a95my0w","lat":55.934601},"type":"Feature","geometry":{"type":"Point","coordinates":[-4.02848,55.934601]}},{"properties":{"size":12.1761796474,"lng":-4.20911,"Postcode":"G75 8NT","id":"a64j0aemobs2","lat":55.75935},"type":"Feature","geometry":{"type":"Point","coordinates":[-4.20911,55.75935]}},{"properties":{"size":11.3614640236,"lng":-4.81205,"Postcode":"G84 8PB","id":"a64j0a8ueweg","lat":56.04847},"type":"Feature","geometry":{"type":"Point","coordinates":[-4.81205,56.04847]}},{"properties":{"size":10.845405817,"lng":-2.55171,"Postcode":"GL17 9TZ","id":"a64j0a6silnr","lat":51.843151},"type":"Feature","geometry":{"type":"Point","coordinates":[-2.55171,51.843151]}},{"properties":{"size":10.0241956711,"lng":-2.04942,"Postcode":"GL52 9PT","id":"a64j0adsr27k","lat":51.941391},"type":"Feature","geometry":{"type":"Point","coordinates":[-2.04942,51.941391]}},{"properties":{"size":13.3459804058,"lng":-2.06406,"Postcode":"GL53 7EX","id":"a64j0aju2blu","lat":51.888161},"type":"Feature","geometry":{"type":"Point","coordinates":[-2.06406,51.888161]}},{"properties":{"size":19.556163311,"lng":-1.67703,"Postcode":"GL56 9SQ","id":"a64j0adborco","lat":52.044628},"type":"Feature","geometry":{"type":"Point","coordinates":[-1.67703,52.044628]}},{"properties":{"size":16.1490032673,"lng":-2.23245,"Postcode":"GL6 6AB","id":"a64j0aeh9fww","lat":51.758911},"type":"Feature","geometry":{"type":"Point","coordinates":[-2.23245,51.758911]}},{"properties":{"size":9.45031738281,"lng":-2.16695,"Postcode":"GL6 9AZ","id":"a64j0a97jzqo","lat":51.695629},"type":"Feature","geometry":{"type":"Point","coordinates":[-2.16695,51.695629]}},{"properties":{"size":14.0568730831,"lng":-0.54981,"Postcode":"GU1","id":"a64j0a77vj4e","lat":51.245762},"type":"Feature","geometry":{"type":"Point","coordinates":[-0.54981,51.245762]}},{"properties":{"size":5.45571184158,"lng":-0.56281,"Postcode":"GU13TN","id":"a64j0a5i9x5j","lat":51.228512},"type":"Feature","geometry":{"type":"Point","coordinates":[-0.56281,51.228512]}},{"properties":{"size":19.3536779881,"lng":-0.75033,"Postcode":"GU14 6DF","id":"a64j0a6c3tsy","lat":51.27866},"type":"Feature","geometry":{"type":"Point","coordinates":[-0.75033,51.27866]}},{"properties":{"size":2.12633228302,"lng":-0.60226,"Postcode":"GU2 8SG","id":"a64j0a5x21gp","lat":51.247089},"type":"Feature","geometry":{"type":"Point","coordinates":[-0.60226,51.247089]}},{"properties":{"size":14.158711195,"lng":-0.75345,"Postcode":"GU26 6QW","id":"a64j0acpiw8i","lat":51.123638},"type":"Feature","geometry":{"type":"Point","coordinates":[-0.75345,51.123638]}},{"properties":{"size":15.7605490685,"lng":-0.61179,"Postcode":"GU7 3HR","id":"a64j0a5fdujn","lat":51.192459},"type":"Feature","geometry":{"type":"Point","coordinates":[-0.61179,51.192459]}},{"properties":{"size":1.60811161995,"lng":-0.79556,"Postcode":"GU9 8NP","id":"a64j0ak3v7mx","lat":51.202759},"type":"Feature","geometry":{"type":"Point","coordinates":[-0.79556,51.202759]}},{"properties":{"size":6.48962950706,"lng":-0.4101,"Postcode":"HA4 9RZ","id":"a64j0agafsub","lat":51.57058},"type":"Feature","geometry":{"type":"Point","coordinates":[-0.4101,51.57058]}},{"properties":{"size":18.2062706947,"lng":-0.25234,"Postcode":"HA8 9HG","id":"a64j0aii8hjr","lat":51.611099},"type":"Feature","geometry":{"type":"Point","coordinates":[-0.25234,51.611099]}},{"properties":{"size":7.76026821136,"lng":-0.25234,"Postcode":"HA89HG","id":"a64j0acs147q","lat":51.611099},"type":"Feature","geometry":{"type":"Point","coordinates":[-0.25234,51.611099]}},{"properties":{"size":15.938544035,"lng":-0.28875,"Postcode":"HA9 8EH","id":"a64j0aj7dibn","lat":51.559799},"type":"Feature","geometry":{"type":"Point","coordinates":[-0.28875,51.559799]}},{"properties":{"size":4.37612867355,"lng":-1.85392,"Postcode":"HD9 5JL","id":"a64j0acgx8t4","lat":53.591942},"type":"Feature","geometry":{"type":"Point","coordinates":[-1.85392,53.591942]}},{"properties":{"size":3.89613842964,"lng":-1.78766,"Postcode":"HD93JH","id":"a64j0aczwx97","lat":53.570122},"type":"Feature","geometry":{"type":"Point","coordinates":[-1.78766,53.570122]}},{"properties":{"size":19.5878181458,"lng":-0.50805,"Postcode":"HP1 3BW","id":"a64j0a9mwqmf","lat":51.79425},"type":"Feature","geometry":{"type":"Point","coordinates":[-0.50805,51.79425]}},{"properties":{"size":3.5076520443,"lng":-0.69647,"Postcode":"HP10 8AF","id":"a64j0abnk85v","lat":51.645729},"type":"Feature","geometry":{"type":"Point","coordinates":[-0.69647,51.645729]}},{"properties":{"size":17.513531208,"lng":-0.70627,"Postcode":"HP10 8HT","id":"a64j0a516dr4","lat":51.63789},"type":"Feature","geometry":{"type":"Point","coordinates":[-0.70627,51.63789]}},{"properties":{"size":1.94975113869,"lng":-0.70917,"Postcode":"HP10 9BY","id":"a64j0a98ctxo","lat":51.605572},"type":"Feature","geometry":{"type":"Point","coordinates":[-0.70917,51.605572]}},{"properties":{"size":18.0295190811,"lng":-0.80963,"Postcode":"HP20 1BU","id":"a64j0agx9mfa","lat":51.819069},"type":"Feature","geometry":{"type":"Point","coordinates":[-0.80963,51.819069]}},{"properties":{"size":15.3749320507,"lng":-0.82909,"Postcode":"HP21 8PL","id":"a64j0af1ujvz","lat":51.80698},"type":"Feature","geometry":{"type":"Point","coordinates":[-0.82909,51.80698]}},{"properties":{"size":5.33454275131,"lng":-0.67103,"Postcode":"HP23 4DD","id":"a64j0acbxeox","lat":51.79248},"type":"Feature","geometry":{"type":"Point","coordinates":[-0.67103,51.79248]}},{"properties":{"size":13.2181618214,"lng":-0.46611,"Postcode":"HP3 9DZ","id":"a64j0a4sm0ci","lat":51.743542},"type":"Feature","geometry":{"type":"Point","coordinates":[-0.46611,51.743542]}},{"properties":{"size":5.02995109558,"lng":-0.5676,"Postcode":"HP6 6QQ","id":"a64j0agkds8y","lat":51.67083},"type":"Feature","geometry":{"type":"Point","coordinates":[-0.5676,51.67083]}},{"properties":{"size":16.9566438198,"lng":-0.65465,"Postcode":"HP9 1TB","id":"a64j0aj4fzx0","lat":51.619659},"type":"Feature","geometry":{"type":"Point","coordinates":[-0.65465,51.619659]}},{"properties":{"size":17.8403840065,"lng":-2.65368,"Postcode":"HR1 4JU","id":"a64j0ak1spid","lat":52.041908},"type":"Feature","geometry":{"type":"Point","coordinates":[-2.65368,52.041908]}},{"properties":{"size":8.9477083683,"lng":-2.61159,"Postcode":"HR1 4PN","id":"a64j0agi3siq","lat":52.008221},"type":"Feature","geometry":{"type":"Point","coordinates":[-2.61159,52.008221]}},{"properties":{"size":3.10010051727,"lng":-2.84879,"Postcode":"HR2 DD","id":"a64j0aiphali","lat":51.98101},"type":"Feature","geometry":{"type":"Point","coordinates":[-2.84879,51.98101]}},{"properties":{"size":11.9698283672,"lng":-2.90337,"Postcode":"HR4 7BQ","id":"a64j0abh4755","lat":52.122799},"type":"Feature","geometry":{"type":"Point","coordinates":[-2.90337,52.122799]}},{"properties":{"size":10.1299319267,"lng":-6.60743,"Postcode":"HS2 9DT","id":"a64j0a5pobnq","lat":58.173851},"type":"Feature","geometry":{"type":"Point","coordinates":[-6.60743,58.173851]}},{"properties":{"size":5.09175992012,"lng":-0.45335,"Postcode":"HU13 0JW","id":"a64j0akoxuso","lat":53.72879},"type":"Feature","geometry":{"type":"Point","coordinates":[-0.45335,53.72879]}},{"properties":{"size":6.4948079586,"lng":-0.35463,"Postcode":"HU5 2TG","id":"a64j0a5rwnwi","lat":53.760021},"type":"Feature","geometry":{"type":"Point","coordinates":[-0.35463,53.760021]}},{"properties":{"size":10.2122197151,"lng":-0.36083,"Postcode":"HU5 3RX","id":"a64j0ai6ingo","lat":53.75264},"type":"Feature","geometry":{"type":"Point","coordinates":[-0.36083,53.75264]}},{"properties":{"size":18.8732168674,"lng":0.07982,"Postcode":"IG1 4LL","id":"a64j0af9p8jj","lat":51.566238},"type":"Feature","geometry":{"type":"Point","coordinates":[0.07982,51.566238]}},{"properties":{"size":2.20052814484,"lng":0.08565,"Postcode":"IG6 1PR","id":"a64j0afhzv5q","lat":51.592812},"type":"Feature","geometry":{"type":"Point","coordinates":[0.08565,51.592812]}},{"properties":{"size":18.0376861095,"lng":-4.64589,"Postcode":"IM9 1NX","id":"a64j0afgr8y6","lat":54.079849},"type":"Feature","geometry":{"type":"Point","coordinates":[-4.64589,54.079849]}},{"properties":{"size":11.8189368248,"lng":1.35752,"Postcode":"IP11 9HS","id":"a64j0aia7l78","lat":51.969109},"type":"Feature","geometry":{"type":"Point","coordinates":[1.35752,51.969109]}},{"properties":{"size":10.3470108509,"lng":1.48988,"Postcode":"IP17 1BE","id":"a64j0a5f7izd","lat":52.216},"type":"Feature","geometry":{"type":"Point","coordinates":[1.48988,52.216]}},{"properties":{"size":3.89731025696,"lng":1.25047,"Postcode":"IP5 2GL","id":"a64j0a7aztwu","lat":52.062752},"type":"Feature","geometry":{"type":"Point","coordinates":[1.25047,52.062752]}},{"properties":{"size":9.59284758568,"lng":1.12805,"Postcode":"IP92SN","id":"a64j0afx9mqt","lat":51.971619},"type":"Feature","geometry":{"type":"Point","coordinates":[1.12805,51.971619]}},{"properties":{"size":12.2169289589,"lng":-4.26727,"Postcode":"IV1 2UH","id":"a64j0a6qu5hm","lat":57.52232},"type":"Feature","geometry":{"type":"Point","coordinates":[-4.26727,57.52232]}},{"properties":{"size":8.96260476112,"lng":-3.85522,"Postcode":"IV12 5AQ","id":"a64j0a8vnz2x","lat":57.585732},"type":"Feature","geometry":{"type":"Point","coordinates":[-3.85522,57.585732]}},{"properties":{"size":13.6218175888,"lng":-4.10326,"Postcode":"IV18 0NA","id":"a64j0aje4cno","lat":57.722328},"type":"Feature","geometry":{"type":"Point","coordinates":[-4.10326,57.722328]}},{"properties":{"size":8.70545840263,"lng":-4.38968,"Postcode":"IV2 6UH","id":"a64j0a9aqkss","lat":57.269798},"type":"Feature","geometry":{"type":"Point","coordinates":[-4.38968,57.269798]}},{"properties":{"size":15.0206980705,"lng":-5.72651,"Postcode":"IV21 2AA","id":"a64j0a8z60ch","lat":57.697418},"type":"Feature","geometry":{"type":"Point","coordinates":[-5.72651,57.697418]}},{"properties":{"size":5.12649273872,"lng":-5.69723,"Postcode":"IV212DE","id":"a64j0ad9reqo","lat":57.733021},"type":"Feature","geometry":{"type":"Point","coordinates":[-5.69723,57.733021]}},{"properties":{"size":16.4045677185,"lng":-5.57946,"Postcode":"IV22 2HZ","id":"a64j0akeh5pn","lat":57.83955},"type":"Feature","geometry":{"type":"Point","coordinates":[-5.57946,57.83955]}},{"properties":{"size":11.533965826,"lng":-5.16581,"Postcode":"IV26 2TS","id":"a64j0acgnogn","lat":57.902962},"type":"Feature","geometry":{"type":"Point","coordinates":[-5.16581,57.902962]}},{"properties":{"size":18.0049023628,"lng":-4.4129,"Postcode":"IV27 4EY","id":"a64j0agqafeo","lat":57.942371},"type":"Feature","geometry":{"type":"Point","coordinates":[-4.4129,57.942371]}},{"properties":{"size":6.76470017433,"lng":-4.24604,"Postcode":"IV3 5BD","id":"a64j0ahuzol8","lat":57.469421},"type":"Feature","geometry":{"type":"Point","coordinates":[-4.24604,57.469421]}},{"properties":{"size":4.71748447418,"lng":-4.25373,"Postcode":"IV3 8LZ","id":"a64j0aildl3q","lat":57.48436},"type":"Feature","geometry":{"type":"Point","coordinates":[-4.25373,57.48436]}},{"properties":{"size":18.4110591412,"lng":-4.37357,"Postcode":"IV3 8RN","id":"a64j0a8r69qo","lat":57.46151},"type":"Feature","geometry":{"type":"Point","coordinates":[-4.37357,57.46151]}},{"properties":{"size":11.9125983715,"lng":-4.25649,"Postcode":"IV3 8SE","id":"a64j0a47gorv","lat":57.480282},"type":"Feature","geometry":{"type":"Point","coordinates":[-4.25649,57.480282]}},{"properties":{"size":5.91685628891,"lng":-3.38094,"Postcode":"IV30 8TS","id":"a64j0a9t7h5x","lat":57.576969},"type":"Feature","geometry":{"type":"Point","coordinates":[-3.38094,57.576969]}},{"properties":{"size":13.786397934,"lng":-3.09954,"Postcode":"IV32 7HL","id":"a64j0aegnqrn","lat":57.613289},"type":"Feature","geometry":{"type":"Point","coordinates":[-3.09954,57.613289]}},{"properties":{"size":15.4138658047,"lng":-3.60878,"Postcode":"IV36 1DQ","id":"a64j0ahfbbrz","lat":57.604328},"type":"Feature","geometry":{"type":"Point","coordinates":[-3.60878,57.604328]}},{"properties":{"size":8.28903055191,"lng":-3.59087,"Postcode":"IV36 3TA","id":"a64j0a88gazs","lat":57.653339},"type":"Feature","geometry":{"type":"Point","coordinates":[-3.59087,57.653339]}},{"properties":{"size":1.90354442596,"lng":-3.59338,"Postcode":"IV36 3TZ","id":"a64j0aazo1ic","lat":57.652382},"type":"Feature","geometry":{"type":"Point","coordinates":[-3.59338,57.652382]}},{"properties":{"size":2.25155210495,"lng":-4.41276,"Postcode":"IV6 7RP","id":"a64j0afbutov","lat":57.531422},"type":"Feature","geometry":{"type":"Point","coordinates":[-4.41276,57.531422]}},{"properties":{"size":14.3909618855,"lng":-4.47561,"Postcode":"IV63 6TR","id":"a64j0akgrrir","lat":57.331421},"type":"Feature","geometry":{"type":"Point","coordinates":[-4.47561,57.331421]}},{"properties":{"size":15.7400665283,"lng":-4.67262,"Postcode":"KA12 9DE","id":"a64j0adup7bm","lat":55.627682},"type":"Feature","geometry":{"type":"Point","coordinates":[-4.67262,55.627682]}},{"properties":{"size":12.1407506466,"lng":-4.67262,"Postcode":"KA129DE","id":"a64j0a9k0f87","lat":55.627682},"type":"Feature","geometry":{"type":"Point","coordinates":[-4.67262,55.627682]}},{"properties":{"size":7.26482605934,"lng":-5.15202,"Postcode":"KA27 8AF","id":"a64j0aiv9y63","lat":55.57589},"type":"Feature","geometry":{"type":"Point","coordinates":[-5.15202,55.57589]}},{"properties":{"size":11.7652938366,"lng":-4.50736,"Postcode":"KA3 5PB","id":"a64j0ad1g80a","lat":55.68259},"type":"Feature","geometry":{"type":"Point","coordinates":[-4.50736,55.68259]}},{"properties":{"size":3.33142614365,"lng":-4.64379,"Postcode":"KA7 4BD","id":"a64j0ahj9ggp","lat":55.444962},"type":"Feature","geometry":{"type":"Point","coordinates":[-4.64379,55.444962]}},{"properties":{"size":17.7236053944,"lng":-4.65973,"Postcode":"KA7 4JD","id":"a64j0ahkfn69","lat":55.430721},"type":"Feature","geometry":{"type":"Point","coordinates":[-4.65973,55.430721]}},{"properties":{"size":16.0253391266,"lng":-4.61441,"Postcode":"KA7 4UE","id":"a64j0a72gt10","lat":55.430698},"type":"Feature","geometry":{"type":"Point","coordinates":[-4.61441,55.430698]}},{"properties":{"size":10.4353234768,"lng":-0.3541,"Postcode":"KT10 9PE","id":"a64j0a9u435t","lat":51.368931},"type":"Feature","geometry":{"type":"Point","coordinates":[-0.3541,51.368931]}},{"properties":{"size":18.0098137856,"lng":-0.37205,"Postcode":"KT11 2EW","id":"a64j0a5r27go","lat":51.340839},"type":"Feature","geometry":{"type":"Point","coordinates":[-0.37205,51.340839]}},{"properties":{"size":6.62301278114,"lng":-0.40302,"Postcode":"KT12 4JG","id":"a64j0a54ygfm","lat":51.362942},"type":"Feature","geometry":{"type":"Point","coordinates":[-0.40302,51.362942]}},{"properties":{"size":15.5234060287,"lng":-0.5137,"Postcode":"KT16 9EY","id":"a64j0a9y104b","lat":51.391609},"type":"Feature","geometry":{"type":"Point","coordinates":[-0.5137,51.391609]}},{"properties":{"size":18.3522555828,"lng":-0.26776,"Postcode":"KT18 8NX","id":"a64j0a67y47i","lat":51.3013},"type":"Feature","geometry":{"type":"Point","coordinates":[-0.26776,51.3013]}},{"properties":{"size":8.27579236031,"lng":-0.26624,"Postcode":"KT19 9XE","id":"a64j0afcha4g","lat":51.352089},"type":"Feature","geometry":{"type":"Point","coordinates":[-0.26624,51.352089]}},{"properties":{"size":12.4644813538,"lng":-0.33665,"Postcode":"KT7 0QW","id":"a64j0a8ym3id","lat":51.394829},"type":"Feature","geometry":{"type":"Point","coordinates":[-0.33665,51.394829]}},{"properties":{"size":6.83078742027,"lng":-3.30567,"Postcode":"KW16 3BQ","id":"a64j0ac1ztsj","lat":58.962639},"type":"Feature","geometry":{"type":"Point","coordinates":[-3.30567,58.962639]}},{"properties":{"size":1.68475008011,"lng":-3.17305,"Postcode":"KW17 2RD","id":"a64j0akehhbp","lat":58.91922},"type":"Feature","geometry":{"type":"Point","coordinates":[-3.17305,58.91922]}},{"properties":{"size":7.01421952248,"lng":-3.4824,"Postcode":"KW7 6HA","id":"a64j0a8vb35f","lat":58.201599},"type":"Feature","geometry":{"type":"Point","coordinates":[-3.4824,58.201599]}},{"properties":{"size":10.1017389297,"lng":-3.13837,"Postcode":"KY1 3DT","id":"a64j0aj2k074","lat":56.125221},"type":"Feature","geometry":{"type":"Point","coordinates":[-3.13837,56.125221]}},{"properties":{"size":4.76577138901,"lng":-2.68809,"Postcode":"KY10 3YL","id":"a64j0aj5tpz7","lat":56.228901},"type":"Feature","geometry":{"type":"Point","coordinates":[-2.68809,56.228901]}},{"properties":{"size":17.3613975048,"lng":-2.68809,"Postcode":"KY10 3YL","id":"a64j0agwn9am","lat":56.228901},"type":"Feature","geometry":{"type":"Point","coordinates":[-2.68809,56.228901]}},{"properties":{"size":18.7526009083,"lng":-3.36908,"Postcode":"KY11 9FQ","id":"a64j0a96k6i2","lat":56.035671},"type":"Feature","geometry":{"type":"Point","coordinates":[-3.36908,56.035671]}},{"properties":{"size":16.9422588348,"lng":-3.43887,"Postcode":"KY12 7SQ","id":"a64j0aa5jqz1","lat":56.071362},"type":"Feature","geometry":{"type":"Point","coordinates":[-3.43887,56.071362]}},{"properties":{"size":15.672845602,"lng":-3.42153,"Postcode":"KY13 9YQ","id":"a64j0ab73lbm","lat":56.229649},"type":"Feature","geometry":{"type":"Point","coordinates":[-3.42153,56.229649]}},{"properties":{"size":18.3324036598,"lng":-3.00148,"Postcode":"KY15 5BG","id":"a64j0a5tftui","lat":56.31926},"type":"Feature","geometry":{"type":"Point","coordinates":[-3.00148,56.31926]}},{"properties":{"size":17.5497744083,"lng":-2.9719,"Postcode":"KY15 5QN","id":"a64j0ak7tbgf","lat":56.291618},"type":"Feature","geometry":{"type":"Point","coordinates":[-2.9719,56.291618]}},{"properties":{"size":7.05952739716,"lng":-3.20908,"Postcode":"KY15 7BS","id":"a64j0a916akn","lat":56.253639},"type":"Feature","geometry":{"type":"Point","coordinates":[-3.20908,56.253639]}},{"properties":{"size":10.7946727276,"lng":-2.81636,"Postcode":"KY16 8XX","id":"a64j0acnxlcl","lat":56.33078},"type":"Feature","geometry":{"type":"Point","coordinates":[-2.81636,56.33078]}},{"properties":{"size":1.54602384567,"lng":-2.79675,"Postcode":"KY16 9AR","id":"a64j0aa95zcg","lat":56.34293},"type":"Feature","geometry":{"type":"Point","coordinates":[-2.79675,56.34293]}},{"properties":{"size":7.17160916328,"lng":-2.80314,"Postcode":"KY16 9DA","id":"a64j0aikd2gf","lat":56.338161},"type":"Feature","geometry":{"type":"Point","coordinates":[-2.80314,56.338161]}},{"properties":{"size":5.40593719482,"lng":-2.92876,"Postcode":"KY16 9YA","id":"a64j0abxnv8q","lat":56.349869},"type":"Feature","geometry":{"type":"Point","coordinates":[-2.92876,56.349869]}},{"properties":{"size":19.1197011471,"lng":-3.15655,"Postcode":"KY7 5HY","id":"a64j0agvmeiv","lat":56.19289},"type":"Feature","geometry":{"type":"Point","coordinates":[-3.15655,56.19289]}},{"properties":{"size":11.4781651497,"lng":-2.94716,"Postcode":"L17 3BG","id":"a64j0a50ebn2","lat":53.384418},"type":"Feature","geometry":{"type":"Point","coordinates":[-2.94716,53.384418]}},{"properties":{"size":17.6535055637,"lng":-2.83114,"Postcode":"L36 0SG","id":"a64j0aj1ji58","lat":53.402088},"type":"Feature","geometry":{"type":"Point","coordinates":[-2.83114,53.402088]}},{"properties":{"size":18.125287056,"lng":-2.8466,"Postcode":"L40 7SJ","id":"a64j0a71v5pc","lat":53.598221},"type":"Feature","geometry":{"type":"Point","coordinates":[-2.8466,53.598221]}},{"properties":{"size":13.4665343761,"lng":-2.79452,"Postcode":"LA1 1QN","id":"a64j0a935vp1","lat":54.050991},"type":"Feature","geometry":{"type":"Point","coordinates":[-2.79452,54.050991]}},{"properties":{"size":15.923017025,"lng":-2.79663,"Postcode":"LA1 1RW","id":"a64j0a98wm14","lat":54.048759},"type":"Feature","geometry":{"type":"Point","coordinates":[-2.79663,54.048759]}},{"properties":{"size":6.86289525032,"lng":-2.78288,"Postcode":"LA1 4YD","id":"a64j0a4act1j","lat":54.010319},"type":"Feature","geometry":{"type":"Point","coordinates":[-2.78288,54.010319]}},{"properties":{"size":7.86528205872,"lng":-3.06486,"Postcode":"LD7 1NL","id":"a64j0aaglp8o","lat":52.305149},"type":"Feature","geometry":{"type":"Point","coordinates":[-3.06486,52.305149]}},{"properties":{"size":17.1420571804,"lng":-0.88106,"Postcode":"LE16 7SW","id":"a64j0ajpf0wh","lat":52.547859},"type":"Feature","geometry":{"type":"Point","coordinates":[-0.88106,52.547859]}},{"properties":{"size":11.2099251747,"lng":-0.82026,"Postcode":"LE16 8HF","id":"a64j0abi866e","lat":52.534279},"type":"Feature","geometry":{"type":"Point","coordinates":[-0.82026,52.534279]}},{"properties":{"size":14.0900335312,"lng":-0.91843,"Postcode":"LE16 8NA","id":"a64j0a9k9l4b","lat":52.444672},"type":"Feature","geometry":{"type":"Point","coordinates":[-0.91843,52.444672]}},{"properties":{"size":7.06174111366,"lng":-0.9316,"Postcode":"LE16 9LN","id":"a64j0acqn73z","lat":52.468109},"type":"Feature","geometry":{"type":"Point","coordinates":[-0.9316,52.468109]}},{"properties":{"size":3.00393557549,"lng":-1.25749,"Postcode":"LE17 5BU","id":"a64j0afikyak","lat":52.485722},"type":"Feature","geometry":{"type":"Point","coordinates":[-1.25749,52.485722]}},{"properties":{"size":5.01589155197,"lng":-1.11581,"Postcode":"LE2 3AH","id":"a64j0a4atfa9","lat":52.617279},"type":"Feature","geometry":{"type":"Point","coordinates":[-1.11581,52.617279]}},{"properties":{"size":16.4690372944,"lng":-1.12038,"Postcode":"LE2 3AN","id":"a64j0a8ntcgd","lat":52.615398},"type":"Feature","geometry":{"type":"Point","coordinates":[-1.12038,52.615398]}},{"properties":{"size":18.3925590515,"lng":-1.12439,"Postcode":"LE2 6HU","id":"a64j0aayvab5","lat":52.60276},"type":"Feature","geometry":{"type":"Point","coordinates":[-1.12439,52.60276]}},{"properties":{"size":17.523116827,"lng":-1.14756,"Postcode":"LE3 0BL","id":"a64j0agap0tn","lat":52.629108},"type":"Feature","geometry":{"type":"Point","coordinates":[-1.14756,52.629108]}},{"properties":{"size":4.17807435989,"lng":-1.15551,"Postcode":"LE3 0JR","id":"a64j0adnlkg1","lat":52.627949},"type":"Feature","geometry":{"type":"Point","coordinates":[-1.15551,52.627949]}},{"properties":{"size":15.8233091831,"lng":-1.15494,"Postcode":"LE3 0LW","id":"a64j0aewpfvk","lat":52.631802},"type":"Feature","geometry":{"type":"Point","coordinates":[-1.15494,52.631802]}},{"properties":{"size":14.8072824478,"lng":-1.16585,"Postcode":"LE3 2FD","id":"a64j0agx9a5u","lat":52.611931},"type":"Feature","geometry":{"type":"Point","coordinates":[-1.16585,52.611931]}},{"properties":{"size":9.84632945061,"lng":-1.18632,"Postcode":"LE3 6SJ","id":"a64j0a4qn87z","lat":52.636082},"type":"Feature","geometry":{"type":"Point","coordinates":[-1.18632,52.636082]}},{"properties":{"size":7.50628805161,"lng":-1.15517,"Postcode":"LE3 9GU","id":"a64j0aj9l7kt","lat":52.640079},"type":"Feature","geometry":{"type":"Point","coordinates":[-1.15517,52.640079]}},{"properties":{"size":9.94511342049,"lng":-1.14058,"Postcode":"LE4 2RF","id":"a64j0a89bzsm","lat":52.668839},"type":"Feature","geometry":{"type":"Point","coordinates":[-1.14058,52.668839]}},{"properties":{"size":5.12253379822,"lng":-1.4003,"Postcode":"LE67 6PP","id":"a64j0ajwpnei","lat":52.69511},"type":"Feature","geometry":{"type":"Point","coordinates":[-1.4003,52.69511]}},{"properties":{"size":5.8585832119,"lng":-1.15623,"Postcode":"LE8 5XN","id":"a64j0ag4oq4b","lat":52.55658},"type":"Feature","geometry":{"type":"Point","coordinates":[-1.15623,52.55658]}},{"properties":{"size":3.59550333023,"lng":-2.96793,"Postcode":"LL13 9NH","id":"a64j0aivdtd3","lat":53.052502},"type":"Feature","geometry":{"type":"Point","coordinates":[-2.96793,53.052502]}},{"properties":{"size":14.2995378971,"lng":-3.15059,"Postcode":"LL20 8AR","id":"a64j0ajdu2uj","lat":52.960098},"type":"Feature","geometry":{"type":"Point","coordinates":[-3.15059,52.960098]}},{"properties":{"size":19.1930494308,"lng":-3.84454,"Postcode":"LL30 2JW","id":"a64j0ajvmr4r","lat":53.32901},"type":"Feature","geometry":{"type":"Point","coordinates":[-3.84454,53.32901]}},{"properties":{"size":7.24566912651,"lng":-3.82706,"Postcode":"LL30 2RB","id":"a64j0a4jpn7r","lat":53.322021},"type":"Feature","geometry":{"type":"Point","coordinates":[-3.82706,53.322021]}},{"properties":{"size":13.6383471489,"lng":-3.80269,"Postcode":"LL30 3BD","id":"a64j0ajk6vu4","lat":53.31625},"type":"Feature","geometry":{"type":"Point","coordinates":[-3.80269,53.31625]}},{"properties":{"size":6.55870175362,"lng":-4.11366,"Postcode":"LL57 1PH","id":"a64j0adro21w","lat":53.22942},"type":"Feature","geometry":{"type":"Point","coordinates":[-4.11366,53.22942]}},{"properties":{"size":15.5566594601,"lng":-0.5431,"Postcode":"LN1 3PX","id":"a64j0a95ydhm","lat":53.245708},"type":"Feature","geometry":{"type":"Point","coordinates":[-0.5431,53.245708]}},{"properties":{"size":19.2376027107,"lng":-0.46765,"Postcode":"LN2 3UG","id":"a64j0afk1rga","lat":53.29731},"type":"Feature","geometry":{"type":"Point","coordinates":[-0.46765,53.29731]}},{"properties":{"size":3.16425538063,"lng":-0.46169,"Postcode":"LN4 1RA","id":"a64j0adlbajg","lat":53.216679},"type":"Feature","geometry":{"type":"Point","coordinates":[-0.46169,53.216679]}},{"properties":{"size":15.2187094688,"lng":-1.55394,"Postcode":"LS1 3LA","id":"a64j0agzp6tv","lat":53.801208},"type":"Feature","geometry":{"type":"Point","coordinates":[-1.55394,53.801208]}},{"properties":{"size":10.0421390533,"lng":-1.46846,"Postcode":"LS15 7RT","id":"a64j0ak81z09","lat":53.798038},"type":"Feature","geometry":{"type":"Point","coordinates":[-1.46846,53.798038]}},{"properties":{"size":1.2664077282,"lng":-1.58273,"Postcode":"LS16 5NS","id":"a64j0a8u3pyn","lat":53.833389},"type":"Feature","geometry":{"type":"Point","coordinates":[-1.58273,53.833389]}},{"properties":{"size":17.8380486965,"lng":-1.58273,"Postcode":"LS16 5NS","id":"a64j0ahlyg34","lat":53.833389},"type":"Feature","geometry":{"type":"Point","coordinates":[-1.58273,53.833389]}},{"properties":{"size":7.44226312637,"lng":-1.5316,"Postcode":"LS17 6NX","id":"a64j0a9p2gf5","lat":53.838371},"type":"Feature","geometry":{"type":"Point","coordinates":[-1.5316,53.838371]}},{"properties":{"size":3.40378975868,"lng":-1.66441,"Postcode":"LS28 8BE","id":"a64j0a6a52gg","lat":53.793179},"type":"Feature","geometry":{"type":"Point","coordinates":[-1.66441,53.793179]}},{"properties":{"size":9.94670009613,"lng":-1.59731,"Postcode":"LS5 3HF","id":"a64j0aep8ifa","lat":53.818119},"type":"Feature","geometry":{"type":"Point","coordinates":[-1.59731,53.818119]}},{"properties":{"size":15.6165156364,"lng":-1.548,"Postcode":"LS7 2DX","id":"a64j0afl5gqo","lat":53.821442},"type":"Feature","geometry":{"type":"Point","coordinates":[-1.548,53.821442]}},{"properties":{"size":12.831227541,"lng":-1.51299,"Postcode":"LS82DB","id":"a64j0acad1l0","lat":53.848202},"type":"Feature","geometry":{"type":"Point","coordinates":[-1.51299,53.848202]}},{"properties":{"size":4.81380081177,"lng":-1.51151,"Postcode":"LS9 9NP","id":"a64j0akkyvl0","lat":53.793732},"type":"Feature","geometry":{"type":"Point","coordinates":[-1.51151,53.793732]}},{"properties":{"size":11.7359540462,"lng":-0.45867,"Postcode":"LU3 3NF","id":"a64j0aepccb7","lat":51.917461},"type":"Feature","geometry":{"type":"Point","coordinates":[-0.45867,51.917461]}},{"properties":{"size":1.10987520218,"lng":-0.6421,"Postcode":"LU7 9BE","id":"a64j0aa9iata","lat":51.83511},"type":"Feature","geometry":{"type":"Point","coordinates":[-0.6421,51.83511]}},{"properties":{"size":6.31696915627,"lng":-2.23033,"Postcode":"M14 7PG","id":"a64j0aiiz0ez","lat":53.45052},"type":"Feature","geometry":{"type":"Point","coordinates":[-2.23033,53.45052]}},{"properties":{"size":19.4591150284,"lng":-2.20131,"Postcode":"M19 2BG","id":"a64j0a545isg","lat":53.44157},"type":"Feature","geometry":{"type":"Point","coordinates":[-2.20131,53.44157]}},{"properties":{"size":7.49239420891,"lng":-2.2325,"Postcode":"M20 2DS","id":"a64j0aglvdcw","lat":53.415501},"type":"Feature","geometry":{"type":"Point","coordinates":[-2.2325,53.415501]}},{"properties":{"size":19.7634062767,"lng":-2.24391,"Postcode":"M20 2LQ","id":"a64j0agw6xej","lat":53.42627},"type":"Feature","geometry":{"type":"Point","coordinates":[-2.24391,53.42627]}},{"properties":{"size":17.5878212452,"lng":-2.22468,"Postcode":"M20 3NA","id":"a64j0a5948kg","lat":53.43647},"type":"Feature","geometry":{"type":"Point","coordinates":[-2.22468,53.43647]}},{"properties":{"size":8.9522228241,"lng":-2.22342,"Postcode":"M20 5NF","id":"a64j0adgg2hm","lat":53.407429},"type":"Feature","geometry":{"type":"Point","coordinates":[-2.22342,53.407429]}},{"properties":{"size":14.0960786343,"lng":-2.26857,"Postcode":"M21 8TZ","id":"a64j0a587ytl","lat":53.43771},"type":"Feature","geometry":{"type":"Point","coordinates":[-2.26857,53.43771]}},{"properties":{"size":19.7033295631,"lng":-2.28938,"Postcode":"M25 9UN","id":"a64j0aexkyvl","lat":53.520538},"type":"Feature","geometry":{"type":"Point","coordinates":[-2.28938,53.520538]}},{"properties":{"size":3.51512169838,"lng":-2.31837,"Postcode":"M32 9HD","id":"a64j0ajayvg8","lat":53.4464},"type":"Feature","geometry":{"type":"Point","coordinates":[-2.31837,53.4464]}},{"properties":{"size":18.929110527,"lng":-2.33319,"Postcode":"M33 6QA","id":"a64j0ai7btwz","lat":53.42585},"type":"Feature","geometry":{"type":"Point","coordinates":[-2.33319,53.42585]}},{"properties":{"size":5.88904833794,"lng":-2.11608,"Postcode":"M34 6AE","id":"a64j0a6o9yoa","lat":53.451401},"type":"Feature","geometry":{"type":"Point","coordinates":[-2.11608,53.451401]}},{"properties":{"size":4.15352201462,"lng":-2.29326,"Postcode":"M45 6QZ","id":"a64j0aac4goa","lat":53.548409},"type":"Feature","geometry":{"type":"Point","coordinates":[-2.29326,53.548409]}},{"properties":{"size":15.6772396564,"lng":-2.5089,"Postcode":"M46 0QU","id":"a64j0akh96dy","lat":53.517269},"type":"Feature","geometry":{"type":"Point","coordinates":[-2.5089,53.517269]}},{"properties":{"size":10.9046707153,"lng":0.53188,"Postcode":"ME15 7DJ","id":"a64j0ailggwf","lat":51.261959},"type":"Feature","geometry":{"type":"Point","coordinates":[0.53188,51.261959]}},{"properties":{"size":9.57662558556,"lng":0.48702,"Postcode":"ME16 0HN","id":"a64j0ajzdba8","lat":51.283031},"type":"Feature","geometry":{"type":"Point","coordinates":[0.48702,51.283031]}},{"properties":{"size":19.2480168343,"lng":0.40849,"Postcode":"ME19 6NA","id":"a64j0a4ovxgy","lat":51.294182},"type":"Feature","geometry":{"type":"Point","coordinates":[0.40849,51.294182]}},{"properties":{"size":16.92207551,"lng":0.53124,"Postcode":"ME4 5QL","id":"a64j0ak64s0v","lat":51.375408},"type":"Feature","geometry":{"type":"Point","coordinates":[0.53124,51.375408]}},{"properties":{"size":12.5852022171,"lng":0.53756,"Postcode":"ME5 8RA","id":"a64j0aebm9b9","lat":51.337429},"type":"Feature","geometry":{"type":"Point","coordinates":[0.53756,51.337429]}},{"properties":{"size":13.2899138927,"lng":-0.77381,"Postcode":"MK137NR","id":"a64j0agooesf","lat":52.050041},"type":"Feature","geometry":{"type":"Point","coordinates":[-0.77381,52.050041]}},{"properties":{"size":6.84350347519,"lng":-0.75415,"Postcode":"MK4 1AJ","id":"a64j0a9wukyz","lat":52.011841},"type":"Feature","geometry":{"type":"Point","coordinates":[-0.75415,52.011841]}},{"properties":{"size":2.92956089973,"lng":-0.80368,"Postcode":"MK4 4TT","id":"a64j0aj8hhjf","lat":52.001881},"type":"Feature","geometry":{"type":"Point","coordinates":[-0.80368,52.001881]}},{"properties":{"size":13.1809101105,"lng":-0.45508,"Postcode":"MK40 3QS","id":"a64j0a6o97a9","lat":52.138062},"type":"Feature","geometry":{"type":"Point","coordinates":[-0.45508,52.138062]}},{"properties":{"size":2.33182764053,"lng":-0.42425,"Postcode":"MK45 4NZ","id":"a64j0ade7i3y","lat":51.966888},"type":"Feature","geometry":{"type":"Point","coordinates":[-0.42425,51.966888]}},{"properties":{"size":8.7741587162,"lng":-0.4221,"Postcode":"MK45 4PH","id":"a64j0abud3lk","lat":51.96801},"type":"Feature","geometry":{"type":"Point","coordinates":[-0.4221,51.96801]}},{"properties":{"size":3.71840572357,"lng":-0.77691,"Postcode":"MK5 7BJ","id":"a64j0achr33h","lat":52.021301},"type":"Feature","geometry":{"type":"Point","coordinates":[-0.77691,52.021301]}},{"properties":{"size":9.82194399834,"lng":-0.80167,"Postcode":"MK8 0AR","id":"a64j0ah44dy0","lat":52.025799},"type":"Feature","geometry":{"type":"Point","coordinates":[-0.80167,52.025799]}},{"properties":{"size":17.4524912834,"lng":-4.05055,"Postcode":"ML10 6PB","id":"a64j0ag16zw1","lat":55.666821},"type":"Feature","geometry":{"type":"Point","coordinates":[-4.05055,55.666821]}},{"properties":{"size":2.35320663452,"lng":-3.77583,"Postcode":"ML11 9AH","id":"a64j0aecvkhc","lat":55.670151},"type":"Feature","geometry":{"type":"Point","coordinates":[-3.77583,55.670151]}},{"properties":{"size":17.594299078,"lng":-3.51807,"Postcode":"ML12 6AN","id":"a64j0aaxfq5r","lat":55.625648},"type":"Feature","geometry":{"type":"Point","coordinates":[-3.51807,55.625648]}},{"properties":{"size":8.10515260696,"lng":-3.85159,"Postcode":"ML8 5DH","id":"a64j0a6zi7ow","lat":55.732868},"type":"Feature","geometry":{"type":"Point","coordinates":[-3.85159,55.732868]}},{"properties":{"size":11.6201994419,"lng":-3.83822,"Postcode":"ML8 5PB","id":"a64j0adcypkm","lat":55.712029},"type":"Feature","geometry":{"type":"Point","coordinates":[-3.83822,55.712029]}},{"properties":{"size":4.68223667145,"lng":-0.1042,"Postcode":"N1 0QY","id":"a64j0afzb0a3","lat":51.53746},"type":"Feature","geometry":{"type":"Point","coordinates":[-0.1042,51.53746]}},{"properties":{"size":8.42459177971,"lng":-0.10297,"Postcode":"N1 2UR","id":"a64j0a8l5wp8","lat":51.54287},"type":"Feature","geometry":{"type":"Point","coordinates":[-0.10297,51.54287]}},{"properties":{"size":7.1621260643,"lng":-0.08591,"Postcode":"N1 6BL","id":"a64j0afespqv","lat":51.529449},"type":"Feature","geometry":{"type":"Point","coordinates":[-0.08591,51.529449]}},{"properties":{"size":4.8057243824,"lng":-0.08391,"Postcode":"N1 6HT","id":"a64j0ahlo0v7","lat":51.52747},"type":"Feature","geometry":{"type":"Point","coordinates":[-0.08391,51.52747]}},{"properties":{"size":19.0563259125,"lng":-0.09465,"Postcode":"N1 7SX","id":"a64j0a7ij5qx","lat":51.533089},"type":"Feature","geometry":{"type":"Point","coordinates":[-0.09465,51.533089]}},{"properties":{"size":8.51033186913,"lng":-0.11827,"Postcode":"N1 9RL","id":"a64j0ahlst1n","lat":51.53471},"type":"Feature","geometry":{"type":"Point","coordinates":[-0.11827,51.53471]}},{"properties":{"size":2.28088235855,"lng":-0.15564,"Postcode":"N10 1JJ","id":"a64j0a6hvpy7","lat":51.600201},"type":"Feature","geometry":{"type":"Point","coordinates":[-0.15564,51.600201]}},{"properties":{"size":18.3215258121,"lng":-0.14704,"Postcode":"N10 1LP","id":"a64j0ak3dkbx","lat":51.59861},"type":"Feature","geometry":{"type":"Point","coordinates":[-0.14704,51.59861]}},{"properties":{"size":6.89271068573,"lng":-0.14705,"Postcode":"N10 3HT","id":"a64j0aeh56h0","lat":51.587978},"type":"Feature","geometry":{"type":"Point","coordinates":[-0.14705,51.587978]}},{"properties":{"size":4.84981036186,"lng":-0.12932,"Postcode":"N14 5AD","id":"a64j0ab6vlfw","lat":51.631142},"type":"Feature","geometry":{"type":"Point","coordinates":[-0.12932,51.631142]}},{"properties":{"size":18.7165484428,"lng":-0.08197,"Postcode":"N15 5DX","id":"a64j0aisyxz2","lat":51.58395},"type":"Feature","geometry":{"type":"Point","coordinates":[-0.08197,51.58395]}},{"properties":{"size":17.6522228718,"lng":-0.08729,"Postcode":"N16 0HL","id":"a64j0abj7fjd","lat":51.564468},"type":"Feature","geometry":{"type":"Point","coordinates":[-0.08729,51.564468]}},{"properties":{"size":7.98753356934,"lng":-0.08441,"Postcode":"N16 0QE","id":"a64j0a6vmimz","lat":51.56356},"type":"Feature","geometry":{"type":"Point","coordinates":[-0.08441,51.56356]}},{"properties":{"size":9.30459952354,"lng":-0.07112,"Postcode":"N16 6PA","id":"a64j0a87565m","lat":51.564491},"type":"Feature","geometry":{"type":"Point","coordinates":[-0.07112,51.564491]}},{"properties":{"size":7.13440752029,"lng":-0.0692,"Postcode":"N16 7AA","id":"a64j0a65jel4","lat":51.56443},"type":"Feature","geometry":{"type":"Point","coordinates":[-0.0692,51.56443]}},{"properties":{"size":12.0519659519,"lng":-0.07036,"Postcode":"N16 7UF","id":"a64j0aaxgtvq","lat":51.55669},"type":"Feature","geometry":{"type":"Point","coordinates":[-0.07036,51.55669]}},{"properties":{"size":10.8283433914,"lng":-0.07206,"Postcode":"N16 7UU","id":"a64j0abpmbra","lat":51.555698},"type":"Feature","geometry":{"type":"Point","coordinates":[-0.07206,51.555698]}},{"properties":{"size":7.6620528698,"lng":-0.07545,"Postcode":"N16 8JY","id":"a64j0a4pihry","lat":51.549881},"type":"Feature","geometry":{"type":"Point","coordinates":[-0.07545,51.549881]}},{"properties":{"size":16.422399044,"lng":-0.08031,"Postcode":"N16 8SN","id":"a64j0aenq8cd","lat":51.556519},"type":"Feature","geometry":{"type":"Point","coordinates":[-0.08031,51.556519]}},{"properties":{"size":16.1069366932,"lng":-0.0837,"Postcode":"N16 9PA","id":"a64j0ad0jb1m","lat":51.556789},"type":"Feature","geometry":{"type":"Point","coordinates":[-0.0837,51.556789]}},{"properties":{"size":7.9065952301,"lng":-0.06965,"Postcode":"N17 8LY","id":"a64j0a78w8ts","lat":51.59967},"type":"Feature","geometry":{"type":"Point","coordinates":[-0.06965,51.59967]}},{"properties":{"size":13.6978051662,"lng":-0.12671,"Postcode":"N19 3SJ","id":"a64j0ad73q99","lat":51.57201},"type":"Feature","geometry":{"type":"Point","coordinates":[-0.12671,51.57201]}},{"properties":{"size":11.5036187172,"lng":-0.15524,"Postcode":"N20 0SA","id":"a64j0a9e8jty","lat":51.622478},"type":"Feature","geometry":{"type":"Point","coordinates":[-0.15524,51.622478]}},{"properties":{"size":16.2978479862,"lng":-0.09798,"Postcode":"N22 6RG","id":"a64j0aepxka2","lat":51.592579},"type":"Feature","geometry":{"type":"Point","coordinates":[-0.09798,51.592579]}},{"properties":{"size":16.0301504135,"lng":-0.19842,"Postcode":"N3 1RG","id":"a64j0aficm29","lat":51.60437},"type":"Feature","geometry":{"type":"Point","coordinates":[-0.19842,51.60437]}},{"properties":{"size":8.23827242851,"lng":-0.09292,"Postcode":"N4 1LS","id":"a64j0akn92hx","lat":51.5756},"type":"Feature","geometry":{"type":"Point","coordinates":[-0.09292,51.5756]}},{"properties":{"size":16.1488184929,"lng":-0.10132,"Postcode":"N4 2DZ","id":"a64j0aa81bz4","lat":51.560299},"type":"Feature","geometry":{"type":"Point","coordinates":[-0.10132,51.560299]}},{"properties":{"size":2.56244397163,"lng":-0.09251,"Postcode":"N4 2HA","id":"a64j0afyfxz9","lat":51.564621},"type":"Feature","geometry":{"type":"Point","coordinates":[-0.09251,51.564621]}},{"properties":{"size":4.85800004005,"lng":-0.10855,"Postcode":"N4 3JF","id":"a64j0a4gzs2x","lat":51.566761},"type":"Feature","geometry":{"type":"Point","coordinates":[-0.10855,51.566761]}},{"properties":{"size":1.63577651978,"lng":-0.11279,"Postcode":"N4 3QG","id":"a64j0a8erx2f","lat":51.572399},"type":"Feature","geometry":{"type":"Point","coordinates":[-0.11279,51.572399]}},{"properties":{"size":3.22315192223,"lng":-0.11072,"Postcode":"N4 3RU","id":"a64j0adlgf0z","lat":51.57159},"type":"Feature","geometry":{"type":"Point","coordinates":[-0.11072,51.57159]}},{"properties":{"size":11.101647377,"lng":-0.09843,"Postcode":"N5 1TH","id":"a64j0akjggvk","lat":51.554981},"type":"Feature","geometry":{"type":"Point","coordinates":[-0.09843,51.554981]}},{"properties":{"size":10.767922163,"lng":-0.09757,"Postcode":"N5 3JI","id":"a64j0a9xa722","lat":51.553692},"type":"Feature","geometry":{"type":"Point","coordinates":[-0.09757,51.553692]}},{"properties":{"size":15.3274474144,"lng":-0.13145,"Postcode":"N6 5NW","id":"a64j0actuir6","lat":51.573811},"type":"Feature","geometry":{"type":"Point","coordinates":[-0.13145,51.573811]}},{"properties":{"size":14.7238228321,"lng":-0.14622,"Postcode":"N6 5UE","id":"a64j0aik3jy3","lat":51.578819},"type":"Feature","geometry":{"type":"Point","coordinates":[-0.14622,51.578819]}},{"properties":{"size":6.05984306335,"lng":-0.12315,"Postcode":"N7 9EN","id":"a64j0a5neqx3","lat":51.55024},"type":"Feature","geometry":{"type":"Point","coordinates":[-0.12315,51.55024]}},{"properties":{"size":17.2263429165,"lng":-0.12965,"Postcode":"N8 8RP","id":"a64j0a9i92tp","lat":51.580551},"type":"Feature","geometry":{"type":"Point","coordinates":[-0.12965,51.580551]}},{"properties":{"size":6.95316171646,"lng":-1.59609,"Postcode":"NE2 2JL","id":"a64j0aijyra8","lat":54.988522},"type":"Feature","geometry":{"type":"Point","coordinates":[-1.59609,54.988522]}},{"properties":{"size":11.8437502384,"lng":-1.45065,"Postcode":"NE29 0NG","id":"a64j0abbskgf","lat":55.013088},"type":"Feature","geometry":{"type":"Point","coordinates":[-1.45065,55.013088]}},{"properties":{"size":3.70884990692,"lng":-1.44188,"Postcode":"NE30 2TL","id":"a64j0a7trldw","lat":55.024769},"type":"Feature","geometry":{"type":"Point","coordinates":[-1.44188,55.024769]}},{"properties":{"size":2.25295519829,"lng":-2.28062,"Postcode":"NE47 9LL","id":"a64j0a4en6k6","lat":54.922192},"type":"Feature","geometry":{"type":"Point","coordinates":[-2.28062,54.922192]}},{"properties":{"size":2.95242643356,"lng":-1.52005,"Postcode":"NE64 6HY","id":"a64j0aejanur","lat":55.18668},"type":"Feature","geometry":{"type":"Point","coordinates":[-1.52005,55.18668]}},{"properties":{"size":15.6086513996,"lng":-1.57816,"Postcode":"NE7 7XX","id":"a64j0akg69id","lat":55.008511},"type":"Feature","geometry":{"type":"Point","coordinates":[-1.57816,55.008511]}},{"properties":{"size":2.12606048584,"lng":-1.59314,"Postcode":"NE9 5YD","id":"a64j0acxfg9z","lat":54.93821},"type":"Feature","geometry":{"type":"Point","coordinates":[-1.59314,54.93821]}},{"properties":{"size":2.86558127403,"lng":-1.29272,"Postcode":"NG10 5LN","id":"a64j0airp16w","lat":52.918751},"type":"Feature","geometry":{"type":"Point","coordinates":[-1.29272,52.918751]}},{"properties":{"size":18.5217747688,"lng":-1.18575,"Postcode":"NG11 9JR","id":"a64j0ad1hbn1","lat":52.90163},"type":"Feature","geometry":{"type":"Point","coordinates":[-1.18575,52.90163]}},{"properties":{"size":1.67892670631,"lng":-1.03947,"Postcode":"NG12 2DH","id":"a64j0aibu2nk","lat":52.94376},"type":"Feature","geometry":{"type":"Point","coordinates":[-1.03947,52.94376]}},{"properties":{"size":10.5802736282,"lng":-1.10363,"Postcode":"NG12 4EE","id":"a64j0ab3i6t7","lat":52.901772},"type":"Feature","geometry":{"type":"Point","coordinates":[-1.10363,52.901772]}},{"properties":{"size":2.50782465935,"lng":-1.16749,"Postcode":"NG15 9FE","id":"a64j0aehlfr3","lat":53.08448},"type":"Feature","geometry":{"type":"Point","coordinates":[-1.16749,53.08448]}},{"properties":{"size":9.58039617538,"lng":-1.23634,"Postcode":"NG19 7RA","id":"a64j0aghhzy9","lat":53.166389},"type":"Feature","geometry":{"type":"Point","coordinates":[-1.23634,53.166389]}},{"properties":{"size":3.54700779915,"lng":-1.12463,"Postcode":"NG2 5JE","id":"a64j0afoe6wy","lat":52.93124},"type":"Feature","geometry":{"type":"Point","coordinates":[-1.12463,52.93124]}},{"properties":{"size":4.84419441223,"lng":-0.95571,"Postcode":"NG25 0AA","id":"a64j0a9si275","lat":53.078651},"type":"Feature","geometry":{"type":"Point","coordinates":[-0.95571,53.078651]}},{"properties":{"size":5.11157011986,"lng":-0.61723,"Postcode":"NG31 9ND","id":"a64j0a7vs9wz","lat":52.917889},"type":"Feature","geometry":{"type":"Point","coordinates":[-0.61723,52.917889]}},{"properties":{"size":10.5826363564,"lng":-1.23632,"Postcode":"NG9 5DA","id":"a64j0a91piqv","lat":52.91972},"type":"Feature","geometry":{"type":"Point","coordinates":[-1.23632,52.91972]}},{"properties":{"size":19.0998575687,"lng":-0.87977,"Postcode":"NN2 7JH","id":"a64j0aip9uo0","lat":52.251911},"type":"Feature","geometry":{"type":"Point","coordinates":[-0.87977,52.251911]}},{"properties":{"size":7.50693416595,"lng":-0.83911,"Postcode":"NN3 8YD","id":"a64j0adyl6xk","lat":52.273529},"type":"Feature","geometry":{"type":"Point","coordinates":[-0.83911,52.273529]}},{"properties":{"size":14.1594836712,"lng":-0.9186,"Postcode":"NN4 0QS","id":"a64j0ad5jp2i","lat":52.20842},"type":"Feature","geometry":{"type":"Point","coordinates":[-0.9186,52.20842]}},{"properties":{"size":17.3304972649,"lng":-0.92247,"Postcode":"NN5 5BZ","id":"a64j0ajcwsfw","lat":52.241428},"type":"Feature","geometry":{"type":"Point","coordinates":[-0.92247,52.241428]}},{"properties":{"size":2.18147015572,"lng":-0.94847,"Postcode":"NN56SP","id":"a64j0a6umxas","lat":52.25285},"type":"Feature","geometry":{"type":"Point","coordinates":[-0.94847,52.25285]}},{"properties":{"size":13.2865104675,"lng":-3.09621,"Postcode":"NP11 6QG","id":"a64j0a8j0gah","lat":51.609638},"type":"Feature","geometry":{"type":"Point","coordinates":[-3.09621,51.609638]}},{"properties":{"size":16.747512579,"lng":-2.94922,"Postcode":"NP18 2BZ","id":"a64j0ak0l6uo","lat":51.548481},"type":"Feature","geometry":{"type":"Point","coordinates":[-2.94922,51.548481]}},{"properties":{"size":14.786137104,"lng":-2.99679,"Postcode":"NP20 4EG","id":"a64j0a5ok1up","lat":51.58168},"type":"Feature","geometry":{"type":"Point","coordinates":[-2.99679,51.58168]}},{"properties":{"size":19.1553709507,"lng":-2.86765,"Postcode":"NP7 8EP","id":"a64j0a4aswpr","lat":51.91523},"type":"Feature","geometry":{"type":"Point","coordinates":[-2.86765,51.91523]}},{"properties":{"size":19.3423471451,"lng":1.41842,"Postcode":"NR13 5JE","id":"a64j0aie0mmi","lat":52.65847},"type":"Feature","geometry":{"type":"Point","coordinates":[1.41842,52.65847]}},{"properties":{"size":12.6473853588,"lng":1.33697,"Postcode":"NR14 7QR","id":"a64j0ajle1dq","lat":52.58012},"type":"Feature","geometry":{"type":"Point","coordinates":[1.33697,52.58012]}},{"properties":{"size":9.884370327,"lng":1.10083,"Postcode":"NR16 1RG","id":"a64j0ak2ctew","lat":52.496609},"type":"Feature","geometry":{"type":"Point","coordinates":[1.10083,52.496609]}},{"properties":{"size":10.4671165943,"lng":1.27198,"Postcode":"NR2 4HE","id":"a64j0adhfh8f","lat":52.63615},"type":"Feature","geometry":{"type":"Point","coordinates":[1.27198,52.63615]}},{"properties":{"size":8.36911177635,"lng":0.85879,"Postcode":"NR21 8ER","id":"a64j0aa30k2k","lat":52.837399},"type":"Feature","geometry":{"type":"Point","coordinates":[0.85879,52.837399]}},{"properties":{"size":9.34516763687,"lng":1.71242,"Postcode":"NR31 7HE","id":"a64j0ac19s82","lat":52.564121},"type":"Feature","geometry":{"type":"Point","coordinates":[1.71242,52.564121]}},{"properties":{"size":17.2067949772,"lng":1.75489,"Postcode":"NR32 4PE","id":"a64j0a4ty7ku","lat":52.491402},"type":"Feature","geometry":{"type":"Point","coordinates":[1.75489,52.491402]}},{"properties":{"size":10.0025281906,"lng":1.20244,"Postcode":"NR5 0TR","id":"a64j0aecssvp","lat":52.6464},"type":"Feature","geometry":{"type":"Point","coordinates":[1.20244,52.6464]}},{"properties":{"size":16.2234828472,"lng":1.21456,"Postcode":"NR5 9JJ","id":"a64j0aideaap","lat":52.643661},"type":"Feature","geometry":{"type":"Point","coordinates":[1.21456,52.643661]}},{"properties":{"size":2.48615598679,"lng":-0.1414,"Postcode":"NW1 7NU","id":"a64j0a6kfibi","lat":51.534481},"type":"Feature","geometry":{"type":"Point","coordinates":[-0.1414,51.534481]}},{"properties":{"size":12.6715252399,"lng":-0.15187,"Postcode":"NW1 8AP","id":"a64j0a78pi0j","lat":51.54377},"type":"Feature","geometry":{"type":"Point","coordinates":[-0.15187,51.54377]}},{"properties":{"size":3.94525146484,"lng":-0.15475,"Postcode":"NW1 8LN","id":"a64j0aj12g87","lat":51.540661},"type":"Feature","geometry":{"type":"Point","coordinates":[-0.15475,51.540661]}},{"properties":{"size":18.384570837,"lng":-0.15724,"Postcode":"NW1 8XL","id":"a64j0a6klfmh","lat":51.541069},"type":"Feature","geometry":{"type":"Point","coordinates":[-0.15724,51.541069]}},{"properties":{"size":9.03511857986,"lng":-0.2297,"Postcode":"NW10 3DB","id":"a64j0ack51us","lat":51.53619},"type":"Feature","geometry":{"type":"Point","coordinates":[-0.2297,51.53619]}},{"properties":{"size":18.9279577732,"lng":-0.25288,"Postcode":"NW10 6ED","id":"a64j0ahayabs","lat":51.5238},"type":"Feature","geometry":{"type":"Point","coordinates":[-0.25288,51.5238]}},{"properties":{"size":12.4659929276,"lng":-0.25972,"Postcode":"NW10 6HZ","id":"a64j0ai7mi8y","lat":51.52951},"type":"Feature","geometry":{"type":"Point","coordinates":[-0.25972,51.52951]}},{"properties":{"size":15.9522292614,"lng":-0.18268,"Postcode":"NW11 6JJ","id":"a64j0a9bmxx4","lat":51.585579},"type":"Feature","geometry":{"type":"Point","coordinates":[-0.18268,51.585579]}},{"properties":{"size":8.37477421761,"lng":-0.18268,"Postcode":"NW11 6JJ","id":"a64j0a8wgpum","lat":51.585579},"type":"Feature","geometry":{"type":"Point","coordinates":[-0.18268,51.585579]}},{"properties":{"size":11.9424948692,"lng":-0.20335,"Postcode":"NW11 8HH","id":"a64j0akbh7ug","lat":51.5737},"type":"Feature","geometry":{"type":"Point","coordinates":[-0.20335,51.5737]}},{"properties":{"size":14.6187076569,"lng":-0.22853,"Postcode":"NW2 5BE","id":"a64j0a7h8v2w","lat":51.549049},"type":"Feature","geometry":{"type":"Point","coordinates":[-0.22853,51.549049]}},{"properties":{"size":3.01459288597,"lng":-0.21936,"Postcode":"NW2 5RR","id":"a64j0af767xh","lat":51.546379},"type":"Feature","geometry":{"type":"Point","coordinates":[-0.21936,51.546379]}},{"properties":{"size":15.193880558,"lng":-0.1548,"Postcode":"NW3 2BU","id":"a64j0ad83sgp","lat":51.544369},"type":"Feature","geometry":{"type":"Point","coordinates":[-0.1548,51.544369]}},{"properties":{"size":10.3051874638,"lng":-0.17322,"Postcode":"NW3 3HX","id":"a64j0ai3i9xf","lat":51.54454},"type":"Feature","geometry":{"type":"Point","coordinates":[-0.17322,51.54454]}},{"properties":{"size":18.7737569809,"lng":-0.13412,"Postcode":"NW5 2RB","id":"a64j0ahcvryt","lat":51.55085},"type":"Feature","geometry":{"type":"Point","coordinates":[-0.13412,51.55085]}},{"properties":{"size":5.71057772636,"lng":-0.21215,"Postcode":"NW6 6SJ","id":"a64j0aihqrjr","lat":51.534271},"type":"Feature","geometry":{"type":"Point","coordinates":[-0.21215,51.534271]}},{"properties":{"size":6.62252759933,"lng":-0.19984,"Postcode":"NW6 7LL","id":"a64j0agy1png","lat":51.541901},"type":"Feature","geometry":{"type":"Point","coordinates":[-0.19984,51.541901]}},{"properties":{"size":2.4694416523,"lng":-2.17852,"Postcode":"OL11 5BQ","id":"a64j0a6kv9oj","lat":53.619968},"type":"Feature","geometry":{"type":"Point","coordinates":[-2.17852,53.619968]}},{"properties":{"size":7.93040847778,"lng":-2.12779,"Postcode":"OL8 4AD","id":"a64j0a98028n","lat":53.535141},"type":"Feature","geometry":{"type":"Point","coordinates":[-2.12779,53.535141]}},{"properties":{"size":6.2923810482,"lng":-1.42684,"Postcode":"OX12 0NL","id":"a64j0a7qmps1","lat":51.608398},"type":"Feature","geometry":{"type":"Point","coordinates":[-1.42684,51.608398]}},{"properties":{"size":5.72184419632,"lng":-1.28258,"Postcode":"OX14 1NY","id":"a64j0ajyctlm","lat":51.678879},"type":"Feature","geometry":{"type":"Point","coordinates":[-1.28258,51.678879]}},{"properties":{"size":7.63731217384,"lng":-1.24584,"Postcode":"OX14 3AN","id":"a64j0a6318uq","lat":51.687679},"type":"Feature","geometry":{"type":"Point","coordinates":[-1.24584,51.687679]}},{"properties":{"size":10.0293359756,"lng":-1.39029,"Postcode":"OX15 6BH","id":"a64j0ak4hr41","lat":52.091721},"type":"Feature","geometry":{"type":"Point","coordinates":[-1.39029,52.091721]}},{"properties":{"size":12.1879813671,"lng":-1.43072,"Postcode":"OX15 6JN","id":"a64j0a6t21ni","lat":52.073689},"type":"Feature","geometry":{"type":"Point","coordinates":[-1.43072,52.073689]}},{"properties":{"size":16.4578948021,"lng":-1.43072,"Postcode":"OX15 6JN","id":"a64j0a8g27c7","lat":52.073689},"type":"Feature","geometry":{"type":"Point","coordinates":[-1.43072,52.073689]}},{"properties":{"size":15.160605669,"lng":-1.43788,"Postcode":"OX15 6PD","id":"a64j0a48w0j2","lat":52.059921},"type":"Feature","geometry":{"type":"Point","coordinates":[-1.43788,52.059921]}},{"properties":{"size":13.2651195526,"lng":-1.27889,"Postcode":"OX2 0ET","id":"a64j0a8vanzi","lat":51.751209},"type":"Feature","geometry":{"type":"Point","coordinates":[-1.27889,51.751209]}},{"properties":{"size":10.0636384487,"lng":-1.25856,"Postcode":"OX2 6UD","id":"a64j0a4pb6gn","lat":51.771278},"type":"Feature","geometry":{"type":"Point","coordinates":[-1.25856,51.771278]}},{"properties":{"size":5.08190011978,"lng":-1.29107,"Postcode":"OX2 8PF","id":"a64j0aj95qs3","lat":51.78384},"type":"Feature","geometry":{"type":"Point","coordinates":[-1.29107,51.78384]}},{"properties":{"size":7.53566002846,"lng":-1.31603,"Postcode":"OX2 9BN","id":"a64j0a5jnoud","lat":51.747059},"type":"Feature","geometry":{"type":"Point","coordinates":[-1.31603,51.747059]}},{"properties":{"size":6.3987455368,"lng":-1.30894,"Postcode":"OX2 9JH","id":"a64j0a5msmdj","lat":51.740051},"type":"Feature","geometry":{"type":"Point","coordinates":[-1.30894,51.740051]}},{"properties":{"size":4.88639330864,"lng":-1.13946,"Postcode":"OX26 4XN","id":"a64j0a8y4auv","lat":51.9044},"type":"Feature","geometry":{"type":"Point","coordinates":[-1.13946,51.9044]}},{"properties":{"size":2.94273710251,"lng":-1.53436,"Postcode":"OX29 9QW","id":"a64j0ab2ov73","lat":51.837299},"type":"Feature","geometry":{"type":"Point","coordinates":[-1.53436,51.837299]}},{"properties":{"size":11.9658443928,"lng":-1.23947,"Postcode":"OX3 0PY","id":"a64j0ahz3y29","lat":51.776791},"type":"Feature","geometry":{"type":"Point","coordinates":[-1.23947,51.776791]}},{"properties":{"size":4.07010650635,"lng":-1.2399,"Postcode":"OX4 1EL","id":"a64j0ag7mzdf","lat":51.744179},"type":"Feature","geometry":{"type":"Point","coordinates":[-1.2399,51.744179]}},{"properties":{"size":3.98656821251,"lng":-1.21899,"Postcode":"OX4 3EG","id":"a64j0ajtfq6w","lat":51.736671},"type":"Feature","geometry":{"type":"Point","coordinates":[-1.21899,51.736671]}},{"properties":{"size":14.2994389534,"lng":-1.23317,"Postcode":"OX4 4DP","id":"a64j0aeousk5","lat":51.736252},"type":"Feature","geometry":{"type":"Point","coordinates":[-1.23317,51.736252]}},{"properties":{"size":16.9240591526,"lng":-1.53869,"Postcode":"OX7 5AS","id":"a64j0a5br5z1","lat":51.941761},"type":"Feature","geometry":{"type":"Point","coordinates":[-1.53869,51.941761]}},{"properties":{"size":17.1105012894,"lng":-4.44832,"Postcode":"PA1 2RD","id":"a64j0aiz2h1f","lat":55.840839},"type":"Feature","geometry":{"type":"Point","coordinates":[-4.44832,55.840839]}},{"properties":{"size":6.12026667595,"lng":-4.39332,"Postcode":"PA1 3NJ","id":"a64j0ab8q288","lat":55.845268},"type":"Feature","geometry":{"type":"Point","coordinates":[-4.39332,55.845268]}},{"properties":{"size":9.13369512558,"lng":-4.66759,"Postcode":"PA14 6RL","id":"a64j0aibc244","lat":55.932281},"type":"Feature","geometry":{"type":"Point","coordinates":[-4.66759,55.932281]}},{"properties":{"size":13.7152359486,"lng":-4.73737,"Postcode":"PA15 4SY","id":"a64j0aim1g6p","lat":55.942059},"type":"Feature","geometry":{"type":"Point","coordinates":[-4.73737,55.942059]}},{"properties":{"size":7.85513496399,"lng":-4.9261,"Postcode":"PA23 8DB","id":"a64j0akbilzg","lat":55.953621},"type":"Feature","geometry":{"type":"Point","coordinates":[-4.9261,55.953621]}},{"properties":{"size":15.5318734646,"lng":-5.58464,"Postcode":"PA28 6FB","id":"a64j0a4w7q5c","lat":55.428398},"type":"Feature","geometry":{"type":"Point","coordinates":[-5.58464,55.428398]}},{"properties":{"size":10.4556188583,"lng":-5.47702,"Postcode":"PA34 4RR","id":"a64j0ajdmrgn","lat":56.399349},"type":"Feature","geometry":{"type":"Point","coordinates":[-5.47702,56.399349]}},{"properties":{"size":3.03883767128,"lng":-5.46333,"Postcode":"PA34 4YE","id":"a64j0ahomux4","lat":56.405182},"type":"Feature","geometry":{"type":"Point","coordinates":[-5.46333,56.405182]}},{"properties":{"size":1.01655459404,"lng":-5.69686,"Postcode":"PA65 6AY","id":"a64j0afelvgl","lat":56.464409},"type":"Feature","geometry":{"type":"Point","coordinates":[-5.69686,56.464409]}},{"properties":{"size":9.64990949631,"lng":-5.75658,"Postcode":"PA65 6BD","id":"a64j0a8rxiv7","lat":56.409},"type":"Feature","geometry":{"type":"Point","coordinates":[-5.75658,56.409]}},{"properties":{"size":6.55135846138,"lng":-6.23741,"Postcode":"PA67 6DP","id":"a64j0a6yjedn","lat":56.314678},"type":"Feature","geometry":{"type":"Point","coordinates":[-6.23741,56.314678]}},{"properties":{"size":16.1924705505,"lng":-0.24227,"Postcode":"PE1 2TP","id":"a64j0aj2zjcx","lat":52.578369},"type":"Feature","geometry":{"type":"Point","coordinates":[-0.24227,52.578369]}},{"properties":{"size":19.9827573299,"lng":-0.24732,"Postcode":"PE196XF","id":"a64j0ae5ok0w","lat":52.197079},"type":"Feature","geometry":{"type":"Point","coordinates":[-0.24732,52.197079]}},{"properties":{"size":9.2210278511,"lng":-0.04342,"Postcode":"PE20 2BS","id":"a64j0aazyc8y","lat":52.881809},"type":"Feature","geometry":{"type":"Point","coordinates":[-0.04342,52.881809]}},{"properties":{"size":3.42882370949,"lng":-0.23488,"Postcode":"PE28 4RJ","id":"a64j0a6vls6m","lat":52.32259},"type":"Feature","geometry":{"type":"Point","coordinates":[-0.23488,52.32259]}},{"properties":{"size":3.78761386871,"lng":-0.251574,"Postcode":"PE29","id":"a64j0a4ihvs5","lat":52.560612},"type":"Feature","geometry":{"type":"Point","coordinates":[-0.251574,52.560612]}},{"properties":{"size":7.51471018791,"lng":-0.17392,"Postcode":"PE29 1RJ","id":"a64j0ak8v2gr","lat":52.348259},"type":"Feature","geometry":{"type":"Point","coordinates":[-0.17392,52.348259]}},{"properties":{"size":11.9292900562,"lng":0.50784,"Postcode":"PE33 9AQ","id":"a64j0ahk8bad","lat":52.59153},"type":"Feature","geometry":{"type":"Point","coordinates":[0.50784,52.59153]}},{"properties":{"size":14.716878891,"lng":-0.25262,"Postcode":"PE4 7YT","id":"a64j0a6910by","lat":52.60791},"type":"Feature","geometry":{"type":"Point","coordinates":[-0.25262,52.60791]}},{"properties":{"size":10.4349229336,"lng":-0.13446,"Postcode":"PE7 1LW","id":"a64j0a73j6w8","lat":52.55862},"type":"Feature","geometry":{"type":"Point","coordinates":[-0.13446,52.55862]}},{"properties":{"size":9.78835916519,"lng":-0.4907,"Postcode":"PE9 1BN","id":"a64j0a8znnf0","lat":52.660309},"type":"Feature","geometry":{"type":"Point","coordinates":[-0.4907,52.660309]}},{"properties":{"size":15.9553453922,"lng":-0.47606,"Postcode":"PE9 2BJ","id":"a64j0a51f9b2","lat":52.652649},"type":"Feature","geometry":{"type":"Point","coordinates":[-0.47606,52.652649]}},{"properties":{"size":13.5225019455,"lng":-3.44672,"Postcode":"PH1 2AS","id":"a64j0acqygoz","lat":56.401291},"type":"Feature","geometry":{"type":"Point","coordinates":[-3.44672,56.401291]}},{"properties":{"size":6.36668658257,"lng":-3.82996,"Postcode":"PH15 2JT","id":"a64j0a69tj7o","lat":56.640461},"type":"Feature","geometry":{"type":"Point","coordinates":[-3.82996,56.640461]}},{"properties":{"size":9.94716978073,"lng":-3.44535,"Postcode":"PH2 0EL","id":"a64j0a61og54","lat":56.386051},"type":"Feature","geometry":{"type":"Point","coordinates":[-3.44535,56.386051]}},{"properties":{"size":16.6166088581,"lng":-3.31594,"Postcode":"PH2 9GD","id":"a64j0abybljl","lat":56.334129},"type":"Feature","geometry":{"type":"Point","coordinates":[-3.31594,56.334129]}},{"properties":{"size":13.1256256104,"lng":-3.3399,"Postcode":"PH2 9PX","id":"a64j0aenqhjt","lat":56.30529},"type":"Feature","geometry":{"type":"Point","coordinates":[-3.3399,56.30529]}},{"properties":{"size":7.7965734005,"lng":-3.82661,"Postcode":"PH7 3RP","id":"a64j0ae5wcvi","lat":56.367561},"type":"Feature","geometry":{"type":"Point","coordinates":[-3.82661,56.367561]}},{"properties":{"size":9.93973588943,"lng":-3.7387,"Postcode":"PH73NH","id":"a64j0agh4j1i","lat":56.388569},"type":"Feature","geometry":{"type":"Point","coordinates":[-3.7387,56.388569]}},{"properties":{"size":8.7922308445,"lng":-3.58303,"Postcode":"PH8 0RQ","id":"a64j0aj49f2t","lat":56.56197},"type":"Feature","geometry":{"type":"Point","coordinates":[-3.58303,56.56197]}},{"properties":{"size":5.13879871368,"lng":-4.2054,"Postcode":"PL10 1EN","id":"a64j0a9kwija","lat":50.349468},"type":"Feature","geometry":{"type":"Point","coordinates":[-4.2054,50.349468]}},{"properties":{"size":11.136936903,"lng":-4.22941,"Postcode":"PL12 4DZ","id":"a64j0a4ny60u","lat":50.406818},"type":"Feature","geometry":{"type":"Point","coordinates":[-4.22941,50.406818]}},{"properties":{"size":6.77899694443,"lng":-4.22941,"Postcode":"PL124DZ","id":"a64j0a5rts97","lat":50.406818},"type":"Feature","geometry":{"type":"Point","coordinates":[-4.22941,50.406818]}},{"properties":{"size":2.69339299202,"lng":-4.14265,"Postcode":"PL19 9BD","id":"a64j0akgd2wk","lat":50.54187},"type":"Feature","geometry":{"type":"Point","coordinates":[-4.14265,50.54187]}},{"properties":{"size":15.1784763336,"lng":-4.79155,"Postcode":"PL25 5BL","id":"a64j0aagrp46","lat":50.336658},"type":"Feature","geometry":{"type":"Point","coordinates":[-4.79155,50.336658]}},{"properties":{"size":10.7884118557,"lng":-4.14473,"Postcode":"PL3 4LQ","id":"a64j0ajq6i35","lat":50.386139},"type":"Feature","geometry":{"type":"Point","coordinates":[-4.14473,50.386139]}},{"properties":{"size":3.51304864883,"lng":-4.03594,"Postcode":"PL7 1PQ","id":"a64j0ackgevn","lat":50.379559},"type":"Feature","geometry":{"type":"Point","coordinates":[-4.03594,50.379559]}},{"properties":{"size":10.4258081913,"lng":-1.07262,"Postcode":"PO1 5DY","id":"a64j0a7hjdfu","lat":50.800121},"type":"Feature","geometry":{"type":"Point","coordinates":[-1.07262,50.800121]}},{"properties":{"size":3.17751979828,"lng":-1.07027,"Postcode":"PO1 5NA","id":"a64j0agsq2t7","lat":50.805351},"type":"Feature","geometry":{"type":"Point","coordinates":[-1.07027,50.805351]}},{"properties":{"size":18.2024142742,"lng":-1.14338,"Postcode":"PO12 3NT","id":"a64j0adyn08r","lat":50.797729},"type":"Feature","geometry":{"type":"Point","coordinates":[-1.14338,50.797729]}},{"properties":{"size":12.0376429558,"lng":-1.19495,"Postcode":"PO14 1HY","id":"a64j0a59ejbi","lat":50.847019},"type":"Feature","geometry":{"type":"Point","coordinates":[-1.19495,50.847019]}},{"properties":{"size":17.552220583,"lng":-1.24992,"Postcode":"PO15 5EL","id":"a64j0aevha3s","lat":50.865662},"type":"Feature","geometry":{"type":"Point","coordinates":[-1.24992,50.865662]}},{"properties":{"size":8.69769668579,"lng":-1.07455,"Postcode":"PO2 0NH","id":"a64j0a4bmsgm","lat":50.816978},"type":"Feature","geometry":{"type":"Point","coordinates":[-1.07455,50.816978]}},{"properties":{"size":5.94364142418,"lng":-0.69327,"Postcode":"PO21 2RB","id":"a64j0a517ir7","lat":50.78038},"type":"Feature","geometry":{"type":"Point","coordinates":[-0.69327,50.78038]}},{"properties":{"size":19.6549055576,"lng":-1.14417,"Postcode":"PO36 0AX","id":"a64j0aj38glp","lat":50.683048},"type":"Feature","geometry":{"type":"Point","coordinates":[-1.14417,50.683048]}},{"properties":{"size":1.24218082428,"lng":-1.18186,"Postcode":"PO37 7NS","id":"a64j0a76vsfc","lat":50.628941},"type":"Feature","geometry":{"type":"Point","coordinates":[-1.18186,50.628941]}},{"properties":{"size":16.7525718212,"lng":-1.05488,"Postcode":"PO4","id":"a64j0a9qycs9","lat":50.791088},"type":"Feature","geometry":{"type":"Point","coordinates":[-1.05488,50.791088]}},{"properties":{"size":8.15474843979,"lng":-1.06877,"Postcode":"PO4 9EA","id":"a64j0a4ssvxg","lat":50.79187},"type":"Feature","geometry":{"type":"Point","coordinates":[-1.06877,50.79187]}},{"properties":{"size":3.89816975594,"lng":-1.07953,"Postcode":"PO5 1SL","id":"a64j0ak4b0jd","lat":50.793221},"type":"Feature","geometry":{"type":"Point","coordinates":[-1.07953,50.793221]}},{"properties":{"size":15.5680522919,"lng":-1.0242,"Postcode":"PO8 9UB","id":"a64j0afutwsl","lat":50.90321},"type":"Feature","geometry":{"type":"Point","coordinates":[-1.0242,50.90321]}},{"properties":{"size":17.6079652309,"lng":-2.71454,"Postcode":"PR1 8EJ","id":"a64j0ab4z2t7","lat":53.751961},"type":"Feature","geometry":{"type":"Point","coordinates":[-2.71454,53.751961]}},{"properties":{"size":19.0895447731,"lng":-2.72632,"Postcode":"PR2 2RY","id":"a64j0aet6nbh","lat":53.765739},"type":"Feature","geometry":{"type":"Point","coordinates":[-2.72632,53.765739]}},{"properties":{"size":15.5908510685,"lng":-2.86082,"Postcode":"PR4 2XH","id":"a64j0ab2dfuf","lat":53.780521},"type":"Feature","geometry":{"type":"Point","coordinates":[-2.86082,53.780521]}},{"properties":{"size":11.9987974167,"lng":-0.8604,"Postcode":"RG10 9JL","id":"a64j0a7svoob","lat":51.48045},"type":"Feature","geometry":{"type":"Point","coordinates":[-0.8604,51.48045]}},{"properties":{"size":18.789362669,"lng":-1.3053,"Postcode":"RG14 2LS","id":"a64j0aavrw8b","lat":51.4091},"type":"Feature","geometry":{"type":"Point","coordinates":[-1.3053,51.4091]}},{"properties":{"size":9.12445402145,"lng":-1.31677,"Postcode":"RG14 5RA","id":"a64j0a84k0va","lat":51.399269},"type":"Feature","geometry":{"type":"Point","coordinates":[-1.31677,51.399269]}},{"properties":{"size":1.73680877686,"lng":-1.07642,"Postcode":"RG21 4JF","id":"a64j0a96kiu2","lat":51.274689},"type":"Feature","geometry":{"type":"Point","coordinates":[-1.07642,51.274689]}},{"properties":{"size":17.939586401,"lng":-1.08255,"Postcode":"RG21 5RA","id":"a64j0afrhnan","lat":51.278061},"type":"Feature","geometry":{"type":"Point","coordinates":[-1.08255,51.278061]}},{"properties":{"size":9.74881863594,"lng":-1.10063,"Postcode":"RG21 8YP","id":"a64j0ac6sb5y","lat":51.256592},"type":"Feature","geometry":{"type":"Point","coordinates":[-1.10063,51.256592]}},{"properties":{"size":11.581009388,"lng":-1.00639,"Postcode":"RG30 2NQ","id":"a64j0a4ndvx1","lat":51.453331},"type":"Feature","geometry":{"type":"Point","coordinates":[-1.00639,51.453331]}},{"properties":{"size":7.65747284889,"lng":-0.96365,"Postcode":"RG48TD","id":"a64j0acyylat","lat":51.481171},"type":"Feature","geometry":{"type":"Point","coordinates":[-0.96365,51.481171]}},{"properties":{"size":17.1758852005,"lng":-0.91668,"Postcode":"RG5 3EN","id":"a64j0addf2ka","lat":51.45586},"type":"Feature","geometry":{"type":"Point","coordinates":[-0.91668,51.45586]}},{"properties":{"size":9.12723994255,"lng":-0.8872,"Postcode":"RG5 4DR","id":"a64j0ae8kksj","lat":51.446232},"type":"Feature","geometry":{"type":"Point","coordinates":[-0.8872,51.446232]}},{"properties":{"size":10.5034003258,"lng":-0.90088,"Postcode":"RG5 4NJ","id":"a64j0aia4yoa","lat":51.460949},"type":"Feature","geometry":{"type":"Point","coordinates":[-0.90088,51.460949]}},{"properties":{"size":18.434245348,"lng":-0.93422,"Postcode":"RG6 5SR","id":"a64j0a8c928d","lat":51.43322},"type":"Feature","geometry":{"type":"Point","coordinates":[-0.93422,51.43322]}},{"properties":{"size":7.21373176575,"lng":-0.1615,"Postcode":"RH1 4DE","id":"a64j0acp81oa","lat":51.2327},"type":"Feature","geometry":{"type":"Point","coordinates":[-0.1615,51.2327]}},{"properties":{"size":16.9092080593,"lng":-0.16631,"Postcode":"RH1 6EA","id":"a64j0a4bzb6b","lat":51.231499},"type":"Feature","geometry":{"type":"Point","coordinates":[-0.16631,51.231499]}},{"properties":{"size":18.470972538,"lng":-0.32966,"Postcode":"RH12 2BZ","id":"a64j0ad1xqzk","lat":51.072491},"type":"Feature","geometry":{"type":"Point","coordinates":[-0.32966,51.072491]}},{"properties":{"size":5.59109902382,"lng":-0.11309,"Postcode":"RH15 0TH","id":"a64j0a6gw497","lat":50.954231},"type":"Feature","geometry":{"type":"Point","coordinates":[-0.11309,50.954231]}},{"properties":{"size":17.5644598007,"lng":0.00566,"Postcode":"RH18 5JF","id":"a64j0ail9wgm","lat":51.075241},"type":"Feature","geometry":{"type":"Point","coordinates":[0.00566,51.075241]}},{"properties":{"size":15.3931567669,"lng":-0.02252,"Postcode":"RH19 1TQ","id":"a64j0a7v2kht","lat":51.125519},"type":"Feature","geometry":{"type":"Point","coordinates":[-0.02252,51.125519]}},{"properties":{"size":19.4107279778,"lng":-0.00217,"Postcode":"RH193GB","id":"a64j0aadcgoa","lat":51.133251},"type":"Feature","geometry":{"type":"Point","coordinates":[-0.00217,51.133251]}},{"properties":{"size":18.597028017,"lng":0.0137,"Postcode":"RH8 0JL","id":"a64j0ae5hp6y","lat":51.242561},"type":"Feature","geometry":{"type":"Point","coordinates":[0.0137,51.242561]}},{"properties":{"size":16.0710868835,"lng":0.1798,"Postcode":"RM1 1AP","id":"a64j0ac33h1i","lat":51.57777},"type":"Feature","geometry":{"type":"Point","coordinates":[0.1798,51.57777]}},{"properties":{"size":12.3000333309,"lng":0.18809,"Postcode":"RM1 3PB","id":"a64j0a9gkb82","lat":51.57711},"type":"Feature","geometry":{"type":"Point","coordinates":[0.18809,51.57711]}},{"properties":{"size":16.4098248482,"lng":0.1901,"Postcode":"RM1 3QA","id":"a64j0abt70m5","lat":51.577888},"type":"Feature","geometry":{"type":"Point","coordinates":[0.1901,51.577888]}},{"properties":{"size":9.44055771828,"lng":0.18462,"Postcode":"RM1 3SL","id":"a64j0adaq9ix","lat":51.57896},"type":"Feature","geometry":{"type":"Point","coordinates":[0.18462,51.57896]}},{"properties":{"size":3.01803684235,"lng":0.18245,"Postcode":"RM1 4GP","id":"a64j0ai131c8","lat":51.583019},"type":"Feature","geometry":{"type":"Point","coordinates":[0.18245,51.583019]}},{"properties":{"size":18.026566267,"lng":0.23332,"Postcode":"RM11 3JW","id":"a64j0afimugj","lat":51.569752},"type":"Feature","geometry":{"type":"Point","coordinates":[0.23332,51.569752]}},{"properties":{"size":4.52807760239,"lng":0.26734,"Postcode":"RM14 1SU","id":"a64j0ab4kmuu","lat":51.571129},"type":"Feature","geometry":{"type":"Point","coordinates":[0.26734,51.571129]}},{"properties":{"size":14.1922447681,"lng":0.37745,"Postcode":"RM18 8BA","id":"a64j0agfhs0s","lat":51.463139},"type":"Feature","geometry":{"type":"Point","coordinates":[0.37745,51.463139]}},{"properties":{"size":6.44363975525,"lng":0.16841,"Postcode":"RM5 3EL","id":"a64j0aj4870m","lat":51.592979},"type":"Feature","geometry":{"type":"Point","coordinates":[0.16841,51.592979]}},{"properties":{"size":19.7077653408,"lng":0.14987,"Postcode":"RM8 1LS","id":"a64j0agc6vpm","lat":51.564701},"type":"Feature","geometry":{"type":"Point","coordinates":[0.14987,51.564701]}},{"properties":{"size":8.61045694351,"lng":-1.51078,"Postcode":"S10 1TB","id":"a64j0a9hi15b","lat":53.384521},"type":"Feature","geometry":{"type":"Point","coordinates":[-1.51078,53.384521]}},{"properties":{"size":19.5671770573,"lng":-1.49732,"Postcode":"S10 2SD","id":"a64j0a9lgvwc","lat":53.377369},"type":"Feature","geometry":{"type":"Point","coordinates":[-1.49732,53.377369]}},{"properties":{"size":2.45263195038,"lng":-1.51134,"Postcode":"S11 7GZ","id":"a64j0ac17rom","lat":53.360149},"type":"Feature","geometry":{"type":"Point","coordinates":[-1.51134,53.360149]}},{"properties":{"size":6.09958982468,"lng":-1.5062,"Postcode":"S11 8PU","id":"a64j0a9dx9fo","lat":53.363579},"type":"Feature","geometry":{"type":"Point","coordinates":[-1.5062,53.363579]}},{"properties":{"size":14.4874737263,"lng":-1.50381,"Postcode":"S11 8RY","id":"a64j0aflsw44","lat":53.369339},"type":"Feature","geometry":{"type":"Point","coordinates":[-1.50381,53.369339]}},{"properties":{"size":2.54060721397,"lng":-1.4984,"Postcode":"S6 1JW","id":"a64j0aj7d8wa","lat":53.42292},"type":"Feature","geometry":{"type":"Point","coordinates":[-1.4984,53.42292]}},{"properties":{"size":14.848259449,"lng":-1.50035,"Postcode":"S6 2XB","id":"a64j0a6mfukt","lat":53.394459},"type":"Feature","geometry":{"type":"Point","coordinates":[-1.50035,53.394459]}},{"properties":{"size":6.64478516579,"lng":-1.49216,"Postcode":"S6 3PU","id":"a64j0adb7e74","lat":53.392948},"type":"Feature","geometry":{"type":"Point","coordinates":[-1.49216,53.392948]}},{"properties":{"size":18.2161757946,"lng":-1.59587,"Postcode":"S6 68LF","id":"a64j0adfvnnv","lat":53.411072},"type":"Feature","geometry":{"type":"Point","coordinates":[-1.59587,53.411072]}},{"properties":{"size":13.8467607498,"lng":-1.49683,"Postcode":"S62AX","id":"a64j0ab2r9cr","lat":53.406189},"type":"Feature","geometry":{"type":"Point","coordinates":[-1.49683,53.406189]}},{"properties":{"size":5.93190526962,"lng":-1.48511,"Postcode":"S7 1GY","id":"a64j0ac9vci0","lat":53.36058},"type":"Feature","geometry":{"type":"Point","coordinates":[-1.48511,53.36058]}},{"properties":{"size":4.06279301643,"lng":-1.46393,"Postcode":"S71 2LU","id":"a64j0ab4izpx","lat":53.56205},"type":"Feature","geometry":{"type":"Point","coordinates":[-1.46393,53.56205]}},{"properties":{"size":14.5859012604,"lng":-1.56878,"Postcode":"S75 4HN","id":"a64j0a952elg","lat":53.568062},"type":"Feature","geometry":{"type":"Point","coordinates":[-1.56878,53.568062]}},{"properties":{"size":2.01926207542,"lng":-1.5705,"Postcode":"S75 4HR","id":"a64j0a9rfot1","lat":53.56908},"type":"Feature","geometry":{"type":"Point","coordinates":[-1.5705,53.56908]}},{"properties":{"size":1.46112298965,"lng":-3.94016,"Postcode":"SA1 1DP","id":"a64j0a635449","lat":51.619469},"type":"Feature","geometry":{"type":"Point","coordinates":[-3.94016,51.619469]}},{"properties":{"size":1.65971016884,"lng":-3.64435,"Postcode":"SA11 5PT","id":"a64j0airfrjj","lat":51.732922},"type":"Feature","geometry":{"type":"Point","coordinates":[-3.64435,51.732922]}},{"properties":{"size":14.2414388657,"lng":-4.19538,"Postcode":"SA15 5DR","id":"a64j0aba1drz","lat":51.787922},"type":"Feature","geometry":{"type":"Point","coordinates":[-4.19538,51.787922]}},{"properties":{"size":10.7137820721,"lng":-3.79548,"Postcode":"SA20 0PT","id":"a64j0ak38p82","lat":51.994091},"type":"Feature","geometry":{"type":"Point","coordinates":[-3.79548,51.994091]}},{"properties":{"size":17.3941645622,"lng":-4.00531,"Postcode":"SA3 5LF","id":"a64j0ae5cp6b","lat":51.58773},"type":"Feature","geometry":{"type":"Point","coordinates":[-4.00531,51.58773]}},{"properties":{"size":12.8107807636,"lng":-4.35481,"Postcode":"SA44 5BD","id":"a64j0a4chr9u","lat":52.02354},"type":"Feature","geometry":{"type":"Point","coordinates":[-4.35481,52.02354]}},{"properties":{"size":8.9376411438,"lng":-4.36463,"Postcode":"SA44 6BE","id":"a64j0a5s48yd","lat":52.151539},"type":"Feature","geometry":{"type":"Point","coordinates":[-4.36463,52.151539]}},{"properties":{"size":7.17693305016,"lng":-4.80754,"Postcode":"SA66 7RH","id":"a64j0a9uteud","lat":51.920158},"type":"Feature","geometry":{"type":"Point","coordinates":[-4.80754,51.920158]}},{"properties":{"size":11.3494381905,"lng":-0.07837,"Postcode":"SE1 2LD","id":"a64j0ainy9ou","lat":51.50264},"type":"Feature","geometry":{"type":"Point","coordinates":[-0.07837,51.50264]}},{"properties":{"size":5.91078019142,"lng":-0.08887,"Postcode":"SE1 3YD","id":"a64j0adq2r73","lat":51.50172},"type":"Feature","geometry":{"type":"Point","coordinates":[-0.08887,51.50172]}},{"properties":{"size":9.74018192291,"lng":-0.09449,"Postcode":"SE1 4HU","id":"a64j0agw3vmt","lat":51.498779},"type":"Feature","geometry":{"type":"Point","coordinates":[-0.09449,51.498779]}},{"properties":{"size":9.46169352531,"lng":-0.10889,"Postcode":"SE11 4TU","id":"a64j0afndu79","lat":51.494919},"type":"Feature","geometry":{"type":"Point","coordinates":[-0.10889,51.494919]}},{"properties":{"size":15.4180083275,"lng":0.0094,"Postcode":"SE12 8QF","id":"a64j0a5vna4n","lat":51.45649},"type":"Feature","geometry":{"type":"Point","coordinates":[0.0094,51.45649]}},{"properties":{"size":5.93651509285,"lng":-0.00725,"Postcode":"SE13 6DR","id":"a64j0ak2b4rn","lat":51.455109},"type":"Feature","geometry":{"type":"Point","coordinates":[-0.00725,51.455109]}},{"properties":{"size":17.9686412811,"lng":-0.02357,"Postcode":"SE13 7UA","id":"a64j0aebi7ek","lat":51.463322},"type":"Feature","geometry":{"type":"Point","coordinates":[-0.02357,51.463322]}},{"properties":{"size":4.85932326317,"lng":-0.01701,"Postcode":"SE13 7UU","id":"a64j0acu18dv","lat":51.457291},"type":"Feature","geometry":{"type":"Point","coordinates":[-0.01701,51.457291]}},{"properties":{"size":13.9760956764,"lng":-0.04264,"Postcode":"SE14 5NT","id":"a64j0a5xvip0","lat":51.471661},"type":"Feature","geometry":{"type":"Point","coordinates":[-0.04264,51.471661]}},{"properties":{"size":13.9575741291,"lng":-0.05237,"Postcode":"SE15 2AS","id":"a64j0ab8jdvd","lat":51.467972},"type":"Feature","geometry":{"type":"Point","coordinates":[-0.05237,51.467972]}},{"properties":{"size":1.00932335854,"lng":-0.05858,"Postcode":"SE15 3XT","id":"a64j0aa26qx3","lat":51.466751},"type":"Feature","geometry":{"type":"Point","coordinates":[-0.05858,51.466751]}},{"properties":{"size":5.50900554657,"lng":-0.07458,"Postcode":"SE15 4EE","id":"a64j0aed06he","lat":51.463112},"type":"Feature","geometry":{"type":"Point","coordinates":[-0.07458,51.463112]}},{"properties":{"size":8.96186327934,"lng":-0.07008,"Postcode":"SE15 4HY","id":"a64j0aa7yny6","lat":51.463051},"type":"Feature","geometry":{"type":"Point","coordinates":[-0.07008,51.463051]}},{"properties":{"size":6.4975771904,"lng":-0.07233,"Postcode":"SE15 4LF","id":"a64j0abn5qar","lat":51.465321},"type":"Feature","geometry":{"type":"Point","coordinates":[-0.07233,51.465321]}},{"properties":{"size":9.72463583946,"lng":-0.04564,"Postcode":"SE16 6XE","id":"a64j0aiym8l5","lat":51.50029},"type":"Feature","geometry":{"type":"Point","coordinates":[-0.04564,51.50029]}},{"properties":{"size":15.3664860725,"lng":-0.0933,"Postcode":"SE17 1LU","id":"a64j0ailpyh6","lat":51.49044},"type":"Feature","geometry":{"type":"Point","coordinates":[-0.0933,51.49044]}},{"properties":{"size":18.8791677952,"lng":-0.09515,"Postcode":"SE17 1NQ","id":"a64j0ab7k66g","lat":51.491051},"type":"Feature","geometry":{"type":"Point","coordinates":[-0.09515,51.491051]}},{"properties":{"size":15.7764253616,"lng":-0.09339,"Postcode":"SE17 2PY","id":"a64j0a981g4h","lat":51.486221},"type":"Feature","geometry":{"type":"Point","coordinates":[-0.09339,51.486221]}},{"properties":{"size":16.5287444592,"lng":0.09945,"Postcode":"SE18 1HU","id":"a64j0ajn9pyx","lat":51.48785},"type":"Feature","geometry":{"type":"Point","coordinates":[0.09945,51.48785]}},{"properties":{"size":18.689511776,"lng":-0.08035,"Postcode":"SE191SP","id":"a64j0ajwyvhx","lat":51.42535},"type":"Feature","geometry":{"type":"Point","coordinates":[-0.08035,51.42535]}},{"properties":{"size":2.70403599739,"lng":-0.08977,"Postcode":"SE21 8ER","id":"a64j0ajcm79r","lat":51.437611},"type":"Feature","geometry":{"type":"Point","coordinates":[-0.08977,51.437611]}},{"properties":{"size":7.9199848175,"lng":-0.07334,"Postcode":"SE22 9HL","id":"a64j0akjbyp9","lat":51.459042},"type":"Feature","geometry":{"type":"Point","coordinates":[-0.07334,51.459042]}},{"properties":{"size":14.243573904,"lng":-0.10482,"Postcode":"SE24 9AQ","id":"a64j0aa6gcgr","lat":51.443871},"type":"Feature","geometry":{"type":"Point","coordinates":[-0.10482,51.443871]}},{"properties":{"size":8.10850000381,"lng":-0.07031,"Postcode":"SE25 4LW","id":"a64j0aek3puu","lat":51.39761},"type":"Feature","geometry":{"type":"Point","coordinates":[-0.07031,51.39761]}},{"properties":{"size":11.7566416264,"lng":-0.08733,"Postcode":"SE25 6DW","id":"a64j0ae861r2","lat":51.407711},"type":"Feature","geometry":{"type":"Point","coordinates":[-0.08733,51.407711]}},{"properties":{"size":13.8334569931,"lng":-0.04342,"Postcode":"SE26 4HJ","id":"a64j0a5mphdu","lat":51.428989},"type":"Feature","geometry":{"type":"Point","coordinates":[-0.04342,51.428989]}},{"properties":{"size":2.28929018974,"lng":-0.10676,"Postcode":"SE27 0LD","id":"a64j0a4z399j","lat":51.426769},"type":"Feature","geometry":{"type":"Point","coordinates":[-0.10676,51.426769]}},{"properties":{"size":11.6129527092,"lng":-0.10042,"Postcode":"SE27 9HN","id":"a64j0a9wamme","lat":51.436611},"type":"Feature","geometry":{"type":"Point","coordinates":[-0.10042,51.436611]}},{"properties":{"size":3.31847882271,"lng":0.01867,"Postcode":"SE3 7SQ","id":"a64j0a8n1i2h","lat":51.481331},"type":"Feature","geometry":{"type":"Point","coordinates":[0.01867,51.481331]}},{"properties":{"size":17.9223594666,"lng":-0.03415,"Postcode":"SE4 1UG","id":"a64j0aaq9xcg","lat":51.46471},"type":"Feature","geometry":{"type":"Point","coordinates":[-0.03415,51.46471]}},{"properties":{"size":18.6993405819,"lng":-0.03622,"Postcode":"SE42AG","id":"a64j0aa0e6b2","lat":51.45602},"type":"Feature","geometry":{"type":"Point","coordinates":[-0.03622,51.45602]}},{"properties":{"size":1.35252809525,"lng":-0.04079,"Postcode":"SE42JE","id":"a64j0aeij421","lat":51.463829},"type":"Feature","geometry":{"type":"Point","coordinates":[-0.04079,51.463829]}},{"properties":{"size":2.19057297707,"lng":-0.09609,"Postcode":"SE5 0NP","id":"a64j0akgsudl","lat":51.482979},"type":"Feature","geometry":{"type":"Point","coordinates":[-0.09609,51.482979]}},{"properties":{"size":2.03361606598,"lng":-0.08071,"Postcode":"SE5 8NJ","id":"a64j0aa87d2w","lat":51.471512},"type":"Feature","geometry":{"type":"Point","coordinates":[-0.08071,51.471512]}},{"properties":{"size":9.18295359612,"lng":-0.08332,"Postcode":"SE5 8NY","id":"a64j0a9jwzmu","lat":51.472099},"type":"Feature","geometry":{"type":"Point","coordinates":[-0.08332,51.472099]}},{"properties":{"size":6.44954061508,"lng":0.04457,"Postcode":"SE7 8EQ","id":"a64j0ab3mixv","lat":51.48772},"type":"Feature","geometry":{"type":"Point","coordinates":[0.04457,51.48772]}},{"properties":{"size":2.25598073006,"lng":-0.30048,"Postcode":"SG17 5HW","id":"a64j0a814edf","lat":52.03603},"type":"Feature","geometry":{"type":"Point","coordinates":[-0.30048,52.03603]}},{"properties":{"size":1.18763899803,"lng":-0.29951,"Postcode":"SG4 8PZ","id":"a64j0ab8e4ow","lat":51.851551},"type":"Feature","geometry":{"type":"Point","coordinates":[-0.29951,51.851551]}},{"properties":{"size":10.8114609718,"lng":-0.23816,"Postcode":"SG6 3ZN","id":"a64j0a78zjlh","lat":51.9706},"type":"Feature","geometry":{"type":"Point","coordinates":[-0.23816,51.9706]}},{"properties":{"size":13.0422899723,"lng":-1.95452,"Postcode":"SK138DL","id":"a64j0ahm2joc","lat":53.44175},"type":"Feature","geometry":{"type":"Point","coordinates":[-1.95452,53.44175]}},{"properties":{"size":1.79291820526,"lng":-2.01264,"Postcode":"SK14 6JA","id":"a64j0aisbdsm","lat":53.45364},"type":"Feature","geometry":{"type":"Point","coordinates":[-2.01264,53.45364]}},{"properties":{"size":2.96168780327,"lng":-1.92526,"Postcode":"SK17 9AN","id":"a64j0aeyh2st","lat":53.255829},"type":"Feature","geometry":{"type":"Point","coordinates":[-1.92526,53.255829]}},{"properties":{"size":15.9434161186,"lng":-1.96669,"Postcode":"SK22 1BX","id":"a64j0a6niame","lat":53.377861},"type":"Feature","geometry":{"type":"Point","coordinates":[-1.96669,53.377861]}},{"properties":{"size":11.2841198444,"lng":-2.17727,"Postcode":"SK3 9PQ","id":"a64j0akf25hm","lat":53.404228},"type":"Feature","geometry":{"type":"Point","coordinates":[-2.17727,53.404228]}},{"properties":{"size":11.1543426514,"lng":-2.16635,"Postcode":"SK4 1NG","id":"a64j0aikpzm8","lat":53.418961},"type":"Feature","geometry":{"type":"Point","coordinates":[-2.16635,53.418961]}},{"properties":{"size":7.61667227745,"lng":-2.18832,"Postcode":"SK4 4JA","id":"a64j0a921ue3","lat":53.417679},"type":"Feature","geometry":{"type":"Point","coordinates":[-2.18832,53.417679]}},{"properties":{"size":8.76068925858,"lng":-0.78628,"Postcode":"SL6 3QR","id":"a64j0a9j63kk","lat":51.516121},"type":"Feature","geometry":{"type":"Point","coordinates":[-0.78628,51.516121]}},{"properties":{"size":17.4856207371,"lng":-0.75602,"Postcode":"SL6 3UR","id":"a64j0ajxkxg9","lat":51.505779},"type":"Feature","geometry":{"type":"Point","coordinates":[-0.75602,51.505779]}},{"properties":{"size":3.58987903595,"lng":-0.75327,"Postcode":"SL6 5AR","id":"a64j0acz8llf","lat":51.520939},"type":"Feature","geometry":{"type":"Point","coordinates":[-0.75327,51.520939]}},{"properties":{"size":2.1899459362,"lng":-0.21049,"Postcode":"SM1 2DR","id":"a64j0a9qe7sh","lat":51.360809},"type":"Feature","geometry":{"type":"Point","coordinates":[-0.21049,51.360809]}},{"properties":{"size":14.4012198448,"lng":-0.1925,"Postcode":"SM1 4DX","id":"a64j0a6qpqad","lat":51.369881},"type":"Feature","geometry":{"type":"Point","coordinates":[-0.1925,51.369881]}},{"properties":{"size":17.4829742908,"lng":-0.19874,"Postcode":"SM2 6RG","id":"a64j0a5p6hsb","lat":51.35368},"type":"Feature","geometry":{"type":"Point","coordinates":[-0.19874,51.35368]}},{"properties":{"size":17.8409824371,"lng":-0.20904,"Postcode":"SM4 4AZ","id":"a64j0a5gopht","lat":51.397678},"type":"Feature","geometry":{"type":"Point","coordinates":[-0.20904,51.397678]}},{"properties":{"size":1.70714354515,"lng":-0.14362,"Postcode":"SM6 8EP","id":"a64j0ahkc46c","lat":51.36533},"type":"Feature","geometry":{"type":"Point","coordinates":[-0.14362,51.36533]}},{"properties":{"size":14.0381035805,"lng":-0.14014,"Postcode":"SM6 9QZ","id":"a64j0a9injnt","lat":51.35537},"type":"Feature","geometry":{"type":"Point","coordinates":[-0.14014,51.35537]}},{"properties":{"size":9.00689339638,"lng":-1.78333,"Postcode":"SN1 4EX","id":"a64j0a7tuhui","lat":51.549358},"type":"Feature","geometry":{"type":"Point","coordinates":[-1.78333,51.549358]}},{"properties":{"size":16.965514183,"lng":-1.89957,"Postcode":"SN10 3PA","id":"a64j0abz3lia","lat":51.355659},"type":"Feature","geometry":{"type":"Point","coordinates":[-1.89957,51.355659]}},{"properties":{"size":8.24468111992,"lng":-1.98796,"Postcode":"SN10 4EB","id":"a64j0a9iysri","lat":51.285179},"type":"Feature","geometry":{"type":"Point","coordinates":[-1.98796,51.285179]}},{"properties":{"size":7.69209241867,"lng":-2.21004,"Postcode":"SN16 0LS","id":"a64j0a91589b","lat":51.57494},"type":"Feature","geometry":{"type":"Point","coordinates":[-2.21004,51.57494]}},{"properties":{"size":13.2451221943,"lng":-1.6208,"Postcode":"SN6 8LS","id":"a64j0a5mhd7m","lat":51.564209},"type":"Feature","geometry":{"type":"Point","coordinates":[-1.6208,51.564209]}},{"properties":{"size":13.6502418518,"lng":-1.44269,"Postcode":"SO16 4DJ","id":"a64j0aiiwywv","lat":50.92239},"type":"Feature","geometry":{"type":"Point","coordinates":[-1.44269,50.92239]}},{"properties":{"size":14.9922559261,"lng":-1.38693,"Postcode":"SO17 3AB","id":"a64j0airh3tn","lat":50.931271},"type":"Feature","geometry":{"type":"Point","coordinates":[-1.38693,50.931271]}},{"properties":{"size":2.04409456253,"lng":-1.35937,"Postcode":"SO18 2QX","id":"a64j0ajmdy6h","lat":50.928341},"type":"Feature","geometry":{"type":"Point","coordinates":[-1.35937,50.928341]}},{"properties":{"size":11.4049360752,"lng":-1.35919,"Postcode":"SO22 0QD","id":"a64j0a9ucgjk","lat":51.06794},"type":"Feature","geometry":{"type":"Point","coordinates":[-1.35919,51.06794]}},{"properties":{"size":15.3153464794,"lng":-1.30076,"Postcode":"SO23 0QD","id":"a64j0aetr8y9","lat":51.057491},"type":"Feature","geometry":{"type":"Point","coordinates":[-1.30076,51.057491]}},{"properties":{"size":3.24767446518,"lng":-1.31622,"Postcode":"SO23 7AE","id":"a64j0a886ags","lat":51.072201},"type":"Feature","geometry":{"type":"Point","coordinates":[-1.31622,51.072201]}},{"properties":{"size":6.27564167976,"lng":-1.31606,"Postcode":"SO23 9JU","id":"a64j0a85h66o","lat":51.058681},"type":"Feature","geometry":{"type":"Point","coordinates":[-1.31606,51.058681]}},{"properties":{"size":5.46688652039,"lng":-1.28622,"Postcode":"SO31 9BX","id":"a64j0a4aluxo","lat":50.854599},"type":"Feature","geometry":{"type":"Point","coordinates":[-1.28622,50.854599]}},{"properties":{"size":16.8177125454,"lng":-1.31748,"Postcode":"SO50 8HF","id":"a64j0aajtd30","lat":50.965778},"type":"Feature","geometry":{"type":"Point","coordinates":[-1.31748,50.965778]}},{"properties":{"size":14.7415528297,"lng":-1.58615,"Postcode":"SO51 0JP","id":"a64j0a6mlbua","lat":51.035889},"type":"Feature","geometry":{"type":"Point","coordinates":[-1.58615,51.035889]}},{"properties":{"size":8.79107689857,"lng":-1.38807,"Postcode":"SO53 1GW","id":"a64j0acxsyde","lat":50.99173},"type":"Feature","geometry":{"type":"Point","coordinates":[-1.38807,50.99173]}},{"properties":{"size":11.9293699265,"lng":-1.69827,"Postcode":"SP5 1SJ","id":"a64j0a7uqn2c","lat":51.098389},"type":"Feature","geometry":{"type":"Point","coordinates":[-1.69827,51.098389]}},{"properties":{"size":9.59211087227,"lng":-1.41221,"Postcode":"SR3 1JF","id":"a64j0ah4jaml","lat":54.874378},"type":"Feature","geometry":{"type":"Point","coordinates":[-1.41221,54.874378]}},{"properties":{"size":4.23818206787,"lng":-1.40647,"Postcode":"SR4 7NN","id":"a64j0a9o4dpw","lat":54.89719},"type":"Feature","geometry":{"type":"Point","coordinates":[-1.40647,54.89719]}},{"properties":{"size":4.34171652794,"lng":0.5295,"Postcode":"SS11 7JE","id":"a64j0aiuzjn7","lat":51.623169},"type":"Feature","geometry":{"type":"Point","coordinates":[0.5295,51.623169]}},{"properties":{"size":10.6558690071,"lng":0.73279,"Postcode":"SS2 4NT","id":"a64j0a649q7r","lat":51.541458},"type":"Feature","geometry":{"type":"Point","coordinates":[0.73279,51.541458]}},{"properties":{"size":15.5891439915,"lng":0.69749,"Postcode":"SS2 6NX","id":"a64j0a88ygp0","lat":51.555981},"type":"Feature","geometry":{"type":"Point","coordinates":[0.69749,51.555981]}},{"properties":{"size":17.9121217728,"lng":-2.02858,"Postcode":"ST13 5NT","id":"a64j0ajbv037","lat":53.10323},"type":"Feature","geometry":{"type":"Point","coordinates":[-2.02858,53.10323]}},{"properties":{"size":13.3247802258,"lng":-1.86983,"Postcode":"ST14 7AX","id":"a64j0ahzryro","lat":52.90897},"type":"Feature","geometry":{"type":"Point","coordinates":[-1.86983,52.90897]}},{"properties":{"size":18.6920294762,"lng":-2.12321,"Postcode":"ST16 2FB","id":"a64j0ag4ojix","lat":52.810162},"type":"Feature","geometry":{"type":"Point","coordinates":[-2.12321,52.810162]}},{"properties":{"size":11.5246078968,"lng":-2.13059,"Postcode":"ST2 OAP","id":"a64j0aaaqlge","lat":53.032162},"type":"Feature","geometry":{"type":"Point","coordinates":[-2.13059,53.032162]}},{"properties":{"size":14.9738941193,"lng":-0.16241,"Postcode":"SW11 1DJ","id":"a64j0a7s3a7b","lat":51.463531},"type":"Feature","geometry":{"type":"Point","coordinates":[-0.16241,51.463531]}},{"properties":{"size":12.5349709988,"lng":-0.17145,"Postcode":"SW11 1HT","id":"a64j0a7yx99q","lat":51.458542},"type":"Feature","geometry":{"type":"Point","coordinates":[-0.17145,51.458542]}},{"properties":{"size":14.8749337196,"lng":-0.167,"Postcode":"SW11 3AD","id":"a64j0a6ql7zh","lat":51.474159},"type":"Feature","geometry":{"type":"Point","coordinates":[-0.167,51.474159]}},{"properties":{"size":6.5354654789,"lng":-0.15717,"Postcode":"SW11 6AQ","id":"a64j0abw8zh1","lat":51.453281},"type":"Feature","geometry":{"type":"Point","coordinates":[-0.15717,51.453281]}},{"properties":{"size":4.26261043549,"lng":-0.15098,"Postcode":"SW12 8AE","id":"a64j0af67wdo","lat":51.450802},"type":"Feature","geometry":{"type":"Point","coordinates":[-0.15098,51.450802]}},{"properties":{"size":6.70495486259,"lng":-0.14765,"Postcode":"SW12 9DN","id":"a64j0adpp30k","lat":51.449249},"type":"Feature","geometry":{"type":"Point","coordinates":[-0.14765,51.449249]}},{"properties":{"size":5.71571087837,"lng":-0.21957,"Postcode":"SW15 1DH","id":"a64j0ah2s40e","lat":51.4673},"type":"Feature","geometry":{"type":"Point","coordinates":[-0.21957,51.4673]}},{"properties":{"size":11.2565836906,"lng":-0.26254,"Postcode":"SW15 3RQ","id":"a64j0acezeaj","lat":51.432209},"type":"Feature","geometry":{"type":"Point","coordinates":[-0.26254,51.432209]}},{"properties":{"size":6.74628829956,"lng":-0.12418,"Postcode":"SW16 2DF","id":"a64j0ad986lg","lat":51.427891},"type":"Feature","geometry":{"type":"Point","coordinates":[-0.12418,51.427891]}},{"properties":{"size":4.18067908287,"lng":-0.13852,"Postcode":"SW16 5HF","id":"a64j0a71f4ba","lat":51.40995},"type":"Feature","geometry":{"type":"Point","coordinates":[-0.13852,51.40995]}},{"properties":{"size":9.04913759232,"lng":-0.13709,"Postcode":"SW16 5SF","id":"a64j0a966np3","lat":51.417149},"type":"Feature","geometry":{"type":"Point","coordinates":[-0.13709,51.417149]}},{"properties":{"size":6.67886948586,"lng":-0.13165,"Postcode":"SW16 6EA","id":"a64j0ahn5ba8","lat":51.42791},"type":"Feature","geometry":{"type":"Point","coordinates":[-0.13165,51.42791]}},{"properties":{"size":5.83435153961,"lng":-0.14773,"Postcode":"SW16 6SP","id":"a64j0aa18sj6","lat":51.423649},"type":"Feature","geometry":{"type":"Point","coordinates":[-0.14773,51.423649]}},{"properties":{"size":5.98387217522,"lng":-0.18274,"Postcode":"SW18 3TD","id":"a64j0aiuwxf2","lat":51.43811},"type":"Feature","geometry":{"type":"Point","coordinates":[-0.18274,51.43811]}},{"properties":{"size":11.4374098778,"lng":-0.18761,"Postcode":"SW18 4HR","id":"a64j0ag0lxqr","lat":51.44075},"type":"Feature","geometry":{"type":"Point","coordinates":[-0.18761,51.44075]}},{"properties":{"size":1.12049794197,"lng":-0.19979,"Postcode":"SW18 5HN","id":"a64j0a7g69bh","lat":51.451061},"type":"Feature","geometry":{"type":"Point","coordinates":[-0.19979,51.451061]}},{"properties":{"size":2.69013023376,"lng":-0.17001,"Postcode":"SW19 2HB","id":"a64j0absnl22","lat":51.418499},"type":"Feature","geometry":{"type":"Point","coordinates":[-0.17001,51.418499]}},{"properties":{"size":19.8745439053,"lng":-0.20282,"Postcode":"SW19 3PD","id":"a64j0aapnpvj","lat":51.412109},"type":"Feature","geometry":{"type":"Point","coordinates":[-0.20282,51.412109]}},{"properties":{"size":1.39137125015,"lng":-0.20536,"Postcode":"SW19 3SW","id":"a64j0agm20ai","lat":51.419479},"type":"Feature","geometry":{"type":"Point","coordinates":[-0.20536,51.419479]}},{"properties":{"size":1.38068413734,"lng":-0.21791,"Postcode":"SW19 4JE","id":"a64j0a6xtfea","lat":51.414162},"type":"Feature","geometry":{"type":"Point","coordinates":[-0.21791,51.414162]}},{"properties":{"size":16.5433607101,"lng":-0.22114,"Postcode":"SW19 6EZ","id":"a64j0a4gvqxr","lat":51.440361},"type":"Feature","geometry":{"type":"Point","coordinates":[-0.22114,51.440361]}},{"properties":{"size":19.4134852886,"lng":-0.14139,"Postcode":"SW1V 1AE","id":"a64j0ahrtd6g","lat":51.49509},"type":"Feature","geometry":{"type":"Point","coordinates":[-0.14139,51.49509]}},{"properties":{"size":4.47864866257,"lng":-0.12228,"Postcode":"SW2 3RR","id":"a64j0abmw61r","lat":51.446018},"type":"Feature","geometry":{"type":"Point","coordinates":[-0.12228,51.446018]}},{"properties":{"size":12.0065472126,"lng":-0.12904,"Postcode":"SW2 4JN","id":"a64j0aatwvjh","lat":51.451118},"type":"Feature","geometry":{"type":"Point","coordinates":[-0.12904,51.451118]}},{"properties":{"size":10.0026855469,"lng":-0.11999,"Postcode":"SW2 5RR","id":"a64j0agwpg7z","lat":51.45911},"type":"Feature","geometry":{"type":"Point","coordinates":[-0.11999,51.45911]}},{"properties":{"size":8.02476859093,"lng":-0.1304,"Postcode":"SW4 6NP","id":"a64j0ahz0ots","lat":51.467831},"type":"Feature","geometry":{"type":"Point","coordinates":[-0.1304,51.467831]}},{"properties":{"size":16.6770253181,"lng":-0.13129,"Postcode":"SW4 7LL","id":"a64j0aek0921","lat":51.46236},"type":"Feature","geometry":{"type":"Point","coordinates":[-0.13129,51.46236]}},{"properties":{"size":6.31473755836,"lng":-0.1348,"Postcode":"SW8 2AR","id":"a64j0acvvmsd","lat":51.46933},"type":"Feature","geometry":{"type":"Point","coordinates":[-0.1348,51.46933]}},{"properties":{"size":19.3681535721,"lng":-0.14948,"Postcode":"SW8 3RZ","id":"a64j0ajgty09","lat":51.469509},"type":"Feature","geometry":{"type":"Point","coordinates":[-0.14948,51.469509]}},{"properties":{"size":8.0582473278,"lng":-3.04928,"Postcode":"SY15 6DQ","id":"a64j0aj9zbu2","lat":52.560131},"type":"Feature","geometry":{"type":"Point","coordinates":[-3.04928,52.560131]}},{"properties":{"size":17.18694067,"lng":-3.2144,"Postcode":"SY16 4LS","id":"a64j0aga296h","lat":52.49596},"type":"Feature","geometry":{"type":"Point","coordinates":[-3.2144,52.49596]}},{"properties":{"size":7.95393681526,"lng":-4.07684,"Postcode":"SY23 1EJ","id":"a64j0a7zurwf","lat":52.415722},"type":"Feature","geometry":{"type":"Point","coordinates":[-4.07684,52.415722]}},{"properties":{"size":9.94371986389,"lng":-4.0843,"Postcode":"SY23 2DX","id":"a64j0ajovryt","lat":52.417301},"type":"Feature","geometry":{"type":"Point","coordinates":[-4.0843,52.417301]}},{"properties":{"size":14.8520562649,"lng":-2.71903,"Postcode":"SY8 1NH","id":"a64j0acicqwd","lat":52.367481},"type":"Feature","geometry":{"type":"Point","coordinates":[-2.71903,52.367481]}},{"properties":{"size":6.2439904213,"lng":-2.76139,"Postcode":"TA10 9NB","id":"a64j0aiz1q7k","lat":51.030548},"type":"Feature","geometry":{"type":"Point","coordinates":[-2.76139,51.030548]}},{"properties":{"size":16.3497457504,"lng":-2.74425,"Postcode":"TA11 6PW","id":"a64j0ah50vib","lat":51.05175},"type":"Feature","geometry":{"type":"Point","coordinates":[-2.74425,51.05175]}},{"properties":{"size":17.4673578739,"lng":-2.73872,"Postcode":"TA11 6ST","id":"a64j0a6dw6f7","lat":51.057739},"type":"Feature","geometry":{"type":"Point","coordinates":[-2.73872,51.057739]}},{"properties":{"size":15.7951114178,"lng":-3.28096,"Postcode":"TA4 3TP","id":"a64j0aiqdapk","lat":51.131271},"type":"Feature","geometry":{"type":"Point","coordinates":[-3.28096,51.131271]}},{"properties":{"size":7.93142652512,"lng":-3.16244,"Postcode":"TA5 1NB","id":"a64j0ai0h7ih","lat":51.148949},"type":"Feature","geometry":{"type":"Point","coordinates":[-3.16244,51.148949]}},{"properties":{"size":14.3896100521,"lng":-2.78262,"Postcode":"TD1 2NZ","id":"a64j0ajzxyyb","lat":55.6208},"type":"Feature","geometry":{"type":"Point","coordinates":[-2.78262,55.6208]}},{"properties":{"size":3.85524487495,"lng":-2.38284,"Postcode":"TD10 6YW","id":"a64j0afnn7ik","lat":55.74229},"type":"Feature","geometry":{"type":"Point","coordinates":[-2.38284,55.74229]}},{"properties":{"size":7.83549880981,"lng":-2.22656,"Postcode":"TD11 3NG","id":"a64j0abgnbzc","lat":55.7463},"type":"Feature","geometry":{"type":"Point","coordinates":[-2.22656,55.7463]}},{"properties":{"size":17.9926571846,"lng":-2.09172,"Postcode":"TD14 5DA","id":"a64j0adpvphj","lat":55.87043},"type":"Feature","geometry":{"type":"Point","coordinates":[-2.09172,55.87043]}},{"properties":{"size":1.137373209,"lng":-2.51012,"Postcode":"TD57RY","id":"a64j0ac1ue07","lat":55.628578},"type":"Feature","geometry":{"type":"Point","coordinates":[-2.51012,55.628578]}},{"properties":{"size":18.5916528702,"lng":-2.83207,"Postcode":"TD7 4JB","id":"a64j0a59vtmf","lat":55.55595},"type":"Feature","geometry":{"type":"Point","coordinates":[-2.83207,55.55595]}},{"properties":{"size":19.3135306835,"lng":-2.47558,"Postcode":"TF8 7PE","id":"a64j0a4fdybo","lat":52.628571},"type":"Feature","geometry":{"type":"Point","coordinates":[-2.47558,52.628571]}},{"properties":{"size":16.6437468529,"lng":0.19376,"Postcode":"TN13 3LR","id":"a64j0aakin5b","lat":51.28257},"type":"Feature","geometry":{"type":"Point","coordinates":[0.19376,51.28257]}},{"properties":{"size":9.91554951668,"lng":0.17318,"Postcode":"TN13 3LRP","id":"a64j0adhwamw","lat":51.27895},"type":"Feature","geometry":{"type":"Point","coordinates":[0.17318,51.27895]}},{"properties":{"size":3.06278800964,"lng":0.50786,"Postcode":"TN18 4BH","id":"a64j0akk4w24","lat":51.05394},"type":"Feature","geometry":{"type":"Point","coordinates":[0.50786,51.05394]}},{"properties":{"size":6.38591623306,"lng":0.09675,"Postcode":"TN22 2EH","id":"a64j0aheirxs","lat":50.971722},"type":"Feature","geometry":{"type":"Point","coordinates":[0.09675,50.971722]}},{"properties":{"size":18.4831330776,"lng":0.09093,"Postcode":"TN22 3BJ","id":"a64j0acwzeh5","lat":51.026539},"type":"Feature","geometry":{"type":"Point","coordinates":[0.09093,51.026539]}},{"properties":{"size":3.93611168861,"lng":0.86278,"Postcode":"TN23 5QR","id":"a64j0aj14y5i","lat":51.135311},"type":"Feature","geometry":{"type":"Point","coordinates":[0.86278,51.135311]}},{"properties":{"size":16.2598905563,"lng":0.60319,"Postcode":"TN31 6ES","id":"a64j0aka4p9f","lat":50.955811},"type":"Feature","geometry":{"type":"Point","coordinates":[0.60319,50.955811]}},{"properties":{"size":18.11545825,"lng":0.55109,"Postcode":"TN33 0SE","id":"a64j0aen9bn7","lat":50.912659},"type":"Feature","geometry":{"type":"Point","coordinates":[0.55109,50.912659]}},{"properties":{"size":14.8180422783,"lng":0.59197,"Postcode":"TN34 3ER","id":"a64j0agmvcau","lat":50.857712},"type":"Feature","geometry":{"type":"Point","coordinates":[0.59197,50.857712]}},{"properties":{"size":1.65242886543,"lng":0.25722,"Postcode":"TN4 0EA","id":"a64j0a6mrqwh","lat":51.153919},"type":"Feature","geometry":{"type":"Point","coordinates":[0.25722,51.153919]}},{"properties":{"size":19.0728530884,"lng":0.47896,"Postcode":"TN40 1LG","id":"a64j0a4nljrs","lat":50.8382},"type":"Feature","geometry":{"type":"Point","coordinates":[0.47896,50.8382]}},{"properties":{"size":6.79082846642,"lng":0.5027,"Postcode":"TN40 2RU","id":"a64j0a6jy294","lat":50.853371},"type":"Feature","geometry":{"type":"Point","coordinates":[0.5027,50.853371]}},{"properties":{"size":2.44915819168,"lng":0.15524,"Postcode":"TN8 7AR","id":"a64j0aaws52s","lat":51.22044},"type":"Feature","geometry":{"type":"Point","coordinates":[0.15524,51.22044]}},{"properties":{"size":2.78740143776,"lng":-3.51764,"Postcode":"TQ14 9PB","id":"a64j0a7e5q0f","lat":50.565262},"type":"Feature","geometry":{"type":"Point","coordinates":[-3.51764,50.565262]}},{"properties":{"size":8.5829744339,"lng":-3.56669,"Postcode":"TQ5 0PG","id":"a64j0acp7tee","lat":50.400551},"type":"Feature","geometry":{"type":"Point","coordinates":[-3.56669,50.400551]}},{"properties":{"size":4.51534724236,"lng":-3.68629,"Postcode":"TQ9 5TW","id":"a64j0aes203r","lat":50.429138},"type":"Feature","geometry":{"type":"Point","coordinates":[-3.68629,50.429138]}},{"properties":{"size":15.5109534264,"lng":-3.70497,"Postcode":"TQ9 7TN","id":"a64j0ad45yl9","lat":50.394138},"type":"Feature","geometry":{"type":"Point","coordinates":[-3.70497,50.394138]}},{"properties":{"size":9.89596104622,"lng":-5.06034,"Postcode":"TR1 3DE","id":"a64j0a8wrjxf","lat":50.261921},"type":"Feature","geometry":{"type":"Point","coordinates":[-5.06034,50.261921]}},{"properties":{"size":13.375459671,"lng":-5.14406,"Postcode":"TR11 5DM","id":"a64j0afj6vjp","lat":50.124931},"type":"Feature","geometry":{"type":"Point","coordinates":[-5.14406,50.124931]}},{"properties":{"size":16.7833993435,"lng":-5.26073,"Postcode":"TR16 4EU","id":"a64j0actneoh","lat":50.245289},"type":"Feature","geometry":{"type":"Point","coordinates":[-5.26073,50.245289]}},{"properties":{"size":3.77027368546,"lng":-5.53553,"Postcode":"TR18 2AX","id":"a64j0a5qadz5","lat":50.124851},"type":"Feature","geometry":{"type":"Point","coordinates":[-5.53553,50.124851]}},{"properties":{"size":14.9275705814,"lng":-5.67786,"Postcode":"TR19 7QX","id":"a64j0a7xxwgf","lat":50.121132},"type":"Feature","geometry":{"type":"Point","coordinates":[-5.67786,50.121132]}},{"properties":{"size":13.8519201279,"lng":-5.23825,"Postcode":"TR4 8AA","id":"a64j0a719es8","lat":50.283539},"type":"Feature","geometry":{"type":"Point","coordinates":[-5.23825,50.283539]}},{"properties":{"size":13.6401507854,"lng":-1.09516,"Postcode":"TS10 5NB","id":"a64j0ajkgvgt","lat":54.60561},"type":"Feature","geometry":{"type":"Point","coordinates":[-1.09516,54.60561]}},{"properties":{"size":3.34162092209,"lng":-1.2946,"Postcode":"TS17 7HA","id":"a64j0adlq4wd","lat":54.554321},"type":"Feature","geometry":{"type":"Point","coordinates":[-1.2946,54.554321]}},{"properties":{"size":10.788724184,"lng":-1.22604,"Postcode":"TS26 8PS","id":"a64j0adp83s1","lat":54.688419},"type":"Feature","geometry":{"type":"Point","coordinates":[-1.22604,54.688419]}},{"properties":{"size":7.54287338257,"lng":-1.25613,"Postcode":"TS5 7BY","id":"a64j0ac1kod0","lat":54.545898},"type":"Feature","geometry":{"type":"Point","coordinates":[-1.25613,54.545898]}},{"properties":{"size":13.7440488338,"lng":-1.13408,"Postcode":"TS6 9LD","id":"a64j0abf90lo","lat":54.560741},"type":"Feature","geometry":{"type":"Point","coordinates":[-1.13408,54.560741]}},{"properties":{"size":4.49965333939,"lng":-1.14079,"Postcode":"TS9 6AB","id":"a64j0a9mv1h6","lat":54.489868},"type":"Feature","geometry":{"type":"Point","coordinates":[-1.14079,54.489868]}},{"properties":{"size":7.90544724464,"lng":-0.33666,"Postcode":"TW1 4HU","id":"a64j0acubx2b","lat":51.447521},"type":"Feature","geometry":{"type":"Point","coordinates":[-0.33666,51.447521]}},{"properties":{"size":19.4202432632,"lng":-0.29853,"Postcode":"TW10 6RN","id":"a64j0aeh1lde","lat":51.452419},"type":"Feature","geometry":{"type":"Point","coordinates":[-0.29853,51.452419]}},{"properties":{"size":13.4293220043,"lng":-0.33499,"Postcode":"TW11 8DB","id":"a64j0ajb9ta3","lat":51.429909},"type":"Feature","geometry":{"type":"Point","coordinates":[-0.33499,51.429909]}},{"properties":{"size":4.49168539047,"lng":-0.33183,"Postcode":"TW11 9AQ","id":"a64j0a661148","lat":51.42519},"type":"Feature","geometry":{"type":"Point","coordinates":[-0.33183,51.42519]}},{"properties":{"size":15.7857964039,"lng":-0.38031,"Postcode":"TW2 6AD","id":"a64j0aa45mqy","lat":51.445759},"type":"Feature","geometry":{"type":"Point","coordinates":[-0.38031,51.445759]}},{"properties":{"size":17.209859848,"lng":-0.55624,"Postcode":"TW20 9RJ","id":"a64j0ahh8zb9","lat":51.425159},"type":"Feature","geometry":{"type":"Point","coordinates":[-0.55624,51.425159]}},{"properties":{"size":5.35018777847,"lng":-0.29568,"Postcode":"TW9 1UN","id":"a64j0aakhm6p","lat":51.462639},"type":"Feature","geometry":{"type":"Point","coordinates":[-0.29568,51.462639]}},{"properties":{"size":9.58235955238,"lng":-0.32895,"Postcode":"W13 0JP","id":"a64j0a87tdfa","lat":51.51733},"type":"Feature","geometry":{"type":"Point","coordinates":[-0.32895,51.51733]}},{"properties":{"size":11.703959465,"lng":-0.21081,"Postcode":"W14 0SH","id":"a64j0ahdxhz8","lat":51.49472},"type":"Feature","geometry":{"type":"Point","coordinates":[-0.21081,51.49472]}},{"properties":{"size":14.634814024,"lng":-0.14183,"Postcode":"W1S 4TE","id":"a64j0ady3lbp","lat":51.508572},"type":"Feature","geometry":{"type":"Point","coordinates":[-0.14183,51.508572]}},{"properties":{"size":16.7052874565,"lng":-0.13652,"Postcode":"W1T 3EB","id":"a64j0ajfqx9r","lat":51.518551},"type":"Feature","geometry":{"type":"Point","coordinates":[-0.13652,51.518551]}},{"properties":{"size":1.65475583076,"lng":-0.17974,"Postcode":"W21UY","id":"a64j0ailboyh","lat":51.520981},"type":"Feature","geometry":{"type":"Point","coordinates":[-0.17974,51.520981]}},{"properties":{"size":2.07368469238,"lng":-0.2516,"Postcode":"W3 7EG","id":"a64j0ag5k62w","lat":51.512772},"type":"Feature","geometry":{"type":"Point","coordinates":[-0.2516,51.512772]}},{"properties":{"size":8.7648961544,"lng":-0.26595,"Postcode":"W4 5BW","id":"a64j0ac3pq7a","lat":51.497009},"type":"Feature","geometry":{"type":"Point","coordinates":[-0.26595,51.497009]}},{"properties":{"size":3.59726762772,"lng":-0.30437,"Postcode":"W5 1BD","id":"a64j0aisx0qm","lat":51.52832},"type":"Feature","geometry":{"type":"Point","coordinates":[-0.30437,51.52832]}},{"properties":{"size":18.1321356297,"lng":-0.31771,"Postcode":"W5 1LT","id":"a64j0a80fr29","lat":51.527721},"type":"Feature","geometry":{"type":"Point","coordinates":[-0.31771,51.527721]}},{"properties":{"size":6.18158435822,"lng":-0.29363,"Postcode":"W5 2EA","id":"a64j0aahqvj5","lat":51.516079},"type":"Feature","geometry":{"type":"Point","coordinates":[-0.29363,51.516079]}},{"properties":{"size":19.2890677452,"lng":-0.31135,"Postcode":"W5 4BB","id":"a64j0a82o0i7","lat":51.492741},"type":"Feature","geometry":{"type":"Point","coordinates":[-0.31135,51.492741]}},{"properties":{"size":15.8941135406,"lng":-0.3436,"Postcode":"W7 3DE","id":"a64j0akhbfvp","lat":51.524509},"type":"Feature","geometry":{"type":"Point","coordinates":[-0.3436,51.524509]}},{"properties":{"size":6.4540002346,"lng":-2.77845,"Postcode":"WA10 5DF","id":"a64j0aaj7i8m","lat":53.457851},"type":"Feature","geometry":{"type":"Point","coordinates":[-2.77845,53.457851]}},{"properties":{"size":3.07878351212,"lng":-2.78194,"Postcode":"WA105NB","id":"a64j0abz6mpz","lat":53.462669},"type":"Feature","geometry":{"type":"Point","coordinates":[-2.78194,53.462669]}},{"properties":{"size":12.0411036015,"lng":-2.64897,"Postcode":"WA12 9PN","id":"a64j0ajp9nz3","lat":53.451431},"type":"Feature","geometry":{"type":"Point","coordinates":[-2.64897,53.451431]}},{"properties":{"size":17.3941335678,"lng":-2.36406,"Postcode":"WA14 3NT","id":"a64j0ahhedg5","lat":53.376091},"type":"Feature","geometry":{"type":"Point","coordinates":[-2.36406,53.376091]}},{"properties":{"size":18.3650729656,"lng":-0.12254,"Postcode":"WC1B 4BS","id":"a64j0aezp8ym","lat":51.520439},"type":"Feature","geometry":{"type":"Point","coordinates":[-0.12254,51.520439]}},{"properties":{"size":3.11216688156,"lng":-0.12587,"Postcode":"WC1H 9PL","id":"a64j0ajyk04w","lat":51.52726},"type":"Feature","geometry":{"type":"Point","coordinates":[-0.12587,51.52726]}},{"properties":{"size":9.64114880562,"lng":-0.11406,"Postcode":"WC1X 8ER","id":"a64j0a5tayhh","lat":51.522751},"type":"Feature","geometry":{"type":"Point","coordinates":[-0.11406,51.522751]}},{"properties":{"size":16.4934120178,"lng":-0.12007,"Postcode":"WC2B 5PZ","id":"a64j0a8rex5n","lat":51.516491},"type":"Feature","geometry":{"type":"Point","coordinates":[-0.12007,51.516491]}},{"properties":{"size":10.3689954281,"lng":-0.40594,"Postcode":"WD18 0HD","id":"a64j0ad924ww","lat":51.648918},"type":"Feature","geometry":{"type":"Point","coordinates":[-0.40594,51.648918]}},{"properties":{"size":4.19512605667,"lng":-0.4451,"Postcode":"WD4 8DU","id":"a64j0a6mo809","lat":51.71043},"type":"Feature","geometry":{"type":"Point","coordinates":[-0.4451,51.71043]}},{"properties":{"size":8.94512271881,"lng":-0.43249,"Postcode":"WD4 8NJ","id":"a64j0a4l07e9","lat":51.71693},"type":"Feature","geometry":{"type":"Point","coordinates":[-0.43249,51.71693]}},{"properties":{"size":6.45624613762,"lng":-0.28296,"Postcode":"WD6 3LU","id":"a64j0a6yss2k","lat":51.651958},"type":"Feature","geometry":{"type":"Point","coordinates":[-0.28296,51.651958]}},{"properties":{"size":1.85623860359,"lng":-1.56234,"Postcode":"WF4 5ND","id":"a64j0aiqv53e","lat":53.658501},"type":"Feature","geometry":{"type":"Point","coordinates":[-1.56234,53.658501]}},{"properties":{"size":15.7563457489,"lng":-1.52114,"Postcode":"WF43LA","id":"a64j0a5tqk0u","lat":53.633911},"type":"Feature","geometry":{"type":"Point","coordinates":[-1.52114,53.633911]}},{"properties":{"size":14.8555848598,"lng":-1.93028,"Postcode":"WR11 3FE","id":"a64j0acdo5cn","lat":52.088501},"type":"Feature","geometry":{"type":"Point","coordinates":[-1.93028,52.088501]}},{"properties":{"size":13.9091858864,"lng":-2.59507,"Postcode":"WR15 8BX","id":"a64j0aivz8l2","lat":52.30592},"type":"Feature","geometry":{"type":"Point","coordinates":[-2.59507,52.30592]}},{"properties":{"size":11.4444277287,"lng":-2.17883,"Postcode":"WR4 0PH","id":"a64j0aexhs9s","lat":52.196659},"type":"Feature","geometry":{"type":"Point","coordinates":[-2.17883,52.196659]}},{"properties":{"size":3.50056743622,"lng":-1.94464,"Postcode":"WS15 2AL","id":"a64j0aa5qwcw","lat":52.760368},"type":"Feature","geometry":{"type":"Point","coordinates":[-1.94464,52.760368]}},{"properties":{"size":7.0965526104,"lng":-1.87463,"Postcode":"WS15 3AT","id":"a64j0a4z5x3g","lat":52.817902},"type":"Feature","geometry":{"type":"Point","coordinates":[-1.87463,52.817902]}},{"properties":{"size":15.7653841972,"lng":-1.92493,"Postcode":"WS8 6JF","id":"a64j0aj6ub1u","lat":52.65406},"type":"Feature","geometry":{"type":"Point","coordinates":[-1.92493,52.65406]}},{"properties":{"size":15.1385281086,"lng":-1.91656,"Postcode":"WS9 8RG","id":"a64j0a9ewz0t","lat":52.614071},"type":"Feature","geometry":{"type":"Point","coordinates":[-1.91656,52.614071]}},{"properties":{"size":9.63018035889,"lng":-2.07363,"Postcode":"WV14 8RA","id":"a64j0a86w6lk","lat":52.545929},"type":"Feature","geometry":{"type":"Point","coordinates":[-2.07363,52.545929]}},{"properties":{"size":2.07197165489,"lng":-2.19431,"Postcode":"WV5 0LX","id":"a64j0agv1w3n","lat":52.526131},"type":"Feature","geometry":{"type":"Point","coordinates":[-2.19431,52.526131]}},{"properties":{"size":15.7463536263,"lng":-1.04911,"Postcode":"YO10 5EL","id":"a64j0a91qgqk","lat":53.942669},"type":"Feature","geometry":{"type":"Point","coordinates":[-1.04911,53.942669]}},{"properties":{"size":5.47394013405,"lng":-0.40682,"Postcode":"YO11 2SU","id":"a64j0a7cgbyy","lat":54.27145},"type":"Feature","geometry":{"type":"Point","coordinates":[-0.40682,54.27145]}},{"properties":{"size":12.788983345,"lng":-0.78961,"Postcode":"YO17 9AQ","id":"a64j0a49ubfx","lat":54.130989},"type":"Feature","geometry":{"type":"Point","coordinates":[-0.78961,54.130989]}},{"properties":{"size":15.100445509,"lng":-1.06382,"Postcode":"YO19 4QS","id":"a64j0a7u66ly","lat":53.928181},"type":"Feature","geometry":{"type":"Point","coordinates":[-1.06382,53.928181]}},{"properties":{"size":14.1462836266,"lng":-0.43046,"Postcode":"YO255JL","id":"a64j0afczqiw","lat":54.012272},"type":"Feature","geometry":{"type":"Point","coordinates":[-0.43046,54.012272]}},{"properties":{"size":2.81809544563,"lng":-1.09109,"Postcode":"YO30 7AL","id":"a64j0ajpf2wy","lat":53.966702},"type":"Feature","geometry":{"type":"Point","coordinates":[-1.09109,53.966702]}},{"properties":{"size":8.12468147278,"lng":-1.07631,"Postcode":"YO31 7QY","id":"a64j0a4h9ibu","lat":53.964851},"type":"Feature","geometry":{"type":"Point","coordinates":[-1.07631,53.964851]}},{"properties":{"size":11.9888589382,"lng":-1.07631,"Postcode":"YO317QY","id":"a64j0aixnchg","lat":53.964851},"type":"Feature","geometry":{"type":"Point","coordinates":[-1.07631,53.964851]}},{"properties":{"size":19.7945199013,"lng":-1.08087,"Postcode":"YO32 3GL","id":"a64j0a87ygdn","lat":54.005329},"type":"Feature","geometry":{"type":"Point","coordinates":[-1.08087,54.005329]}},{"properties":{"size":1.93295693398,"lng":-0.76861,"Postcode":"YO42 2UW","id":"a64j0acd3zhm","lat":53.927971},"type":"Feature","geometry":{"type":"Point","coordinates":[-0.76861,53.927971]}},{"properties":{"size":7.60138607025,"lng":-1.16917,"Postcode":"ZE1 0RE","id":"a64j0a7nbgg4","lat":60.14677},"type":"Feature","geometry":{"type":"Point","coordinates":[-1.16917,60.14677]}}],"is_temporal":false,"author":{"url":"","metadata":"","contact_name":"","contact_address":"","source":"","contact_phone":""},"source":"","pagination":{"sort":null,"start":0,"total":1024,"limit":1000000},"state":"complete","tags":"sample","published":"2014-08-11T01:14:18-04:00","id":19415}