{"type":"FeatureCollection","data_type":"Dataset","url_type":null,"permissions":[{"permissions":{"download":true,"view":true},"group_id":"everyone"}],"classification":null,"title":"The Wellness Coalition","count":8,"stream_id":195133,"contributor":{"url":"http://geocommons.com/users/37847","name":"KarmicVisions"},"data_attributes":null,"calculation_params":null,"icon_link":null,"link":"http://geocommons.com/overlays/195133.json","extent":[-108.766,32.8426,-108.512,33.6934],"geometry_types":["point"],"unique_name":null,"name":"The Wellness Coalition","feature_count":8,"description":"","next_feature":null,"is_raster":false,"short_classification":"Y","stats":{"# of members":{"max":33,"mean":7.25,"variance":121.928571428571,"stdev":11.0421271242715,"min":1,"median":3}},"features":[{"properties":{"city":"Silver City","geo_score":0.868,"zip code":"88061","site address":"409 N Bullard St","# of members":1,"program":"The Wellness Coalition","id":"a66ovaf64d9h","geo_precision":"zip","state":"NM","member sites":"The Wellness Coalition"},"type":"Feature","geometry":{"type":"Point","coordinates":[-108.511718,32.842573]}},{"properties":{"city":"Silver City","geo_score":0.868,"zip code":"88061","site address":"915 Santa Rita Rd","# of members":2,"program":"The Wellness Coalition","id":"a66ovaf2h7vm","geo_precision":"zip","state":"NM","member sites":"Volunteer Center"},"type":"Feature","geometry":{"type":"Point","coordinates":[-108.511718,32.842573]}},{"properties":{"city":"Silver City","geo_score":0.868,"zip code":"88061","site address":"1105 Pope St","# of members":3,"program":"The Wellness Coalition","id":"a66ova8yry9w","geo_precision":"zip","state":"NM","member sites":"HMS"},"type":"Feature","geometry":{"type":"Point","coordinates":[-108.511718,32.842573]}},{"properties":{"city":"Silver City","geo_score":0.868,"zip code":"88061","site address":"800 S Robert St","# of members":1,"program":"The Wellness Coalition","id":"a66ovahtrxd9","geo_precision":"zip","state":"NM","member sites":"el refugio"},"type":"Feature","geometry":{"type":"Point","coordinates":[-108.511718,32.842573]}},{"properties":{"city":"Silver City","geo_score":0.868,"zip code":"88061","site address":"1400 HWY 180 E","# of members":1,"program":"The Wellness Coalition","id":"a66ovaitwxw5","geo_precision":"zip","state":"NM","member sites":"Grant County Health Council"},"type":"Feature","geometry":{"type":"Point","coordinates":[-108.511718,32.842573]}},{"properties":{"city":"Silver City","geo_score":0.868,"zip code":"88061","site address":"409 N Bullard St","# of members":33,"program":"The Wellness Coalition","id":"a66ovaokatkr","geo_precision":"zip","state":"NM","member sites":"Conservation Corps"},"type":"Feature","geometry":{"type":"Point","coordinates":[-108.511718,32.842573]}},{"properties":{"city":"Silver City","geo_score":0.868,"zip code":"88061","site address":"513 W 12th St","# of members":5,"program":"The Wellness Coalition","id":"a66ovagzydsv","geo_precision":"zip","state":"NM","member sites":"Western New Mexico University"},"type":"Feature","geometry":{"type":"Point","coordinates":[-108.511718,32.842573]}},{"properties":{"city":"Reserve","geo_score":0.874,"zip code":"87830","site address":"1 Foster Lane","# of members":12,"program":"The Wellness Coalition","id":"a66ovaoolizv","geo_precision":"zip","state":"NM","member sites":"YCC Reserve"},"type":"Feature","geometry":{"type":"Point","coordinates":[-108.766175,33.693389]}}],"is_temporal":false,"author":{"url":"","metadata":"","contact_name":"","contact_address":"","source":"","contact_phone":""},"source":"","pagination":{"sort":null,"start":0,"total":8,"limit":1000000},"state":"complete","tags":"","published":"2014-08-13T03:56:54-04:00","id":195133}