{"type":"FeatureCollection","data_type":"Dataset","url_type":null,"permissions":[{"permissions":{"download":true,"view":true},"group_id":"everyone"}],"classification":null,"title":"Families &amp; Youth, Inc","count":7,"stream_id":195138,"contributor":{"url":"http://geocommons.com/users/37847","name":"KarmicVisions"},"data_attributes":null,"calculation_params":null,"icon_link":null,"link":"http://geocommons.com/overlays/195138.json","extent":[-106.897,32.1673,-106.806,32.4147],"geometry_types":["point"],"unique_name":null,"name":"Families & Youth, Inc","feature_count":7,"description":"","next_feature":null,"is_raster":false,"short_classification":"Y","stats":{"# of members":{"max":6,"mean":3.71428571428571,"variance":3.9047619047619,"stdev":1.97604704011871,"min":1,"median":5}},"features":[{"properties":{"city":"Las Cruces","geo_score":1.0,"zip code":"88005","site address":"150 N. Alameda Blvd.","# of members":5,"program":"Families &amp; Youth, Inc","id":"a66ovalku78q","geo_precision":"zip","state":"NM","member sites":"Central Elementary School"},"type":"Feature","geometry":{"type":"Point","coordinates":[-106.897176,32.167296]}},{"properties":{"city":"Las Cruces","geo_score":1.0,"zip code":"88005","site address":"5551 Camino de Flores","# of members":6,"program":"Families &amp; Youth, Inc","id":"a66ovaevgo1c","geo_precision":"zip","state":"NM","member sites":"Dona Ana Elementary School"},"type":"Feature","geometry":{"type":"Point","coordinates":[-106.897176,32.167296]}},{"properties":{"city":"Mesilla","geo_score":1.0,"zip code":"88046","site address":"2363 Calle Del Sur","# of members":2,"program":"Families &amp; Youth, Inc","id":"a66ovaeymk9j","geo_precision":"zip","state":"NM","member sites":"Mesilla Elementary School"},"type":"Feature","geometry":{"type":"Point","coordinates":[-106.805867,32.267993]}},{"properties":{"city":"Las Cruces","geo_score":0.876,"zip code":"88001","site address":"2005 S. Locust St.","# of members":2,"program":"Families &amp; Youth, Inc","id":"a66ovahv7h5m","geo_precision":"zip","state":"NM","member sites":"University Hills Elementary School"},"type":"Feature","geometry":{"type":"Point","coordinates":[-106.854065,32.41467]}},{"properties":{"city":"Las Cruces","geo_score":0.876,"zip code":"88001","site address":"915 E. California Ave.","# of members":5,"program":"Families &amp; Youth, Inc","id":"a66ovajymhb9","geo_precision":"zip","state":"NM","member sites":"Valley View Elementary School"},"type":"Feature","geometry":{"type":"Point","coordinates":[-106.854065,32.41467]}},{"properties":{"city":"Las Cruces","geo_score":1.0,"zip code":"88005","site address":"999 West Amador","# of members":1,"program":"Families &amp; Youth, Inc","id":"a66ovanumhff","geo_precision":"zip","state":"NM","member sites":"Jardin de los Ninos"},"type":"Feature","geometry":{"type":"Point","coordinates":[-106.897176,32.167296]}},{"properties":{"city":"Las Cruces","geo_score":0.876,"zip code":"88001","site address":"5300 Holman Rd","# of members":5,"program":"Families &amp; Youth, Inc","id":"a66ovaemigtt","geo_precision":"zip","state":"NM","member sites":"SunRise Elementary School"},"type":"Feature","geometry":{"type":"Point","coordinates":[-106.854065,32.41467]}}],"is_temporal":false,"author":{"url":"","metadata":"","contact_name":"","contact_address":"","source":"","contact_phone":""},"source":"","pagination":{"sort":null,"start":0,"total":7,"limit":1000000},"state":"complete","tags":"","published":"2014-08-13T03:56:58-04:00","id":195138}