{"type":"FeatureCollection","data_type":"Dataset","url_type":null,"permissions":[{"permissions":{"download":true,"view":true},"group_id":"everyone"}],"classification":null,"title":"Medical Calls","count":71,"stream_id":195218,"contributor":{"url":"http://geocommons.com/users/38376","name":"gonink"},"data_attributes":null,"calculation_params":null,"icon_link":null,"link":"http://geocommons.com/overlays/195218.json","extent":[-85.3337,41.2246,-85.3114,41.238],"geometry_types":["point"],"unique_name":null,"name":"Medical Calls","feature_count":71,"description":"","next_feature":null,"is_raster":false,"short_classification":"Y","stats":{"times responded":{"max":12,"mean":4.49295774647887,"variance":16.3678068410463,"stdev":4.0457146267435,"min":1,"median":3}},"features":[{"properties":{"city":"Churubusco","incident":"Broken Leg","landmark":"School","geo_score":0.902,"times responded":3,"id":"a638szh8ozl1","geo_precision":"range","address":"1 Eagle Drive","state":"Indiana"},"type":"Feature","geometry":{"type":"Point","coordinates":[-85.321959,41.229365]}},{"properties":{"city":"Churubusco","incident":"Traumatic Injury","landmark":"School","geo_score":0.902,"times responded":3,"id":"a638szthrrxf","geo_precision":"range","address":"1 Eagle Drive","state":"Indiana"},"type":"Feature","geometry":{"type":"Point","coordinates":[-85.321959,41.229365]}},{"properties":{"city":"Churubusco","incident":"Unconscious Party","landmark":"School","geo_score":0.902,"times responded":3,"id":"a638szo0ihrl","geo_precision":"range","address":"1 Eagle Drive","state":"Indiana"},"type":"Feature","geometry":{"type":"Point","coordinates":[-85.321959,41.229365]}},{"properties":{"city":"Churubusco","incident":"Medical Assist","landmark":"N/A","geo_score":0.902,"times responded":1,"id":"a638szey4wqn","geo_precision":"range","address":"100 North Main Street","state":"Indiana"},"type":"Feature","geometry":{"type":"Point","coordinates":[-85.319315,41.230581]}},{"properties":{"city":"Churubusco","incident":"Full Arrest","landmark":"N/A","geo_score":0.902,"times responded":3,"id":"a638szse85c4","geo_precision":"range","address":"108 Maple Lane","state":"Indiana"},"type":"Feature","geometry":{"type":"Point","coordinates":[-85.316919,41.226978]}},{"properties":{"city":"Churubusco","incident":"Foot Pain","landmark":"N/A","geo_score":0.902,"times responded":3,"id":"a638szjjknam","geo_precision":"range","address":"108 Maple Lane","state":"Indiana"},"type":"Feature","geometry":{"type":"Point","coordinates":[-85.316919,41.226978]}},{"properties":{"city":"Churubusco","incident":"Fall","landmark":"N/A","geo_score":0.902,"times responded":3,"id":"a638sznrbmdc","geo_precision":"range","address":"108 Maple Lane","state":"Indiana"},"type":"Feature","geometry":{"type":"Point","coordinates":[-85.316919,41.226978]}},{"properties":{"city":"Churubusco","incident":"Difficulty Breathing","landmark":"N/A","geo_score":0.902,"times responded":1,"id":"a638szogdrxj","geo_precision":"range","address":"110 Home Avenue","state":"Indiana"},"type":"Feature","geometry":{"type":"Point","coordinates":[-85.317997,41.227149]}},{"properties":{"city":"Churubusco","incident":"Medical Assist","landmark":"N/A","geo_score":0.902,"times responded":1,"id":"a638szg3fmv1","geo_precision":"range","address":"121 North Mulberry Street","state":"Indiana"},"type":"Feature","geometry":{"type":"Point","coordinates":[-85.320559,41.230263]}},{"properties":{"city":"Churubusco","incident":"Possible Heart","landmark":"N/A","geo_score":0.902,"times responded":1,"id":"a638szgr5s46","geo_precision":"range","address":"134 Barnhart Drive","state":"Indiana"},"type":"Feature","geometry":{"type":"Point","coordinates":[-85.322234,41.235846]}},{"properties":{"city":"Churubusco","incident":"Fall","landmark":"Holiday Park","geo_score":0.805,"times responded":4,"id":"a638sze1fqky","geo_precision":"street","address":"200 McCoy Drive","state":"Indiana"},"type":"Feature","geometry":{"type":"Point","coordinates":[-85.318536,41.224578]}},{"properties":{"city":"Churubusco","incident":"Difficulty Breathing","landmark":"Holiday Park","geo_score":0.805,"times responded":4,"id":"a638szp7aael","geo_precision":"street","address":"200 McCoy Drive","state":"Indiana"},"type":"Feature","geometry":{"type":"Point","coordinates":[-85.318536,41.224578]}},{"properties":{"city":"Churubusco","incident":"Fall","landmark":"Holiday Park","geo_score":0.805,"times responded":4,"id":"a638szszvnsn","geo_precision":"street","address":"200 McCoy Drive","state":"Indiana"},"type":"Feature","geometry":{"type":"Point","coordinates":[-85.318536,41.224578]}},{"properties":{"city":"Churubusco","incident":"Difficulty Breathing","landmark":"Holiday Park","geo_score":0.805,"times responded":4,"id":"a638szr4sbgm","geo_precision":"street","address":"200 McCoy Drive","state":"Indiana"},"type":"Feature","geometry":{"type":"Point","coordinates":[-85.318536,41.224578]}},{"properties":{"city":"Churubusco","incident":"Chest Pains","landmark":"Fire Station","geo_score":0.902,"times responded":1,"id":"a638szttdix7","geo_precision":"range","address":"204 North Line Street","state":"Indiana"},"type":"Feature","geometry":{"type":"Point","coordinates":[-85.31924,41.23172]}},{"properties":{"city":"Churubusco","incident":"Difficulty Breathing","landmark":"N/A","geo_score":0.902,"times responded":1,"id":"a638szmn8ccv","geo_precision":"range","address":"206 North Main Street","state":"Indiana"},"type":"Feature","geometry":{"type":"Point","coordinates":[-85.319964,41.231443]}},{"properties":{"city":"Churubusco","incident":"Chest Pains","landmark":"N/A","geo_score":0.78,"times responded":1,"id":"a638szf03r14","geo_precision":"range","address":"209 Windsor Drive","state":"Indiana"},"type":"Feature","geometry":{"type":"Point","coordinates":[-85.317431,41.232605]}},{"properties":{"city":"Churubusco","incident":"Full Arrest","landmark":"N/A","geo_score":0.902,"times responded":1,"id":"a638szhmjwps","geo_precision":"range","address":"224 West Whitley Street","state":"Indiana"},"type":"Feature","geometry":{"type":"Point","coordinates":[-85.319999,41.23028]}},{"properties":{"city":"Churubusco","incident":"Medical Alarm","landmark":"Blue River Living","geo_score":0.592,"times responded":12,"id":"a638szrzrwgu","geo_precision":"street","address":"235 East Clingerman Ave","state":"Indiana"},"type":"Feature","geometry":{"type":"Point","coordinates":[-85.319148,41.236899]}},{"properties":{"city":"Churubusco","incident":"Stroke","landmark":"Blue River Living","geo_score":0.592,"times responded":12,"id":"a638szlm560r","geo_precision":"street","address":"235 East Clingerman Ave","state":"Indiana"},"type":"Feature","geometry":{"type":"Point","coordinates":[-85.319148,41.236899]}},{"properties":{"city":"Churubusco","incident":"Medical Alarm","landmark":"Blue River Living","geo_score":0.592,"times responded":12,"id":"a638szeytfut","geo_precision":"street","address":"235 East Clingerman Ave","state":"Indiana"},"type":"Feature","geometry":{"type":"Point","coordinates":[-85.319148,41.236899]}},{"properties":{"city":"Churubusco","incident":"Medical Alarm","landmark":"Blue River Living","geo_score":0.592,"times responded":12,"id":"a638szor2kkn","geo_precision":"street","address":"235 East Clingerman Ave","state":"Indiana"},"type":"Feature","geometry":{"type":"Point","coordinates":[-85.319148,41.236899]}},{"properties":{"city":"Churubusco","incident":"Fall","landmark":"Blue River Living","geo_score":0.592,"times responded":12,"id":"a638szsfj6lr","geo_precision":"street","address":"235 East Clingerman Ave","state":"Indiana"},"type":"Feature","geometry":{"type":"Point","coordinates":[-85.319148,41.236899]}},{"properties":{"city":"Churubusco","incident":"Medical Assist","landmark":"Blue River Living","geo_score":0.592,"times responded":12,"id":"a638szdw3l8v","geo_precision":"street","address":"235 East Clingerman Ave","state":"Indiana"},"type":"Feature","geometry":{"type":"Point","coordinates":[-85.319148,41.236899]}},{"properties":{"city":"Churubusco","incident":"Medical Alarm","landmark":"Blue River Living","geo_score":0.592,"times responded":12,"id":"a638szsimwaj","geo_precision":"street","address":"235 East Clingerman Ave","state":"Indiana"},"type":"Feature","geometry":{"type":"Point","coordinates":[-85.319148,41.236899]}},{"properties":{"city":"Churubusco","incident":"Medical Assist","landmark":"Blue River Living","geo_score":0.592,"times responded":12,"id":"a638szi2sd9m","geo_precision":"street","address":"235 East Clingerman Ave","state":"Indiana"},"type":"Feature","geometry":{"type":"Point","coordinates":[-85.319148,41.236899]}},{"properties":{"city":"Churubusco","incident":"Lifting Assist","landmark":"Blue River Living","geo_score":0.592,"times responded":12,"id":"a638szk3sxz2","geo_precision":"street","address":"235 East Clingerman Ave","state":"Indiana"},"type":"Feature","geometry":{"type":"Point","coordinates":[-85.319148,41.236899]}},{"properties":{"city":"Churubusco","incident":"Stroke","landmark":"Blue River Living","geo_score":0.592,"times responded":12,"id":"a638szj6hfnh","geo_precision":"street","address":"235 East Clingerman Ave","state":"Indiana"},"type":"Feature","geometry":{"type":"Point","coordinates":[-85.319148,41.236899]}},{"properties":{"city":"Churubusco","incident":"Medical Alarm","landmark":"Blue River Living","geo_score":0.592,"times responded":12,"id":"a638szlf9cjf","geo_precision":"street","address":"235 East Clingerman Ave","state":"Indiana"},"type":"Feature","geometry":{"type":"Point","coordinates":[-85.319148,41.236899]}},{"properties":{"city":"Churubusco","incident":"Medical Alarm","landmark":"Blue River Living","geo_score":0.592,"times responded":12,"id":"a638szq643t8","geo_precision":"street","address":"235 East Clingerman Ave","state":"Indiana"},"type":"Feature","geometry":{"type":"Point","coordinates":[-85.319148,41.236899]}},{"properties":{"city":"Churubusco","incident":"Choking","landmark":"N/A","geo_score":0.902,"times responded":1,"id":"a638szgako4d","geo_precision":"range","address":"240 Greenwood Drive","state":"Indiana"},"type":"Feature","geometry":{"type":"Point","coordinates":[-85.317121,41.232704]}},{"properties":{"city":"Churubusco","incident":"Chest Pains","landmark":"N/A","geo_score":0.902,"times responded":1,"id":"a638szg1ya6f","geo_precision":"range","address":"301 North Mulberry Street","state":"Indiana"},"type":"Feature","geometry":{"type":"Point","coordinates":[-85.32166,41.231712]}},{"properties":{"city":"Churubusco","incident":"Stroke","landmark":"N/A","geo_score":0.902,"times responded":1,"id":"a638szop522c","geo_precision":"range","address":"302 Greenwood drive","state":"Indiana"},"type":"Feature","geometry":{"type":"Point","coordinates":[-85.315937,41.233189]}},{"properties":{"city":"Churubusco","incident":"Illness","landmark":"N/A","geo_score":0.902,"times responded":1,"id":"a638szfirr2g","geo_precision":"range","address":"302 West Pleasant Street","state":"Indiana"},"type":"Feature","geometry":{"type":"Point","coordinates":[-85.322244,41.227132]}},{"properties":{"city":"Churubusco","incident":"Fall","landmark":"N/A","geo_score":0.902,"times responded":3,"id":"a638szdkdxld","geo_precision":"range","address":"308 Mill Street","state":"Indiana"},"type":"Feature","geometry":{"type":"Point","coordinates":[-85.315525,41.22962]}},{"properties":{"city":"Churubusco","incident":"Difficulty Breathing","landmark":"N/A","geo_score":0.902,"times responded":3,"id":"a638szpzmv77","geo_precision":"range","address":"308 Mill Street","state":"Indiana"},"type":"Feature","geometry":{"type":"Point","coordinates":[-85.315525,41.22962]}},{"properties":{"city":"Churubusco","incident":"Medical Assist","landmark":"N/A","geo_score":0.902,"times responded":3,"id":"a638szhdprbe","geo_precision":"range","address":"308 Mill Street","state":"Indiana"},"type":"Feature","geometry":{"type":"Point","coordinates":[-85.315525,41.22962]}},{"properties":{"city":"Churubusco","incident":"Difficulty Breathing","landmark":"N/A","geo_score":0.902,"times responded":1,"id":"a638szn5a42l","geo_precision":"range","address":"314 North Line Street","state":"Indiana"},"type":"Feature","geometry":{"type":"Point","coordinates":[-85.319235,41.233095]}},{"properties":{"city":"Churubusco","incident":"Medical Assist","landmark":"N/A","geo_score":0.902,"times responded":1,"id":"a638szg3g5vi","geo_precision":"range","address":"327 East Douglas Street","state":"Indiana"},"type":"Feature","geometry":{"type":"Point","coordinates":[-85.315811,41.235789]}},{"properties":{"city":"Churubusco","incident":"Fall","landmark":"N/A","geo_score":0.902,"times responded":1,"id":"a638szhf9gzb","geo_precision":"range","address":"414 North Line Street","state":"Indiana"},"type":"Feature","geometry":{"type":"Point","coordinates":[-85.319193,41.235023]}},{"properties":{"city":"Churubusco","incident":"Difficulty Breathing","landmark":"N/A","geo_score":0.902,"times responded":5,"id":"a638szrx6f96","geo_precision":"range","address":"426 Mill Street","state":"Indiana"},"type":"Feature","geometry":{"type":"Point","coordinates":[-85.31143,41.229534]}},{"properties":{"city":"Churubusco","incident":"Difficulty Breathing","landmark":"N/A","geo_score":0.902,"times responded":5,"id":"a638szdwvvd2","geo_precision":"range","address":"426 Mill Street","state":"Indiana"},"type":"Feature","geometry":{"type":"Point","coordinates":[-85.31143,41.229534]}},{"properties":{"city":"Churubusco","incident":"Difficulty Breathing","landmark":"N/A","geo_score":0.902,"times responded":5,"id":"a638szsrwdq9","geo_precision":"range","address":"426 Mill Street","state":"Indiana"},"type":"Feature","geometry":{"type":"Point","coordinates":[-85.31143,41.229534]}},{"properties":{"city":"Churubusco","incident":"Difficulty Breathing","landmark":"N/A","geo_score":0.902,"times responded":5,"id":"a638szsla7si","geo_precision":"range","address":"426 Mill Street","state":"Indiana"},"type":"Feature","geometry":{"type":"Point","coordinates":[-85.31143,41.229534]}},{"properties":{"city":"Churubusco","incident":"Difficulty Breathing","landmark":"N/A","geo_score":0.902,"times responded":5,"id":"a638szpofwe6","geo_precision":"range","address":"426 Mill Street","state":"Indiana"},"type":"Feature","geometry":{"type":"Point","coordinates":[-85.31143,41.229534]}},{"properties":{"city":"Churubusco","incident":"Fall","landmark":"Park","geo_score":0.902,"times responded":3,"id":"a638szona21b","geo_precision":"range","address":"500 North Mulberry Street","state":"Indiana"},"type":"Feature","geometry":{"type":"Point","coordinates":[-85.322895,41.233451]}},{"properties":{"city":"Churubusco","incident":"Choking","landmark":"Park","geo_score":0.902,"times responded":3,"id":"a638szjj1o3b","geo_precision":"range","address":"500 North Mulberry Street","state":"Indiana"},"type":"Feature","geometry":{"type":"Point","coordinates":[-85.322895,41.233451]}},{"properties":{"city":"Churubusco","incident":"Seizures","landmark":"Park","geo_score":0.902,"times responded":3,"id":"a638szrbtfhb","geo_precision":"range","address":"500 North Mulberry Street","state":"Indiana"},"type":"Feature","geometry":{"type":"Point","coordinates":[-85.322895,41.233451]}},{"properties":{"city":"Churubusco","incident":"Fall","landmark":"N/A","geo_score":0.902,"times responded":1,"id":"a638szn5qvjf","geo_precision":"range","address":"502 Rapp Drive","state":"Indiana"},"type":"Feature","geometry":{"type":"Point","coordinates":[-85.326731,41.231057]}},{"properties":{"city":"Churubusco","incident":"Possible Heart","landmark":"N/A","geo_score":0.902,"times responded":1,"id":"a638szil6yzc","geo_precision":"range","address":"502 South Main Street","state":"Indiana"},"type":"Feature","geometry":{"type":"Point","coordinates":[-85.318409,41.229139]}},{"properties":{"city":"Churubusco","incident":"Stroke","landmark":"N/A","geo_score":0.902,"times responded":1,"id":"a638szlt54fn","geo_precision":"range","address":"508 North Mulberry Street","state":"Indiana"},"type":"Feature","geometry":{"type":"Point","coordinates":[-85.32305,41.233717]}},{"properties":{"city":"Churubusco","incident":"Medical Assist","landmark":"N/A","geo_score":0.902,"times responded":2,"id":"a638szembr82","geo_precision":"range","address":"515 West Whitley Street","state":"Indiana"},"type":"Feature","geometry":{"type":"Point","coordinates":[-85.322021,41.229329]}},{"properties":{"city":"Churubusco","incident":"Chest Pains","landmark":"N/A","geo_score":0.902,"times responded":2,"id":"a638szrocaok","geo_precision":"range","address":"515 West Whitley Street","state":"Indiana"},"type":"Feature","geometry":{"type":"Point","coordinates":[-85.322021,41.229329]}},{"properties":{"city":"Churubusco","incident":"Diabetic Problem","landmark":"N/A","geo_score":0.902,"times responded":1,"id":"a638szjaufoh","geo_precision":"range","address":"545 West Whitley Street","state":"Indiana"},"type":"Feature","geometry":{"type":"Point","coordinates":[-85.32207,41.229297]}},{"properties":{"city":"Churubusco","incident":"Unconscious Party","landmark":"McDonalds","geo_score":0.902,"times responded":1,"id":"a638szfkg97t","geo_precision":"range","address":"561 South Main Street","state":"Indiana"},"type":"Feature","geometry":{"type":"Point","coordinates":[-85.318074,41.227724]}},{"properties":{"city":"Churubusco","incident":"Chest Pains","landmark":"BRC","geo_score":0.902,"times responded":1,"id":"a638sznzg67u","geo_precision":"range","address":"589 South Main Street","state":"Indiana"},"type":"Feature","geometry":{"type":"Point","coordinates":[-85.317955,41.227306]}},{"properties":{"city":"Churubusco","incident":"Possible Heart","landmark":"Egolfs","geo_score":0.902,"times responded":1,"id":"a638szdhfc79","geo_precision":"range","address":"609 South Main Street","state":"Indiana"},"type":"Feature","geometry":{"type":"Point","coordinates":[-85.317909,41.227133]}},{"properties":{"city":"Churubusco","incident":"Possible Heart","landmark":"N/A","geo_score":0.902,"times responded":8,"id":"a638szoo7bub","geo_precision":"range","address":"702 North Main Street","state":"Indiana"},"type":"Feature","geometry":{"type":"Point","coordinates":[-85.322539,41.235445]}},{"properties":{"city":"Churubusco","incident":"Possible Heart","landmark":"N/A","geo_score":0.902,"times responded":8,"id":"a638szrfqxmi","geo_precision":"range","address":"702 North Main Street","state":"Indiana"},"type":"Feature","geometry":{"type":"Point","coordinates":[-85.322539,41.235445]}},{"properties":{"city":"Churubusco","incident":"Chest Pains","landmark":"N/A","geo_score":0.902,"times responded":8,"id":"a638szqlbtm4","geo_precision":"range","address":"702 North Main Street","state":"Indiana"},"type":"Feature","geometry":{"type":"Point","coordinates":[-85.322539,41.235445]}},{"properties":{"city":"Churubusco","incident":"Medical Assist","landmark":"N/A","geo_score":0.902,"times responded":8,"id":"a638szlt38wl","geo_precision":"range","address":"702 North Main Street","state":"Indiana"},"type":"Feature","geometry":{"type":"Point","coordinates":[-85.322539,41.235445]}},{"properties":{"city":"Churubusco","incident":"Difficulty Breathing","landmark":"N/A","geo_score":0.902,"times responded":8,"id":"a638szmnsarm","geo_precision":"range","address":"702 North Main Street","state":"Indiana"},"type":"Feature","geometry":{"type":"Point","coordinates":[-85.322539,41.235445]}},{"properties":{"city":"Churubusco","incident":"Chest Pains","landmark":"N/A","geo_score":0.902,"times responded":8,"id":"a638szspzv4h","geo_precision":"range","address":"702 North Main Street","state":"Indiana"},"type":"Feature","geometry":{"type":"Point","coordinates":[-85.322539,41.235445]}},{"properties":{"city":"Churubusco","incident":"Difficulty Breathing","landmark":"N/A","geo_score":0.902,"times responded":8,"id":"a638szpnu6he","geo_precision":"range","address":"702 North Main Street","state":"Indiana"},"type":"Feature","geometry":{"type":"Point","coordinates":[-85.322539,41.235445]}},{"properties":{"city":"Churubusco","incident":"Difficulty Breathing","landmark":"N/A","geo_score":0.902,"times responded":8,"id":"a638szkfpidg","geo_precision":"range","address":"702 North Main Street","state":"Indiana"},"type":"Feature","geometry":{"type":"Point","coordinates":[-85.322539,41.235445]}},{"properties":{"city":"Churubusco","incident":"Chest Pains","landmark":"Methodist Church","geo_score":0.902,"times responded":1,"id":"a638szgq78u6","geo_precision":"range","address":"750 North Main Street","state":"Indiana"},"type":"Feature","geometry":{"type":"Point","coordinates":[-85.322756,41.235984]}},{"properties":{"city":"Churubusco","incident":"Fall","landmark":"Threshers","geo_score":0.902,"times responded":1,"id":"a638szedo6ak","geo_precision":"range","address":"828 Thresher Run","state":"Indiana"},"type":"Feature","geometry":{"type":"Point","coordinates":[-85.33062,41.237953]}},{"properties":{"city":"Churubusco","incident":"Chest Pains","landmark":"Threshers","geo_score":0.74,"times responded":1,"id":"a638szs79ocz","geo_precision":"street","address":"834 Turtle Run","state":"Indiana"},"type":"Feature","geometry":{"type":"Point","coordinates":[-85.33366,41.237839]}},{"properties":{"city":"Churubusco","incident":"Chest Pains","landmark":"N/A","geo_score":0.902,"times responded":1,"id":"a638szouweho","geo_precision":"range","address":"907 North Main Street","state":"Indiana"},"type":"Feature","geometry":{"type":"Point","coordinates":[-85.322986,41.236618]}},{"properties":{"city":"Churubusco","incident":"Unconscious Party","landmark":"Threshers","geo_score":0.902,"times responded":2,"id":"a638szqtnd3d","geo_precision":"range","address":"909 Meadow Way","state":"Indiana"},"type":"Feature","geometry":{"type":"Point","coordinates":[-85.331549,41.237719]}},{"properties":{"city":"Churubusco","incident":"Unconscious Party","landmark":"N/A","geo_score":0.902,"times responded":2,"id":"a638szirua9x","geo_precision":"range","address":"909 Meadow Way","state":"Indiana"},"type":"Feature","geometry":{"type":"Point","coordinates":[-85.331549,41.237719]}}],"is_temporal":false,"author":{"url":"","metadata":null,"contact_name":null,"contact_address":null,"source":null,"contact_phone":null},"source":"","pagination":{"sort":null,"start":0,"total":71,"limit":1000000},"state":"complete","tags":"","published":"2014-08-13T04:04:21-04:00","id":195218}