{"type":"FeatureCollection","data_type":"Dataset","url_type":null,"permissions":[{"permissions":{"download":true,"view":true},"group_id":"everyone"}],"classification":null,"title":"student loans","count":52,"stream_id":19548,"contributor":{"url":"http://geocommons.com/users/10173","name":"huffpostfund"},"data_attributes":null,"calculation_params":null,"icon_link":null,"link":"http://geocommons.com/overlays/19548.json","extent":[-155.434,19.5901,-69.0125,63.0365],"geometry_types":["point"],"unique_name":null,"name":"student loans","feature_count":52,"description":"","next_feature":null,"is_raster":false,"short_classification":"Y","stats":{"bg_long":{"max":-89.873741,"min":-89.873741,"median":-89.873741},"bg_lat":{"max":32.585072,"min":32.585072,"median":32.585072},"estimated borrowers":{"max":69800.0,"min":69800.0,"median":69800.0}},"features":[{"properties":{"bg_long":"-86.680733","bg_lat":"32.614361","estimated borrowers":"138163.388","id":"a6731b6p9m80","state":"Alabama"},"type":"Feature","geometry":{"type":"Point","coordinates":[-86.680733,32.614361]}},{"properties":{"bg_long":"-149.105682","bg_lat":"63.036541","estimated borrowers":"8890.163934","id":"a6731avt92d7","state":"Alaska"},"type":"Feature","geometry":{"type":"Point","coordinates":[-149.105682,63.036541]}},{"properties":{"bg_long":"-111.930702","bg_lat":"34.167881","estimated borrowers":"605359.5628","id":"a6731b1ohlze","state":"Arizona"},"type":"Feature","geometry":{"type":"Point","coordinates":[-111.930702,34.167881]}},{"properties":{"bg_long":"-92.130547","bg_lat":"34.7519","estimated borrowers":"67015.30055","id":"a6731b9kymcz","state":"Arkansas"},"type":"Feature","geometry":{"type":"Point","coordinates":[-92.130547,34.7519]}},{"properties":{"bg_long":"-119.270233","bg_lat":"37.271881","estimated borrowers":"595719.1257","id":"a6731b11dp51","state":"California"},"type":"Feature","geometry":{"type":"Point","coordinates":[-119.270233,37.271881]}},{"properties":{"bg_long":"-105.550957","bg_lat":"38.997921","estimated borrowers":"171548.0874","id":"a6731azql0cx","state":"Colorado"},"type":"Feature","geometry":{"type":"Point","coordinates":[-105.550957,38.997921]}},{"properties":{"bg_long":"-72.75753","bg_lat":"41.517761","estimated borrowers":"78190.71038","id":"a6731b75b9dc","state":"Connecticut"},"type":"Feature","geometry":{"type":"Point","coordinates":[-72.75753,41.517761]}},{"properties":{"bg_long":"-75.418762","bg_lat":"39.145271","estimated borrowers":"18967.21311","id":"a6731b0yod1m","state":"Delaware"},"type":"Feature","geometry":{"type":"Point","coordinates":[-75.418762,39.145271]}},{"properties":{"bg_long":"-77.014648","bg_lat":"38.89381","estimated borrowers":"83120.21858","id":"a6731b8dodyf","state":"District of Columbia"},"type":"Feature","geometry":{"type":"Point","coordinates":[-77.014648,38.89381]}},{"properties":{"bg_long":"-81.541061","bg_lat":"27.9758","estimated borrowers":"422371.0383","id":"a6731b8w86st","state":"Florida"},"type":"Feature","geometry":{"type":"Point","coordinates":[-81.541061,27.9758]}},{"properties":{"bg_long":"-83.222954","bg_lat":"32.67828","estimated borrowers":"220274.8634","id":"a6731auml8mf","state":"Georgia"},"type":"Feature","geometry":{"type":"Point","coordinates":[-83.222954,32.67828]}},{"properties":{"bg_long":"-155.434143","bg_lat":"19.59009","estimated borrowers":"13776.50273","id":"a6731b0e2ezv","state":"Hawaii"},"type":"Feature","geometry":{"type":"Point","coordinates":[-155.434143,19.59009]}},{"properties":{"bg_long":"-114.14328","bg_lat":"45.494411","estimated borrowers":"37795.62842","id":"a6731az8fv0z","state":"Idaho"},"type":"Feature","geometry":{"type":"Point","coordinates":[-114.14328,45.494411]}},{"properties":{"bg_long":"-89.504089","bg_lat":"39.739262","estimated borrowers":"434226.776","id":"a6731axwrik0","state":"Illinois"},"type":"Feature","geometry":{"type":"Point","coordinates":[-89.504089,39.739262]}},{"properties":{"bg_long":"-86.441048","bg_lat":"39.766178","estimated borrowers":"222617.4863","id":"a6731b1dhpoi","state":"Indiana"},"type":"Feature","geometry":{"type":"Point","coordinates":[-86.441048,39.766178]}},{"properties":{"bg_long":"-93.389893","bg_lat":"41.938251","estimated borrowers":"240170.4918","id":"a6731b79n1c7","state":"Iowa"},"type":"Feature","geometry":{"type":"Point","coordinates":[-93.389893,41.938251]}},{"properties":{"bg_long":"-98.320229","bg_lat":"38.498089","estimated borrowers":"82391.25683","id":"a6731avpurd5","state":"Kansas"},"type":"Feature","geometry":{"type":"Point","coordinates":[-98.320229,38.498089]}},{"properties":{"bg_long":"-85.69091","bg_lat":"37.822449","estimated borrowers":"118682.5137","id":"a6731awefy1t","state":"Kentucky"},"type":"Feature","geometry":{"type":"Point","coordinates":[-85.69091,37.822449]}},{"properties":{"bg_long":"-91.523819","bg_lat":"30.974199","estimated borrowers":"92218.57923","id":"a6731avnnswz","state":"Louisiana"},"type":"Feature","geometry":{"type":"Point","coordinates":[-91.523819,30.974199]}},{"properties":{"bg_long":"-69.012489","bg_lat":"45.262321","estimated borrowers":"33340.98361","id":"a6731avun676","state":"Maine"},"type":"Feature","geometry":{"type":"Point","coordinates":[-69.012489,45.262321]}},{"properties":{"bg_long":"-75.923813","bg_lat":"38.823502","estimated borrowers":"111081.9672","id":"a6731b58pbc0","state":"Maryland"},"type":"Feature","geometry":{"type":"Point","coordinates":[-75.923813,38.823502]}},{"properties":{"bg_long":"-71.718178","bg_lat":"42.184189","estimated borrowers":"201032.7869","id":"a6731au5ivcw","state":"Massachusetts"},"type":"Feature","geometry":{"type":"Point","coordinates":[-71.718178,42.184189]}},{"properties":{"bg_long":"-84.621674","bg_lat":"43.742699","estimated borrowers":"315431.694","id":"a6731b07bi00","state":"Michigan"},"type":"Feature","geometry":{"type":"Point","coordinates":[-84.621674,43.742699]}},{"properties":{"bg_long":"-93.36586","bg_lat":"46.44231","estimated borrowers":"251175.4098","id":"a6731b03u1e5","state":"Minnesota"},"type":"Feature","geometry":{"type":"Point","coordinates":[-93.36586,46.44231]}},{"properties":{"bg_long":-89.873741,"bg_lat":32.585072,"estimated borrowers":69800.0,"id":"a6731b2fs03p","state":"Mississippi"},"type":"Feature","geometry":{"type":"Point","coordinates":[-89.873741,32.585072]}},{"properties":{"bg_long":"-92.436592","bg_lat":"38.2589","estimated borrowers":"193035.5191","id":"a6731b9jjpkw","state":"Missouri"},"type":"Feature","geometry":{"type":"Point","coordinates":[-92.436592,38.2589]}},{"properties":{"bg_long":"-110.04454","bg_lat":"46.679489","estimated borrowers":"22787.97814","id":"a6731b3pye52","state":"Montana"},"type":"Feature","geometry":{"type":"Point","coordinates":[-110.04454,46.679489]}},{"properties":{"bg_long":"-99.680946","bg_lat":"41.500751","estimated borrowers":"55335.51913","id":"a6731ayei2yd","state":"Nebraska"},"type":"Feature","geometry":{"type":"Point","coordinates":[-99.680946,41.500751]}},{"properties":{"bg_long":"-117.022583","bg_lat":"38.502048","estimated borrowers":"25407.10383","id":"a6731b0wbjr3","state":"Nevada"},"type":"Feature","geometry":{"type":"Point","coordinates":[-117.022583,38.502048]}},{"properties":{"bg_long":"-71.634201","bg_lat":"44.001179","estimated borrowers":"42279.23497","id":"a6731b223qo5","state":"New Hampshire"},"type":"Feature","geometry":{"type":"Point","coordinates":[-71.634201,44.001179]}},{"properties":{"bg_long":"-74.726707","bg_lat":"40.14323","estimated borrowers":"146493.4426","id":"a6731azkjaj3","state":"New Jersey"},"type":"Feature","geometry":{"type":"Point","coordinates":[-74.726707,40.14323]}},{"properties":{"bg_long":"-106.026123","bg_lat":"34.166119","estimated borrowers":"34107.10383","id":"a6731atpwea3","state":"New Mexico"},"type":"Feature","geometry":{"type":"Point","coordinates":[-106.026123,34.166119]}},{"properties":{"bg_long":"-74.007124","bg_lat":"40.71455","estimated borrowers":"512168.8525","id":"a6731avalsvm","state":"New York"},"type":"Feature","geometry":{"type":"Point","coordinates":[-74.007124,40.71455]}},{"properties":{"bg_long":"-80.019547","bg_lat":"35.21962","estimated borrowers":"160425.1366","id":"a6731b3t4ywk","state":"North Carolina"},"type":"Feature","geometry":{"type":"Point","coordinates":[-80.019547,35.21962]}},{"properties":{"bg_long":"-100.301849","bg_lat":"47.467838","estimated borrowers":"26510.38251","id":"a6731b3rxusf","state":"North Dakota"},"type":"Feature","geometry":{"type":"Point","coordinates":[-100.301849,47.467838]}},{"properties":{"bg_long":"-82.669472","bg_lat":"40.190331","estimated borrowers":"375567.2131","id":"a6731ausoyki","state":"Ohio"},"type":"Feature","geometry":{"type":"Point","coordinates":[-82.669472,40.190331]}},{"properties":{"bg_long":"-98.521019","bg_lat":"35.309139","estimated borrowers":"82503.27869","id":"a6731av9we2c","state":"Oklahoma"},"type":"Feature","geometry":{"type":"Point","coordinates":[-98.521019,35.309139]}},{"properties":{"bg_long":"-120.514839","bg_lat":"44.115589","estimated borrowers":"111452.459","id":"a6731az700mn","state":"Oregon"},"type":"Feature","geometry":{"type":"Point","coordinates":[-120.514839,44.115589]}},{"properties":{"bg_long":"-77.604538","bg_lat":"40.994709","estimated borrowers":"466213.1148","id":"a6731b285oy3","state":"Pennsylvania"},"type":"Feature","geometry":{"type":"Point","coordinates":[-77.604538,40.994709]}},{"properties":{"bg_long":"-71.55587","bg_lat":"41.661221","estimated borrowers":"47159.56284","id":"a6731axym972","state":"Rhode Island"},"type":"Feature","geometry":{"type":"Point","coordinates":[-71.55587,41.661221]}},{"properties":{"bg_long":null,"bg_lat":null,"estimated borrowers":null,"id":"a6731axzi0of","state":"Source:  Data from Federal Student Aid Data Center, analyzed by research firm Student Lending Analytics"},"type":"Feature","geometry":null},{"properties":{"bg_long":"-80.947403","bg_lat":"33.626461","estimated borrowers":"103298.9071","id":"a6731b3r8p0m","state":"South Carolina"},"type":"Feature","geometry":{"type":"Point","coordinates":[-80.947403,33.626461]}},{"properties":{"bg_long":"-100.247063","bg_lat":"44.212559","estimated borrowers":"33442.62295","id":"a6731b0lzlo6","state":"South Dakota"},"type":"Feature","geometry":{"type":"Point","coordinates":[-100.247063,44.212559]}},{"properties":{"bg_long":"-85.978737","bg_lat":"35.83073","estimated borrowers":"150274.3169","id":"a6731b0qow0i","state":"Tennessee"},"type":"Feature","geometry":{"type":"Point","coordinates":[-85.978737,35.83073]}},{"properties":{"bg_long":"-100.077148","bg_lat":"31.1689","estimated borrowers":"444468.306","id":"a6731avcg0km","state":"Texas"},"type":"Feature","geometry":{"type":"Point","coordinates":[-100.077148,31.1689]}},{"properties":{"bg_long":"-111.547318","bg_lat":"39.499741","estimated borrowers":"69291.80328","id":"a6731b9psc8v","state":"Utah"},"type":"Feature","geometry":{"type":"Point","coordinates":[-111.547318,39.499741]}},{"properties":{"bg_long":"-72.451653","bg_lat":"43.871651","estimated borrowers":"25661.20219","id":"a6731aw6jory","state":"Vermont"},"type":"Feature","geometry":{"type":"Point","coordinates":[-72.451653,43.871651]}},{"properties":{"bg_long":"-79.771271","bg_lat":"38.003349","estimated borrowers":"189961.2022","id":"a6731atouztc","state":"Virginia"},"type":"Feature","geometry":{"type":"Point","coordinates":[-79.771271,38.003349]}},{"properties":{"bg_long":"-77.031959","bg_lat":"38.89037","estimated borrowers":"111295.082","id":"a6731avhvtgx","state":"Washington"},"type":"Feature","geometry":{"type":"Point","coordinates":[-77.031959,38.89037]}},{"properties":{"bg_long":"-80.635728","bg_lat":"39.687757","estimated borrowers":"62157.37705","id":"a6731ax9eaps","state":"West Virginia"},"type":"Feature","geometry":{"type":"Point","coordinates":[-80.635728,39.687757]}},{"properties":{"bg_long":"-90.101257","bg_lat":"44.7272","estimated borrowers":"153783.0601","id":"a6731ay0pchn","state":"Wisconsin"},"type":"Feature","geometry":{"type":"Point","coordinates":[-90.101257,44.7272]}},{"properties":{"bg_long":"-107.554047","bg_lat":"43.00029","estimated borrowers":"12926.22951","id":"a6731b6ttib6","state":"Wyoming"},"type":"Feature","geometry":{"type":"Point","coordinates":[-107.554047,43.00029]}}],"is_temporal":false,"author":{"url":"","metadata":"","contact_name":"","contact_address":"","source":"","contact_phone":""},"source":"","pagination":{"sort":null,"start":0,"total":52,"limit":1000000},"state":"complete","tags":"loans,student","published":"2014-08-11T01:20:41-04:00","id":19548}