{"type":"FeatureCollection","data_type":"Dataset","url_type":null,"permissions":[{"permissions":{"download":true,"view":true},"group_id":"everyone"}],"classification":null,"title":"atlantic_city_hotels_1954_zip","count":24,"stream_id":195501,"contributor":{"url":"http://geocommons.com/users/34911","name":"JCReut"},"data_attributes":null,"calculation_params":null,"icon_link":null,"link":"http://geocommons.com/overlays/195501.json","extent":[-74.643,39.3586,-74.4215,39.4868],"geometry_types":["point"],"unique_name":null,"name":"atlantic_city_hotels_1954_zip","feature_count":24,"description":"","next_feature":null,"is_raster":false,"short_classification":"Y","stats":{},"features":[{"properties":{"city":"Atlantic City","name":"Bay State","zip":"08401","geo_score":0.604,"id":"a6gm4n3hflih","geo_precision":"street","address":"N. Tennesee Aveue","state":"NJ"},"type":"Feature","geometry":{"type":"Point","coordinates":[-74.428046,39.362137]}},{"properties":{"city":"Atlantic City","name":"Randell","zip":"08401","geo_score":0.683,"id":"a6gm4n4yq8uz","geo_precision":"zip","address":"1601 Artic Avenue","state":"NJ"},"type":"Feature","geometry":{"type":"Point","coordinates":[-74.643014,39.486848]}},{"properties":{"city":"Atlantic City","name":"Ridley","zip":"08401","geo_score":0.683,"id":"a6gm4n4rtyop","geo_precision":"zip","address":"1806 Artic Avenue","state":"NJ"},"type":"Feature","geometry":{"type":"Point","coordinates":[-74.643014,39.486848]}},{"properties":{"city":"Atlantic City","name":"Wright","zip":"08401","geo_score":0.683,"id":"a6gm4my990z9","geo_precision":"zip","address":"1702 Artic Avenue","state":"NJ"},"type":"Feature","geometry":{"type":"Point","coordinates":[-74.643014,39.486848]}},{"properties":{"city":"Atlantic City","name":"Lincoln","zip":"08401","geo_score":0.61,"id":"a6gm4n3k91s1","geo_precision":"street","address":"911 N. Indiana Ave.","state":"NJ"},"type":"Feature","geometry":{"type":"Point","coordinates":[-74.433593,39.360876]}},{"properties":{"city":"Atlantic City","name":"Attucks","zip":"08401","geo_score":1.0,"id":"a6gm4n8uwagt","geo_precision":"range","address":"1120 Drexel Ave.","state":"NJ"},"type":"Feature","geometry":{"type":"Point","coordinates":[-74.427807,39.368304]}},{"properties":{"city":"Atlantic City","name":"Villanova","zip":"08401","geo_score":1.0,"id":"a6gm4nati6p7","geo_precision":"range","address":"1124 Drexel Ave.","state":"NJ"},"type":"Feature","geometry":{"type":"Point","coordinates":[-74.427839,39.368287]}},{"properties":{"city":"Atlantic City","name":"Burton's","zip":"08401","geo_score":0.607,"id":"a6gm4n1kd0t4","geo_precision":"street","address":"10 N. Delaware Ave.","state":"NJ"},"type":"Feature","geometry":{"type":"Point","coordinates":[-74.421491,39.36672]}},{"properties":{"city":"Atlantic City","name":"Johnson's","zip":"08401","geo_score":0.607,"id":"a6gm4n36fxai","geo_precision":"street","address":"11 N. Kentucky Ave","state":"NJ"},"type":"Feature","geometry":{"type":"Point","coordinates":[-74.430568,39.361118]}},{"properties":{"city":"Atlantic City","name":"Albright","zip":"08401","geo_score":1.0,"id":"a6gm4n4t302g","geo_precision":"zip","address":"228 N. Virginia Ave.","state":"NJ"},"type":"Feature","geometry":{"type":"Point","coordinates":[-74.643014,39.486848]}},{"properties":{"city":"Atlantic City","name":"Liberty","zip":"08401","geo_score":1.0,"id":"a6gm4mzlcb3d","geo_precision":"range","address":"1519 Baltic Ave.","state":"NJ"},"type":"Feature","geometry":{"type":"Point","coordinates":[-74.431374,39.364362]}},{"properties":{"city":"Atlantic City","name":"Murphy's","zip":"08401","geo_score":0.683,"id":"a6gm4n0cm3c2","geo_precision":"zip","address":"234 Virginia Ave.","state":"NJ"},"type":"Feature","geometry":{"type":"Point","coordinates":[-74.643014,39.486848]}},{"properties":{"city":"Atlantic City","name":"Washington","zip":"08401","geo_score":0.683,"id":"a6gm4n5u0wpn","geo_precision":"zip","address":"1109 Artic Ave","state":"NJ"},"type":"Feature","geometry":{"type":"Point","coordinates":[-74.643014,39.486848]}},{"properties":{"city":"Atlantic City","name":"Shore","zip":"08401","geo_score":0.683,"id":"a6gm4n387qtt","geo_precision":"zip","address":"800 Artic Ave","state":"NJ"},"type":"Feature","geometry":{"type":"Point","coordinates":[-74.643014,39.486848]}},{"properties":{"city":"Atlantic City","name":"Newsome's","zip":"08401","geo_score":0.61,"id":"a6gm4n5x4o9v","geo_precision":"street","address":"225 N. Indiana Ave","state":"NJ"},"type":"Feature","geometry":{"type":"Point","coordinates":[-74.433593,39.360876]}},{"properties":{"city":"Atlantic City","name":"A.R.S. Goss","zip":"08401","geo_score":0.61,"id":"a6gm4n9gggkr","geo_precision":"street","address":"324 N. Indiana Ave","state":"NJ"},"type":"Feature","geometry":{"type":"Point","coordinates":[-74.433593,39.360876]}},{"properties":{"city":"Atlantic City","name":"E. Satchell","zip":"08401","geo_score":0.607,"id":"a6gm4n6k072c","geo_precision":"street","address":"27 N. Michigan Ave","state":"NJ"},"type":"Feature","geometry":{"type":"Point","coordinates":[-74.435301,39.358629]}},{"properties":{"city":"Atlantic City","name":"Bailey's Cottage","zip":"08401","geo_score":0.683,"id":"a6gm4n58zs5u","geo_precision":"zip","address":"1812 Artic Ave","state":"NJ"},"type":"Feature","geometry":{"type":"Point","coordinates":[-74.643014,39.486848]}},{"properties":{"city":"Atlantic City","name":"D. Austin","zip":"08401","geo_score":1.0,"id":"a6gm4mzyx3gw","geo_precision":"range","address":"813 Baltic Ave","state":"NJ"},"type":"Feature","geometry":{"type":"Point","coordinates":[-74.422487,39.367965]}},{"properties":{"city":"Atlantic City","name":"R. Brown","zip":"08401","geo_score":1.0,"id":"a6gm4n64tpzz","geo_precision":"zip","address":"113 N. Penn Ave","state":"NJ"},"type":"Feature","geometry":{"type":"Point","coordinates":[-74.643014,39.486848]}},{"properties":{"city":"Atlantic City","name":"M. Conte","zip":"08401","geo_score":0.61,"id":"a6gm4mzho2w5","geo_precision":"street","address":"128 N. Indiana Ave","state":"NJ"},"type":"Feature","geometry":{"type":"Point","coordinates":[-74.433593,39.360876]}},{"properties":{"city":"Atlantic City","name":"Burton's","zip":"08401","geo_score":0.607,"id":"a6gm4n4tou1z","geo_precision":"street","address":"10-12 N. Delaware Ave.","state":"NJ"},"type":"Feature","geometry":{"type":"Point","coordinates":[-74.421491,39.36672]}},{"properties":{"city":"Atlantic City","name":"Mrs. V. Jones","zip":"08401","geo_score":0.683,"id":"a6gm4n5un6cv","geo_precision":"zip","address":"1720 Artic Ave.","state":"NJ"},"type":"Feature","geometry":{"type":"Point","coordinates":[-74.643014,39.486848]}},{"properties":{"city":"Atlantic City","name":"Robert's","zip":"08401","geo_score":0.61,"id":"a6gm4n9ulpc3","geo_precision":"street","address":"303 No. Indiana Ave.","state":"NJ"},"type":"Feature","geometry":{"type":"Point","coordinates":[-74.433593,39.360876]}}],"is_temporal":false,"author":{"url":"","metadata":null,"contact_name":null,"contact_address":null,"source":null,"contact_phone":null},"source":"","pagination":{"sort":null,"start":0,"total":24,"limit":1000000},"state":"complete","tags":"","published":"2014-08-13T04:26:43-04:00","id":195501}