{"type":"FeatureCollection","data_type":"Dataset","url_type":null,"permissions":[{"permissions":{"download":true,"view":true},"group_id":"everyone"}],"classification":null,"title":"atlantic_city_hotels_1954_zip","count":24,"stream_id":195510,"contributor":{"url":"http://geocommons.com/users/34911","name":"JCReut"},"data_attributes":null,"calculation_params":null,"icon_link":null,"link":"http://geocommons.com/overlays/195510.json","extent":[-74.643,39.3586,-74.4215,39.4868],"geometry_types":["point"],"unique_name":null,"name":"atlantic_city_hotels_1954_zip","feature_count":24,"description":"","next_feature":null,"is_raster":false,"short_classification":"Y","stats":{},"features":[{"properties":{"city":"Atlantic City","name":"Bay State","zip":"08401","geo_score":0.604,"id":"a6rp7nid764e","geo_precision":"street","address":"N. Tennesee Aveue","state":"NJ"},"type":"Feature","geometry":{"type":"Point","coordinates":[-74.428046,39.362137]}},{"properties":{"city":"Atlantic City","name":"Randell","zip":"08401","geo_score":1.0,"id":"a6rp7ns16uz0","geo_precision":"range","address":"1601 Arctic Avenue","state":"NJ"},"type":"Feature","geometry":{"type":"Point","coordinates":[-74.431592,39.362643]}},{"properties":{"city":"Atlantic City","name":"Ridley","zip":"08401","geo_score":1.0,"id":"a6rp7nqebn4x","geo_precision":"range","address":"1806 Arctic Avenue","state":"NJ"},"type":"Feature","geometry":{"type":"Point","coordinates":[-74.434343,39.361499]}},{"properties":{"city":"Atlantic City","name":"Wright","zip":"08401","geo_score":1.0,"id":"a6rp7nmvd4px","geo_precision":"range","address":"1702 Arctic Avenue","state":"NJ"},"type":"Feature","geometry":{"type":"Point","coordinates":[-74.432988,39.362062]}},{"properties":{"city":"Atlantic City","name":"Lincoln","zip":"08401","geo_score":0.61,"id":"a6rp7nlsidvt","geo_precision":"street","address":"911 N. Indiana Ave.","state":"NJ"},"type":"Feature","geometry":{"type":"Point","coordinates":[-74.433593,39.360876]}},{"properties":{"city":"Atlantic City","name":"Attucks","zip":"08401","geo_score":1.0,"id":"a6rp7nprc0k6","geo_precision":"range","address":"1120 Drexel Ave.","state":"NJ"},"type":"Feature","geometry":{"type":"Point","coordinates":[-74.427807,39.368304]}},{"properties":{"city":"Atlantic City","name":"Villanova","zip":"08401","geo_score":1.0,"id":"a6rp7nh2xl86","geo_precision":"range","address":"1124 Drexel Ave.","state":"NJ"},"type":"Feature","geometry":{"type":"Point","coordinates":[-74.427839,39.368287]}},{"properties":{"city":"Atlantic City","name":"Burton's","zip":"08401","geo_score":0.607,"id":"a6rp7nq1wvig","geo_precision":"street","address":"10 N. Delaware Ave.","state":"NJ"},"type":"Feature","geometry":{"type":"Point","coordinates":[-74.421491,39.36672]}},{"properties":{"city":"Atlantic City","name":"Johnson's","zip":"08401","geo_score":0.607,"id":"a6rp7nkt03g7","geo_precision":"street","address":"11 N. Kentucky Ave","state":"NJ"},"type":"Feature","geometry":{"type":"Point","coordinates":[-74.430568,39.361118]}},{"properties":{"city":"Atlantic City","name":"Albright","zip":"08401","geo_score":1.0,"id":"a6rp7no22uhs","geo_precision":"zip","address":"228 N. Virginia Ave.","state":"NJ"},"type":"Feature","geometry":{"type":"Point","coordinates":[-74.643014,39.486848]}},{"properties":{"city":"Atlantic City","name":"Liberty","zip":"08401","geo_score":1.0,"id":"a6rp7no55b8l","geo_precision":"range","address":"1519 Baltic Ave.","state":"NJ"},"type":"Feature","geometry":{"type":"Point","coordinates":[-74.431374,39.364362]}},{"properties":{"city":"Atlantic City","name":"Murphy's","zip":"08401","geo_score":0.683,"id":"a6rp7nircr6j","geo_precision":"zip","address":"234 Virginia Ave.","state":"NJ"},"type":"Feature","geometry":{"type":"Point","coordinates":[-74.643014,39.486848]}},{"properties":{"city":"Atlantic City","name":"Washington","zip":"08401","geo_score":1.0,"id":"a6rp7nmnj91z","geo_precision":"range","address":"1109 Arctic Ave","state":"NJ"},"type":"Feature","geometry":{"type":"Point","coordinates":[-74.425485,39.365092]}},{"properties":{"city":"Atlantic City","name":"Shore","zip":"08401","geo_score":1.0,"id":"a6rp7nqeuvjz","geo_precision":"range","address":"800 Arctic Ave","state":"NJ"},"type":"Feature","geometry":{"type":"Point","coordinates":[-74.421491,39.36672]}},{"properties":{"city":"Atlantic City","name":"Newsome's","zip":"08401","geo_score":0.61,"id":"a6rp7nl68nd4","geo_precision":"street","address":"225 N. Indiana Ave","state":"NJ"},"type":"Feature","geometry":{"type":"Point","coordinates":[-74.433593,39.360876]}},{"properties":{"city":"Atlantic City","name":"A.R.S. Goss","zip":"08401","geo_score":0.61,"id":"a6rp7nf1342z","geo_precision":"street","address":"324 N. Indiana Ave","state":"NJ"},"type":"Feature","geometry":{"type":"Point","coordinates":[-74.433593,39.360876]}},{"properties":{"city":"Atlantic City","name":"E. Satchell","zip":"08401","geo_score":0.607,"id":"a6rp7nhd8qxa","geo_precision":"street","address":"27 N. Michigan Ave","state":"NJ"},"type":"Feature","geometry":{"type":"Point","coordinates":[-74.435301,39.358629]}},{"properties":{"city":"Atlantic City","name":"Bailey's Cottage","zip":"08401","geo_score":1.0,"id":"a6rp7nn1b4v4","geo_precision":"range","address":"1812 Arctic Ave","state":"NJ"},"type":"Feature","geometry":{"type":"Point","coordinates":[-74.434728,39.36137]}},{"properties":{"city":"Atlantic City","name":"D. Austin","zip":"08401","geo_score":1.0,"id":"a6rp7npirpat","geo_precision":"range","address":"813 Baltic Ave","state":"NJ"},"type":"Feature","geometry":{"type":"Point","coordinates":[-74.422487,39.367965]}},{"properties":{"city":"Atlantic City","name":"R. Brown","zip":"08401","geo_score":1.0,"id":"a6rp7nilyaxh","geo_precision":"zip","address":"113 N. Penn Ave","state":"NJ"},"type":"Feature","geometry":{"type":"Point","coordinates":[-74.643014,39.486848]}},{"properties":{"city":"Atlantic City","name":"M. Conte","zip":"08401","geo_score":0.61,"id":"a6rp7ngol8pr","geo_precision":"street","address":"128 N. Indiana Ave","state":"NJ"},"type":"Feature","geometry":{"type":"Point","coordinates":[-74.433593,39.360876]}},{"properties":{"city":"Atlantic City","name":"Burton's","zip":"08401","geo_score":0.607,"id":"a6rp7nfswkeq","geo_precision":"street","address":"10-12 N. Delaware Ave.","state":"NJ"},"type":"Feature","geometry":{"type":"Point","coordinates":[-74.421491,39.36672]}},{"properties":{"city":"Atlantic City","name":"Mrs. V. Jones","zip":"08401","geo_score":1.0,"id":"a6rp7nnnznrs","geo_precision":"range","address":"1720 Arctic Ave.","state":"NJ"},"type":"Feature","geometry":{"type":"Point","coordinates":[-74.433648,39.361809]}},{"properties":{"city":"Atlantic City","name":"Robert's","zip":"08401","geo_score":0.61,"id":"a6rp7ng2k6vp","geo_precision":"street","address":"303 No. Indiana Ave.","state":"NJ"},"type":"Feature","geometry":{"type":"Point","coordinates":[-74.433593,39.360876]}}],"is_temporal":false,"author":{"url":"","metadata":"","contact_name":"","contact_address":"","source":"","contact_phone":""},"source":"","pagination":{"sort":null,"start":0,"total":24,"limit":1000000},"state":"complete","tags":"","published":"2014-08-13T04:26:53-04:00","id":195510}