{"type":"FeatureCollection","data_type":"Dataset","url_type":null,"permissions":[{"permissions":{"download":true,"view":true},"group_id":"everyone"}],"classification":null,"title":"ezb20032009bm","count":77,"stream_id":19703,"contributor":{"url":"http://geocommons.com/users/10321","name":"mbrueckmann"},"data_attributes":null,"calculation_params":null,"icon_link":null,"link":"http://geocommons.com/overlays/19703.json","extent":[7.73772,50.4746,8.12508,50.7099],"geometry_types":["point"],"unique_name":null,"name":"ezb20032009bm","feature_count":77,"description":"","next_feature":null,"is_raster":false,"short_classification":"Y","stats":{"s3":{"max":119.0,"mean":10.7272727272727,"variance":237.069377990431,"stdev":15.3970574458378,"min":0.0,"median":6.0},"latitude":{"max":50.7099098795377,"mean":50.5829262284426,"variance":0.00322404762736053,"stdev":0.0567806976653205,"min":50.4746300354798,"median":50.582226560741},"s9":{"max":162.0,"mean":13.8311688311688,"variance":383.010594668489,"stdev":19.5706564700444,"min":2.0,"median":10.0},"longitude":{"max":8.12507629394531,"mean":7.95697091493697,"variance":0.0071048942024354,"stdev":0.0842905344771013,"min":7.73772239685059,"median":7.95427322387695}},"features":[{"properties":{"s3":12.0,"city":"Ailertchen","latitude":50.5990095471964,"zip":"56459","country":"Germany","s9":8.0,"longitude":7.94088363647461,"id":"a6m92vs597zy"},"type":"Feature","geometry":{"type":"Point","coordinates":[7.94088363647461,50.5990095471964]}},{"properties":{"s3":3.0,"city":"Arnshoefen","latitude":50.5388246340748,"zip":"56244","country":"Germany","s9":2.0,"longitude":7.86775588989258,"id":"a6m92vsbxrwo"},"type":"Feature","geometry":{"type":"Point","coordinates":[7.86775588989258,50.5388246340748]}},{"properties":{"s3":36.0,"city":"Bad Marienberg","latitude":50.6520146242811,"zip":"56470","country":"Germany","s9":29.0,"longitude":7.95427322387695,"id":"a6m92w58sc3p"},"type":"Feature","geometry":{"type":"Point","coordinates":[7.95427322387695,50.6520146242811]}},{"properties":{"s3":9.0,"city":"Bellingen","latitude":50.5909457419892,"zip":"56459","country":"Germany","s9":5.0,"longitude":7.90363311767578,"id":"a6m92vzlm0n0"},"type":"Feature","geometry":{"type":"Point","coordinates":[7.90363311767578,50.5909457419892]}},{"properties":{"s3":7.0,"city":"Berod","latitude":50.4809660356304,"zip":"56414","country":"Germany","s9":11.0,"longitude":7.93556213378906,"id":"a6m92w6vcoar"},"type":"Feature","geometry":{"type":"Point","coordinates":[7.93556213378906,50.4809660356304]}},{"properties":{"s3":5.0,"city":"Berzhahn","latitude":50.5716523877101,"zip":"56459","country":"Germany","s9":10.0,"longitude":8.00971984863281,"id":"a6m92vsadehf"},"type":"Feature","geometry":{"type":"Point","coordinates":[8.00971984863281,50.5716523877101]}},{"properties":{"s3":12.0,"city":"Bilkheim","latitude":50.4970207148907,"zip":"56414","country":"Germany","s9":18.0,"longitude":7.94912338256836,"id":"a6m92vuohi97"},"type":"Feature","geometry":{"type":"Point","coordinates":[7.94912338256836,50.4970207148907]}},{"properties":{"s3":6.0,"city":"Brandscheid","latitude":50.5588948141899,"zip":"56459","country":"Germany","s9":15.0,"longitude":7.9185676574707,"id":"a6m92vxnurtl"},"type":"Feature","geometry":{"type":"Point","coordinates":[7.9185676574707,50.5588948141899]}},{"properties":{"s3":4.0,"city":"Dornburg","latitude":50.5028077987334,"zip":"65599","country":"Germany","s9":2.0,"longitude":8.02602767944336,"id":"a6m92w31ae3l"},"type":"Feature","geometry":{"type":"Point","coordinates":[8.02602767944336,50.5028077987334]}},{"properties":{"s3":6.0,"city":"Dreisbach","latitude":50.6152419371447,"zip":"56472","country":"Germany","s9":3.0,"longitude":7.93144226074219,"id":"a6m92w1mvoj4"},"type":"Feature","geometry":{"type":"Point","coordinates":[7.93144226074219,50.6152419371447]}},{"properties":{"s3":3.0,"city":"Elbingen","latitude":50.5268220762104,"zip":"56459","country":"Germany","s9":12.0,"longitude":7.90981292724609,"id":"a6m92w41ljn8"},"type":"Feature","geometry":{"type":"Point","coordinates":[7.90981292724609,50.5268220762104]}},{"properties":{"s3":10.0,"city":"Elsoff","latitude":50.5747049700364,"zip":"56479","country":"Germany","s9":21.0,"longitude":8.11460494995117,"id":"a6m92w0qbsqn"},"type":"Feature","geometry":{"type":"Point","coordinates":[8.11460494995117,50.5747049700364]}},{"properties":{"s3":6.0,"city":"Enspel","latitude":50.6152419371447,"zip":"57647","country":"Germany","s9":8.0,"longitude":7.88509368896484,"id":"a6m92w2dthqk"},"type":"Feature","geometry":{"type":"Point","coordinates":[7.88509368896484,50.6152419371447]}},{"properties":{"s3":4.0,"city":"Ewighausen","latitude":50.510777526907,"zip":"56244","country":"Germany","s9":8.0,"longitude":7.8965950012207,"id":"a6m92w84ay9a"},"type":"Feature","geometry":{"type":"Point","coordinates":[7.8965950012207,50.510777526907]}},{"properties":{"s3":3.0,"city":"Fehl-Ritzhausen","latitude":50.6440977883204,"zip":"56472","country":"Germany","s9":2.0,"longitude":8.00388336181641,"id":"a6m92w808t2p"},"type":"Feature","geometry":{"type":"Point","coordinates":[8.00388336181641,50.6440977883204]}},{"properties":{"s3":9.0,"city":"Freilingen","latitude":50.5608577426246,"zip":"56244","country":"Germany","s9":16.0,"longitude":7.83359527587891,"id":"a6m92w0m8ta0"},"type":"Feature","geometry":{"type":"Point","coordinates":[7.83359527587891,50.5608577426246]}},{"properties":{"s3":1.0,"city":"Friedewald","latitude":50.7099098795377,"zip":"57520","country":"Germany","s9":2.0,"longitude":7.96062469482422,"id":"a6m92w0wj6y2"},"type":"Feature","geometry":{"type":"Point","coordinates":[7.96062469482422,50.7099098795377]}},{"properties":{"s3":0.0,"city":"Gehlert","latitude":50.6378925531058,"zip":"57627","country":"Germany","s9":2.0,"longitude":7.82878875732422,"id":"a6m92vym9w8a"},"type":"Feature","geometry":{"type":"Point","coordinates":[7.82878875732422,50.6378925531058]}},{"properties":{"s3":22.0,"city":"Gemuenden","latitude":50.56050151398,"zip":"56459","country":"Germany","s9":23.0,"longitude":8.01813125610351,"id":"a6m92vs11vgc"},"type":"Feature","geometry":{"type":"Point","coordinates":[8.01813125610351,50.56050151398]}},{"properties":{"s3":12.0,"city":"Girkenroth","latitude":50.5203830823897,"zip":"56459","country":"Germany","s9":18.0,"longitude":7.97075271606445,"id":"a6m92w5hd93m"},"type":"Feature","geometry":{"type":"Point","coordinates":[7.97075271606445,50.5203830823897]}},{"properties":{"s3":3.0,"city":"Grossseifen","latitude":50.6332108685447,"zip":"56472","country":"Germany","s9":2.0,"longitude":7.96680450439453,"id":"a6m92vzp1lc0"},"type":"Feature","geometry":{"type":"Point","coordinates":[7.96680450439453,50.6332108685447]}},{"properties":{"s3":11.0,"city":"Guckheim","latitude":50.5292228320819,"zip":"56459","country":"Germany","s9":16.0,"longitude":7.94448852539062,"id":"a6m92w38e132"},"type":"Feature","geometry":{"type":"Point","coordinates":[7.94448852539062,50.5292228320819]}},{"properties":{"s3":3.0,"city":"Hachenburg","latitude":50.6595528815096,"zip":"57627","country":"Germany","s9":14.0,"longitude":7.82415390014648,"id":"a6m92w7gvubm"},"type":"Feature","geometry":{"type":"Point","coordinates":[7.82415390014648,50.6595528815096]}},{"properties":{"s3":4.0,"city":"Haertlingen","latitude":50.5391519337855,"zip":"56459","country":"Germany","s9":6.0,"longitude":7.91358947753906,"id":"a6m92w6e61e6"},"type":"Feature","geometry":{"type":"Point","coordinates":[7.91358947753906,50.5391519337855]}},{"properties":{"s3":2.0,"city":"Hahn","latitude":50.5236572568332,"zip":"56244","country":"Germany","s9":7.0,"longitude":7.89024353027344,"id":"a6m92vv4g9wg"},"type":"Feature","geometry":{"type":"Point","coordinates":[7.89024353027344,50.5236572568332]}},{"properties":{"s3":2.0,"city":"Hahn","latitude":50.6314687273458,"zip":"56472","country":"Germany","s9":3.0,"longitude":7.94345855712891,"id":"a6m92vy5xm7n"},"type":"Feature","geometry":{"type":"Point","coordinates":[7.94345855712891,50.6314687273458]}},{"properties":{"s3":3.0,"city":"Halbs","latitude":50.5892020349059,"zip":"56457","country":"Germany","s9":6.0,"longitude":7.96405792236328,"id":"a6m92w4h153t"},"type":"Feature","geometry":{"type":"Point","coordinates":[7.96405792236328,50.5892020349059]}},{"properties":{"s3":0.0,"city":"Hattert","latitude":50.6599881626164,"zip":"57644","country":"Germany","s9":2.0,"longitude":7.76218414306641,"id":"a6m92w2h24ut"},"type":"Feature","geometry":{"type":"Point","coordinates":[7.76218414306641,50.6599881626164]}},{"properties":{"s3":20.0,"city":"Hellenhahn","latitude":50.6117272105143,"zip":"56479","country":"Germany","s9":29.0,"longitude":8.02465438842773,"id":"a6m92w00epqg"},"type":"Feature","geometry":{"type":"Point","coordinates":[8.02465438842773,50.6117272105143]}},{"properties":{"s3":9.0,"city":"Hergenroth","latitude":50.582226560741,"zip":"56457","country":"Germany","s9":19.0,"longitude":7.97281265258789,"id":"a6m92w6s0dpw"},"type":"Feature","geometry":{"type":"Point","coordinates":[7.97281265258789,50.582226560741]}},{"properties":{"s3":0.0,"city":"Herschbach","latitude":50.5725245742733,"zip":"56249","country":"Germany","s9":6.0,"longitude":7.73772239685059,"id":"a6m92w32nxio"},"type":"Feature","geometry":{"type":"Point","coordinates":[7.73772239685059,50.5725245742733]}},{"properties":{"s3":25.0,"city":"Herschbach","latitude":50.5063015437927,"zip":"56414","country":"Germany","s9":21.0,"longitude":7.92612075805664,"id":"a6m92w6dt2ir"},"type":"Feature","geometry":{"type":"Point","coordinates":[7.92612075805664,50.5063015437927]}},{"properties":{"s3":40.0,"city":"Hoehn","latitude":50.6193518018401,"zip":"56462","country":"Germany","s9":44.0,"longitude":7.98688888549804,"id":"a6m92vt67ri6"},"type":"Feature","geometry":{"type":"Point","coordinates":[7.98688888549804,50.6193518018401]}},{"properties":{"s3":6.0,"city":"Hof","latitude":50.6666256996136,"zip":"56472","country":"Germany","s9":7.0,"longitude":8.01418304443359,"id":"a6m92vu7dayu"},"type":"Feature","geometry":{"type":"Point","coordinates":[8.01418304443359,50.6666256996136]}},{"properties":{"s3":5.0,"city":"Hueblingen","latitude":50.5659612,"zip":"56479","country":"Germany","s9":6.0,"longitude":8.0852628,"id":"a6m92w3qh2lg"},"type":"Feature","geometry":{"type":"Point","coordinates":[8.0852628,50.5659612]}},{"properties":{"s3":10.0,"city":"Irmtraut","latitude":50.5544233942299,"zip":"56479","country":"Germany","s9":12.0,"longitude":8.06087493896484,"id":"a6m92vu8mbi4"},"type":"Feature","geometry":{"type":"Point","coordinates":[8.06087493896484,50.5544233942299]}},{"properties":{"s3":11.0,"city":"Kaden","latitude":50.5467882822614,"zip":"56459","country":"Germany","s9":16.0,"longitude":7.91410446166992,"id":"a6m92vwpeflv"},"type":"Feature","geometry":{"type":"Point","coordinates":[7.91410446166992,50.5467882822614]}},{"properties":{"s3":20.0,"city":"Koelbingen","latitude":50.5519948360161,"zip":"56459","country":"Germany","s9":32.0,"longitude":7.93401718139648,"id":"a6m92vue8aie"},"type":"Feature","geometry":{"type":"Point","coordinates":[7.93401718139648,50.5519948360161]}},{"properties":{"s3":3.0,"city":"Kuhnhoefen","latitude":50.5317325826144,"zip":"56244","country":"Germany","s9":3.0,"longitude":7.86157608032227,"id":"a6m92w15r0rk"},"type":"Feature","geometry":{"type":"Point","coordinates":[7.86157608032227,50.5317325826144]}},{"properties":{"s3":28.0,"city":"Langenhahn","latitude":50.5851404005413,"zip":"56459","country":"Germany","s9":26.0,"longitude":7.91753768920898,"id":"a6m92vwrczxe"},"type":"Feature","geometry":{"type":"Point","coordinates":[7.91753768920898,50.5851404005413]}},{"properties":{"s3":5.0,"city":"Liebenscheid","latitude":50.6946888414854,"zip":"56479","country":"Germany","s9":4.0,"longitude":8.09640884399414,"id":"a6m92vz4xlcv"},"type":"Feature","geometry":{"type":"Point","coordinates":[8.09640884399414,50.6946888414854]}},{"properties":{"s3":6.0,"city":"Maehren","latitude":50.5236572568332,"zip":"56459","country":"Germany","s9":7.0,"longitude":7.92079925537109,"id":"a6m92w5mtv7u"},"type":"Feature","geometry":{"type":"Point","coordinates":[7.92079925537109,50.5236572568332]}},{"properties":{"s3":0.0,"city":"Maxsain","latitude":50.5422066215609,"zip":"56244","country":"Germany","s9":4.0,"longitude":7.78656005859375,"id":"a6m92vu0p2v0"},"type":"Feature","geometry":{"type":"Point","coordinates":[7.78656005859375,50.5422066215609]}},{"properties":{"s3":15.0,"city":"Meudt","latitude":50.4939339806828,"zip":"56414","country":"Germany","s9":32.0,"longitude":7.89762496948242,"id":"a6m92vtzl11c"},"type":"Feature","geometry":{"type":"Point","coordinates":[7.89762496948242,50.4939339806828]}},{"properties":{"s3":5.0,"city":"Neunkirchen","latitude":50.5446065945882,"zip":"56479","country":"Germany","s9":14.0,"longitude":8.10087203979492,"id":"a6m92w49843x"},"type":"Feature","geometry":{"type":"Point","coordinates":[8.10087203979492,50.5446065945882]}},{"properties":{"s3":8.0,"city":"Neustadt","latitude":50.6296176315795,"zip":"56479","country":"Germany","s9":9.0,"longitude":8.04079055786133,"id":"a6m92w6ahpwt"},"type":"Feature","geometry":{"type":"Point","coordinates":[8.04079055786133,50.6296176315795]}},{"properties":{"s3":1.0,"city":"Niederahr","latitude":50.4923250126372,"zip":"56414","country":"Germany","s9":3.0,"longitude":7.86397933959961,"id":"a6m92vv4r5xf"},"type":"Feature","geometry":{"type":"Point","coordinates":[7.86397933959961,50.4923250126372]}},{"properties":{"s3":6.0,"city":"Niederrossbach","latitude":50.6400699219281,"zip":"56479","country":"Germany","s9":4.0,"longitude":8.03289413452148,"id":"a6m92w33f7g9"},"type":"Feature","geometry":{"type":"Point","coordinates":[8.03289413452148,50.6400699219281]}},{"properties":{"s3":10.0,"city":"Nisterau","latitude":50.6594440606025,"zip":"56472","country":"Germany","s9":7.0,"longitude":7.98328399658203,"id":"a6m92w1eet1u"},"type":"Feature","geometry":{"type":"Point","coordinates":[7.98328399658203,50.6594440606025]}},{"properties":{"s3":4.0,"city":"Nisterberg","latitude":50.6789189861223,"zip":"56472","country":"Germany","s9":4.0,"longitude":7.97916412353516,"id":"a6m92w4cts7p"},"type":"Feature","geometry":{"type":"Point","coordinates":[7.97916412353516,50.6789189861223]}},{"properties":{"s3":5.0,"city":"Nistertal","latitude":50.6300531900818,"zip":"57647","country":"Germany","s9":13.0,"longitude":7.90140151977539,"id":"a6m92vxb9h8b"},"type":"Feature","geometry":{"type":"Point","coordinates":[7.90140151977539,50.6300531900818]}},{"properties":{"s3":0.0,"city":"Norken","latitude":50.6707600844499,"zip":"57629","country":"Germany","s9":2.0,"longitude":7.89728164672852,"id":"a6m92vz3snds"},"type":"Feature","geometry":{"type":"Point","coordinates":[7.89728164672852,50.6707600844499]}},{"properties":{"s3":9.0,"city":"Oberrod","latitude":50.5841885172946,"zip":"56479","country":"Germany","s9":16.0,"longitude":8.12507629394531,"id":"a6m92w7mab1z"},"type":"Feature","geometry":{"type":"Point","coordinates":[8.12507629394531,50.5841885172946]}},{"properties":{"s3":4.0,"city":"Oberrossbach","latitude":50.6511729338532,"zip":"56479","country":"Germany","s9":6.0,"longitude":8.0394172668457,"id":"a6m92vwvc8j4"},"type":"Feature","geometry":{"type":"Point","coordinates":[8.0394172668457,50.6511729338532]}},{"properties":{"s3":19.0,"city":"Pottum","latitude":50.5968302766061,"zip":"56459","country":"Germany","s9":13.0,"longitude":8.00045013427735,"id":"a6m92vwlv3oh"},"type":"Feature","geometry":{"type":"Point","coordinates":[8.00045013427735,50.5968302766061]}},{"properties":{"s3":16.0,"city":"Rehe","latitude":50.6341617604875,"zip":"56479","country":"Germany","s9":24.0,"longitude":8.12009811401367,"id":"a6m92vzrdi5i"},"type":"Feature","geometry":{"type":"Point","coordinates":[8.12009811401367,50.6341617604875]}},{"properties":{"s3":48.0,"city":"Rennerod","latitude":50.6069339776494,"zip":"56477","country":"Germany","s9":48.0,"longitude":8.0672264099121,"id":"a6m92w0zrrij"},"type":"Feature","geometry":{"type":"Point","coordinates":[8.0672264099121,50.6069339776494]}},{"properties":{"s3":9.0,"city":"Rotenhain","latitude":50.5995543490778,"zip":"56459","country":"Germany","s9":9.0,"longitude":7.88200378417969,"id":"a6m92vyucizq"},"type":"Feature","geometry":{"type":"Point","coordinates":[7.88200378417969,50.5995543490778]}},{"properties":{"s3":11.0,"city":"Rothenbach","latitude":50.5638019819902,"zip":"56459","country":"Germany","s9":13.0,"longitude":7.90105819702148,"id":"a6m92w5kzsqv"},"type":"Feature","geometry":{"type":"Point","coordinates":[7.90105819702148,50.5638019819902]}},{"properties":{"s3":11.0,"city":"Salz","latitude":50.5096858628324,"zip":"56414","country":"Germany","s9":23.0,"longitude":7.96174049377441,"id":"a6m92vwrwix8"},"type":"Feature","geometry":{"type":"Point","coordinates":[7.96174049377441,50.5096858628324]}},{"properties":{"s3":4.0,"city":"Salzburg","latitude":50.6660816745041,"zip":"56479","country":"Germany","s9":4.0,"longitude":8.04834365844727,"id":"a6m92vsbbgfw"},"type":"Feature","geometry":{"type":"Point","coordinates":[8.04834365844727,50.6660816745041]}},{"properties":{"s3":17.0,"city":"Seck","latitude":50.5766672399365,"zip":"56479","country":"Germany","s9":14.0,"longitude":8.04662704467773,"id":"a6m92w5zewp5"},"type":"Feature","geometry":{"type":"Point","coordinates":[8.04662704467773,50.5766672399365]}},{"properties":{"s3":2.0,"city":"Stahlhofen","latitude":50.5857144269913,"zip":"56459","country":"Germany","s9":11.0,"longitude":7.98912048339844,"id":"a6m92w1r35f0"},"type":"Feature","geometry":{"type":"Point","coordinates":[7.98912048339844,50.5857144269913]}},{"properties":{"s3":1.0,"city":"Stockhausen-Illfurth","latitude":50.6426826313608,"zip":"56472","country":"Germany","s9":2.0,"longitude":7.98517227172852,"id":"a6m92vuokr4q"},"type":"Feature","geometry":{"type":"Point","coordinates":[7.98517227172852,50.6426826313608]}},{"properties":{"s3":15.0,"city":"Stockum-Pueschen","latitude":50.604784126272,"zip":"56459","country":"Germany","s9":7.0,"longitude":7.90260314941406,"id":"a6m92vxndhzm"},"type":"Feature","geometry":{"type":"Point","coordinates":[7.90260314941406,50.604784126272]}},{"properties":{"s3":15.0,"city":"Unnau","latitude":50.649649146379,"zip":"57648","country":"Germany","s9":17.0,"longitude":7.90792465209961,"id":"a6m92w5yamec"},"type":"Feature","geometry":{"type":"Point","coordinates":[7.90792465209961,50.649649146379]}},{"properties":{"s3":12.0,"city":"Waldmuehlen","latitude":50.586477363297,"zip":"56479","country":"Germany","s9":10.0,"longitude":8.06327819824219,"id":"a6m92vtr0af5"},"type":"Feature","geometry":{"type":"Point","coordinates":[8.06327819824219,50.586477363297]}},{"properties":{"s3":7.0,"city":"Wallmerod","latitude":50.4838060358698,"zip":"56414","country":"Germany","s9":8.0,"longitude":7.95221328735352,"id":"a6m92vx6jfy3"},"type":"Feature","geometry":{"type":"Point","coordinates":[7.95221328735352,50.4838060358698]}},{"properties":{"s3":17.0,"city":"Weidenhahn","latitude":50.5453701967558,"zip":"56244","country":"Germany","s9":17.0,"longitude":7.83462524414062,"id":"a6m92w54mpbq"},"type":"Feature","geometry":{"type":"Point","coordinates":[7.83462524414062,50.5453701967558]}},{"properties":{"s3":3.0,"city":"Weltersburg","latitude":50.52147449911,"zip":"56459","country":"Germany","s9":6.0,"longitude":7.95753479003906,"id":"a6m92w1r6k2f"},"type":"Feature","geometry":{"type":"Point","coordinates":[7.95753479003906,50.52147449911]}},{"properties":{"s3":119.0,"city":"Westerburg","latitude":50.5644271552645,"zip":"56457","country":"Germany","s9":162.0,"longitude":7.97315597534179,"id":"a6m92w3jwreg"},"type":"Feature","geometry":{"type":"Point","coordinates":[7.97315597534179,50.5644271552645]}},{"properties":{"s3":16.0,"city":"Westernohe","latitude":50.5882211712906,"zip":"56479","country":"Germany","s9":17.0,"longitude":8.09795379638672,"id":"a6m92vy6nu37"},"type":"Feature","geometry":{"type":"Point","coordinates":[8.09795379638672,50.5882211712906]}},{"properties":{"s3":11.0,"city":"Willmenrod","latitude":50.5404611099157,"zip":"56459","country":"Germany","s9":12.0,"longitude":7.98139572143555,"id":"a6m92w7dldfa"},"type":"Feature","geometry":{"type":"Point","coordinates":[7.98139572143555,50.5404611099157]}},{"properties":{"s3":5.0,"city":"Winnen","latitude":50.5716523877101,"zip":"56459","country":"Germany","s9":11.0,"longitude":8.00971984863281,"id":"a6m92w7it83e"},"type":"Feature","geometry":{"type":"Point","coordinates":[8.00971984863281,50.5716523877101]}},{"properties":{"s3":6.0,"city":"Woelferlingen","latitude":50.5623844082199,"zip":"56244","country":"Germany","s9":11.0,"longitude":7.85058975219727,"id":"a6m92w0y2q5z"},"type":"Feature","geometry":{"type":"Point","coordinates":[7.85058975219727,50.5623844082199]}},{"properties":{"s3":8.0,"city":"Zehnhausen","latitude":50.6454040492255,"zip":"56477","country":"Germany","s9":5.0,"longitude":8.06070327758789,"id":"a6m92vs3pn4m"},"type":"Feature","geometry":{"type":"Point","coordinates":[8.06070327758789,50.6454040492255]}},{"properties":{"s3":1.0,"city":"Zehnhausen","latitude":50.4746300354798,"zip":"56414","country":"Germany","s9":4.0,"longitude":7.9240608215332,"id":"a6m92w11x6mt"},"type":"Feature","geometry":{"type":"Point","coordinates":[7.9240608215332,50.4746300354798]}}],"is_temporal":false,"author":{"url":"","metadata":"","contact_name":"","contact_address":"","source":"","contact_phone":""},"source":"","pagination":{"sort":null,"start":0,"total":77,"limit":1000000},"state":"complete","tags":"s3,s9","published":"2014-08-11T01:23:58-04:00","id":19703}