{"type":"FeatureCollection","data_type":"Dataset","url_type":null,"permissions":[{"permissions":{"download":true,"view":true},"group_id":"everyone"}],"classification":null,"title":"Dance Upon the Air, Global Reviews (GPS Visualizer Results)","count":102,"stream_id":19776,"contributor":{"url":"http://geocommons.com/users/2943","name":"Margot"},"data_attributes":null,"calculation_params":null,"icon_link":null,"link":"http://geocommons.com/overlays/19776.json","extent":[-148.999,18.4867,5.66767,63.8716],"geometry_types":["point"],"unique_name":null,"name":"Dance Upon the Air, Global Reviews (GPS Visualizer Results)","feature_count":102,"description":"Gps Visualizer geocode results for global reviews of Dance Upon the Air. Data comes from http://www.informatik.uni-freiburg.de/~cziegler/BX/.\n","next_feature":null,"is_raster":false,"short_classification":"Y","stats":{"latitude":{"max":63.871579,"mean":38.945377372549,"variance":41.7609198087035,"stdev":6.46226893658129,"min":18.4867,"median":39.049285},"book-rating":{"max":10.0,"mean":8.14705882352941,"variance":3.09697146185207,"stdev":1.75982142896717,"min":1.0,"median":9.0},"user-id":{"max":278418.0,"mean":146199.088235294,"variance":4989726979.19016,"stdev":70637.9995412537,"min":7982.0,"median":151653.0},"longitude":{"max":5.66767,"mean":-94.5281515980392,"variance":414.683111327263,"stdev":20.3637695755787,"min":-148.999466,"median":-89.386694}},"features":[{"properties":{"city":"Coatesville","isbn":"073941738X","latitude":39.981942,"book-rating":6.0,"title":"Dance Upon the Air","user-id":104243.0,"longitude":-75.820632,"id":"a64l4kzhc45v","concat":"coatesville,  pennsylvania","state":"Pennsylvania"},"type":"Feature","geometry":{"type":"Point","coordinates":[-75.820632,39.981942]}},{"properties":{"city":"Brentwood","isbn":"515131229","latitude":37.934055,"book-rating":9.0,"title":"Dance upon the Air (Three Sisters Island Trilogy)","user-id":109491.0,"longitude":-121.692719,"id":"a64l4l2whr9t","concat":"brentwood,  california","state":"California"},"type":"Feature","geometry":{"type":"Point","coordinates":[-121.692719,37.934055]}},{"properties":{"city":"Grove City","isbn":"515131229","latitude":41.15748,"book-rating":10.0,"title":"Dance upon the Air (Three Sisters Island Trilogy)","user-id":111733.0,"longitude":-80.088019,"id":"a64l4l2cliby","concat":"grove city,  pennsylvania","state":"Pennsylvania"},"type":"Feature","geometry":{"type":"Point","coordinates":[-80.088019,41.15748]}},{"properties":{"city":"Cedar Rapids","isbn":"515131229","latitude":41.976345,"book-rating":8.0,"title":"Dance upon the Air (Three Sisters Island Trilogy)","user-id":112937.0,"longitude":-91.673759,"id":"a64l4kvkvrsl","concat":"cedar rapids,  iowa","state":"Iowa"},"type":"Feature","geometry":{"type":"Point","coordinates":[-91.673759,41.976345]}},{"properties":{"city":"Montoursville","isbn":"515131229","latitude":41.2499,"book-rating":10.0,"title":"Dance upon the Air (Three Sisters Island Trilogy)","user-id":113745.0,"longitude":-76.921839,"id":"a64l4kumvek9","concat":"montoursville,  pennsylvania","state":"Pennsylvania"},"type":"Feature","geometry":{"type":"Point","coordinates":[-76.921839,41.2499]}},{"properties":{"city":"Mechanicsville","isbn":"515131229","latitude":38.445607,"book-rating":10.0,"title":"Dance upon the Air (Three Sisters Island Trilogy)","user-id":114368.0,"longitude":-76.743683,"id":"a64l4l8dzn3o","concat":"mechanicsville,  maryland","state":"Maryland"},"type":"Feature","geometry":{"type":"Point","coordinates":[-76.743683,38.445607]}},{"properties":{"city":"Edmonton","isbn":"515131229","latitude":53.54622,"book-rating":10.0,"title":"Dance upon the Air (Three Sisters Island Trilogy)","user-id":119446.0,"longitude":-113.490374,"id":"a64l4l85j2nv","concat":"edmonton,  alberta","state":"Alberta"},"type":"Feature","geometry":{"type":"Point","coordinates":[-113.490374,53.54622]}},{"properties":{"city":"Omaha","isbn":"515131229","latitude":41.260675,"book-rating":9.0,"title":"Dance upon the Air (Three Sisters Island Trilogy)","user-id":121405.0,"longitude":-95.940469,"id":"a64l4l9zsdum","concat":"omaha,  nebraska","state":"Nebraska"},"type":"Feature","geometry":{"type":"Point","coordinates":[-95.940469,41.260675]}},{"properties":{"city":"Healy","isbn":"515131229","latitude":63.871579,"book-rating":7.0,"title":"Dance upon the Air (Three Sisters Island Trilogy)","user-id":123115.0,"longitude":-148.999466,"id":"a64l4l9cu46o","concat":"healy,  alaska","state":"Alaska"},"type":"Feature","geometry":{"type":"Point","coordinates":[-148.999466,63.871579]}},{"properties":{"city":"Topeka","isbn":"515131229","latitude":39.049285,"book-rating":5.0,"title":"Dance upon the Air (Three Sisters Island Trilogy)","user-id":123883.0,"longitude":-95.671184,"id":"a64l4kzqnoux","concat":"topeka,  kansas","state":"Kansas"},"type":"Feature","geometry":{"type":"Point","coordinates":[-95.671184,39.049285]}},{"properties":{"city":"Old Orchard Beach","isbn":"515131229","latitude":43.518072,"book-rating":10.0,"title":"Dance upon the Air (Three Sisters Island Trilogy)","user-id":124989.0,"longitude":-70.377607,"id":"a64l4l7qcug0","concat":"old orchard beach,  maine","state":"Maine"},"type":"Feature","geometry":{"type":"Point","coordinates":[-70.377607,43.518072]}},{"properties":{"city":"Chicago","isbn":"515131229","latitude":41.88415,"book-rating":7.0,"title":"Dance upon the Air (Three Sisters Island Trilogy)","user-id":126695.0,"longitude":-87.632409,"id":"a64l4l181er0","concat":"chicago,  illinois","state":"Illinois"},"type":"Feature","geometry":{"type":"Point","coordinates":[-87.632409,41.88415]}},{"properties":{"city":"Boise","isbn":"515131229","latitude":43.60698,"book-rating":7.0,"title":"Dance upon the Air (Three Sisters Island Trilogy)","user-id":129084.0,"longitude":-116.193409,"id":"a64l4l7j5vjh","concat":"boise,  idaho","state":"Idaho"},"type":"Feature","geometry":{"type":"Point","coordinates":[-116.193409,43.60698]}},{"properties":{"city":"Farmville","isbn":"515131229","latitude":35.598115,"book-rating":10.0,"title":"Dance upon the Air (Three Sisters Island Trilogy)","user-id":135139.0,"longitude":-77.584374,"id":"a64l4l9ftckc","concat":"farmville,  north carolina","state":"North Carolina"},"type":"Feature","geometry":{"type":"Point","coordinates":[-77.584374,35.598115]}},{"properties":{"city":"Las Vegas","isbn":"515131229","latitude":36.171915,"book-rating":10.0,"title":"Dance upon the Air (Three Sisters Island Trilogy)","user-id":135376.0,"longitude":-115.139974,"id":"a64l4kuslzto","concat":"las vegas,  nevada","state":"Nevada"},"type":"Feature","geometry":{"type":"Point","coordinates":[-115.139974,36.171915]}},{"properties":{"city":"Saskatoon","isbn":"515131229","latitude":52.130505,"book-rating":7.0,"title":"Dance upon the Air (Three Sisters Island Trilogy)","user-id":136916.0,"longitude":-106.659314,"id":"a64l4l93didp","concat":"saskatoon,","state":null},"type":"Feature","geometry":{"type":"Point","coordinates":[-106.659314,52.130505]}},{"properties":{"city":"Santo Domingo","isbn":"515131229","latitude":18.4867,"book-rating":10.0,"title":"Dance upon the Air (Three Sisters Island Trilogy)","user-id":137742.0,"longitude":-69.940491,"id":"a64l4kxgnw9l","concat":"santo domingo,  distrito nacional","state":"Distrito Nacional"},"type":"Feature","geometry":{"type":"Point","coordinates":[-69.940491,18.4867]}},{"properties":{"city":"Monett","isbn":"515131229","latitude":36.92048,"book-rating":10.0,"title":"Dance upon the Air (Three Sisters Island Trilogy)","user-id":139913.0,"longitude":-93.927604,"id":"a64l4kwjki1v","concat":"monett,  missouri","state":"Missouri"},"type":"Feature","geometry":{"type":"Point","coordinates":[-93.927604,36.92048]}},{"properties":{"city":"San Diego","isbn":"739417924","latitude":32.715685,"book-rating":5.0,"title":"Dance Upon The Air (First in the bewitching new Three Sisters Island trilogy)","user-id":140358.0,"longitude":-117.161724,"id":"a64l4l8j2wzk","concat":"san diego,  california","state":"California"},"type":"Feature","geometry":{"type":"Point","coordinates":[-117.161724,32.715685]}},{"properties":{"city":"Marthasville","isbn":"515131229","latitude":38.627938,"book-rating":7.0,"title":"Dance upon the Air (Three Sisters Island Trilogy)","user-id":141127.0,"longitude":-91.066571,"id":"a64l4kujxz5s","concat":"marthasville,  missouri","state":"Missouri"},"type":"Feature","geometry":{"type":"Point","coordinates":[-91.066571,38.627938]}},{"properties":{"city":"Monroe","isbn":"515131229","latitude":47.852405,"book-rating":7.0,"title":"Dance upon the Air (Three Sisters Island Trilogy)","user-id":144314.0,"longitude":-121.981509,"id":"a64l4l4siyca","concat":"monroe,  washington","state":"Washington"},"type":"Feature","geometry":{"type":"Point","coordinates":[-121.981509,47.852405]}},{"properties":{"city":"Pleasanton","isbn":"515131229","latitude":37.658034,"book-rating":9.0,"title":"Dance upon the Air (Three Sisters Island Trilogy)","user-id":144531.0,"longitude":-121.87722,"id":"a64l4kv0d0aw","concat":"pleasanton,  california","state":"California"},"type":"Feature","geometry":{"type":"Point","coordinates":[-121.87722,37.658034]}},{"properties":{"city":"Omaha","isbn":"515131229","latitude":41.260675,"book-rating":9.0,"title":"Dance upon the Air (Three Sisters Island Trilogy)","user-id":151653.0,"longitude":-95.940469,"id":"a64l4l4z3x2y","concat":"omaha,  nebraska","state":"Nebraska"},"type":"Feature","geometry":{"type":"Point","coordinates":[-95.940469,41.260675]}},{"properties":{"city":"Ft. Stewart","isbn":"515131229","latitude":32.08037,"book-rating":10.0,"title":"Dance upon the Air (Three Sisters Island Trilogy)","user-id":153662.0,"longitude":-81.634814,"id":"a64l4kzowtsu","concat":"ft. stewart,  georgia","state":"Georgia"},"type":"Feature","geometry":{"type":"Point","coordinates":[-81.634814,32.08037]}},{"properties":{"city":"Ft. Stewart","isbn":"739417924","latitude":32.08037,"book-rating":10.0,"title":"Dance Upon The Air (First in the bewitching new Three Sisters Island trilogy)","user-id":153662.0,"longitude":-81.634814,"id":"a64l4kwr72yf","concat":"ft. stewart,  georgia","state":"Georgia"},"type":"Feature","geometry":{"type":"Point","coordinates":[-81.634814,32.08037]}},{"properties":{"city":"Victoria","isbn":"515131229","latitude":48.428315,"book-rating":10.0,"title":"Dance upon the Air (Three Sisters Island Trilogy)","user-id":155808.0,"longitude":-123.364514,"id":"a64l4l4k35vu","concat":"victoria,  british columbia","state":"British Columbia"},"type":"Feature","geometry":{"type":"Point","coordinates":[-123.364514,48.428315]}},{"properties":{"city":"Cleveland","isbn":"515131229","latitude":41.504365,"book-rating":7.0,"title":"Dance upon the Air (Three Sisters Island Trilogy)","user-id":158295.0,"longitude":-81.690459,"id":"a64l4l0c7ij6","concat":"cleveland,  ohio","state":"Ohio"},"type":"Feature","geometry":{"type":"Point","coordinates":[-81.690459,41.504365]}},{"properties":{"city":"Burbank","isbn":"515131229","latitude":34.18147,"book-rating":5.0,"title":"Dance upon the Air (Three Sisters Island Trilogy)","user-id":163600.0,"longitude":-118.308124,"id":"a64l4l8htzib","concat":"burbank,  california","state":"California"},"type":"Feature","geometry":{"type":"Point","coordinates":[-118.308124,34.18147]}},{"properties":{"city":"Williamson","isbn":"515131229","latitude":43.22533,"book-rating":8.0,"title":"Dance upon the Air (Three Sisters Island Trilogy)","user-id":164270.0,"longitude":-77.186124,"id":"a64l4l62lqqv","concat":"williamson,  new york","state":"New York"},"type":"Feature","geometry":{"type":"Point","coordinates":[-77.186124,43.22533]}},{"properties":{"city":"Lawrenceville","isbn":"515131229","latitude":33.952465,"book-rating":9.0,"title":"Dance upon the Air (Three Sisters Island Trilogy)","user-id":166753.0,"longitude":-83.987994,"id":"a64l4l766etg","concat":"lawrenceville,  georgia","state":"Georgia"},"type":"Feature","geometry":{"type":"Point","coordinates":[-83.987994,33.952465]}},{"properties":{"city":"Rochester","isbn":"515131229","latitude":43.1555,"book-rating":7.0,"title":"Dance upon the Air (Three Sisters Island Trilogy)","user-id":167789.0,"longitude":-77.616033,"id":"a64l4kw2yj5c","concat":"rochester,  new york","state":"New York"},"type":"Feature","geometry":{"type":"Point","coordinates":[-77.616033,43.1555]}},{"properties":{"city":"Vancouver","isbn":"515131229","latitude":45.632215,"book-rating":8.0,"title":"Dance upon the Air (Three Sisters Island Trilogy)","user-id":171082.0,"longitude":-122.671559,"id":"a64l4l9mm7b0","concat":"vancouver,  washington","state":"Washington"},"type":"Feature","geometry":{"type":"Point","coordinates":[-122.671559,45.632215]}},{"properties":{"city":"Denver","isbn":"515131229","latitude":39.74001,"book-rating":6.0,"title":"Dance upon the Air (Three Sisters Island Trilogy)","user-id":172047.0,"longitude":-104.992259,"id":"a64l4kzmbdhm","concat":"denver,  colorado","state":"Colorado"},"type":"Feature","geometry":{"type":"Point","coordinates":[-104.992259,39.74001]}},{"properties":{"city":"Ashland","isbn":"515131229","latitude":38.774675,"book-rating":10.0,"title":"Dance upon the Air (Three Sisters Island Trilogy)","user-id":177090.0,"longitude":-92.261299,"id":"a64l4l0ktkvf","concat":"ashland,  missouri","state":"Missouri"},"type":"Feature","geometry":{"type":"Point","coordinates":[-92.261299,38.774675]}},{"properties":{"city":"Antelope","isbn":"515131229","latitude":38.711999,"book-rating":9.0,"title":"Dance upon the Air (Three Sisters Island Trilogy)","user-id":177157.0,"longitude":-121.364354,"id":"a64l4kwhrufc","concat":"antelope,  california","state":"California"},"type":"Feature","geometry":{"type":"Point","coordinates":[-121.364354,38.711999]}},{"properties":{"city":"Kingston","isbn":"515131229","latitude":47.798035,"book-rating":10.0,"title":"Dance upon the Air (Three Sisters Island Trilogy)","user-id":177374.0,"longitude":-122.497704,"id":"a64l4l6l7vgg","concat":"kingston,  washington","state":"Washington"},"type":"Feature","geometry":{"type":"Point","coordinates":[-122.497704,47.798035]}},{"properties":{"city":"Poland","isbn":"515131229","latitude":41.023495,"book-rating":9.0,"title":"Dance upon the Air (Three Sisters Island Trilogy)","user-id":178412.0,"longitude":-80.613094,"id":"a64l4kymuxm0","concat":"poland,  ohio","state":"Ohio"},"type":"Feature","geometry":{"type":"Point","coordinates":[-80.613094,41.023495]}},{"properties":{"city":"Freehold","isbn":"515131229","latitude":40.258535,"book-rating":5.0,"title":"Dance upon the Air (Three Sisters Island Trilogy)","user-id":178667.0,"longitude":-74.276509,"id":"a64l4l52n6v2","concat":"freehold,  new jersey","state":"New Jersey"},"type":"Feature","geometry":{"type":"Point","coordinates":[-74.276509,40.258535]}},{"properties":{"city":"Des Moines","isbn":"515131229","latitude":41.58979,"book-rating":5.0,"title":"Dance upon the Air (Three Sisters Island Trilogy)","user-id":184532.0,"longitude":-93.615659,"id":"a64l4kvsdvng","concat":"des moines,  iowa","state":"Iowa"},"type":"Feature","geometry":{"type":"Point","coordinates":[-93.615659,41.58979]}},{"properties":{"city":"Deleon","isbn":"515131229","latitude":32.11664,"book-rating":10.0,"title":"Dance upon the Air (Three Sisters Island Trilogy)","user-id":185254.0,"longitude":-98.535059,"id":"a64l4kwr0iae","concat":"deleon,  texas","state":"Texas"},"type":"Feature","geometry":{"type":"Point","coordinates":[-98.535059,32.11664]}},{"properties":{"city":"Oceanside","isbn":"515131229","latitude":33.19715,"book-rating":9.0,"title":"Dance upon the Air (Three Sisters Island Trilogy)","user-id":189104.0,"longitude":-117.380584,"id":"a64l4l3tciy6","concat":"oceanside,  california","state":"California"},"type":"Feature","geometry":{"type":"Point","coordinates":[-117.380584,33.19715]}},{"properties":{"city":"Colorado Springs","isbn":"515131229","latitude":38.83345,"book-rating":10.0,"title":"Dance upon the Air (Three Sisters Island Trilogy)","user-id":189516.0,"longitude":-104.821814,"id":"a64l4l872nlo","concat":"colorado springs,  colorado","state":"Colorado"},"type":"Feature","geometry":{"type":"Point","coordinates":[-104.821814,38.83345]}},{"properties":{"city":"Madison","isbn":"515131229","latitude":43.07295,"book-rating":6.0,"title":"Dance upon the Air (Three Sisters Island Trilogy)","user-id":194451.0,"longitude":-89.386694,"id":"a64l4kw8ozci","concat":"madison,  wisconsin","state":"Wisconsin"},"type":"Feature","geometry":{"type":"Point","coordinates":[-89.386694,43.07295]}},{"properties":{"city":"***********","isbn":"515131229","latitude":39.739262,"book-rating":9.0,"title":"Dance upon the Air (Three Sisters Island Trilogy)","user-id":19842.0,"longitude":-89.504089,"id":"a64l4kvg6iqj","concat":"***********,  illinois","state":"Illinois"},"type":"Feature","geometry":{"type":"Point","coordinates":[-89.504089,39.739262]}},{"properties":{"city":"New York","isbn":"515131229","latitude":40.71455,"book-rating":8.0,"title":"Dance upon the Air (Three Sisters Island Trilogy)","user-id":199575.0,"longitude":-74.007124,"id":"a64l4kzo1yn7","concat":"new york,  new york","state":"New York"},"type":"Feature","geometry":{"type":"Point","coordinates":[-74.007124,40.71455]}},{"properties":{"city":"Burlington","isbn":"515131229","latitude":43.32618,"book-rating":7.0,"title":"Dance upon the Air (Three Sisters Island Trilogy)","user-id":200226.0,"longitude":-79.798539,"id":"a64l4l8uy6s9","concat":"burlington,  ontario","state":"Ontario"},"type":"Feature","geometry":{"type":"Point","coordinates":[-79.798539,43.32618]}},{"properties":{"city":"Aberdeen","isbn":"515131229","latitude":46.975867,"book-rating":7.0,"title":"Dance upon the Air (Three Sisters Island Trilogy)","user-id":208428.0,"longitude":-123.81598,"id":"a64l4l1focgy","concat":"aberdeen,  washington","state":"Washington"},"type":"Feature","geometry":{"type":"Point","coordinates":[-123.81598,46.975867]}},{"properties":{"city":"Pass Christian","isbn":"515131229","latitude":30.323709,"book-rating":9.0,"title":"Dance upon the Air (Three Sisters Island Trilogy)","user-id":209238.0,"longitude":-89.23716,"id":"a64l4l3f2yhu","concat":"pass christian,  mississippi39571","state":"Mississippi39571"},"type":"Feature","geometry":{"type":"Point","coordinates":[-89.23716,30.323709]}},{"properties":{"city":"Bolingbrook","isbn":"515131229","latitude":41.698175,"book-rating":10.0,"title":"Dance upon the Air (Three Sisters Island Trilogy)","user-id":213531.0,"longitude":-88.081199,"id":"a64l4l8p5ywm","concat":"bolingbrook,  illinois","state":"Illinois"},"type":"Feature","geometry":{"type":"Point","coordinates":[-88.081199,41.698175]}},{"properties":{"city":"Nashville","isbn":"515131229","latitude":31.206045,"book-rating":10.0,"title":"Dance upon the Air (Three Sisters Island Trilogy)","user-id":216501.0,"longitude":-83.250309,"id":"a64l4l1vkv4a","concat":"nashville,  georgia","state":"Georgia"},"type":"Feature","geometry":{"type":"Point","coordinates":[-83.250309,31.206045]}},{"properties":{"city":"San Jose","isbn":"515131229","latitude":37.338475,"book-rating":8.0,"title":"Dance upon the Air (Three Sisters Island Trilogy)","user-id":216683.0,"longitude":-121.885794,"id":"a64l4l7ktcnl","concat":"san jose,  california","state":"California"},"type":"Feature","geometry":{"type":"Point","coordinates":[-121.885794,37.338475]}},{"properties":{"city":"Fort Stewart","isbn":"515131229","latitude":32.08037,"book-rating":5.0,"title":"Dance upon the Air (Three Sisters Island Trilogy)","user-id":217619.0,"longitude":-81.634814,"id":"a64l4l6ks9wd","concat":"fort stewart,  georgia","state":"Georgia"},"type":"Feature","geometry":{"type":"Point","coordinates":[-81.634814,32.08037]}},{"properties":{"city":"Santa Ana","isbn":"515131229","latitude":33.749074,"book-rating":9.0,"title":"Dance upon the Air (Three Sisters Island Trilogy)","user-id":219683.0,"longitude":-117.873943,"id":"a64l4kyd6ho3","concat":"santa ana,  california","state":"California"},"type":"Feature","geometry":{"type":"Point","coordinates":[-117.873943,33.749074]}},{"properties":{"city":"Roanoke","isbn":"515131229","latitude":32.9982,"book-rating":8.0,"title":"Dance upon the Air (Three Sisters Island Trilogy)","user-id":220240.0,"longitude":-97.229489,"id":"a64l4kzhbhx0","concat":"roanoke,  texas","state":"Texas"},"type":"Feature","geometry":{"type":"Point","coordinates":[-97.229489,32.9982]}},{"properties":{"city":"Toronto","isbn":"515131229","latitude":43.648565,"book-rating":8.0,"title":"Dance upon the Air (Three Sisters Island Trilogy)","user-id":220597.0,"longitude":-79.385329,"id":"a64l4l9cu8dy","concat":"toronto,  ontario","state":"Ontario"},"type":"Feature","geometry":{"type":"Point","coordinates":[-79.385329,43.648565]}},{"properties":{"city":"Toronto","isbn":"515131229","latitude":43.648565,"book-rating":7.0,"title":"Dance upon the Air (Three Sisters Island Trilogy)","user-id":225087.0,"longitude":-79.385329,"id":"a64l4l9tu6ks","concat":"toronto,  ontario","state":"Ontario"},"type":"Feature","geometry":{"type":"Point","coordinates":[-79.385329,43.648565]}},{"properties":{"city":"Gilbert","isbn":"515131229","latitude":33.329042,"book-rating":10.0,"title":"Dance upon the Air (Three Sisters Island Trilogy)","user-id":225683.0,"longitude":-111.789767,"id":"a64l4l4ezud1","concat":"gilbert,  arizona","state":"Arizona"},"type":"Feature","geometry":{"type":"Point","coordinates":[-111.789767,33.329042]}},{"properties":{"city":"Belton","isbn":"515131229","latitude":31.0569,"book-rating":10.0,"title":"Dance upon the Air (Three Sisters Island Trilogy)","user-id":225996.0,"longitude":-97.463609,"id":"a64l4l7itm6f","concat":"belton,  texas","state":"Texas"},"type":"Feature","geometry":{"type":"Point","coordinates":[-97.463609,31.0569]}},{"properties":{"city":"San Jose","isbn":"515131229","latitude":37.338475,"book-rating":9.0,"title":"Dance upon the Air (Three Sisters Island Trilogy)","user-id":227520.0,"longitude":-121.885794,"id":"a64l4kzkigl1","concat":"san jose,  california","state":"California"},"type":"Feature","geometry":{"type":"Point","coordinates":[-121.885794,37.338475]}},{"properties":{"city":"Athens","isbn":"515131229","latitude":33.958132,"book-rating":8.0,"title":"Dance upon the Air (Three Sisters Island Trilogy)","user-id":227836.0,"longitude":-83.373255,"id":"a64l4l8inubb","concat":"athens,  georgia","state":"Georgia"},"type":"Feature","geometry":{"type":"Point","coordinates":[-83.373255,33.958132]}},{"properties":{"city":"Oakdale","isbn":"515131229","latitude":37.7684,"book-rating":10.0,"title":"Dance upon the Air (Three Sisters Island Trilogy)","user-id":228764.0,"longitude":-120.848224,"id":"a64l4l5mnalg","concat":"oakdale,  california","state":"California"},"type":"Feature","geometry":{"type":"Point","coordinates":[-120.848224,37.7684]}},{"properties":{"city":"Glen Burnie","isbn":"515131229","latitude":39.161785,"book-rating":9.0,"title":"Dance upon the Air (Three Sisters Island Trilogy)","user-id":233955.0,"longitude":-76.621845,"id":"a64l4l03qpk2","concat":"glen burnie,  maryland","state":"Maryland"},"type":"Feature","geometry":{"type":"Point","coordinates":[-76.621845,39.161785]}},{"properties":{"city":"Taylorsville","isbn":"515131229","latitude":40.656545,"book-rating":9.0,"title":"Dance upon the Air (Three Sisters Island Trilogy)","user-id":235099.0,"longitude":-111.938849,"id":"a64l4l1y4sol","concat":"taylorsville,  utah","state":"Utah"},"type":"Feature","geometry":{"type":"Point","coordinates":[-111.938849,40.656545]}},{"properties":{"city":"Ludington","isbn":"515131229","latitude":43.95547,"book-rating":10.0,"title":"Dance upon the Air (Three Sisters Island Trilogy)","user-id":238757.0,"longitude":-86.452804,"id":"a64l4l37jbnx","concat":"ludington,  michigan","state":"Michigan"},"type":"Feature","geometry":{"type":"Point","coordinates":[-86.452804,43.95547]}},{"properties":{"city":"Great Bend","isbn":"515131229","latitude":38.366015,"book-rating":5.0,"title":"Dance upon the Air (Three Sisters Island Trilogy)","user-id":240484.0,"longitude":-98.765148,"id":"a64l4kzhk1bo","concat":"great bend,  kansas","state":"Kansas"},"type":"Feature","geometry":{"type":"Point","coordinates":[-98.765148,38.366015]}},{"properties":{"city":"Charleston","isbn":"515131229","latitude":32.78115,"book-rating":9.0,"title":"Dance upon the Air (Three Sisters Island Trilogy)","user-id":241080.0,"longitude":-79.931604,"id":"a64l4l2axjgs","concat":"charleston,  south carolina","state":"South Carolina"},"type":"Feature","geometry":{"type":"Point","coordinates":[-79.931604,32.78115]}},{"properties":{"city":"Marion","isbn":"515131229","latitude":32.634632,"book-rating":9.0,"title":"Dance upon the Air (Three Sisters Island Trilogy)","user-id":242781.0,"longitude":-87.319133,"id":"a64l4l9fvlei","concat":"marion,","state":null},"type":"Feature","geometry":{"type":"Point","coordinates":[-87.319133,32.634632]}},{"properties":{"city":"Rockvale","isbn":"515131229","latitude":35.762994,"book-rating":9.0,"title":"Dance upon the Air (Three Sisters Island Trilogy)","user-id":244685.0,"longitude":-86.52975,"id":"a64l4kytj940","concat":"rockvale,  tennessee","state":"Tennessee"},"type":"Feature","geometry":{"type":"Point","coordinates":[-86.52975,35.762994]}},{"properties":{"city":"Eugene","isbn":"515131229","latitude":44.04992,"book-rating":6.0,"title":"Dance upon the Air (Three Sisters Island Trilogy)","user-id":245311.0,"longitude":-123.088544,"id":"a64l4l6qp9tn","concat":"eugene,  oregon","state":"Oregon"},"type":"Feature","geometry":{"type":"Point","coordinates":[-123.088544,44.04992]}},{"properties":{"city":"Napa","isbn":"515131229","latitude":38.298855,"book-rating":4.0,"title":"Dance upon the Air (Three Sisters Island Trilogy)","user-id":245604.0,"longitude":-122.285194,"id":"a64l4l1lgbyy","concat":"napa,  california","state":"California"},"type":"Feature","geometry":{"type":"Point","coordinates":[-122.285194,38.298855]}},{"properties":{"city":"Long Beach","isbn":"515131229","latitude":33.766725,"book-rating":8.0,"title":"Dance upon the Air (Three Sisters Island Trilogy)","user-id":247447.0,"longitude":-118.192399,"id":"a64l4kwq9gq7","concat":"long beach,  california","state":"California"},"type":"Feature","geometry":{"type":"Point","coordinates":[-118.192399,33.766725]}},{"properties":{"city":"Shelton","isbn":"515131229","latitude":47.212485,"book-rating":8.0,"title":"Dance upon the Air (Three Sisters Island Trilogy)","user-id":249634.0,"longitude":-123.105654,"id":"a64l4l3jg192","concat":"shelton,  washington","state":"Washington"},"type":"Feature","geometry":{"type":"Point","coordinates":[-123.105654,47.212485]}},{"properties":{"city":"Rochester","isbn":"515131229","latitude":43.1555,"book-rating":7.0,"title":"Dance upon the Air (Three Sisters Island Trilogy)","user-id":249712.0,"longitude":-77.616033,"id":"a64l4kvu03u8","concat":"rochester,","state":null},"type":"Feature","geometry":{"type":"Point","coordinates":[-77.616033,43.1555]}},{"properties":{"city":"Omaha","isbn":"515131229","latitude":41.260675,"book-rating":8.0,"title":"Dance upon the Air (Three Sisters Island Trilogy)","user-id":278418.0,"longitude":-95.940469,"id":"a64l4l57il2l","concat":"omaha,  nebraska","state":"Nebraska"},"type":"Feature","geometry":{"type":"Point","coordinates":[-95.940469,41.260675]}},{"properties":{"city":"Altamonte Springs","isbn":"515131229","latitude":28.66591,"book-rating":8.0,"title":"Dance upon the Air (Three Sisters Island Trilogy)","user-id":28451.0,"longitude":-81.359764,"id":"a64l4kux7s5w","concat":"altamonte springs,  florida","state":"Florida"},"type":"Feature","geometry":{"type":"Point","coordinates":[-81.359764,28.66591]}},{"properties":{"city":"Rochester","isbn":"515131229","latitude":43.1555,"book-rating":1.0,"title":"Dance upon the Air (Three Sisters Island Trilogy)","user-id":35836.0,"longitude":-77.616033,"id":"a64l4l1b1098","concat":"rochester,  new york","state":"New York"},"type":"Feature","geometry":{"type":"Point","coordinates":[-77.616033,43.1555]}},{"properties":{"city":"Temecula","isbn":"515131229","latitude":33.502486,"book-rating":10.0,"title":"Dance upon the Air (Three Sisters Island Trilogy)","user-id":38842.0,"longitude":-117.166931,"id":"a64l4l99zfs2","concat":"temecula,  california","state":"California"},"type":"Feature","geometry":{"type":"Point","coordinates":[-117.166931,33.502486]}},{"properties":{"city":"St. Louis","isbn":"515131229","latitude":38.62774,"book-rating":8.0,"title":"Dance upon the Air (Three Sisters Island Trilogy)","user-id":40798.0,"longitude":-90.199514,"id":"a64l4kwsdse8","concat":"st. louis,  missouri","state":"Missouri"},"type":"Feature","geometry":{"type":"Point","coordinates":[-90.199514,38.62774]}},{"properties":{"city":"Mary Esther","isbn":"515131229","latitude":30.416545,"book-rating":9.0,"title":"Dance upon the Air (Three Sisters Island Trilogy)","user-id":45245.0,"longitude":-86.653669,"id":"a64l4ku53dct","concat":"mary esther,  florida","state":"Florida"},"type":"Feature","geometry":{"type":"Point","coordinates":[-86.653669,30.416545]}},{"properties":{"city":"Staten Island","isbn":"515131229","latitude":40.64244,"book-rating":10.0,"title":"Dance upon the Air (Three Sisters Island Trilogy)","user-id":48153.0,"longitude":-74.075283,"id":"a64l4l19y8pv","concat":"staten island,","state":null},"type":"Feature","geometry":{"type":"Point","coordinates":[-74.075283,40.64244]}},{"properties":{"city":"Madison","isbn":"515131229","latitude":43.07295,"book-rating":6.0,"title":"Dance upon the Air (Three Sisters Island Trilogy)","user-id":49358.0,"longitude":-89.386694,"id":"a64l4kyp24wm","concat":"madison,  wisconsin","state":"Wisconsin"},"type":"Feature","geometry":{"type":"Point","coordinates":[-89.386694,43.07295]}},{"properties":{"city":"Staten Island","isbn":"515131229","latitude":40.64244,"book-rating":10.0,"title":"Dance upon the Air (Three Sisters Island Trilogy)","user-id":49842.0,"longitude":-74.075283,"id":"a64l4l147hqk","concat":"staten island,  new york","state":"New York"},"type":"Feature","geometry":{"type":"Point","coordinates":[-74.075283,40.64244]}},{"properties":{"city":"Lawrenceville","isbn":"515131229","latitude":33.952465,"book-rating":9.0,"title":"Dance upon the Air (Three Sisters Island Trilogy)","user-id":51450.0,"longitude":-83.987994,"id":"a64l4l4xjnkw","concat":"lawrenceville,  georgia","state":"Georgia"},"type":"Feature","geometry":{"type":"Point","coordinates":[-83.987994,33.952465]}},{"properties":{"city":"Yuba City","isbn":"515131229","latitude":39.14076,"book-rating":7.0,"title":"Dance upon the Air (Three Sisters Island Trilogy)","user-id":52853.0,"longitude":-121.619399,"id":"a64l4l1fbkhr","concat":"yuba city,  california","state":"California"},"type":"Feature","geometry":{"type":"Point","coordinates":[-121.619399,39.14076]}},{"properties":{"city":"Great Falls","isbn":"515131229","latitude":47.507145,"book-rating":10.0,"title":"Dance upon the Air (Three Sisters Island Trilogy)","user-id":56817.0,"longitude":-111.306074,"id":"a64l4kyizzo8","concat":"great falls,  montana","state":"Montana"},"type":"Feature","geometry":{"type":"Point","coordinates":[-111.306074,47.507145]}},{"properties":{"city":"Roswell","isbn":"515131229","latitude":34.02166,"book-rating":7.0,"title":"Dance upon the Air (Three Sisters Island Trilogy)","user-id":57105.0,"longitude":-84.360299,"id":"a64l4kx8x5e1","concat":"roswell,  georgia","state":"Georgia"},"type":"Feature","geometry":{"type":"Point","coordinates":[-84.360299,34.02166]}},{"properties":{"city":"Owen Sound","isbn":"515131229","latitude":44.564875,"book-rating":8.0,"title":"Dance upon the Air (Three Sisters Island Trilogy)","user-id":59172.0,"longitude":-80.942604,"id":"a64l4kzlwsn6","concat":"owen sound,  ontario","state":"Ontario"},"type":"Feature","geometry":{"type":"Point","coordinates":[-80.942604,44.564875]}},{"properties":{"city":"Daphne","isbn":"515131229","latitude":30.603905,"book-rating":10.0,"title":"Dance upon the Air (Three Sisters Island Trilogy)","user-id":59179.0,"longitude":-87.901509,"id":"a64l4kx3qa5y","concat":"daphne,  alabama","state":"Alabama"},"type":"Feature","geometry":{"type":"Point","coordinates":[-87.901509,30.603905]}},{"properties":{"city":"Memphis","isbn":"515131229","latitude":35.14968,"book-rating":9.0,"title":"Dance upon the Air (Three Sisters Island Trilogy)","user-id":59629.0,"longitude":-90.048929,"id":"a64l4l6jvauc","concat":"memphis,  tennessee","state":"Tennessee"},"type":"Feature","geometry":{"type":"Point","coordinates":[-90.048929,35.14968]}},{"properties":{"city":"Saskatoon","isbn":"515131229","latitude":52.130505,"book-rating":7.0,"title":"Dance upon the Air (Three Sisters Island Trilogy)","user-id":63506.0,"longitude":-106.659314,"id":"a64l4l7c01bp","concat":"saskatoon,  saskatchewan","state":"Saskatchewan"},"type":"Feature","geometry":{"type":"Point","coordinates":[-106.659314,52.130505]}},{"properties":{"city":"Ede","isbn":"515131229","latitude":52.044979,"book-rating":8.0,"title":"Dance upon the Air (Three Sisters Island Trilogy)","user-id":69405.0,"longitude":5.66767,"id":"a64l4l0mv74f","concat":"ede,  gelderland","state":"Gelderland"},"type":"Feature","geometry":{"type":"Point","coordinates":[5.66767,52.044979]}},{"properties":{"city":"Grapevine","isbn":"515131229","latitude":32.939435,"book-rating":5.0,"title":"Dance upon the Air (Three Sisters Island Trilogy)","user-id":73651.0,"longitude":-97.078389,"id":"a64l4l8t75r8","concat":"grapevine,  texas","state":"Texas"},"type":"Feature","geometry":{"type":"Point","coordinates":[-97.078389,32.939435]}},{"properties":{"city":"Turners Falls","isbn":"515131229","latitude":42.59858,"book-rating":8.0,"title":"Dance upon the Air (Three Sisters Island Trilogy)","user-id":74758.0,"longitude":-72.551089,"id":"a64l4ku0o0bg","concat":"turners falls,  massachusetts","state":"Massachusetts"},"type":"Feature","geometry":{"type":"Point","coordinates":[-72.551089,42.59858]}},{"properties":{"city":"Saugatuck","isbn":"515131229","latitude":42.680725,"book-rating":6.0,"title":"Dance upon the Air (Three Sisters Island Trilogy)","user-id":7982.0,"longitude":-86.173299,"id":"a64l4l7lge12","concat":"saugatuck,  michigan","state":"Michigan"},"type":"Feature","geometry":{"type":"Point","coordinates":[-86.173299,42.680725]}},{"properties":{"city":"Torrance","isbn":"515131229","latitude":33.836668,"book-rating":8.0,"title":"Dance upon the Air (Three Sisters Island Trilogy)","user-id":8245.0,"longitude":-118.341661,"id":"a64l4kwz2sli","concat":"torrance,  california","state":"California"},"type":"Feature","geometry":{"type":"Point","coordinates":[-118.341661,33.836668]}},{"properties":{"city":"Yulee","isbn":"515131229","latitude":30.636305,"book-rating":6.0,"title":"Dance upon the Air (Three Sisters Island Trilogy)","user-id":82497.0,"longitude":-81.606179,"id":"a64l4kznpklb","concat":"yulee,  florida","state":"Florida"},"type":"Feature","geometry":{"type":"Point","coordinates":[-81.606179,30.636305]}},{"properties":{"city":"Deltona","isbn":"515131229","latitude":28.932215,"book-rating":8.0,"title":"Dance upon the Air (Three Sisters Island Trilogy)","user-id":84507.0,"longitude":-81.223354,"id":"a64l4kxu5zav","concat":"deltona,  florida","state":"Florida"},"type":"Feature","geometry":{"type":"Point","coordinates":[-81.223354,28.932215]}},{"properties":{"city":"Rye","isbn":"515131229","latitude":43.011905,"book-rating":9.0,"title":"Dance upon the Air (Three Sisters Island Trilogy)","user-id":90417.0,"longitude":-70.772744,"id":"a64l4l8u8hvz","concat":"rye,  new hampshire","state":"New Hampshire"},"type":"Feature","geometry":{"type":"Point","coordinates":[-70.772744,43.011905]}},{"properties":{"city":"O`Fallon","isbn":"515131229","latitude":38.810295,"book-rating":10.0,"title":"Dance upon the Air (Three Sisters Island Trilogy)","user-id":9747.0,"longitude":-90.699944,"id":"a64l4ku4w90l","concat":"o`fallon,  missouri","state":"Missouri"},"type":"Feature","geometry":{"type":"Point","coordinates":[-90.699944,38.810295]}},{"properties":{"city":"Morrow","isbn":"515131229","latitude":33.58335,"book-rating":9.0,"title":"Dance upon the Air (Three Sisters Island Trilogy)","user-id":98391.0,"longitude":-84.340534,"id":"a64l4l90w7ny","concat":"morrow,  georgia","state":"Georgia"},"type":"Feature","geometry":{"type":"Point","coordinates":[-84.340534,33.58335]}},{"properties":{"city":"Helena","isbn":"515131229","latitude":33.290231,"book-rating":8.0,"title":"Dance upon the Air (Three Sisters Island Trilogy)","user-id":99832.0,"longitude":-86.843327,"id":"a64l4l0anmdb","concat":"helena,  alabama","state":"Alabama"},"type":"Feature","geometry":{"type":"Point","coordinates":[-86.843327,33.290231]}},{"properties":{"city":"Lakeland","isbn":"515131229","latitude":28.04419,"book-rating":9.0,"title":"Dance upon the Air (Three Sisters Island Trilogy)","user-id":99895.0,"longitude":-81.947864,"id":"a64l4ku26zxj","concat":"lakeland,  florida","state":"Florida"},"type":"Feature","geometry":{"type":"Point","coordinates":[-81.947864,28.04419]}}],"is_temporal":false,"author":{"url":"","metadata":"","contact_name":"","contact_address":"","source":"http://www.informatik.uni-freiburg.de/~cziegler/BX/","contact_phone":""},"source":"","pagination":{"sort":null,"start":0,"total":102,"limit":1000000},"state":"complete","tags":"books,global,reviews","published":"2009-01-01T17:00:00Z","id":19776}