{"type":"FeatureCollection","data_type":"Dataset","url_type":null,"permissions":[{"permissions":{"download":true,"view":true},"group_id":"everyone"}],"classification":null,"title":"region","count":211,"stream_id":198355,"contributor":{"url":"http://geocommons.com/users/38627","name":"ezgiture"},"data_attributes":null,"calculation_params":null,"icon_link":null,"link":"http://geocommons.com/overlays/198355.json","extent":[0.0,0.0,0.0,0.0],"geometry_types":[],"unique_name":null,"name":"region","feature_count":211,"description":"","next_feature":null,"is_raster":false,"short_classification":"Y","stats":{},"features":[{"properties":{"region":"Aberdeen City","geo_score":0.0,"id":"a625iao793xt","geo_precision":"unmatched"},"type":"Feature","geometry":null},{"properties":{"region":"Aberdeenshire","geo_score":0.0,"id":"a625iakc667a","geo_precision":"unmatched"},"type":"Feature","geometry":null},{"properties":{"region":"Angus","geo_score":0.0,"id":"a625iakv0le7","geo_precision":"unmatched"},"type":"Feature","geometry":null},{"properties":{"region":"Antrim","geo_score":0.0,"id":"a625iap5jreq","geo_precision":"unmatched"},"type":"Feature","geometry":null},{"properties":{"region":"Ards","geo_score":0.0,"id":"a625iapq9woj","geo_precision":"unmatched"},"type":"Feature","geometry":null},{"properties":{"region":"Argyll and Bute","geo_score":0.0,"id":"a625iammhyz6","geo_precision":"unmatched"},"type":"Feature","geometry":null},{"properties":{"region":"Ballymena","geo_score":0.0,"id":"a625iaw2mmua","geo_precision":"unmatched"},"type":"Feature","geometry":null},{"properties":{"region":"Ballymoney","geo_score":0.0,"id":"a625iatwnf2k","geo_precision":"unmatched"},"type":"Feature","geometry":null},{"properties":{"region":"Banbridge","geo_score":0.0,"id":"a625iarsc538","geo_precision":"unmatched"},"type":"Feature","geometry":null},{"properties":{"region":"Barnsley","geo_score":0.0,"id":"a625iaplw8ak","geo_precision":"unmatched"},"type":"Feature","geometry":null},{"properties":{"region":"Bath and North East Somerset","geo_score":0.0,"id":"a625iajinups","geo_precision":"unmatched"},"type":"Feature","geometry":null},{"properties":{"region":"Bedford Borough","geo_score":0.0,"id":"a625iaymoib0","geo_precision":"unmatched"},"type":"Feature","geometry":null},{"properties":{"region":"Belfast","geo_score":0.0,"id":"a625iaofdh47","geo_precision":"unmatched"},"type":"Feature","geometry":null},{"properties":{"region":"Birmingham","geo_score":0.0,"id":"a625iasjjz33","geo_precision":"unmatched"},"type":"Feature","geometry":null},{"properties":{"region":"Blackburn with Darwen","geo_score":0.0,"id":"a625iakrsi2l","geo_precision":"unmatched"},"type":"Feature","geometry":null},{"properties":{"region":"Blackpool","geo_score":0.0,"id":"a625iao883qi","geo_precision":"unmatched"},"type":"Feature","geometry":null},{"properties":{"region":"Blaenau Gwent","geo_score":0.0,"id":"a625iasodf7i","geo_precision":"unmatched"},"type":"Feature","geometry":null},{"properties":{"region":"Bolton","geo_score":0.0,"id":"a625iarqjwy6","geo_precision":"unmatched"},"type":"Feature","geometry":null},{"properties":{"region":"Bournemouth","geo_score":0.0,"id":"a625iaxqw6ok","geo_precision":"unmatched"},"type":"Feature","geometry":null},{"properties":{"region":"Bracknell Forest","geo_score":0.0,"id":"a625iaucb764","geo_precision":"unmatched"},"type":"Feature","geometry":null},{"properties":{"region":"Bradford","geo_score":0.0,"id":"a625iay4ilyr","geo_precision":"unmatched"},"type":"Feature","geometry":null},{"properties":{"region":"Bridgend","geo_score":0.0,"id":"a625iayskrjq","geo_precision":"unmatched"},"type":"Feature","geometry":null},{"properties":{"region":"Brighton and Hove","geo_score":0.0,"id":"a625iaq9rcdq","geo_precision":"unmatched"},"type":"Feature","geometry":null},{"properties":{"region":"Buckingham","geo_score":0.0,"id":"a625iauut32e","geo_precision":"unmatched"},"type":"Feature","geometry":null},{"properties":{"region":"Buckinghamshire","geo_score":0.0,"id":"a625iaoxkosu","geo_precision":"unmatched"},"type":"Feature","geometry":null},{"properties":{"region":"Bury","geo_score":0.0,"id":"a625iazfrr9r","geo_precision":"unmatched"},"type":"Feature","geometry":null},{"properties":{"region":"Caerphilly","geo_score":0.0,"id":"a625iat7qv3x","geo_precision":"unmatched"},"type":"Feature","geometry":null},{"properties":{"region":"Calderdale","geo_score":0.0,"id":"a625iaw0az42","geo_precision":"unmatched"},"type":"Feature","geometry":null},{"properties":{"region":"Cambridgeshire","geo_score":0.0,"id":"a625iaqhs0de","geo_precision":"unmatched"},"type":"Feature","geometry":null},{"properties":{"region":"Cardiff","geo_score":0.0,"id":"a625iasilut6","geo_precision":"unmatched"},"type":"Feature","geometry":null},{"properties":{"region":"Carmarthenshire","geo_score":0.0,"id":"a625iakaufon","geo_precision":"unmatched"},"type":"Feature","geometry":null},{"properties":{"region":"Carrickfergus","geo_score":0.0,"id":"a625iar9nmul","geo_precision":"unmatched"},"type":"Feature","geometry":null},{"properties":{"region":"Castlereagh","geo_score":0.0,"id":"a625ianp8h7d","geo_precision":"unmatched"},"type":"Feature","geometry":null},{"properties":{"region":"Central Bedfordshire","geo_score":0.0,"id":"a625iaws6dxd","geo_precision":"unmatched"},"type":"Feature","geometry":null},{"properties":{"region":"Ceredigion","geo_score":0.0,"id":"a625iaya07w3","geo_precision":"unmatched"},"type":"Feature","geometry":null},{"properties":{"region":"Cheshire East","geo_score":0.0,"id":"a625iaortn7c","geo_precision":"unmatched"},"type":"Feature","geometry":null},{"properties":{"region":"Cheshire West and Chester","geo_score":0.0,"id":"a625iarkiuq1","geo_precision":"unmatched"},"type":"Feature","geometry":null},{"properties":{"region":"City of Bristol","geo_score":0.0,"id":"a625iakq5p1x","geo_precision":"unmatched"},"type":"Feature","geometry":null},{"properties":{"region":"City of Edinburgh","geo_score":0.0,"id":"a625iajthl5s","geo_precision":"unmatched"},"type":"Feature","geometry":null},{"properties":{"region":"City of Kingston-upon-Hull","geo_score":0.0,"id":"a625iavh1lof","geo_precision":"unmatched"},"type":"Feature","geometry":null},{"properties":{"region":"City of London","geo_score":0.0,"id":"a625iazk68ql","geo_precision":"unmatched"},"type":"Feature","geometry":null},{"properties":{"region":"Clackmannanshire","geo_score":0.0,"id":"a625iaw0d7mz","geo_precision":"unmatched"},"type":"Feature","geometry":null},{"properties":{"region":"Coleraine","geo_score":0.0,"id":"a625iar6ihrg","geo_precision":"unmatched"},"type":"Feature","geometry":null},{"properties":{"region":"Conwy","geo_score":0.0,"id":"a625iaop43gu","geo_precision":"unmatched"},"type":"Feature","geometry":null},{"properties":{"region":"Cookstown","geo_score":0.0,"id":"a625iatvq5x6","geo_precision":"unmatched"},"type":"Feature","geometry":null},{"properties":{"region":"Cornwall","geo_score":0.0,"id":"a625iavvt4zl","geo_precision":"unmatched"},"type":"Feature","geometry":null},{"properties":{"region":"County Armagh","geo_score":0.0,"id":"a625iaswtsv2","geo_precision":"unmatched"},"type":"Feature","geometry":null},{"properties":{"region":"County Durham","geo_score":0.0,"id":"a625iakeb9ur","geo_precision":"unmatched"},"type":"Feature","geometry":null},{"properties":{"region":"County Fermanagh","geo_score":0.0,"id":"a625iameppje","geo_precision":"unmatched"},"type":"Feature","geometry":null},{"properties":{"region":"County of Herefordshire","geo_score":0.0,"id":"a625iaxgx6jx","geo_precision":"unmatched"},"type":"Feature","geometry":null},{"properties":{"region":"Coventry","geo_score":0.0,"id":"a625iaq75tcr","geo_precision":"unmatched"},"type":"Feature","geometry":null},{"properties":{"region":"Craigavon","geo_score":0.0,"id":"a625iambossy","geo_precision":"unmatched"},"type":"Feature","geometry":null},{"properties":{"region":"Cumbria","geo_score":0.0,"id":"a625iaj7sqhf","geo_precision":"unmatched"},"type":"Feature","geometry":null},{"properties":{"region":"Darlington","geo_score":0.0,"id":"a625iar331ok","geo_precision":"unmatched"},"type":"Feature","geometry":null},{"properties":{"region":"Denbighshire","geo_score":0.0,"id":"a625ialgbc6u","geo_precision":"unmatched"},"type":"Feature","geometry":null},{"properties":{"region":"Derby","geo_score":0.0,"id":"a625iame36mx","geo_precision":"unmatched"},"type":"Feature","geometry":null},{"properties":{"region":"Derbyshire","geo_score":0.0,"id":"a625iaqnuiy3","geo_precision":"unmatched"},"type":"Feature","geometry":null},{"properties":{"region":"Derry","geo_score":0.0,"id":"a625ialxk35u","geo_precision":"unmatched"},"type":"Feature","geometry":null},{"properties":{"region":"Devon","geo_score":0.0,"id":"a625iap6jfkz","geo_precision":"unmatched"},"type":"Feature","geometry":null},{"properties":{"region":"Doncaster","geo_score":0.0,"id":"a625iapbfh7r","geo_precision":"unmatched"},"type":"Feature","geometry":null},{"properties":{"region":"Dorset","geo_score":0.0,"id":"a625iamkcr8h","geo_precision":"unmatched"},"type":"Feature","geometry":null},{"properties":{"region":"Down","geo_score":0.0,"id":"a625iayg03jl","geo_precision":"unmatched"},"type":"Feature","geometry":null},{"properties":{"region":"Dudley","geo_score":0.0,"id":"a625iaps0ueq","geo_precision":"unmatched"},"type":"Feature","geometry":null},{"properties":{"region":"Dumfries and Galloway","geo_score":0.0,"id":"a625iay1vl2t","geo_precision":"unmatched"},"type":"Feature","geometry":null},{"properties":{"region":"Dundee City","geo_score":0.0,"id":"a625ianih2r7","geo_precision":"unmatched"},"type":"Feature","geometry":null},{"properties":{"region":"Dungannon","geo_score":0.0,"id":"a625iav77g3b","geo_precision":"unmatched"},"type":"Feature","geometry":null},{"properties":{"region":"East Ayrshire","geo_score":0.0,"id":"a625iakd91xa","geo_precision":"unmatched"},"type":"Feature","geometry":null},{"properties":{"region":"East Dunbartonshire","geo_score":0.0,"id":"a625iaui25il","geo_precision":"unmatched"},"type":"Feature","geometry":null},{"properties":{"region":"East Lothian","geo_score":0.0,"id":"a625iazd4lfl","geo_precision":"unmatched"},"type":"Feature","geometry":null},{"properties":{"region":"East Renfrewshire","geo_score":0.0,"id":"a625iaw0hko5","geo_precision":"unmatched"},"type":"Feature","geometry":null},{"properties":{"region":"East Riding of Yorkshire","geo_score":0.0,"id":"a625iajs2kbl","geo_precision":"unmatched"},"type":"Feature","geometry":null},{"properties":{"region":"East Sussex","geo_score":0.0,"id":"a625iat7ewxp","geo_precision":"unmatched"},"type":"Feature","geometry":null},{"properties":{"region":"Eilean Siar","geo_score":0.0,"id":"a625iaoyrful","geo_precision":"unmatched"},"type":"Feature","geometry":null},{"properties":{"region":"Essex","geo_score":0.0,"id":"a625iaq53kag","geo_precision":"unmatched"},"type":"Feature","geometry":null},{"properties":{"region":"Falkirk","geo_score":0.0,"id":"a625iaw7l8ua","geo_precision":"unmatched"},"type":"Feature","geometry":null},{"properties":{"region":"Fife","geo_score":0.0,"id":"a625iat10hp8","geo_precision":"unmatched"},"type":"Feature","geometry":null},{"properties":{"region":"Flintshire","geo_score":0.0,"id":"a625iaoggsb7","geo_precision":"unmatched"},"type":"Feature","geometry":null},{"properties":{"region":"Gateshead","geo_score":0.0,"id":"a625iamzd7a5","geo_precision":"unmatched"},"type":"Feature","geometry":null},{"properties":{"region":"Glasgow City","geo_score":0.0,"id":"a625ialvxp5j","geo_precision":"unmatched"},"type":"Feature","geometry":null},{"properties":{"region":"Gloucestershire","geo_score":0.0,"id":"a625iap1wlrh","geo_precision":"unmatched"},"type":"Feature","geometry":null},{"properties":{"region":"Greater London","geo_score":0.0,"id":"a625iau74ba7","geo_precision":"unmatched"},"type":"Feature","geometry":null},{"properties":{"region":"Greater Manchester","geo_score":0.0,"id":"a625iap249vr","geo_precision":"unmatched"},"type":"Feature","geometry":null},{"properties":{"region":"Guernsey","geo_score":0.0,"id":"a625iay2taf7","geo_precision":"unmatched"},"type":"Feature","geometry":null},{"properties":{"region":"Gwynedd","geo_score":0.0,"id":"a625iaobmtj8","geo_precision":"unmatched"},"type":"Feature","geometry":null},{"properties":{"region":"Halton","geo_score":0.0,"id":"a625iaug8vkt","geo_precision":"unmatched"},"type":"Feature","geometry":null},{"properties":{"region":"Hampshire","geo_score":0.0,"id":"a625iave6jea","geo_precision":"unmatched"},"type":"Feature","geometry":null},{"properties":{"region":"Hartlepool","geo_score":0.0,"id":"a625iaps66pa","geo_precision":"unmatched"},"type":"Feature","geometry":null},{"properties":{"region":"Hertford","geo_score":0.0,"id":"a625iar71pqf","geo_precision":"unmatched"},"type":"Feature","geometry":null},{"properties":{"region":"Hertfordshire","geo_score":0.0,"id":"a625iarj9t9s","geo_precision":"unmatched"},"type":"Feature","geometry":null},{"properties":{"region":"Highland","geo_score":0.0,"id":"a625iakqrjmh","geo_precision":"unmatched"},"type":"Feature","geometry":null},{"properties":{"region":"Inverclyde","geo_score":0.0,"id":"a625iargsode","geo_precision":"unmatched"},"type":"Feature","geometry":null},{"properties":{"region":"Inverness-shire","geo_score":0.0,"id":"a625ianfi069","geo_precision":"unmatched"},"type":"Feature","geometry":null},{"properties":{"region":"IOM","geo_score":0.0,"id":"a625iaqk66sr","geo_precision":"unmatched"},"type":"Feature","geometry":null},{"properties":{"region":"Isle of Anglesey","geo_score":0.0,"id":"a625iau379zj","geo_precision":"unmatched"},"type":"Feature","geometry":null},{"properties":{"region":"Isle Of Wight","geo_score":0.0,"id":"a625iay0c5h0","geo_precision":"unmatched"},"type":"Feature","geometry":null},{"properties":{"region":"Isles Of Scilly","geo_score":0.0,"id":"a625iav706e7","geo_precision":"unmatched"},"type":"Feature","geometry":null},{"properties":{"region":"Jersey","geo_score":0.0,"id":"a625iatq4bi6","geo_precision":"unmatched"},"type":"Feature","geometry":null},{"properties":{"region":"Kent","geo_score":0.0,"id":"a625iao8k53e","geo_precision":"unmatched"},"type":"Feature","geometry":null},{"properties":{"region":"Kirklees","geo_score":0.0,"id":"a625iariydet","geo_precision":"unmatched"},"type":"Feature","geometry":null},{"properties":{"region":"Knowsley","geo_score":0.0,"id":"a625iajkg10g","geo_precision":"unmatched"},"type":"Feature","geometry":null},{"properties":{"region":"Lancashire","geo_score":0.0,"id":"a625iawocvcx","geo_precision":"unmatched"},"type":"Feature","geometry":null},{"properties":{"region":"Larne","geo_score":0.0,"id":"a625ial2aceq","geo_precision":"unmatched"},"type":"Feature","geometry":null},{"properties":{"region":"Leeds","geo_score":0.0,"id":"a625iaphjxky","geo_precision":"unmatched"},"type":"Feature","geometry":null},{"properties":{"region":"Leicester","geo_score":0.0,"id":"a625iam3e1v8","geo_precision":"unmatched"},"type":"Feature","geometry":null},{"properties":{"region":"Leicestershire","geo_score":0.0,"id":"a625iant5cv6","geo_precision":"unmatched"},"type":"Feature","geometry":null},{"properties":{"region":"Limavady","geo_score":0.0,"id":"a625ian67wv1","geo_precision":"unmatched"},"type":"Feature","geometry":null},{"properties":{"region":"Lincolnshire","geo_score":0.0,"id":"a625iao4cn5b","geo_precision":"unmatched"},"type":"Feature","geometry":null},{"properties":{"region":"Lisburn","geo_score":0.0,"id":"a625iapttvko","geo_precision":"unmatched"},"type":"Feature","geometry":null},{"properties":{"region":"Liverpool","geo_score":0.0,"id":"a625iaucfsfa","geo_precision":"unmatched"},"type":"Feature","geometry":null},{"properties":{"region":"London","geo_score":0.0,"id":"a625iayo946f","geo_precision":"unmatched"},"type":"Feature","geometry":null},{"properties":{"region":"Luton","geo_score":0.0,"id":"a625iaskzo2e","geo_precision":"unmatched"},"type":"Feature","geometry":null},{"properties":{"region":"Magherafelt","geo_score":0.0,"id":"a625iann86aq","geo_precision":"unmatched"},"type":"Feature","geometry":null},{"properties":{"region":"Medway","geo_score":0.0,"id":"a625iau4vitv","geo_precision":"unmatched"},"type":"Feature","geometry":null},{"properties":{"region":"Merthyr Tydfil","geo_score":0.0,"id":"a625iaogqi83","geo_precision":"unmatched"},"type":"Feature","geometry":null},{"properties":{"region":"Middlesbrough","geo_score":0.0,"id":"a625iano5k2e","geo_precision":"unmatched"},"type":"Feature","geometry":null},{"properties":{"region":"Midlothian","geo_score":0.0,"id":"a625iawqflsh","geo_precision":"unmatched"},"type":"Feature","geometry":null},{"properties":{"region":"Milton Keynes","geo_score":0.0,"id":"a625iaqe8j39","geo_precision":"unmatched"},"type":"Feature","geometry":null},{"properties":{"region":"Monmouthshire","geo_score":0.0,"id":"a625ialbeg1a","geo_precision":"unmatched"},"type":"Feature","geometry":null},{"properties":{"region":"Moray","geo_score":0.0,"id":"a625iaocxp1q","geo_precision":"unmatched"},"type":"Feature","geometry":null},{"properties":{"region":"Moyle","geo_score":0.0,"id":"a625iaok7st7","geo_precision":"unmatched"},"type":"Feature","geometry":null},{"properties":{"region":"Neath Port Talbot","geo_score":0.0,"id":"a625iaxnsjq1","geo_precision":"unmatched"},"type":"Feature","geometry":null},{"properties":{"region":"Newcastle Upon Tyne","geo_score":0.0,"id":"a625iakkjel0","geo_precision":"unmatched"},"type":"Feature","geometry":null},{"properties":{"region":"Newport","geo_score":0.0,"id":"a625iavg7q8r","geo_precision":"unmatched"},"type":"Feature","geometry":null},{"properties":{"region":"Newry and Mourne","geo_score":0.0,"id":"a625iak2lhm8","geo_precision":"unmatched"},"type":"Feature","geometry":null},{"properties":{"region":"Newtownabbey","geo_score":0.0,"id":"a625iaobxmsf","geo_precision":"unmatched"},"type":"Feature","geometry":null},{"properties":{"region":"Norfolk","geo_score":0.0,"id":"a625iapmhv28","geo_precision":"unmatched"},"type":"Feature","geometry":null},{"properties":{"region":"North Ayrshire","geo_score":0.0,"id":"a625ialp0xk3","geo_precision":"unmatched"},"type":"Feature","geometry":null},{"properties":{"region":"North Down","geo_score":0.0,"id":"a625iaj4we19","geo_precision":"unmatched"},"type":"Feature","geometry":null},{"properties":{"region":"North East Lincolnshire","geo_score":0.0,"id":"a625iaqcydq7","geo_precision":"unmatched"},"type":"Feature","geometry":null},{"properties":{"region":"North Lanarkshire","geo_score":0.0,"id":"a625ial1kvt0","geo_precision":"unmatched"},"type":"Feature","geometry":null},{"properties":{"region":"North Lincolnshire","geo_score":0.0,"id":"a625iarvkuo2","geo_precision":"unmatched"},"type":"Feature","geometry":null},{"properties":{"region":"North Somerset","geo_score":0.0,"id":"a625iaysw754","geo_precision":"unmatched"},"type":"Feature","geometry":null},{"properties":{"region":"North Tyneside","geo_score":0.0,"id":"a625iasqtd6m","geo_precision":"unmatched"},"type":"Feature","geometry":null},{"properties":{"region":"North Yorkshire","geo_score":0.0,"id":"a625iar8xhmq","geo_precision":"unmatched"},"type":"Feature","geometry":null},{"properties":{"region":"Northamptonshire","geo_score":0.0,"id":"a625iap905vf","geo_precision":"unmatched"},"type":"Feature","geometry":null},{"properties":{"region":"Northumberland","geo_score":0.0,"id":"a625iavzhy1a","geo_precision":"unmatched"},"type":"Feature","geometry":null},{"properties":{"region":"Nottingham","geo_score":0.0,"id":"a625ialdhnhc","geo_precision":"unmatched"},"type":"Feature","geometry":null},{"properties":{"region":"Nottinghamshire","geo_score":0.0,"id":"a625iawmt45b","geo_precision":"unmatched"},"type":"Feature","geometry":null},{"properties":{"region":"Oldham","geo_score":0.0,"id":"a625iau0lty2","geo_precision":"unmatched"},"type":"Feature","geometry":null},{"properties":{"region":"Omagh","geo_score":0.0,"id":"a625ian9p9bc","geo_precision":"unmatched"},"type":"Feature","geometry":null},{"properties":{"region":"Orkney Islands","geo_score":0.0,"id":"a625iakd261q","geo_precision":"unmatched"},"type":"Feature","geometry":null},{"properties":{"region":"Oxfordshire","geo_score":0.0,"id":"a625ian0q3rd","geo_precision":"unmatched"},"type":"Feature","geometry":null},{"properties":{"region":"Pembrokeshire","geo_score":0.0,"id":"a625iam87jh5","geo_precision":"unmatched"},"type":"Feature","geometry":null},{"properties":{"region":"Perth and Kinross","geo_score":0.0,"id":"a625iak1ij37","geo_precision":"unmatched"},"type":"Feature","geometry":null},{"properties":{"region":"Peterborough","geo_score":0.0,"id":"a625iapnr81k","geo_precision":"unmatched"},"type":"Feature","geometry":null},{"properties":{"region":"Plymouth","geo_score":0.0,"id":"a625iasqaekx","geo_precision":"unmatched"},"type":"Feature","geometry":null},{"properties":{"region":"Poole","geo_score":0.0,"id":"a625iatu5mbo","geo_precision":"unmatched"},"type":"Feature","geometry":null},{"properties":{"region":"Portsmouth","geo_score":0.0,"id":"a625iar7xhes","geo_precision":"unmatched"},"type":"Feature","geometry":null},{"properties":{"region":"Powys","geo_score":0.0,"id":"a625iajezt18","geo_precision":"unmatched"},"type":"Feature","geometry":null},{"properties":{"region":"Reading","geo_score":0.0,"id":"a625iax0icgk","geo_precision":"unmatched"},"type":"Feature","geometry":null},{"properties":{"region":"Redcar and Cleveland","geo_score":0.0,"id":"a625iamf2pld","geo_precision":"unmatched"},"type":"Feature","geometry":null},{"properties":{"region":"Renfrewshire","geo_score":0.0,"id":"a625iar0svbi","geo_precision":"unmatched"},"type":"Feature","geometry":null},{"properties":{"region":"Rhondda Cynon Taff","geo_score":0.0,"id":"a625iav8vmoc","geo_precision":"unmatched"},"type":"Feature","geometry":null},{"properties":{"region":"Rochdale","geo_score":0.0,"id":"a625iaueqplx","geo_precision":"unmatched"},"type":"Feature","geometry":null},{"properties":{"region":"Rotherham","geo_score":0.0,"id":"a625iakxfp6j","geo_precision":"unmatched"},"type":"Feature","geometry":null},{"properties":{"region":"Rutland","geo_score":0.0,"id":"a625iaxm2dsg","geo_precision":"unmatched"},"type":"Feature","geometry":null},{"properties":{"region":"Salford","geo_score":0.0,"id":"a625iajrso3l","geo_precision":"unmatched"},"type":"Feature","geometry":null},{"properties":{"region":"Sandwell","geo_score":0.0,"id":"a625ianosz6g","geo_precision":"unmatched"},"type":"Feature","geometry":null},{"properties":{"region":"Sefton","geo_score":0.0,"id":"a625iaxq0oi6","geo_precision":"unmatched"},"type":"Feature","geometry":null},{"properties":{"region":"Sheffield","geo_score":0.0,"id":"a625ian75kju","geo_precision":"unmatched"},"type":"Feature","geometry":null},{"properties":{"region":"Shetland Islands","geo_score":0.0,"id":"a625iaxz37yy","geo_precision":"unmatched"},"type":"Feature","geometry":null},{"properties":{"region":"Shropshire","geo_score":0.0,"id":"a625iattciwa","geo_precision":"unmatched"},"type":"Feature","geometry":null},{"properties":{"region":"Slough","geo_score":0.0,"id":"a625ianf4ynv","geo_precision":"unmatched"},"type":"Feature","geometry":null},{"properties":{"region":"Solihull","geo_score":0.0,"id":"a625iandol7u","geo_precision":"unmatched"},"type":"Feature","geometry":null},{"properties":{"region":"Somerset","geo_score":0.0,"id":"a625iawovczv","geo_precision":"unmatched"},"type":"Feature","geometry":null},{"properties":{"region":"South Ayrshire","geo_score":0.0,"id":"a625iaxyz377","geo_precision":"unmatched"},"type":"Feature","geometry":null},{"properties":{"region":"South Gloucestershire","geo_score":0.0,"id":"a625iauledwl","geo_precision":"unmatched"},"type":"Feature","geometry":null},{"properties":{"region":"South Lanarkshire","geo_score":0.0,"id":"a625iazjgio9","geo_precision":"unmatched"},"type":"Feature","geometry":null},{"properties":{"region":"South Tyneside","geo_score":0.0,"id":"a625iaoce5s3","geo_precision":"unmatched"},"type":"Feature","geometry":null},{"properties":{"region":"Southampton","geo_score":0.0,"id":"a625iapolx8x","geo_precision":"unmatched"},"type":"Feature","geometry":null},{"properties":{"region":"Southend-on-Sea","geo_score":0.0,"id":"a625iaj7nz65","geo_precision":"unmatched"},"type":"Feature","geometry":null},{"properties":{"region":"St Helens","geo_score":0.0,"id":"a625iav9vbpk","geo_precision":"unmatched"},"type":"Feature","geometry":null},{"properties":{"region":"Staffordshire","geo_score":0.0,"id":"a625iaogxg8r","geo_precision":"unmatched"},"type":"Feature","geometry":null},{"properties":{"region":"Stirling","geo_score":0.0,"id":"a625iaslmlm8","geo_precision":"unmatched"},"type":"Feature","geometry":null},{"properties":{"region":"Stockport","geo_score":0.0,"id":"a625iaweon5g","geo_precision":"unmatched"},"type":"Feature","geometry":null},{"properties":{"region":"Stockton-on-Tees","geo_score":0.0,"id":"a625iaoaew4p","geo_precision":"unmatched"},"type":"Feature","geometry":null},{"properties":{"region":"Stoke-on-Trent","geo_score":0.0,"id":"a625iay0amq7","geo_precision":"unmatched"},"type":"Feature","geometry":null},{"properties":{"region":"Strabane","geo_score":0.0,"id":"a625ian29enx","geo_precision":"unmatched"},"type":"Feature","geometry":null},{"properties":{"region":"Suffolk","geo_score":0.0,"id":"a625iaybusfv","geo_precision":"unmatched"},"type":"Feature","geometry":null},{"properties":{"region":"Sunderland","geo_score":0.0,"id":"a625iakvoonm","geo_precision":"unmatched"},"type":"Feature","geometry":null},{"properties":{"region":"Surrey","geo_score":0.0,"id":"a625iallmry8","geo_precision":"unmatched"},"type":"Feature","geometry":null},{"properties":{"region":"Swansea","geo_score":0.0,"id":"a625iaqmokwq","geo_precision":"unmatched"},"type":"Feature","geometry":null},{"properties":{"region":"Swindon","geo_score":0.0,"id":"a625iapbge3p","geo_precision":"unmatched"},"type":"Feature","geometry":null},{"properties":{"region":"Tameside","geo_score":0.0,"id":"a625iauksfyu","geo_precision":"unmatched"},"type":"Feature","geometry":null},{"properties":{"region":"Telford and Wrekin","geo_score":0.0,"id":"a625ialpdcl9","geo_precision":"unmatched"},"type":"Feature","geometry":null},{"properties":{"region":"The Scottish Borders","geo_score":0.0,"id":"a625iamy17th","geo_precision":"unmatched"},"type":"Feature","geometry":null},{"properties":{"region":"The Vale of Glamorgan","geo_score":0.0,"id":"a625iayzrni3","geo_precision":"unmatched"},"type":"Feature","geometry":null},{"properties":{"region":"Thurrock","geo_score":0.0,"id":"a625iapo7fvl","geo_precision":"unmatched"},"type":"Feature","geometry":null},{"properties":{"region":"Torbay","geo_score":0.0,"id":"a625iass2rgc","geo_precision":"unmatched"},"type":"Feature","geometry":null},{"properties":{"region":"Torfaen","geo_score":0.0,"id":"a625ianhz4ty","geo_precision":"unmatched"},"type":"Feature","geometry":null},{"properties":{"region":"Trafford","geo_score":0.0,"id":"a625iapp3aps","geo_precision":"unmatched"},"type":"Feature","geometry":null},{"properties":{"region":"Wakefield","geo_score":0.0,"id":"a625iaq07v39","geo_precision":"unmatched"},"type":"Feature","geometry":null},{"properties":{"region":"Walsall","geo_score":0.0,"id":"a625iapguq5j","geo_precision":"unmatched"},"type":"Feature","geometry":null},{"properties":{"region":"Warrington","geo_score":0.0,"id":"a625ialdoxwk","geo_precision":"unmatched"},"type":"Feature","geometry":null},{"properties":{"region":"Warwickshire","geo_score":0.0,"id":"a625iasrdxyb","geo_precision":"unmatched"},"type":"Feature","geometry":null},{"properties":{"region":"West Berkshire","geo_score":0.0,"id":"a625iap8ccla","geo_precision":"unmatched"},"type":"Feature","geometry":null},{"properties":{"region":"West Dunbartonshire","geo_score":0.0,"id":"a625iau8wlyj","geo_precision":"unmatched"},"type":"Feature","geometry":null},{"properties":{"region":"West Lothian","geo_score":0.0,"id":"a625iamukdha","geo_precision":"unmatched"},"type":"Feature","geometry":null},{"properties":{"region":"West Sussex","geo_score":0.0,"id":"a625iajwtj3l","geo_precision":"unmatched"},"type":"Feature","geometry":null},{"properties":{"region":"Wigan","geo_score":0.0,"id":"a625iarg42in","geo_precision":"unmatched"},"type":"Feature","geometry":null},{"properties":{"region":"Wiltshire","geo_score":0.0,"id":"a625iavdlems","geo_precision":"unmatched"},"type":"Feature","geometry":null},{"properties":{"region":"Windsor and Maidenhead","geo_score":0.0,"id":"a625iay0nsj1","geo_precision":"unmatched"},"type":"Feature","geometry":null},{"properties":{"region":"Wirral","geo_score":0.0,"id":"a625iamt7356","geo_precision":"unmatched"},"type":"Feature","geometry":null},{"properties":{"region":"Wokingham","geo_score":0.0,"id":"a625iaqq609q","geo_precision":"unmatched"},"type":"Feature","geometry":null},{"properties":{"region":"Wolverhampton","geo_score":0.0,"id":"a625iakx9l99","geo_precision":"unmatched"},"type":"Feature","geometry":null},{"properties":{"region":"Worcester","geo_score":0.0,"id":"a625iatjn81e","geo_precision":"unmatched"},"type":"Feature","geometry":null},{"properties":{"region":"Worcestershire","geo_score":0.0,"id":"a625iaz13jvi","geo_precision":"unmatched"},"type":"Feature","geometry":null},{"properties":{"region":"Wrexham","geo_score":0.0,"id":"a625iarvttzi","geo_precision":"unmatched"},"type":"Feature","geometry":null},{"properties":{"region":"York","geo_score":0.0,"id":"a625iaup11dx","geo_precision":"unmatched"},"type":"Feature","geometry":null},{"properties":{"region":"(blank)","geo_score":0.0,"id":"a625iajyx349","geo_precision":"unmatched"},"type":"Feature","geometry":null},{"properties":{"region":"Grand Total","geo_score":0.0,"id":"a625iaq2qqni","geo_precision":"unmatched"},"type":"Feature","geometry":null}],"is_temporal":false,"author":{"url":"","metadata":null,"contact_name":null,"contact_address":null,"source":null,"contact_phone":null},"source":"","pagination":{"sort":null,"start":0,"total":211,"limit":1000000},"state":"complete","tags":"","published":"2014-08-13T09:00:31-04:00","id":198355}