{"type":"FeatureCollection","data_type":"Dataset","url_type":null,"permissions":[{"permissions":{"download":true,"view":true},"group_id":"everyone"}],"classification":null,"title":"Vendor Locations","count":285,"stream_id":19856,"contributor":{"url":"http://geocommons.com/users/3995","name":"amazon"},"data_attributes":null,"calculation_params":null,"icon_link":null,"link":"http://geocommons.com/overlays/19856.json","extent":[-158.009,0.0,145.756,61.2181],"geometry_types":["point"],"unique_name":null,"name":"Vendor Locations","feature_count":285,"description":"","next_feature":null,"is_raster":false,"short_classification":"Y","stats":{"total":{"max":23847017.81,"mean":193204.107754386,"variance":2381300153962.28,"stdev":1543146.18684112,"min":1.0,"median":17338.0},"lat":{"max":61.2180556,"mean":36.9715634210526,"variance":77.2816813325823,"stdev":8.79100001891607,"min":0.0,"median":39.4812172},"long":{"max":145.755997,"mean":-74.7869365294736,"variance":4052.71347182832,"stdev":63.6609257851967,"min":-158.0091667,"median":-84.2807329}},"features":[{"properties":{"city":"TAMUNING","total":23847017.81,"country":"Guam","id":"a644yvk70hhc","lat":13.483889,"long":144.776667,"state":"GUAM"},"type":"Feature","geometry":{"type":"Point","coordinates":[144.776667,13.483889]}},{"properties":{"city":"HAGATNA","total":9753179.4,"country":"Guam","id":"a644yvtfkr3c","lat":13.4770676,"long":144.7494423,"state":"GUAM"},"type":"Feature","geometry":{"type":"Point","coordinates":[144.7494423,13.4770676]}},{"properties":{"city":"SANTA RITA","total":1342338.13,"country":"Guam","id":"a644yvjyf9rj","lat":13.3742669,"long":144.7082568,"state":"GUAM"},"type":"Feature","geometry":{"type":"Point","coordinates":[144.7082568,13.3742669]}},{"properties":{"city":"DEDEDO","total":1168181.88,"country":"Guam","id":"a644yvpez915","lat":13.54744,"long":144.832596,"state":"GUAM"},"type":"Feature","geometry":{"type":"Point","coordinates":[144.832596,13.54744]}},{"properties":{"city":"UPPER TUMON","total":1.0,"country":"Guam","id":"a644yvek1yyx","lat":0.0,"long":0.0,"state":"GUAM"},"type":"Feature","geometry":{"type":"Point","coordinates":[0.0,0.0]}},{"properties":{"city":"TALOFOFO","total":1.0,"country":"Guam","id":"a644yvg997ff","lat":13.351667,"long":144.753056,"state":"GUAM"},"type":"Feature","geometry":{"type":"Point","coordinates":[144.753056,13.351667]}},{"properties":{"city":"AGAT","total":350.0,"country":"Guam","id":"a644yvkrt7g4","lat":13.38004,"long":144.657898,"state":"GUAM"},"type":"Feature","geometry":{"type":"Point","coordinates":[144.657898,13.38004]}},{"properties":{"city":"INARAJAN","total":5339.75,"country":"Guam","id":"a644yvn0yunu","lat":13.27559,"long":144.740601,"state":"GUAM"},"type":"Feature","geometry":{"type":"Point","coordinates":[144.740601,13.27559]}},{"properties":{"city":"YIGO","total":46579.08,"country":"Guam","id":"a644yvqy5k6o","lat":13.5639627,"long":144.9061342,"state":"GUAM"},"type":"Feature","geometry":{"type":"Point","coordinates":[144.9061342,13.5639627]}},{"properties":{"city":"HARMON","total":47272.82,"country":"Guam","id":"a644yvdmq3hh","lat":13.452108,"long":144.7631754,"state":"GUAM"},"type":"Feature","geometry":{"type":"Point","coordinates":[144.7631754,13.452108]}},{"properties":{"city":"ASAN","total":64436.98,"country":"Guam","id":"a644yvjzq7ty","lat":13.471389,"long":144.713889,"state":"GUAM"},"type":"Feature","geometry":{"type":"Point","coordinates":[144.713889,13.471389]}},{"properties":{"city":"YONA","total":71845.0,"country":"Guam","id":"a644yvgymw1m","lat":13.404444,"long":144.773611,"state":"GUAM"},"type":"Feature","geometry":{"type":"Point","coordinates":[144.773611,13.404444]}},{"properties":{"city":"UMATAC","total":136981.84,"country":"Guam","id":"a644yvmm3r34","lat":13.29798,"long":144.667404,"state":"GUAM"},"type":"Feature","geometry":{"type":"Point","coordinates":[144.667404,13.29798]}},{"properties":{"city":"MONGMONG","total":219383.11,"country":"Guam","id":"a644yvm6qv1x","lat":13.471667,"long":144.761111,"state":"GUAM"},"type":"Feature","geometry":{"type":"Point","coordinates":[144.761111,13.471667]}},{"properties":{"city":"BARRIGADA","total":299844.28,"country":"Guam","id":"a644yvmrbjlq","lat":13.468333,"long":144.798889,"state":"GUAM"},"type":"Feature","geometry":{"type":"Point","coordinates":[144.798889,13.468333]}},{"properties":{"city":"PITI","total":316540.72,"country":"Guam","id":"a644yvdjenxo","lat":13.46,"long":144.691667,"state":"GUAM"},"type":"Feature","geometry":{"type":"Point","coordinates":[144.691667,13.46]}},{"properties":{"city":"AGANA","total":728346.98,"country":"Guam","id":"a644yvm5dgqt","lat":13.4770676,"long":144.7494423,"state":"GUAM"},"type":"Feature","geometry":{"type":"Point","coordinates":[144.7494423,13.4770676]}},{"properties":{"city":"MANGILAO","total":732628.8,"country":"Guam","id":"a644yvdvrshd","lat":13.4702123,"long":144.8456217,"state":"GUAM"},"type":"Feature","geometry":{"type":"Point","coordinates":[144.8456217,13.4702123]}},{"properties":{"city":"SAIPAN","total":51550.0,"country":"NORTHERN MARIANA ISLANDS","id":"a644yvihb41l","lat":15.18093,"long":145.755997,"state":"NORTHERN MARIANA ISLANDS"},"type":"Feature","geometry":{"type":"Point","coordinates":[145.755997,15.18093]}},{"properties":{"city":"SAIPAN","total":8640.0,"country":"NORTHERN MARIANA ISLANDS","id":"a644yvo1icur","lat":15.18093,"long":145.755997,"state":"NORTHERN MARIANA ISLANDS"},"type":"Feature","geometry":{"type":"Point","coordinates":[145.755997,15.18093]}},{"properties":{"city":"PARANAQUE","total":1.0,"country":"PHILIPPINES","id":"a644yvfp0hw1","lat":0.0,"long":0.0,"state":"NORTHERN MARIANA ISLANDS"},"type":"Feature","geometry":{"type":"Point","coordinates":[0.0,0.0]}},{"properties":{"city":"SAN JOSE","total":10530.0,"country":"UNITED STATES","id":"a644yvfyuvyf","lat":37.3393857,"long":-121.8949555,"state":"CALIFORNIA"},"type":"Feature","geometry":{"type":"Point","coordinates":[-121.8949555,37.3393857]}},{"properties":{"city":"LINCOLN","total":10500.0,"country":"UNITED STATES","id":"a644yvhtj1en","lat":38.891565,"long":-121.2930079,"state":"CALIFORNIA"},"type":"Feature","geometry":{"type":"Point","coordinates":[-121.2930079,38.891565]}},{"properties":{"city":"ENCINITAS","total":7409.0,"country":"UNITED STATES","id":"a644yvt5u4pl","lat":33.0369867,"long":-117.2919818,"state":"CALIFORNIA"},"type":"Feature","geometry":{"type":"Point","coordinates":[-117.2919818,33.0369867]}},{"properties":{"city":"CHATSWORTH","total":4965.0,"country":"UNITED STATES","id":"a644yvk90yz2","lat":34.2572252,"long":-118.6011992,"state":"CALIFORNIA"},"type":"Feature","geometry":{"type":"Point","coordinates":[-118.6011992,34.2572252]}},{"properties":{"city":"SAN FRANCISCO","total":4858.2,"country":"UNITED STATES","id":"a644yvpcomkv","lat":37.7749295,"long":-122.4194155,"state":"CALIFORNIA"},"type":"Feature","geometry":{"type":"Point","coordinates":[-122.4194155,37.7749295]}},{"properties":{"city":"SAN LEANDRO","total":4830.0,"country":"UNITED STATES","id":"a644yvsb2nnb","lat":37.7249296,"long":-122.1560768,"state":"CALIFORNIA"},"type":"Feature","geometry":{"type":"Point","coordinates":[-122.1560768,37.7249296]}},{"properties":{"city":"THOUSAND OAKS","total":4550.0,"country":"UNITED STATES","id":"a644yvnz5td2","lat":34.1705609,"long":-118.8375937,"state":"CALIFORNIA"},"type":"Feature","geometry":{"type":"Point","coordinates":[-118.8375937,34.1705609]}},{"properties":{"city":"REDWOOD CITY","total":3629.0,"country":"UNITED STATES","id":"a644yvef6zsy","lat":37.4852152,"long":-122.2363548,"state":"CALIFORNIA"},"type":"Feature","geometry":{"type":"Point","coordinates":[-122.2363548,37.4852152]}},{"properties":{"city":"EMERYVILLE","total":3431.32,"country":"UNITED STATES","id":"a644yvepzoyq","lat":37.831316,"long":-122.2852473,"state":"CALIFORNIA"},"type":"Feature","geometry":{"type":"Point","coordinates":[-122.2852473,37.831316]}},{"properties":{"city":"ANAHEIM","total":3278.68,"country":"UNITED STATES","id":"a644yvhyzyr8","lat":33.8352932,"long":-117.9145036,"state":"CALIFORNIA"},"type":"Feature","geometry":{"type":"Point","coordinates":[-117.9145036,33.8352932]}},{"properties":{"city":"SAN DIEGO","total":1977.42,"country":"UNITED STATES","id":"a644yvnlp0kd","lat":32.7153292,"long":-117.1572551,"state":"CALIFORNIA"},"type":"Feature","geometry":{"type":"Point","coordinates":[-117.1572551,32.7153292]}},{"properties":{"city":"BRENTWOOD","total":1.0,"country":"UNITED STATES","id":"a644yvdv2727","lat":37.931868,"long":-121.6957863,"state":"CALIFORNIA"},"type":"Feature","geometry":{"type":"Point","coordinates":[-121.6957863,37.931868]}},{"properties":{"city":"CARLSBAD","total":1.0,"country":"UNITED STATES","id":"a644yvsyyjrx","lat":33.1580933,"long":-117.3505939,"state":"CALIFORNIA"},"type":"Feature","geometry":{"type":"Point","coordinates":[-117.3505939,33.1580933]}},{"properties":{"city":"SAN CLEMENTE","total":1.0,"country":"UNITED STATES","id":"a644yvqb27xj","lat":33.4269728,"long":-117.6119925,"state":"CALIFORNIA"},"type":"Feature","geometry":{"type":"Point","coordinates":[-117.6119925,33.4269728]}},{"properties":{"city":"TORRANCE","total":1.0,"country":"UNITED STATES","id":"a644yvoeh9ta","lat":33.8358492,"long":-118.3406288,"state":"CALIFORNIA"},"type":"Feature","geometry":{"type":"Point","coordinates":[-118.3406288,33.8358492]}},{"properties":{"city":"LAFAYETTE","total":95820.54,"country":"UNITED STATES","id":"a644yvlssmrp","lat":39.9935959,"long":-105.0897058,"state":"COLORADO"},"type":"Feature","geometry":{"type":"Point","coordinates":[-105.0897058,39.9935959]}},{"properties":{"city":"COLORADO SPRINGS","total":66015.75,"country":"UNITED STATES","id":"a644yvqw7ny2","lat":38.8338816,"long":-104.8213634,"state":"COLORADO"},"type":"Feature","geometry":{"type":"Point","coordinates":[-104.8213634,38.8338816]}},{"properties":{"city":"PAGOSA SPRINGS","total":25200.0,"country":"UNITED STATES","id":"a644yvsaqo8y","lat":37.26945,"long":-107.0097617,"state":"COLORADO"},"type":"Feature","geometry":{"type":"Point","coordinates":[-107.0097617,37.26945]}},{"properties":{"city":"BOULDER","total":9355.65,"country":"UNITED STATES","id":"a644yvp1avti","lat":40.0149856,"long":-105.2705456,"state":"COLORADO"},"type":"Feature","geometry":{"type":"Point","coordinates":[-105.2705456,40.0149856]}},{"properties":{"city":"DENVER","total":7636.0,"country":"UNITED STATES","id":"a644yvkctacq","lat":39.7391536,"long":-104.9847034,"state":"COLORADO"},"type":"Feature","geometry":{"type":"Point","coordinates":[-104.9847034,39.7391536]}},{"properties":{"city":"ENGLEWOOD","total":3995.0,"country":"UNITED STATES","id":"a644yved9arz","lat":39.6477653,"long":-104.9877597,"state":"COLORADO"},"type":"Feature","geometry":{"type":"Point","coordinates":[-104.9877597,39.6477653]}},{"properties":{"city":"AVON","total":160685.04,"country":"UNITED STATES","id":"a644yvpml9x3","lat":41.8098209,"long":-72.8306541,"state":"CONNECTICUT"},"type":"Feature","geometry":{"type":"Point","coordinates":[-72.8306541,41.8098209]}},{"properties":{"city":"MYSTIC","total":31380.0,"country":"UNITED STATES","id":"a644yvsl2tu1","lat":41.3542656,"long":-71.966462,"state":"CONNECTICUT"},"type":"Feature","geometry":{"type":"Point","coordinates":[-71.966462,41.3542656]}},{"properties":{"city":"STAMFORD","total":30053.0,"country":"UNITED STATES","id":"a644yvndgxou","lat":41.0534302,"long":-73.5387341,"state":"CONNECTICUT"},"type":"Feature","geometry":{"type":"Point","coordinates":[-73.5387341,41.0534302]}},{"properties":{"city":"NEW BRITAIN","total":20992.5,"country":"UNITED STATES","id":"a644yvesfxgn","lat":41.6612104,"long":-72.7795419,"state":"CONNECTICUT"},"type":"Feature","geometry":{"type":"Point","coordinates":[-72.7795419,41.6612104]}},{"properties":{"city":"NEW HAVEN","total":4222.0,"country":"UNITED STATES","id":"a644yvgysqpr","lat":41.3081527,"long":-72.9281577,"state":"CONNECTICUT"},"type":"Feature","geometry":{"type":"Point","coordinates":[-72.9281577,41.3081527]}},{"properties":{"city":"WASHINGTON","total":109257.05,"country":"UNITED STATES","id":"a644yvg58yoh","lat":38.8951118,"long":-77.0363658,"state":"DISTRICT OF COLUMBIA"},"type":"Feature","geometry":{"type":"Point","coordinates":[-77.0363658,38.8951118]}},{"properties":{"city":"TALLAHASSEE","total":44622.52,"country":"UNITED STATES","id":"a644yvoc8e17","lat":30.4382559,"long":-84.2807329,"state":"FLORIDA"},"type":"Feature","geometry":{"type":"Point","coordinates":[-84.2807329,30.4382559]}},{"properties":{"city":"BOYNTON BEACH","total":37460.17,"country":"UNITED STATES","id":"a644yvfu93gf","lat":26.5253491,"long":-80.0664309,"state":"FLORIDA"},"type":"Feature","geometry":{"type":"Point","coordinates":[-80.0664309,26.5253491]}},{"properties":{"city":"BOCA RATON","total":18883.8,"country":"UNITED STATES","id":"a644yvi9w9ua","lat":26.3586885,"long":-80.0830984,"state":"FLORIDA"},"type":"Feature","geometry":{"type":"Point","coordinates":[-80.0830984,26.3586885]}},{"properties":{"city":"NAPLES","total":18573.0,"country":"UNITED STATES","id":"a644yvg7fzod","lat":26.1420358,"long":-81.7948103,"state":"FLORIDA"},"type":"Feature","geometry":{"type":"Point","coordinates":[-81.7948103,26.1420358]}},{"properties":{"city":"TAMPA","total":13998.75,"country":"UNITED STATES","id":"a644yvlh9uha","lat":27.9475216,"long":-82.4584279,"state":"FLORIDA"},"type":"Feature","geometry":{"type":"Point","coordinates":[-82.4584279,27.9475216]}},{"properties":{"city":"BRADENTON","total":11689.6,"country":"UNITED STATES","id":"a644yvpdhgfc","lat":27.4989278,"long":-82.5748194,"state":"FLORIDA"},"type":"Feature","geometry":{"type":"Point","coordinates":[-82.5748194,27.4989278]}},{"properties":{"city":"OPA LOCKA","total":8540.4,"country":"UNITED STATES","id":"a644yvrw5tga","lat":25.9023168,"long":-80.2503271,"state":"FLORIDA"},"type":"Feature","geometry":{"type":"Point","coordinates":[-80.2503271,25.9023168]}},{"properties":{"city":"SUNRISE","total":6407.2,"country":"UNITED STATES","id":"a644yvh5bcd8","lat":26.1672222,"long":-80.295,"state":"FLORIDA"},"type":"Feature","geometry":{"type":"Point","coordinates":[-80.295,26.1672222]}},{"properties":{"city":"JUPITER","total":4980.0,"country":"UNITED STATES","id":"a644yvrgtvmt","lat":26.9342246,"long":-80.0942087,"state":"FLORIDA"},"type":"Feature","geometry":{"type":"Point","coordinates":[-80.0942087,26.9342246]}},{"properties":{"city":"JACKSONVILLE","total":2946.0,"country":"UNITED STATES","id":"a644yvm2h7zd","lat":30.3321838,"long":-81.655651,"state":"FLORIDA"},"type":"Feature","geometry":{"type":"Point","coordinates":[-81.655651,30.3321838]}},{"properties":{"city":"ORLANDO","total":2834.16,"country":"UNITED STATES","id":"a644yvdp0b6p","lat":28.5383355,"long":-81.3792365,"state":"FLORIDA"},"type":"Feature","geometry":{"type":"Point","coordinates":[-81.3792365,28.5383355]}},{"properties":{"city":"MIAMI","total":1.0,"country":"UNITED STATES","id":"a644yvjnsr0u","lat":25.7742657,"long":-80.1936589,"state":"FLORIDA"},"type":"Feature","geometry":{"type":"Point","coordinates":[-80.1936589,25.7742657]}},{"properties":{"city":"STONE MOUNTAIN","total":49294.0,"country":"UNITED STATES","id":"a644yvezezzb","lat":33.8081608,"long":-84.170196,"state":"GEORGIA"},"type":"Feature","geometry":{"type":"Point","coordinates":[-84.170196,33.8081608]}},{"properties":{"city":"MARIETTA","total":7284.0,"country":"UNITED STATES","id":"a644yvl9mqt6","lat":33.952602,"long":-84.5499327,"state":"GEORGIA"},"type":"Feature","geometry":{"type":"Point","coordinates":[-84.5499327,33.952602]}},{"properties":{"city":"ATLANTA","total":3933.0,"country":"UNITED STATES","id":"a644yvo2syl4","lat":33.7489954,"long":-84.3879824,"state":"GEORGIA"},"type":"Feature","geometry":{"type":"Point","coordinates":[-84.3879824,33.7489954]}},{"properties":{"city":"ANCHORAGE","total":91550.0,"country":"UNITED STATES","id":"a644yvpoxzmw","lat":61.2180556,"long":-149.9002778,"state":"ALASKA"},"type":"Feature","geometry":{"type":"Point","coordinates":[-149.9002778,61.2180556]}},{"properties":{"city":"SONORA","total":11902.0,"country":"UNITED STATES","id":"a644yvqup46p","lat":37.9840911,"long":-120.3821381,"state":"CALIFORNIA"},"type":"Feature","geometry":{"type":"Point","coordinates":[-120.3821381,37.9840911]}},{"properties":{"city":"NAPA","total":16752.0,"country":"UNITED STATES","id":"a644yvtvd4zm","lat":38.305031,"long":-122.289803,"state":"CALIFORNIA"},"type":"Feature","geometry":{"type":"Point","coordinates":[-122.289803,38.305031]}},{"properties":{"city":"VALENCIA","total":17338.0,"country":"UNITED STATES","id":"a644yvf5yxq0","lat":34.1466768,"long":-117.2725427,"state":"CALIFORNIA"},"type":"Feature","geometry":{"type":"Point","coordinates":[-117.2725427,34.1466768]}},{"properties":{"city":"BEVERLY HILLS","total":18793.0,"country":"UNITED STATES","id":"a644yvqzlun9","lat":34.0736204,"long":-118.4003563,"state":"CALIFORNIA"},"type":"Feature","geometry":{"type":"Point","coordinates":[-118.4003563,34.0736204]}},{"properties":{"city":"GARDENA","total":18920.0,"country":"UNITED STATES","id":"a644yvshmm97","lat":33.8883487,"long":-118.3089624,"state":"CALIFORNIA"},"type":"Feature","geometry":{"type":"Point","coordinates":[-118.3089624,33.8883487]}},{"properties":{"city":"CULVER CITY","total":22179.0,"country":"UNITED STATES","id":"a644yvpa0umr","lat":34.0211224,"long":-118.3964665,"state":"CALIFORNIA"},"type":"Feature","geometry":{"type":"Point","coordinates":[-118.3964665,34.0211224]}},{"properties":{"city":"SAN BRUNO","total":26751.62,"country":"UNITED STATES","id":"a644yvic1n69","lat":37.6304904,"long":-122.4110835,"state":"CALIFORNIA"},"type":"Feature","geometry":{"type":"Point","coordinates":[-122.4110835,37.6304904]}},{"properties":{"city":"REDLANDS","total":28669.76,"country":"UNITED STATES","id":"a644yvdtaqul","lat":34.0555693,"long":-117.1825381,"state":"CALIFORNIA"},"type":"Feature","geometry":{"type":"Point","coordinates":[-117.1825381,34.0555693]}},{"properties":{"city":"FREMONT","total":30853.0,"country":"UNITED STATES","id":"a644yvqu3uu3","lat":37.5482697,"long":-121.9885719,"state":"CALIFORNIA"},"type":"Feature","geometry":{"type":"Point","coordinates":[-121.9885719,37.5482697]}},{"properties":{"city":"FOUNTAIN VALLEY","total":39400.0,"country":"UNITED STATES","id":"a644yvi99q87","lat":33.7091847,"long":-117.9536697,"state":"CALIFORNIA"},"type":"Feature","geometry":{"type":"Point","coordinates":[-117.9536697,33.7091847]}},{"properties":{"city":"IRVINE","total":41459.58,"country":"UNITED STATES","id":"a644yvf2u80e","lat":33.6694649,"long":-117.8231107,"state":"CALIFORNIA"},"type":"Feature","geometry":{"type":"Point","coordinates":[-117.8231107,33.6694649]}},{"properties":{"city":"HEMET","total":44816.56,"country":"UNITED STATES","id":"a644yvik389r","lat":33.7475203,"long":-116.9719684,"state":"CALIFORNIA"},"type":"Feature","geometry":{"type":"Point","coordinates":[-116.9719684,33.7475203]}},{"properties":{"city":"SAN LUIS OBISPO","total":81382.1,"country":"UNITED STATES","id":"a644yvsu71no","lat":35.2827524,"long":-120.6596156,"state":"CALIFORNIA"},"type":"Feature","geometry":{"type":"Point","coordinates":[-120.6596156,35.2827524]}},{"properties":{"city":"SACRAMENTO","total":83186.5,"country":"UNITED STATES","id":"a644yvkioslo","lat":38.5815719,"long":-121.4943996,"state":"CALIFORNIA"},"type":"Feature","geometry":{"type":"Point","coordinates":[-121.4943996,38.5815719]}},{"properties":{"city":"SANTA CLARITA","total":87066.0,"country":"UNITED STATES","id":"a644yvgdzngt","lat":34.3916641,"long":-118.542586,"state":"CALIFORNIA"},"type":"Feature","geometry":{"type":"Point","coordinates":[-118.542586,34.3916641]}},{"properties":{"city":"BAKERSFIELD","total":171190.95,"country":"UNITED STATES","id":"a644yvkdam8n","lat":35.3732921,"long":-119.0187125,"state":"CALIFORNIA"},"type":"Feature","geometry":{"type":"Point","coordinates":[-119.0187125,35.3732921]}},{"properties":{"city":"OAKLAND","total":186180.0,"country":"UNITED STATES","id":"a644yvexsi9b","lat":37.8043722,"long":-122.2708026,"state":"CALIFORNIA"},"type":"Feature","geometry":{"type":"Point","coordinates":[-122.2708026,37.8043722]}},{"properties":{"city":"HONOLULU","total":284636.04,"country":"UNITED STATES","id":"a644yviztzlz","lat":21.3069444,"long":-157.8583333,"state":"HAWAII"},"type":"Feature","geometry":{"type":"Point","coordinates":[-157.8583333,21.3069444]}},{"properties":{"city":"KAILUA KONA","total":58816.84,"country":"UNITED STATES","id":"a644yvr8a1o9","lat":19.6405556,"long":-155.9955556,"state":"HAWAII"},"type":"Feature","geometry":{"type":"Point","coordinates":[-155.9955556,19.6405556]}},{"properties":{"city":"WAIPAHU","total":24104.77,"country":"UNITED STATES","id":"a644yvifs2wt","lat":21.3866667,"long":-158.0091667,"state":"HAWAII"},"type":"Feature","geometry":{"type":"Point","coordinates":[-158.0091667,21.3866667]}},{"properties":{"city":"HOOLEHUA","total":1834.0,"country":"UNITED STATES","id":"a644yvjlt3bk","lat":21.1711111,"long":-157.0713889,"state":"HAWAII"},"type":"Feature","geometry":{"type":"Point","coordinates":[-157.0713889,21.1711111]}},{"properties":{"city":"BOISE","total":60670.0,"country":"UNITED STATES","id":"a644yvjsncoo","lat":43.612631,"long":-116.211076,"state":"IDAHO"},"type":"Feature","geometry":{"type":"Point","coordinates":[-116.211076,43.612631]}},{"properties":{"city":"LAKE FOREST","total":179882.07,"country":"UNITED STATES","id":"a644yvsy7o4m","lat":42.2586342,"long":-87.840625,"state":"ILLINOIS"},"type":"Feature","geometry":{"type":"Point","coordinates":[-87.840625,42.2586342]}},{"properties":{"city":"DEERFIELD","total":142970.0,"country":"UNITED STATES","id":"a644yvj2fwu2","lat":42.1711365,"long":-87.8445119,"state":"ILLINOIS"},"type":"Feature","geometry":{"type":"Point","coordinates":[-87.8445119,42.1711365]}},{"properties":{"city":"DES PLAINES","total":45142.34,"country":"UNITED STATES","id":"a644yvl6cblk","lat":42.0333623,"long":-87.8833991,"state":"ILLINOIS"},"type":"Feature","geometry":{"type":"Point","coordinates":[-87.8833991,42.0333623]}},{"properties":{"city":"HOFFMAN ESTATES","total":44647.63,"country":"UNITED STATES","id":"a644yvdvh9gp","lat":42.0428051,"long":-88.079795,"state":"ILLINOIS"},"type":"Feature","geometry":{"type":"Point","coordinates":[-88.079795,42.0428051]}},{"properties":{"city":"KEWANEE","total":38995.0,"country":"UNITED STATES","id":"a644yvfw5r6w","lat":41.2455927,"long":-89.9248303,"state":"ILLINOIS"},"type":"Feature","geometry":{"type":"Point","coordinates":[-89.9248303,41.2455927]}},{"properties":{"city":"LAKE ZURICH","total":25014.25,"country":"UNITED STATES","id":"a644yvg235t6","lat":42.1969689,"long":-88.0934108,"state":"ILLINOIS"},"type":"Feature","geometry":{"type":"Point","coordinates":[-88.0934108,42.1969689]}},{"properties":{"city":"AURORA","total":23231.52,"country":"UNITED STATES","id":"a644yvojua1s","lat":41.7605849,"long":-88.3200715,"state":"ILLINOIS"},"type":"Feature","geometry":{"type":"Point","coordinates":[-88.3200715,41.7605849]}},{"properties":{"city":"VERNON HILLS","total":13246.28,"country":"UNITED STATES","id":"a644yvoo2rvf","lat":42.2194686,"long":-87.9795187,"state":"ILLINOIS"},"type":"Feature","geometry":{"type":"Point","coordinates":[-87.9795187,42.2194686]}},{"properties":{"city":"SCHILLER PARK","total":9426.0,"country":"UNITED STATES","id":"a644yvdm0uj3","lat":41.9558637,"long":-87.8708965,"state":"ILLINOIS"},"type":"Feature","geometry":{"type":"Point","coordinates":[-87.8708965,41.9558637]}},{"properties":{"city":"MONTGOMERY","total":5004.16,"country":"UNITED STATES","id":"a644yvjcwovn","lat":41.730585,"long":-88.3459048,"state":"ILLINOIS"},"type":"Feature","geometry":{"type":"Point","coordinates":[-88.3459048,41.730585]}},{"properties":{"city":"HIGHLAND PARK","total":4671.0,"country":"UNITED STATES","id":"a644yvo7w8jz","lat":42.1816918,"long":-87.8003437,"state":"ILLINOIS"},"type":"Feature","geometry":{"type":"Point","coordinates":[-87.8003437,42.1816918]}},{"properties":{"city":"MARION","total":4160.0,"country":"UNITED STATES","id":"a644yvh0ntlq","lat":37.7306054,"long":-88.9331256,"state":"ILLINOIS"},"type":"Feature","geometry":{"type":"Point","coordinates":[-88.9331256,37.7306054]}},{"properties":{"city":"ABBOTT PARK","total":3540.26,"country":"UNITED STATES","id":"a644yvl4ew93","lat":42.3020974,"long":-87.8955595,"state":"ILLINOIS"},"type":"Feature","geometry":{"type":"Point","coordinates":[-87.8955595,42.3020974]}},{"properties":{"city":"DIXON","total":3288.45,"country":"UNITED STATES","id":"a644yvllcruu","lat":41.8389213,"long":-89.4795478,"state":"ILLINOIS"},"type":"Feature","geometry":{"type":"Point","coordinates":[-89.4795478,41.8389213]}},{"properties":{"city":"WHEELING","total":2616.0,"country":"UNITED STATES","id":"a644yvpidl5z","lat":42.1391927,"long":-87.9289591,"state":"ILLINOIS"},"type":"Feature","geometry":{"type":"Point","coordinates":[-87.9289591,42.1391927]}},{"properties":{"city":"WOODRIDGE","total":2398.25,"country":"UNITED STATES","id":"a644yvlrpxhk","lat":41.7469749,"long":-88.0503406,"state":"ILLINOIS"},"type":"Feature","geometry":{"type":"Point","coordinates":[-88.0503406,41.7469749]}},{"properties":{"city":"GLENVIEW","total":2303.13,"country":"UNITED STATES","id":"a644yvt33dre","lat":42.0697509,"long":-87.7878408,"state":"ILLINOIS"},"type":"Feature","geometry":{"type":"Point","coordinates":[-87.7878408,42.0697509]}},{"properties":{"city":"MCHENRY","total":1854.0,"country":"UNITED STATES","id":"a644yvgob47s","lat":42.333355,"long":-88.2667534,"state":"ILLINOIS"},"type":"Feature","geometry":{"type":"Point","coordinates":[-88.2667534,42.333355]}},{"properties":{"city":"ROUND LAKE","total":1.0,"country":"UNITED STATES","id":"a644yvphg543","lat":42.353355,"long":-88.0934145,"state":"ILLINOIS"},"type":"Feature","geometry":{"type":"Point","coordinates":[-88.0934145,42.353355]}},{"properties":{"city":"TINLEY PARK","total":1.0,"country":"UNITED STATES","id":"a644yvfvaxiq","lat":41.5733669,"long":-87.7844944,"state":"ILLINOIS"},"type":"Feature","geometry":{"type":"Point","coordinates":[-87.7844944,41.5733669]}},{"properties":{"city":"WARRENVILLE","total":1.0,"country":"UNITED STATES","id":"a644yvhl8eov","lat":41.817807,"long":-88.1734021,"state":"ILLINOIS"},"type":"Feature","geometry":{"type":"Point","coordinates":[-88.1734021,41.817807]}},{"properties":{"city":"INDIANAPOLIS","total":610055.12,"country":"UNITED STATES","id":"a644yvna704q","lat":39.767016,"long":-86.156255,"state":"INDIANA"},"type":"Feature","geometry":{"type":"Point","coordinates":[-86.156255,39.767016]}},{"properties":{"city":"FORT WAYNE","total":343501.12,"country":"UNITED STATES","id":"a644yvoy7ps5","lat":41.1306041,"long":-85.1288597,"state":"INDIANA"},"type":"Feature","geometry":{"type":"Point","coordinates":[-85.1288597,41.1306041]}},{"properties":{"city":"SEYMOUR","total":92610.0,"country":"UNITED STATES","id":"a644yvsr3xgq","lat":38.9592201,"long":-85.8902547,"state":"INDIANA"},"type":"Feature","geometry":{"type":"Point","coordinates":[-85.8902547,38.9592201]}},{"properties":{"city":"GREENFIELD","total":14575.0,"country":"UNITED STATES","id":"a644yvi8m4kt","lat":39.785043,"long":-85.7694226,"state":"INDIANA"},"type":"Feature","geometry":{"type":"Point","coordinates":[-85.7694226,39.785043]}},{"properties":{"city":"MADISON","total":1.0,"country":"UNITED STATES","id":"a644yvraw8wr","lat":38.7358933,"long":-85.3799577,"state":"INDIANA"},"type":"Feature","geometry":{"type":"Point","coordinates":[-85.3799577,38.7358933]}},{"properties":{"city":"MUSCATINE","total":55277.0,"country":"UNITED STATES","id":"a644yvok3r9b","lat":41.424473,"long":-91.0432051,"state":"IOWA"},"type":"Feature","geometry":{"type":"Point","coordinates":[-91.0432051,41.424473]}},{"properties":{"city":"LEXINGTON","total":37962.0,"country":"UNITED STATES","id":"a644yvtrdj5d","lat":37.9886892,"long":-84.4777153,"state":"KENTUCKY"},"type":"Feature","geometry":{"type":"Point","coordinates":[-84.4777153,37.9886892]}},{"properties":{"city":"LOUISVILLE","total":13557.35,"country":"UNITED STATES","id":"a644yvh7lq0v","lat":38.2542376,"long":-85.759407,"state":"KENTUCKY"},"type":"Feature","geometry":{"type":"Point","coordinates":[-85.759407,38.2542376]}},{"properties":{"city":"WELLS","total":44739.2,"country":"UNITED STATES","id":"a644yvoh23gc","lat":43.3220301,"long":-70.5808866,"state":"MAINE"},"type":"Feature","geometry":{"type":"Point","coordinates":[-70.5808866,43.3220301]}},{"properties":{"city":"ACCIDENT","total":283307.0,"country":"UNITED STATES","id":"a644yvs0kncj","lat":39.628696,"long":-79.319759,"state":"MARYLAND"},"type":"Feature","geometry":{"type":"Point","coordinates":[-79.319759,39.628696]}},{"properties":{"city":"BALTIMORE","total":102060.0,"country":"UNITED STATES","id":"a644yvlf8nff","lat":39.2903848,"long":-76.6121893,"state":"MARYLAND"},"type":"Feature","geometry":{"type":"Point","coordinates":[-76.6121893,39.2903848]}},{"properties":{"city":"GAITHERSBURG","total":25103.0,"country":"UNITED STATES","id":"a644yvpkq1yr","lat":39.1434406,"long":-77.2013705,"state":"MARYLAND"},"type":"Feature","geometry":{"type":"Point","coordinates":[-77.2013705,39.1434406]}},{"properties":{"city":"HUNT VALLEY","total":22000.0,"country":"UNITED STATES","id":"a644yvhc5p1u","lat":39.4812172,"long":-76.6438598,"state":"MARYLAND"},"type":"Feature","geometry":{"type":"Point","coordinates":[-76.6438598,39.4812172]}},{"properties":{"city":"BETHESDA","total":11146.64,"country":"UNITED STATES","id":"a644yvjasa2n","lat":38.9806658,"long":-77.100256,"state":"MARYLAND"},"type":"Feature","geometry":{"type":"Point","coordinates":[-77.100256,38.9806658]}},{"properties":{"city":"BURTONSVILLE","total":7478.0,"country":"UNITED STATES","id":"a644yvsb52nf","lat":39.1112193,"long":-76.9324752,"state":"MARYLAND"},"type":"Feature","geometry":{"type":"Point","coordinates":[-76.9324752,39.1112193]}},{"properties":{"city":"HAGERSTOWN","total":7412.0,"country":"UNITED STATES","id":"a644yvnlufuk","lat":39.6417629,"long":-77.7199932,"state":"MARYLAND"},"type":"Feature","geometry":{"type":"Point","coordinates":[-77.7199932,39.6417629]}},{"properties":{"city":"CROFTON","total":5459.0,"country":"UNITED STATES","id":"a644yvr2hs73","lat":39.0017772,"long":-76.6874671,"state":"MARYLAND"},"type":"Feature","geometry":{"type":"Point","coordinates":[-76.6874671,39.0017772]}},{"properties":{"city":"JEFFERSON","total":4716.0,"country":"UNITED STATES","id":"a644yvnr06zw","lat":39.3620461,"long":-77.5316543,"state":"MARYLAND"},"type":"Feature","geometry":{"type":"Point","coordinates":[-77.5316543,39.3620461]}},{"properties":{"city":"ROCKVILLE","total":4487.2,"country":"UNITED STATES","id":"a644yvm86hjq","lat":39.0839973,"long":-77.1527578,"state":"MARYLAND"},"type":"Feature","geometry":{"type":"Point","coordinates":[-77.1527578,39.0839973]}},{"properties":{"city":"FORESTVILLE","total":1.0,"country":"UNITED STATES","id":"a644yvgm9i82","lat":38.8451131,"long":-76.8749722,"state":"MARYLAND"},"type":"Feature","geometry":{"type":"Point","coordinates":[-76.8749722,38.8451131]}},{"properties":{"city":"CLARKSBURG","total":1.0,"country":"UNITED STATES","id":"a644yvfn2erj","lat":39.2387164,"long":-77.2794288,"state":"MARYLAND"},"type":"Feature","geometry":{"type":"Point","coordinates":[-77.2794288,39.2387164]}},{"properties":{"city":"COLUMBIA","total":1.0,"country":"UNITED STATES","id":"a644yvjuy9ly","lat":39.203,"long":-76.857981,"state":"MARYLAND"},"type":"Feature","geometry":{"type":"Point","coordinates":[-76.857981,39.203]}},{"properties":{"city":"ANDOVER","total":144766.56,"country":"UNITED STATES","id":"a644yvl7d40v","lat":42.6584254,"long":-71.1370012,"state":"MASSACHUSETTS"},"type":"Feature","geometry":{"type":"Point","coordinates":[-71.1370012,42.6584254]}},{"properties":{"city":"BRAINTREE","total":39103.43,"country":"UNITED STATES","id":"a644yvrfhh3z","lat":42.2223218,"long":-70.999492,"state":"MASSACHUSETTS"},"type":"Feature","geometry":{"type":"Point","coordinates":[-70.999492,42.2223218]}},{"properties":{"city":"HUDSON","total":27156.25,"country":"UNITED STATES","id":"a644yvha85ai","lat":42.3917598,"long":-71.5661769,"state":"MASSACHUSETTS"},"type":"Feature","geometry":{"type":"Point","coordinates":[-71.5661769,42.3917598]}},{"properties":{"city":"MARLBOROUGH","total":26357.2,"country":"UNITED STATES","id":"a644yvinrg2o","lat":42.3459271,"long":-71.5522874,"state":"MASSACHUSETTS"},"type":"Feature","geometry":{"type":"Point","coordinates":[-71.5522874,42.3459271]}},{"properties":{"city":"WILMINGTON","total":24293.83,"country":"UNITED STATES","id":"a644yvm6dxmy","lat":42.5464828,"long":-71.1736669,"state":"MASSACHUSETTS"},"type":"Feature","geometry":{"type":"Point","coordinates":[-71.1736669,42.5464828]}},{"properties":{"city":"NORWELL","total":23430.0,"country":"UNITED STATES","id":"a644yvstbsmr","lat":42.1617681,"long":-70.7939307,"state":"MASSACHUSETTS"},"type":"Feature","geometry":{"type":"Point","coordinates":[-70.7939307,42.1617681]}},{"properties":{"city":"SOUTH DEERFIELD","total":19515.0,"country":"UNITED STATES","id":"a644yvllqko3","lat":42.4773097,"long":-72.6078667,"state":"MASSACHUSETTS"},"type":"Feature","geometry":{"type":"Point","coordinates":[-72.6078667,42.4773097]}},{"properties":{"city":"BEDFORD","total":9730.0,"country":"UNITED STATES","id":"a644yvol0et8","lat":42.4906499,"long":-71.2761686,"state":"MASSACHUSETTS"},"type":"Feature","geometry":{"type":"Point","coordinates":[-71.2761686,42.4906499]}},{"properties":{"city":"ROCKLAND","total":9548.0,"country":"UNITED STATES","id":"a644yvm70ei8","lat":42.1306563,"long":-70.9161551,"state":"MASSACHUSETTS"},"type":"Feature","geometry":{"type":"Point","coordinates":[-70.9161551,42.1306563]}},{"properties":{"city":"BURLINGTON","total":4813.0,"country":"UNITED STATES","id":"a644yvqe9iwh","lat":42.5048167,"long":-71.195611,"state":"MASSACHUSETTS"},"type":"Feature","geometry":{"type":"Point","coordinates":[-71.195611,42.5048167]}},{"properties":{"city":"BOSTON","total":1893.87,"country":"UNITED STATES","id":"a644yvt2kpcq","lat":42.3584308,"long":-71.0597732,"state":"MASSACHUSETTS"},"type":"Feature","geometry":{"type":"Point","coordinates":[-71.0597732,42.3584308]}},{"properties":{"city":"FRAMINGHAM","total":1.0,"country":"UNITED STATES","id":"a644yvm0sh14","lat":42.2917623,"long":-71.4258945,"state":"MASSACHUSETTS"},"type":"Feature","geometry":{"type":"Point","coordinates":[-71.4258945,42.2917623]}},{"properties":{"city":"CHELMSFORD","total":1.0,"country":"UNITED STATES","id":"a644yvg2bpfp","lat":42.5998139,"long":-71.3672838,"state":"MASSACHUSETTS"},"type":"Feature","geometry":{"type":"Point","coordinates":[-71.3672838,42.5998139]}},{"properties":{"city":"NORTH BILLERICA","total":1.0,"country":"UNITED STATES","id":"a644yvl5ob4y","lat":42.5834258,"long":-71.2845035,"state":"MASSACHUSETTS"},"type":"Feature","geometry":{"type":"Point","coordinates":[-71.2845035,42.5834258]}},{"properties":{"city":"ZEELAND","total":29599.98,"country":"UNITED STATES","id":"a644yvfhnjtu","lat":42.8125246,"long":-86.018651,"state":"MICHIGAN"},"type":"Feature","geometry":{"type":"Point","coordinates":[-86.018651,42.8125246]}},{"properties":{"city":"CENTRAL LAKE","total":18995.0,"country":"UNITED STATES","id":"a644yvjrm73r","lat":45.0700047,"long":-85.2645105,"state":"MICHIGAN"},"type":"Feature","geometry":{"type":"Point","coordinates":[-85.2645105,45.0700047]}},{"properties":{"city":"RICHLAND","total":11800.0,"country":"UNITED STATES","id":"a644yvk75zld","lat":42.3761504,"long":-85.4550054,"state":"MICHIGAN"},"type":"Feature","geometry":{"type":"Point","coordinates":[-85.4550054,42.3761504]}},{"properties":{"city":"GRAND RAPIDS","total":6972.0,"country":"UNITED STATES","id":"a644yvdy0d2y","lat":42.9633599,"long":-85.6680863,"state":"MICHIGAN"},"type":"Feature","geometry":{"type":"Point","coordinates":[-85.6680863,42.9633599]}},{"properties":{"city":"CALEDONIA","total":3366.6,"country":"UNITED STATES","id":"a644yvsdr121","lat":42.7891985,"long":-85.5166864,"state":"MICHIGAN"},"type":"Feature","geometry":{"type":"Point","coordinates":[-85.5166864,42.7891985]}},{"properties":{"city":"CADILLAC","total":1.0,"country":"UNITED STATES","id":"a644yvstryed","lat":44.2519526,"long":-85.4011619,"state":"MICHIGAN"},"type":"Feature","geometry":{"type":"Point","coordinates":[-85.4011619,44.2519526]}},{"properties":{"city":"WARREN","total":1.0,"country":"UNITED STATES","id":"a644yvlsf43g","lat":42.493,"long":-83.028197,"state":"MICHIGAN"},"type":"Feature","geometry":{"type":"Point","coordinates":[-83.028197,42.493]}},{"properties":{"city":"SOUTHFIELD","total":1.0,"country":"UNITED STATES","id":"a644yvp2dbxe","lat":42.4733688,"long":-83.2218731,"state":"MICHIGAN"},"type":"Feature","geometry":{"type":"Point","coordinates":[-83.2218731,42.4733688]}},{"properties":{"city":"MINNEAPOLIS","total":55274.44,"country":"UNITED STATES","id":"a644yvhn9k9p","lat":44.9799654,"long":-93.2638361,"state":"MINNESOTA"},"type":"Feature","geometry":{"type":"Point","coordinates":[-93.2638361,44.9799654]}},{"properties":{"city":"BURNSVILLE","total":34299.2,"country":"UNITED STATES","id":"a644yvr1f0es","lat":44.7677424,"long":-93.2777226,"state":"MINNESOTA"},"type":"Feature","geometry":{"type":"Point","coordinates":[-93.2777226,44.7677424]}},{"properties":{"city":"MAPLE GROVE","total":9100.0,"country":"UNITED STATES","id":"a644yvqj9457","lat":45.0724642,"long":-93.4557877,"state":"MINNESOTA"},"type":"Feature","geometry":{"type":"Point","coordinates":[-93.4557877,45.0724642]}},{"properties":{"city":"MINNETONKA","total":8670.0,"country":"UNITED STATES","id":"a644yvnyvezb","lat":44.9132965,"long":-93.5032877,"state":"MINNESOTA"},"type":"Feature","geometry":{"type":"Point","coordinates":[-93.5032877,44.9132965]}},{"properties":{"city":"SAINT CHARLES","total":22741.0,"country":"UNITED STATES","id":"a644yvkmafue","lat":38.78394,"long":-90.4812298,"state":"MISSOURI"},"type":"Feature","geometry":{"type":"Point","coordinates":[-90.4812298,38.78394]}},{"properties":{"city":"MARYLAND HEIGHTS","total":22684.0,"country":"UNITED STATES","id":"a644yvi9128z","lat":38.7131073,"long":-90.4298401,"state":"MISSOURI"},"type":"Feature","geometry":{"type":"Point","coordinates":[-90.4298401,38.7131073]}},{"properties":{"city":"CHESTERFIELD","total":17484.0,"country":"UNITED STATES","id":"a644yvfqxlkj","lat":38.6631083,"long":-90.5770675,"state":"MISSOURI"},"type":"Feature","geometry":{"type":"Point","coordinates":[-90.5770675,38.6631083]}},{"properties":{"city":"HAZELWOOD","total":10889.92,"country":"UNITED STATES","id":"a644yvhec1ih","lat":38.7714396,"long":-90.3709489,"state":"MISSOURI"},"type":"Feature","geometry":{"type":"Point","coordinates":[-90.3709489,38.7714396]}},{"properties":{"city":"SAINT LOUIS","total":5825.6,"country":"UNITED STATES","id":"a644yvfrbw1w","lat":38.646991,"long":-90.224967,"state":"MISSOURI"},"type":"Feature","geometry":{"type":"Point","coordinates":[-90.224967,38.646991]}},{"properties":{"city":"EARTH CITY","total":4700.5,"country":"UNITED STATES","id":"a644yvskl3q7","lat":38.7689401,"long":-90.4681741,"state":"MISSOURI"},"type":"Feature","geometry":{"type":"Point","coordinates":[-90.4681741,38.7689401]}},{"properties":{"city":"SPRINGFIELD","total":3560.28,"country":"UNITED STATES","id":"a644yvp31qlb","lat":37.215326,"long":-93.2982436,"state":"MISSOURI"},"type":"Feature","geometry":{"type":"Point","coordinates":[-93.2982436,37.215326]}},{"properties":{"city":"RED LODGE","total":79940.81,"country":"UNITED STATES","id":"a644yvge030s","lat":45.1857782,"long":-109.2468211,"state":"MONTANA"},"type":"Feature","geometry":{"type":"Point","coordinates":[-109.2468211,45.1857782]}},{"properties":{"city":"GREAT FALLS","total":14794.98,"country":"UNITED STATES","id":"a644yvool40j","lat":47.5002354,"long":-111.3008083,"state":"MONTANA"},"type":"Feature","geometry":{"type":"Point","coordinates":[-111.3008083,47.5002354]}},{"properties":{"city":"CONCORD","total":10584.6,"country":"UNITED STATES","id":"a644yvt9ny6o","lat":43.2081366,"long":-71.5375718,"state":"NEW HAMPSHIRE"},"type":"Feature","geometry":{"type":"Point","coordinates":[-71.5375718,43.2081366]}},{"properties":{"city":"PRINCETON","total":283855.21,"country":"UNITED STATES","id":"a644yvro33u7","lat":40.3487181,"long":-74.6590472,"state":"NEW JERSEY"},"type":"Feature","geometry":{"type":"Point","coordinates":[-74.6590472,40.3487181]}},{"properties":{"city":"ENGLISHTOWN","total":211175.83,"country":"UNITED STATES","id":"a644yvfvh2q8","lat":40.2973319,"long":-74.3582041,"state":"NEW JERSEY"},"type":"Feature","geometry":{"type":"Point","coordinates":[-74.3582041,40.2973319]}},{"properties":{"city":"EAST BRUNSWICK","total":56534.92,"country":"UNITED STATES","id":"a644yvh4ovu4","lat":40.4278841,"long":-74.415984,"state":"NEW JERSEY"},"type":"Feature","geometry":{"type":"Point","coordinates":[-74.415984,40.4278841]}},{"properties":{"city":"KEARNY","total":27906.84,"country":"UNITED STATES","id":"a644yvg4r7la","lat":40.7684342,"long":-74.1454214,"state":"NEW JERSEY"},"type":"Feature","geometry":{"type":"Point","coordinates":[-74.1454214,40.7684342]}},{"properties":{"city":"DENVILLE","total":23448.0,"country":"UNITED STATES","id":"a644yveh8hww","lat":40.8923212,"long":-74.4773775,"state":"NEW JERSEY"},"type":"Feature","geometry":{"type":"Point","coordinates":[-74.4773775,40.8923212]}},{"properties":{"city":"TRENTON","total":21161.0,"country":"UNITED STATES","id":"a644yve9c1zo","lat":40.2170534,"long":-74.7429384,"state":"NEW JERSEY"},"type":"Feature","geometry":{"type":"Point","coordinates":[-74.7429384,40.2170534]}},{"properties":{"city":"MAHWAH","total":11794.0,"country":"UNITED STATES","id":"a644yvgagokv","lat":41.0887072,"long":-74.1437552,"state":"NEW JERSEY"},"type":"Feature","geometry":{"type":"Point","coordinates":[-74.1437552,41.0887072]}},{"properties":{"city":"CALDWELL","total":7014.5,"country":"UNITED STATES","id":"a644yvfhz0w3","lat":40.8398218,"long":-74.2765366,"state":"NEW JERSEY"},"type":"Feature","geometry":{"type":"Point","coordinates":[-74.2765366,40.8398218]}},{"properties":{"city":"NORTHVALE","total":6086.65,"country":"UNITED STATES","id":"a644yvha6itl","lat":41.0064864,"long":-73.9490258,"state":"NEW JERSEY"},"type":"Feature","geometry":{"type":"Point","coordinates":[-73.9490258,41.0064864]}},{"properties":{"city":"DOVER","total":4919.0,"country":"UNITED STATES","id":"a644yvnsyfqj","lat":40.883988,"long":-74.5621025,"state":"NEW JERSEY"},"type":"Feature","geometry":{"type":"Point","coordinates":[-74.5621025,40.883988]}},{"properties":{"city":"ALBUQUERQUE","total":15180.0,"country":"UNITED STATES","id":"a644yvjmgt2g","lat":35.0844909,"long":-106.6511367,"state":"NEW MEXICO"},"type":"Feature","geometry":{"type":"Point","coordinates":[-106.6511367,35.0844909]}},{"properties":{"city":"ENDICOTT","total":1191949.18,"country":"UNITED STATES","id":"a644yvpe2ie5","lat":42.098408,"long":-76.0493684,"state":"NEW YORK"},"type":"Feature","geometry":{"type":"Point","coordinates":[-76.0493684,42.098408]}},{"properties":{"city":"VICTOR","total":67660.0,"country":"UNITED STATES","id":"a644yvgq51w5","lat":42.9825633,"long":-77.4088794,"state":"NEW YORK"},"type":"Feature","geometry":{"type":"Point","coordinates":[-77.4088794,42.9825633]}},{"properties":{"city":"NEW YORK","total":42737.19,"country":"UNITED STATES","id":"a644yvfshsiw","lat":40.7142691,"long":-74.0059729,"state":"NEW YORK"},"type":"Feature","geometry":{"type":"Point","coordinates":[-74.0059729,40.7142691]}},{"properties":{"city":"SYRACUSE","total":17363.0,"country":"UNITED STATES","id":"a644yvgtr1g0","lat":43.0481221,"long":-76.1474244,"state":"NEW YORK"},"type":"Feature","geometry":{"type":"Point","coordinates":[-76.1474244,43.0481221]}},{"properties":{"city":"SYOSSET","total":13980.0,"country":"UNITED STATES","id":"a644yvsv13wm","lat":40.8262101,"long":-73.502068,"state":"NEW YORK"},"type":"Feature","geometry":{"type":"Point","coordinates":[-73.502068,40.8262101]}},{"properties":{"city":"HICKSVILLE","total":13450.0,"country":"UNITED STATES","id":"a644yvhxy29r","lat":40.7684331,"long":-73.5251253,"state":"NEW YORK"},"type":"Feature","geometry":{"type":"Point","coordinates":[-73.5251253,40.7684331]}},{"properties":{"city":"BROOKLYN","total":13373.0,"country":"UNITED STATES","id":"a644yvi18knz","lat":40.6501037,"long":-73.9495823,"state":"NEW YORK"},"type":"Feature","geometry":{"type":"Point","coordinates":[-73.9495823,40.6501037]}},{"properties":{"city":"HUDSON","total":11786.4,"country":"UNITED STATES","id":"a644yvsnbnre","lat":42.2528649,"long":-73.790959,"state":"NEW YORK"},"type":"Feature","geometry":{"type":"Point","coordinates":[-73.790959,42.2528649]}},{"properties":{"city":"ALBANY","total":11495.18,"country":"UNITED STATES","id":"a644yvqasp4o","lat":42.6525793,"long":-73.7562317,"state":"NEW YORK"},"type":"Feature","geometry":{"type":"Point","coordinates":[-73.7562317,42.6525793]}},{"properties":{"city":"PORT WASHINGTON","total":7625.8,"country":"UNITED STATES","id":"a644yvermkps","lat":40.8256561,"long":-73.6981858,"state":"NEW YORK"},"type":"Feature","geometry":{"type":"Point","coordinates":[-73.6981858,40.8256561]}},{"properties":{"city":"WALES CENTER","total":3522.0,"country":"UNITED STATES","id":"a644yvnyv1qr","lat":42.7683934,"long":-78.5300228,"state":"NEW YORK"},"type":"Feature","geometry":{"type":"Point","coordinates":[-78.5300228,42.7683934]}},{"properties":{"city":"SKANEATELES FALLS","total":1.0,"country":"UNITED STATES","id":"a644yvnyeinu","lat":42.9931214,"long":-76.4560472,"state":"NEW YORK"},"type":"Feature","geometry":{"type":"Point","coordinates":[-76.4560472,42.9931214]}},{"properties":{"city":"ROCHESTER","total":1.0,"country":"UNITED STATES","id":"a644yvkq9yu0","lat":43.1547845,"long":-77.6155567,"state":"NEW YORK"},"type":"Feature","geometry":{"type":"Point","coordinates":[-77.6155567,43.1547845]}},{"properties":{"city":"CHARLOTTE","total":107035.0,"country":"UNITED STATES","id":"a644yvth42ty","lat":35.2270869,"long":-80.8431267,"state":"NORTH CAROLINA"},"type":"Feature","geometry":{"type":"Point","coordinates":[-80.8431267,35.2270869]}},{"properties":{"city":"RALEIGH","total":79966.19,"country":"UNITED STATES","id":"a644yvlnrd5o","lat":35.772096,"long":-78.6386145,"state":"NORTH CAROLINA"},"type":"Feature","geometry":{"type":"Point","coordinates":[-78.6386145,35.772096]}},{"properties":{"city":"ASHEVILLE","total":57462.2,"country":"UNITED STATES","id":"a644yvpsdnqy","lat":35.6009452,"long":-82.554015,"state":"NORTH CAROLINA"},"type":"Feature","geometry":{"type":"Point","coordinates":[-82.554015,35.6009452]}},{"properties":{"city":"HIGH POINT","total":48950.0,"country":"UNITED STATES","id":"a644yvpj9wqa","lat":35.9556923,"long":-80.0053176,"state":"NORTH CAROLINA"},"type":"Feature","geometry":{"type":"Point","coordinates":[-80.0053176,35.9556923]}},{"properties":{"city":"TRINITY","total":30315.34,"country":"UNITED STATES","id":"a644yvtj4obf","lat":35.894581,"long":-79.9908729,"state":"NORTH CAROLINA"},"type":"Feature","geometry":{"type":"Point","coordinates":[-79.9908729,35.894581]}},{"properties":{"city":"DURHAM","total":30223.85,"country":"UNITED STATES","id":"a644yvs1wyl9","lat":35.9940329,"long":-78.898619,"state":"NORTH CAROLINA"},"type":"Feature","geometry":{"type":"Point","coordinates":[-78.898619,35.9940329]}},{"properties":{"city":"SHALLOTTE","total":1.0,"country":"UNITED STATES","id":"a644yvpbo75k","lat":33.9732275,"long":-78.3858371,"state":"NORTH CAROLINA"},"type":"Feature","geometry":{"type":"Point","coordinates":[-78.3858371,33.9732275]}},{"properties":{"city":"MINOT","total":27512.25,"country":"UNITED STATES","id":"a644yvn0716a","lat":48.2325095,"long":-101.2962732,"state":"NORTH DAKOTA"},"type":"Feature","geometry":{"type":"Point","coordinates":[-101.2962732,48.2325095]}},{"properties":{"city":"FARGO","total":12445.0,"country":"UNITED STATES","id":"a644yvsfu18m","lat":46.8771863,"long":-96.7898034,"state":"NORTH DAKOTA"},"type":"Feature","geometry":{"type":"Point","coordinates":[-96.7898034,46.8771863]}},{"properties":{"city":"SAIPAN","total":21040.0,"country":"UNITED STATES","id":"a644yvm6vfe3","lat":15.18093,"long":145.755997,"state":"NORTHERN MARIANA ISLANDS"},"type":"Feature","geometry":{"type":"Point","coordinates":[145.755997,15.18093]}},{"properties":{"city":"SCOTTSDALE","total":16060.0,"country":"UNITED STATES","id":"a644yvl4mosn","lat":33.5092103,"long":-111.8990327,"state":"ARIZONA"},"type":"Feature","geometry":{"type":"Point","coordinates":[-111.8990327,33.5092103]}},{"properties":{"city":"PEORIA","total":26268.0,"country":"UNITED STATES","id":"a644yvl0u4a1","lat":33.5805955,"long":-112.2373779,"state":"ARIZONA"},"type":"Feature","geometry":{"type":"Point","coordinates":[-112.2373779,33.5805955]}},{"properties":{"city":"TUCSON","total":28238.8,"country":"UNITED STATES","id":"a644yvnmx3vo","lat":32.2217429,"long":-110.926479,"state":"ARIZONA"},"type":"Feature","geometry":{"type":"Point","coordinates":[-110.926479,32.2217429]}},{"properties":{"city":"MENTOR","total":55959.93,"country":"UNITED STATES","id":"a644yvi4s8c4","lat":41.6661573,"long":-81.339552,"state":"OHIO"},"type":"Feature","geometry":{"type":"Point","coordinates":[-81.339552,41.6661573]}},{"properties":{"city":"WEST CHESTER","total":18266.29,"country":"UNITED STATES","id":"a644yvleba7n","lat":39.3303357,"long":-84.408275,"state":"OHIO"},"type":"Feature","geometry":{"type":"Point","coordinates":[-84.408275,39.3303357]}},{"properties":{"city":"MAUMEE","total":14748.0,"country":"UNITED STATES","id":"a644yvla837n","lat":41.5628294,"long":-83.6538244,"state":"OHIO"},"type":"Feature","geometry":{"type":"Point","coordinates":[-83.6538244,41.5628294]}},{"properties":{"city":"GALION","total":11993.0,"country":"UNITED STATES","id":"a644yvmd5lag","lat":40.7336687,"long":-82.7899026,"state":"OHIO"},"type":"Feature","geometry":{"type":"Point","coordinates":[-82.7899026,40.7336687]}},{"properties":{"city":"AMELIA","total":4307.0,"country":"UNITED STATES","id":"a644yvli008b","lat":39.0283966,"long":-84.2177136,"state":"OHIO"},"type":"Feature","geometry":{"type":"Point","coordinates":[-84.2177136,39.0283966]}},{"properties":{"city":"CLEVELAND","total":4180.4,"country":"UNITED STATES","id":"a644yvpycc2y","lat":41.4994954,"long":-81.6954088,"state":"OHIO"},"type":"Feature","geometry":{"type":"Point","coordinates":[-81.6954088,41.4994954]}},{"properties":{"city":"COLUMBUS","total":30.0,"country":"UNITED STATES","id":"a644yvo9kapw","lat":39.9611755,"long":-82.9987942,"state":"OHIO"},"type":"Feature","geometry":{"type":"Point","coordinates":[-82.9987942,39.9611755]}},{"properties":{"city":"BOWLING GREEN","total":1.0,"country":"UNITED STATES","id":"a644yvtwdrma","lat":41.3747744,"long":-83.6513229,"state":"OHIO"},"type":"Feature","geometry":{"type":"Point","coordinates":[-83.6513229,41.3747744]}},{"properties":{"city":"OKLAHOMA CITY","total":11725.0,"country":"UNITED STATES","id":"a644yvh03oi3","lat":35.4675602,"long":-97.5164276,"state":"OKLAHOMA"},"type":"Feature","geometry":{"type":"Point","coordinates":[-97.5164276,35.4675602]}},{"properties":{"city":"TULSA","total":5318.0,"country":"UNITED STATES","id":"a644yvg5xkkg","lat":36.1539816,"long":-95.992775,"state":"OKLAHOMA"},"type":"Feature","geometry":{"type":"Point","coordinates":[-95.992775,36.1539816]}},{"properties":{"city":"PORTLAND","total":115213.44,"country":"UNITED STATES","id":"a644yvdnu2bu","lat":45.5234515,"long":-122.6762071,"state":"OREGON"},"type":"Feature","geometry":{"type":"Point","coordinates":[-122.6762071,45.5234515]}},{"properties":{"city":"LAKE OSWEGO","total":22760.54,"country":"UNITED STATES","id":"a644yvrytl3t","lat":45.4206749,"long":-122.6706498,"state":"OREGON"},"type":"Feature","geometry":{"type":"Point","coordinates":[-122.6706498,45.4206749]}},{"properties":{"city":"SHERWOOD","total":20140.0,"country":"UNITED STATES","id":"a644yvgv6pq0","lat":45.3565074,"long":-122.840098,"state":"OREGON"},"type":"Feature","geometry":{"type":"Point","coordinates":[-122.840098,45.3565074]}},{"properties":{"city":"BEAVERTON","total":12954.24,"country":"UNITED STATES","id":"a644yvhlo1so","lat":45.487062,"long":-122.8037102,"state":"OREGON"},"type":"Feature","geometry":{"type":"Point","coordinates":[-122.8037102,45.487062]}},{"properties":{"city":"SALEM","total":12294.0,"country":"UNITED STATES","id":"a644yvrylduv","lat":44.9428975,"long":-123.0350963,"state":"OREGON"},"type":"Feature","geometry":{"type":"Point","coordinates":[-123.0350963,44.9428975]}},{"properties":{"city":"SCAPPOOSE","total":9690.0,"country":"UNITED STATES","id":"a644yvklt76g","lat":45.7542809,"long":-122.8776039,"state":"OREGON"},"type":"Feature","geometry":{"type":"Point","coordinates":[-122.8776039,45.7542809]}},{"properties":{"city":"ALBANY","total":8515.08,"country":"UNITED STATES","id":"a644yvs8n15n","lat":44.6365107,"long":-123.1059282,"state":"OREGON"},"type":"Feature","geometry":{"type":"Point","coordinates":[-123.1059282,44.6365107]}},{"properties":{"city":"TUALATIN","total":1.0,"country":"UNITED STATES","id":"a644yvl97urs","lat":45.3840077,"long":-122.7639851,"state":"OREGON"},"type":"Feature","geometry":{"type":"Point","coordinates":[-122.7639851,45.3840077]}},{"properties":{"city":"EAST GREENVILLE","total":343537.04,"country":"UNITED STATES","id":"a644yvqfpkyy","lat":40.4064881,"long":-75.5018477,"state":"PENNSYLVANIA"},"type":"Feature","geometry":{"type":"Point","coordinates":[-75.5018477,40.4064881]}},{"properties":{"city":"WEST CHESTER","total":136296.5,"country":"UNITED STATES","id":"a644yvk3x991","lat":39.9606643,"long":-75.6054882,"state":"PENNSYLVANIA"},"type":"Feature","geometry":{"type":"Point","coordinates":[-75.6054882,39.9606643]}},{"properties":{"city":"FRAZER","total":71413.78,"country":"UNITED STATES","id":"a644yvn46koy","lat":40.0323293,"long":-75.5560376,"state":"PENNSYLVANIA"},"type":"Feature","geometry":{"type":"Point","coordinates":[-75.5560376,40.0323293]}},{"properties":{"city":"COATESVILLE","total":32000.0,"country":"UNITED STATES","id":"a644yvqx6189","lat":39.9831616,"long":-75.8238355,"state":"PENNSYLVANIA"},"type":"Feature","geometry":{"type":"Point","coordinates":[-75.8238355,39.9831616]}},{"properties":{"city":"BRIDGEVILLE","total":21000.0,"country":"UNITED STATES","id":"a644yvklrwpa","lat":40.3561805,"long":-80.1100556,"state":"PENNSYLVANIA"},"type":"Feature","geometry":{"type":"Point","coordinates":[-80.1100556,40.3561805]}},{"properties":{"city":"WEST MIFFLIN","total":18848.83,"country":"UNITED STATES","id":"a644yvmn016t","lat":40.3634026,"long":-79.8664375,"state":"PENNSYLVANIA"},"type":"Feature","geometry":{"type":"Point","coordinates":[-79.8664375,40.3634026]}},{"properties":{"city":"WEST POINT","total":18289.37,"country":"UNITED STATES","id":"a644yvok552l","lat":40.3831289,"long":-78.8433568,"state":"PENNSYLVANIA"},"type":"Feature","geometry":{"type":"Point","coordinates":[-78.8433568,40.3831289]}},{"properties":{"city":"EIGHTY FOUR","total":18163.0,"country":"UNITED STATES","id":"a644yvp48xp7","lat":40.1817378,"long":-80.1331118,"state":"PENNSYLVANIA"},"type":"Feature","geometry":{"type":"Point","coordinates":[-80.1331118,40.1817378]}},{"properties":{"city":"SWIFTWATER","total":17397.38,"country":"UNITED STATES","id":"a644yvfgxgeu","lat":41.0953682,"long":-75.3249054,"state":"PENNSYLVANIA"},"type":"Feature","geometry":{"type":"Point","coordinates":[-75.3249054,41.0953682]}},{"properties":{"city":"WYNCOTE","total":13904.0,"country":"UNITED STATES","id":"a644yvglcys0","lat":40.0945549,"long":-75.1487863,"state":"PENNSYLVANIA"},"type":"Feature","geometry":{"type":"Point","coordinates":[-75.1487863,40.0945549]}},{"properties":{"city":"BETHLEHEM","total":9850.45,"country":"UNITED STATES","id":"a644yvfr4kh6","lat":40.6259316,"long":-75.3704579,"state":"PENNSYLVANIA"},"type":"Feature","geometry":{"type":"Point","coordinates":[-75.3704579,40.6259316]}},{"properties":{"city":"MURRYSVILLE","total":9579.25,"country":"UNITED STATES","id":"a644yvo4m24y","lat":40.4284015,"long":-79.697545,"state":"PENNSYLVANIA"},"type":"Feature","geometry":{"type":"Point","coordinates":[-79.697545,40.4284015]}},{"properties":{"city":"WILLIAMSPORT","total":9540.0,"country":"UNITED STATES","id":"a644yvlmrcu0","lat":41.2411897,"long":-77.0010786,"state":"PENNSYLVANIA"},"type":"Feature","geometry":{"type":"Point","coordinates":[-77.0010786,41.2411897]}},{"properties":{"city":"CLIFTON HEIGHTS","total":5469.0,"country":"UNITED STATES","id":"a644yvfqfki8","lat":39.9292791,"long":-75.2962972,"state":"PENNSYLVANIA"},"type":"Feature","geometry":{"type":"Point","coordinates":[-75.2962972,39.9292791]}},{"properties":{"city":"PITTSBURGH","total":1.0,"country":"UNITED STATES","id":"a644yvspg6q0","lat":40.4406248,"long":-79.9958864,"state":"PENNSYLVANIA"},"type":"Feature","geometry":{"type":"Point","coordinates":[-79.9958864,40.4406248]}},{"properties":{"city":"WARWICK","total":6828.0,"country":"UNITED STATES","id":"a644yvoj7vfb","lat":41.7001009,"long":-71.4161671,"state":"RHODE ISLAND"},"type":"Feature","geometry":{"type":"Point","coordinates":[-71.4161671,41.7001009]}},{"properties":{"city":"IRMO","total":433745.0,"country":"UNITED STATES","id":"a644yvqkghn7","lat":34.0859829,"long":-81.1831513,"state":"SOUTH CAROLINA"},"type":"Feature","geometry":{"type":"Point","coordinates":[-81.1831513,34.0859829]}},{"properties":{"city":"COLUMBIA","total":72259.85,"country":"UNITED STATES","id":"a644yviyyfsa","lat":34.0007104,"long":-81.0348144,"state":"SOUTH CAROLINA"},"type":"Feature","geometry":{"type":"Point","coordinates":[-81.0348144,34.0007104]}},{"properties":{"city":"ALCESTER","total":3794.11,"country":"UNITED STATES","id":"a644yvg1zqmq","lat":43.0213783,"long":-96.6308708,"state":"SOUTH DAKOTA"},"type":"Feature","geometry":{"type":"Point","coordinates":[-96.6308708,43.0213783]}},{"properties":{"city":"NASHVILLE","total":30380.0,"country":"UNITED STATES","id":"a644yvkb33ka","lat":36.1658899,"long":-86.7844432,"state":"TENNESSEE"},"type":"Feature","geometry":{"type":"Point","coordinates":[-86.7844432,36.1658899]}},{"properties":{"city":"JOHNSON CITY","total":4818.0,"country":"UNITED STATES","id":"a644yvfzvtin","lat":36.3134397,"long":-82.3534727,"state":"TENNESSEE"},"type":"Feature","geometry":{"type":"Point","coordinates":[-82.3534727,36.3134397]}},{"properties":{"city":"CORPUS CHRISTI","total":3880426.67,"country":"UNITED STATES","id":"a644yvsnuna4","lat":27.8005828,"long":-97.396381,"state":"TEXAS"},"type":"Feature","geometry":{"type":"Point","coordinates":[-97.396381,27.8005828]}},{"properties":{"city":"ROUND ROCK","total":159962.45,"country":"UNITED STATES","id":"a644yvn3spiw","lat":30.5082551,"long":-97.678896,"state":"TEXAS"},"type":"Feature","geometry":{"type":"Point","coordinates":[-97.678896,30.5082551]}},{"properties":{"city":"FORT WORTH","total":91569.0,"country":"UNITED STATES","id":"a644yvib8ofo","lat":32.725409,"long":-97.3208496,"state":"TEXAS"},"type":"Feature","geometry":{"type":"Point","coordinates":[-97.3208496,32.725409]}},{"properties":{"city":"IRVING","total":39501.2,"country":"UNITED STATES","id":"a644yvq1wbtn","lat":32.8140177,"long":-96.9488945,"state":"TEXAS"},"type":"Feature","geometry":{"type":"Point","coordinates":[-96.9488945,32.8140177]}},{"properties":{"city":"GARLAND","total":28851.8,"country":"UNITED STATES","id":"a644yvliggjm","lat":32.912624,"long":-96.6388833,"state":"TEXAS"},"type":"Feature","geometry":{"type":"Point","coordinates":[-96.6388833,32.912624]}},{"properties":{"city":"DALLAS","total":23352.0,"country":"UNITED STATES","id":"a644yvdymk7n","lat":32.802955,"long":-96.769923,"state":"TEXAS"},"type":"Feature","geometry":{"type":"Point","coordinates":[-96.769923,32.802955]}},{"properties":{"city":"WOODSON","total":19814.82,"country":"UNITED STATES","id":"a644yvtlthnl","lat":30.0724365,"long":-94.6743644,"state":"TEXAS"},"type":"Feature","geometry":{"type":"Point","coordinates":[-94.6743644,30.0724365]}},{"properties":{"city":"SAN ANTONIO","total":16399.1,"country":"UNITED STATES","id":"a644yvkz1w53","lat":29.4241219,"long":-98.4936282,"state":"TEXAS"},"type":"Feature","geometry":{"type":"Point","coordinates":[-98.4936282,29.4241219]}},{"properties":{"city":"CARROLLTON","total":7040.0,"country":"UNITED STATES","id":"a644yvgjdki6","lat":32.9537349,"long":-96.8902816,"state":"TEXAS"},"type":"Feature","geometry":{"type":"Point","coordinates":[-96.8902816,32.9537349]}},{"properties":{"city":"ARLINGTON","total":5750.0,"country":"UNITED STATES","id":"a644yve59t1m","lat":32.735687,"long":-97.1080656,"state":"TEXAS"},"type":"Feature","geometry":{"type":"Point","coordinates":[-97.1080656,32.735687]}},{"properties":{"city":"SALT LAKE CITY","total":477847.35,"country":"UNITED STATES","id":"a644yvexu907","lat":40.7607793,"long":-111.8910474,"state":"UTAH"},"type":"Feature","geometry":{"type":"Point","coordinates":[-111.8910474,40.7607793]}},{"properties":{"city":"OREM","total":13790.0,"country":"UNITED STATES","id":"a644yvrqp4lw","lat":40.2968979,"long":-111.6946475,"state":"UTAH"},"type":"Feature","geometry":{"type":"Point","coordinates":[-111.6946475,40.2968979]}},{"properties":{"city":"PROVO","total":5933.0,"country":"UNITED STATES","id":"a644yvj2qhi9","lat":40.2338438,"long":-111.6585337,"state":"UTAH"},"type":"Feature","geometry":{"type":"Point","coordinates":[-111.6585337,40.2338438]}},{"properties":{"city":"LOGAN","total":1.0,"country":"UNITED STATES","id":"a644yvsxlg5j","lat":41.7354861,"long":-111.834388,"state":"UTAH"},"type":"Feature","geometry":{"type":"Point","coordinates":[-111.834388,41.7354861]}},{"properties":{"city":"ARLINGTON","total":310339.91,"country":"UNITED STATES","id":"a644yvslzbli","lat":38.8903896,"long":-77.0841446,"state":"VIRGINIA"},"type":"Feature","geometry":{"type":"Point","coordinates":[-77.0841446,38.8903896]}},{"properties":{"city":"MC LEAN","total":308990.96,"country":"UNITED STATES","id":"a644yvlujs4m","lat":38.9342776,"long":-77.1774801,"state":"VIRGINIA"},"type":"Feature","geometry":{"type":"Point","coordinates":[-77.1774801,38.9342776]}},{"properties":{"city":"FAIRFIELD","total":278483.0,"country":"UNITED STATES","id":"a644yvffd782","lat":39.2048255,"long":-77.9611081,"state":"VIRGINIA"},"type":"Feature","geometry":{"type":"Point","coordinates":[-77.9611081,39.2048255]}},{"properties":{"city":"VIRGINIA BEACH","total":261190.47,"country":"UNITED STATES","id":"a644yvn5r6m4","lat":36.8529263,"long":-75.977985,"state":"VIRGINIA"},"type":"Feature","geometry":{"type":"Point","coordinates":[-75.977985,36.8529263]}},{"properties":{"city":"ALEXANDRIA","total":104700.0,"country":"UNITED STATES","id":"a644yvrijjm7","lat":38.8048355,"long":-77.0469214,"state":"VIRGINIA"},"type":"Feature","geometry":{"type":"Point","coordinates":[-77.0469214,38.8048355]}},{"properties":{"city":"STERLING","total":65564.24,"country":"UNITED STATES","id":"a644yvmfgk5b","lat":39.0062203,"long":-77.4285991,"state":"VIRGINIA"},"type":"Feature","geometry":{"type":"Point","coordinates":[-77.4285991,39.0062203]}},{"properties":{"city":"RICHMOND","total":27374.0,"country":"UNITED STATES","id":"a644yvmyt41b","lat":37.542979,"long":-77.469092,"state":"VIRGINIA"},"type":"Feature","geometry":{"type":"Point","coordinates":[-77.469092,37.542979]}},{"properties":{"city":"CHANTILLY","total":27106.05,"country":"UNITED STATES","id":"a644yvjs7fy3","lat":38.8942786,"long":-77.4310992,"state":"VIRGINIA"},"type":"Feature","geometry":{"type":"Point","coordinates":[-77.4310992,38.8942786]}},{"properties":{"city":"RESTON","total":23798.4,"country":"UNITED STATES","id":"a644yvko1jb9","lat":38.9687213,"long":-77.3410958,"state":"VIRGINIA"},"type":"Feature","geometry":{"type":"Point","coordinates":[-77.3410958,38.9687213]}},{"properties":{"city":"NORFOLK","total":16343.0,"country":"UNITED STATES","id":"a644yvsziwc6","lat":36.8468146,"long":-76.2852183,"state":"VIRGINIA"},"type":"Feature","geometry":{"type":"Point","coordinates":[-76.2852183,36.8468146]}},{"properties":{"city":"NEWPORT NEWS","total":16320.0,"country":"UNITED STATES","id":"a644yvhrtfvk","lat":36.9787588,"long":-76.428003,"state":"VIRGINIA"},"type":"Feature","geometry":{"type":"Point","coordinates":[-76.428003,36.9787588]}},{"properties":{"city":"HARRISONBURG","total":14910.0,"country":"UNITED STATES","id":"a644yvmqhx7u","lat":38.4495688,"long":-78.8689155,"state":"VIRGINIA"},"type":"Feature","geometry":{"type":"Point","coordinates":[-78.8689155,38.4495688]}},{"properties":{"city":"HERNDON","total":8987.38,"country":"UNITED STATES","id":"a644yvgxlutg","lat":38.9695545,"long":-77.3860976,"state":"VIRGINIA"},"type":"Feature","geometry":{"type":"Point","coordinates":[-77.3860976,38.9695545]}},{"properties":{"city":"CHESAPEAKE","total":6038.15,"country":"UNITED STATES","id":"a644yvij39ou","lat":36.8190369,"long":-76.2749399,"state":"VIRGINIA"},"type":"Feature","geometry":{"type":"Point","coordinates":[-76.2749399,36.8190369]}},{"properties":{"city":"HAMPTON","total":3147.39,"country":"UNITED STATES","id":"a644yvoou3mp","lat":37.0298687,"long":-76.3452218,"state":"VIRGINIA"},"type":"Feature","geometry":{"type":"Point","coordinates":[-76.3452218,37.0298687]}},{"properties":{"city":"MONROE","total":116971.0,"country":"UNITED STATES","id":"a644yvti2348","lat":47.8553772,"long":-121.9709579,"state":"WASHINGTON"},"type":"Feature","geometry":{"type":"Point","coordinates":[-121.9709579,47.8553772]}},{"properties":{"city":"WOODINVILLE","total":71349.0,"country":"UNITED STATES","id":"a644yvi8w2r1","lat":47.7542651,"long":-122.1634582,"state":"WASHINGTON"},"type":"Feature","geometry":{"type":"Point","coordinates":[-122.1634582,47.7542651]}},{"properties":{"city":"SILVERDALE","total":50712.65,"country":"UNITED STATES","id":"a644yvnvdllu","lat":47.6445386,"long":-122.6948697,"state":"WASHINGTON"},"type":"Feature","geometry":{"type":"Point","coordinates":[-122.6948697,47.6445386]}},{"properties":{"city":"BOTHELL","total":37232.81,"country":"UNITED STATES","id":"a644yvic2x5s","lat":47.7623204,"long":-122.2054035,"state":"WASHINGTON"},"type":"Feature","geometry":{"type":"Point","coordinates":[-122.2054035,47.7623204]}},{"properties":{"city":"KENT","total":34265.75,"country":"UNITED STATES","id":"a644yvhd4c3x","lat":47.3809335,"long":-122.2348431,"state":"WASHINGTON"},"type":"Feature","geometry":{"type":"Point","coordinates":[-122.2348431,47.3809335]}},{"properties":{"city":"RENTON","total":13114.28,"country":"UNITED STATES","id":"a644yvlla7y5","lat":47.4828776,"long":-122.2170661,"state":"WASHINGTON"},"type":"Feature","geometry":{"type":"Point","coordinates":[-122.2170661,47.4828776]}},{"properties":{"city":"ISSAQUAH","total":6718.76,"country":"UNITED STATES","id":"a644yvfgdr46","lat":47.5301011,"long":-122.0326191,"state":"WASHINGTON"},"type":"Feature","geometry":{"type":"Point","coordinates":[-122.0326191,47.5301011]}},{"properties":{"city":"SEATTLE","total":3914.0,"country":"UNITED STATES","id":"a644yvfhv3tk","lat":47.6062095,"long":-122.3320708,"state":"WASHINGTON"},"type":"Feature","geometry":{"type":"Point","coordinates":[-122.3320708,47.6062095]}},{"properties":{"city":"WAUKESHA","total":80451.5,"country":"UNITED STATES","id":"a644yvtfa79b","lat":43.0116784,"long":-88.2314813,"state":"WISCONSIN"},"type":"Feature","geometry":{"type":"Point","coordinates":[-88.2314813,43.0116784]}},{"properties":{"city":"PLEASANT PRAIRIE","total":70696.45,"country":"UNITED STATES","id":"a644yvsp8u8y","lat":42.5530753,"long":-87.9334118,"state":"WISCONSIN"},"type":"Feature","geometry":{"type":"Point","coordinates":[-87.9334118,42.5530753]}},{"properties":{"city":"BERLIN","total":55103.0,"country":"UNITED STATES","id":"a644yvgwttcy","lat":43.9680364,"long":-88.9434476,"state":"WISCONSIN"},"type":"Feature","geometry":{"type":"Point","coordinates":[-88.9434476,43.9680364]}},{"properties":{"city":"MILWAUKEE","total":21694.74,"country":"UNITED STATES","id":"a644yvekneao","lat":43.0389025,"long":-87.9064736,"state":"WISCONSIN"},"type":"Feature","geometry":{"type":"Point","coordinates":[-87.9064736,43.0389025]}},{"properties":{"city":"RIPON","total":12504.0,"country":"UNITED STATES","id":"a644yvfe6prd","lat":43.8422049,"long":-88.8359447,"state":"WISCONSIN"},"type":"Feature","geometry":{"type":"Point","coordinates":[-88.8359447,43.8422049]}},{"properties":{"city":"WAUWATOSA","total":5309.55,"country":"UNITED STATES","id":"a644yvoxorvi","lat":43.0494572,"long":-88.0075875,"state":"WISCONSIN"},"type":"Feature","geometry":{"type":"Point","coordinates":[-88.0075875,43.0494572]}},{"properties":{"city":"MADISON","total":180.0,"country":"UNITED STATES","id":"a644yvk9moey","lat":43.0730517,"long":-89.4012302,"state":"WISCONSIN"},"type":"Feature","geometry":{"type":"Point","coordinates":[-89.4012302,43.0730517]}}],"is_temporal":false,"author":{"url":"","metadata":"","contact_name":"","contact_address":"","source":"","contact_phone":""},"source":"","pagination":{"sort":null,"start":0,"total":285,"limit":1000000},"state":"complete","tags":"amazon","published":"2010-01-06T17:01:06Z","id":19856}