{"type":"FeatureCollection","data_type":"Dataset","url_type":null,"permissions":[{"permissions":{"download":true,"view":true},"group_id":"everyone"}],"classification":null,"title":"Woodward Restaurant Richmond Test","count":395,"stream_id":19868,"contributor":{"url":"http://geocommons.com/users/5126","name":"jwoodward@ctv.ca"},"data_attributes":null,"calculation_params":null,"icon_link":null,"link":"http://geocommons.com/overlays/19868.json","extent":[-123.191,49.1176,-122.968,49.2043],"geometry_types":["point"],"unique_name":null,"name":"Woodward Restaurant Richmond Test","feature_count":395,"description":"A simplified version of data from Richmond that includes how to map stuff","next_feature":null,"is_raster":false,"short_classification":"Y","stats":{"inspections":{"max":7.0,"mean":1.81518987341772,"variance":1.21702756537942,"stdev":1.10318972320242,"min":1.0,"median":1.0},"number":{"max":3226351912.0,"mean":941823407.802532,"variance":2.04070003206144e+18,"stdev":1428530724.92734,"min":5010012.0,"median":5013639.0},"bg_long":{"max":-122.967744,"mean":-123.13392826962,"variance":0.000941084677566968,"stdev":0.0306771034742032,"min":-123.191044,"median":-123.134042},"bg_lat":{"max":49.204257,"mean":49.1727823065822,"variance":0.000451008662227919,"stdev":0.0212369645248072,"min":49.1176189,"median":49.17823},"violations":{"max":93.0,"mean":12.5240506329114,"variance":207.062237357836,"stdev":14.3896573050867,"min":1.0,"median":7.0},"violations/inspection":{"max":29.5,"mean":6.07359252561266,"variance":19.0047049667775,"stdev":4.35943860683661,"min":1.0,"median":5.0}},"features":[{"properties":{"city":"Richmond","company":"City Of Richmond","name":"Proposed:  West Richmond Minor Baseball - Gibbons Park","inspections":1.0,"number":3103052024.0,"bg_long":-123.178824,"bg_lat":49.1701013,"violations":5.0,"id":"a68o15ob8sau","province":"BC","address":"4200 Westminster Highway Richmond, BC","violations/inspection":5.0},"type":"Feature","geometry":{"type":"Point","coordinates":[-123.178824,49.1701013]}},{"properties":{"city":"Richmond","company":"Host International of Canada Ltd.","name":"Burger King","inspections":1.0,"number":3103052096.0,"bg_long":-123.178414,"bg_lat":49.204257,"violations":3.0,"id":"a68o161qnrs1","province":"BC","address":"C2182 - 3211 Grant McConachie Way Richmond, BC  V7B 1W2","violations/inspection":3.0},"type":"Feature","geometry":{"type":"Point","coordinates":[-123.178414,49.204257]}},{"properties":{"city":"Richmond","company":"Host International of Canada Ltd.","name":"Milestone's","inspections":1.0,"number":3103052099.0,"bg_long":-123.178414,"bg_lat":49.204257,"violations":7.0,"id":"a68o15qwmjl1","province":"BC","address":"3133 - 3880 Grant McConachie Way Richmond, BC  V7B 1W2","violations/inspection":7.0},"type":"Feature","geometry":{"type":"Point","coordinates":[-123.178414,49.204257]}},{"properties":{"city":"Richmond","company":"Host International of Canada Ltd.","name":"Cinnabon","inspections":1.0,"number":3103052103.0,"bg_long":-123.178414,"bg_lat":49.204257,"violations":1.0,"id":"a68o15p2bgiu","province":"BC","address":"C3685.1 - 3211 Grant McConachie Way Richmond, BC  V7B 1W2","violations/inspection":1.0},"type":"Feature","geometry":{"type":"Point","coordinates":[-123.178414,49.204257]}},{"properties":{"city":"Richmond","company":"Host International of Canada Ltd.","name":"Harvey's","inspections":1.0,"number":3103052104.0,"bg_long":-123.178414,"bg_lat":49.204257,"violations":4.0,"id":"a68o1639dfxo","province":"BC","address":"2286 - 3880 Grant McConachie Way Richmond, BC  V7B 1W2","violations/inspection":4.0},"type":"Feature","geometry":{"type":"Point","coordinates":[-123.178414,49.204257]}},{"properties":{"city":"Richmond","company":"Host International of Canada Ltd.","name":"Jetway","inspections":1.0,"number":3103052105.0,"bg_long":-123.178414,"bg_lat":49.204257,"violations":4.0,"id":"a68o15sjrvgf","province":"BC","address":"3003.0 - 3211 Grant McConachie Way Richmond, BC  V7B 1W2","violations/inspection":4.0},"type":"Feature","geometry":{"type":"Point","coordinates":[-123.178414,49.204257]}},{"properties":{"city":"Richmond","company":"Host International of Canada Ltd.","name":"Legends Bar and Grill","inspections":1.0,"number":3103052106.0,"bg_long":-123.178414,"bg_lat":49.204257,"violations":2.0,"id":"a68o15rrih8w","province":"BC","address":"3339-03 - 3880  Grant McConachie Way Richmond, BC  V7B 1W2","violations/inspection":2.0},"type":"Feature","geometry":{"type":"Point","coordinates":[-123.178414,49.204257]}},{"properties":{"city":"Richmond","company":"Host International of Canada Ltd.","name":"Starbucks","inspections":1.0,"number":3103052113.0,"bg_long":-123.178414,"bg_lat":49.204257,"violations":4.0,"id":"a68o163hg7lb","province":"BC","address":"C3883.1 - 3211 Grant McConachie Way Richmond, BC  V7B 1W2","violations/inspection":4.0},"type":"Feature","geometry":{"type":"Point","coordinates":[-123.178414,49.204257]}},{"properties":{"city":"Richmond","company":"Host International of Canada Ltd.","name":"Starbucks US","inspections":1.0,"number":3103052114.0,"bg_long":-123.178414,"bg_lat":49.204257,"violations":6.0,"id":"a68o160vflyf","province":"BC","address":"C3625.1 - 3211 Grant McConachie Way Richmond, BC  V7B 1W2","violations/inspection":6.0},"type":"Feature","geometry":{"type":"Point","coordinates":[-123.178414,49.204257]}},{"properties":{"city":"Richmond","company":"Host International of Canada Ltd.","name":"Toast","inspections":1.0,"number":3103052120.0,"bg_long":-123.178414,"bg_lat":49.204257,"violations":3.0,"id":"a68o15qyfhpu","province":"BC","address":"3302.2 - 3880 Grant McConachie Way Richmond, BC  V7B 1W2","violations/inspection":3.0},"type":"Feature","geometry":{"type":"Point","coordinates":[-123.178414,49.204257]}},{"properties":{"city":"Richmond","company":"7-Eleven Canada Inc","name":"7-Eleven #33197","inspections":1.0,"number":3103052125.0,"bg_long":-123.178414,"bg_lat":49.204257,"violations":7.0,"id":"a68o15nagulr","province":"BC","address":"1103-13 - 3880  Grant McConachie Way Richmond, BC  V7B 1Y7","violations/inspection":7.0},"type":"Feature","geometry":{"type":"Point","coordinates":[-123.178414,49.204257]}},{"properties":{"city":"Richmond","company":"Batta Holdings Ltd.","name":"Opa! Souvlaki of Greece","inspections":1.0,"number":3103052127.0,"bg_long":-123.178414,"bg_lat":49.204257,"violations":7.0,"id":"a68o15u903in","province":"BC","address":"C3365.0 - 3211 Grant McConachie Way Richmond, BC  V7B 1X7","violations/inspection":7.0},"type":"Feature","geometry":{"type":"Point","coordinates":[-123.178414,49.204257]}},{"properties":{"city":"Richmond","company":"Richmond Coffee Company Inc.","name":"Richmond Bean Around the World","inspections":1.0,"number":3103052129.0,"bg_long":-123.129189,"bg_lat":49.184588,"violations":1.0,"id":"a68o15zktubd","province":"BC","address":"103 - 8580 Cambie Road Richmond, BC  V6X 4J8","violations/inspection":1.0},"type":"Feature","geometry":{"type":"Point","coordinates":[-123.129189,49.184588]}},{"properties":{"city":"Richmond","company":"Fortune Way Ventures International Inc.","name":"Galiano Bakery Cafe","inspections":1.0,"number":3103052133.0,"bg_long":-123.178414,"bg_lat":49.204257,"violations":5.0,"id":"a68o15xkz3ni","province":"BC","address":"3330 - 3211 Grant McConachie Way Richmond, BC  V7B 1T7","violations/inspection":5.0},"type":"Feature","geometry":{"type":"Point","coordinates":[-123.178414,49.204257]}},{"properties":{"city":"Richmond","company":"Richmond Yacht Club","name":"Richmond Yacht Club","inspections":1.0,"number":3103052134.0,"bg_long":-123.141015,"bg_lat":49.181363,"violations":4.0,"id":"a68o15uc4wlm","province":"BC","address":"7471 River Road Richmond, BC  V6X 2W4","violations/inspection":4.0},"type":"Feature","geometry":{"type":"Point","coordinates":[-123.141015,49.181363]}},{"properties":{"city":"Richmond","company":"Plaza Premium Lounge B.C. Ltd.","name":"Plaza Premium Lounge - International","inspections":1.0,"number":3103052136.0,"bg_long":-123.178414,"bg_lat":49.204257,"violations":3.0,"id":"a68o15uz65oj","province":"BC","address":"C3455 - 3211 Grant McConachie Way Richmond, BC  V7B 1W2","violations/inspection":3.0},"type":"Feature","geometry":{"type":"Point","coordinates":[-123.178414,49.204257]}},{"properties":{"city":"Richmond","company":"Plaza Premium Lounge B.C. Ltd.","name":"Plaza Premium Lounge - Domestic","inspections":2.0,"number":3103052137.0,"bg_long":-123.178414,"bg_lat":49.204257,"violations":10.0,"id":"a68o15xg8967","province":"BC","address":"C3140 - 3800 Grant McConachie Way Richmond, BC  V7B 1W2","violations/inspection":5.0},"type":"Feature","geometry":{"type":"Point","coordinates":[-123.178414,49.204257]}},{"properties":{"city":"Richmond","company":"491581 B.C. Ltd.","name":"Flying Beaver Bar and Grill","inspections":1.0,"number":3103052139.0,"bg_long":-123.1676565,"bg_lat":49.1775825,"violations":6.0,"id":"a68o15u97x4n","province":"BC","address":"4760 Inglis Drive Richmond, BC  V7B 1W4","violations/inspection":6.0},"type":"Feature","geometry":{"type":"Point","coordinates":[-123.1676565,49.1775825]}},{"properties":{"city":"Richmond","company":"Alaska Airlines","name":"Alaska Airlines Board Room (Lounge)","inspections":1.0,"number":3103052152.0,"bg_long":-123.136579,"bg_lat":49.170171,"violations":3.0,"id":"a68o163napn5","province":"BC","address":"C3646 - 3211 Grant McConachie Way Richmond, BC  V7Y 1Y1","violations/inspection":3.0},"type":"Feature","geometry":{"type":"Point","coordinates":[-123.136579,49.170171]}},{"properties":{"city":"Richmond","company":"Cathay Pacific Airways","name":"Cathay Pacific First and Business Class Lounge","inspections":1.0,"number":3103052153.0,"bg_long":-123.176108,"bg_lat":49.191159,"violations":3.0,"id":"a68o1634j1dd","province":"BC","address":"C4440.0 - 3211 Grant McConachie Way Richmond, BC  V7B 1K9","violations/inspection":3.0},"type":"Feature","geometry":{"type":"Point","coordinates":[-123.176108,49.191159]}},{"properties":{"city":"Richmond","company":"Air Canada","name":"Air Canada Maple Leaf Lounge - \"C\" Gate","inspections":1.0,"number":3103052154.0,"bg_long":-123.170208,"bg_lat":49.19049,"violations":1.0,"id":"a68o15wmb4b3","province":"BC","address":"3311 - 3880 Grant McConachie Way Richmond, BC  V7B 1K4","violations/inspection":1.0},"type":"Feature","geometry":{"type":"Point","coordinates":[-123.170208,49.19049]}},{"properties":{"city":"Richmond","company":"Air Canada","name":"Air Canada Maple Leaf Lounge - International","inspections":1.0,"number":3103052155.0,"bg_long":-123.161934,"bg_lat":49.192621,"violations":1.0,"id":"a68o15zitano","province":"BC","address":"C3437.0 - 3211 Grant McConachie Way Richmond, BC  V7B 1K3","violations/inspection":1.0},"type":"Feature","geometry":{"type":"Point","coordinates":[-123.161934,49.192621]}},{"properties":{"city":"Richmond","company":"Air Canada","name":"Air Canada Maple Leaf Lounge - Transborder","inspections":1.0,"number":3103052156.0,"bg_long":-123.161934,"bg_lat":49.192621,"violations":1.0,"id":"a68o15o9wers","province":"BC","address":"C4699.0 - 3211 Grant McConachie Way Richmond, BC  V7B 1K3","violations/inspection":1.0},"type":"Feature","geometry":{"type":"Point","coordinates":[-123.161934,49.192621]}},{"properties":{"city":"Richmond","company":"Green Bean Development Inc.","name":"Green Bean Cafe","inspections":1.0,"number":3103052158.0,"bg_long":-123.178414,"bg_lat":49.204257,"violations":6.0,"id":"a68o15xlmq99","province":"BC","address":"3402-04 - 3800 Grant McConachie Way Richmond, BC  V7B 1Y7","violations/inspection":6.0},"type":"Feature","geometry":{"type":"Point","coordinates":[-123.178414,49.204257]}},{"properties":{"city":"Richmond","company":"Canadian Resort Hotels Ltd. Partnership","name":"Fairmont Vancouver Airport - Staff Cafeteria","inspections":1.0,"number":3103052163.0,"bg_long":-123.1796294,"bg_lat":49.1945843,"violations":1.0,"id":"a68o15yrhhip","province":"BC","address":"3111 Grant McConachie Way Richmond, BC  V7B 1X9","violations/inspection":1.0},"type":"Feature","geometry":{"type":"Point","coordinates":[-123.1796294,49.1945843]}},{"properties":{"city":"Richmond","company":"Airside Cafe &amp; Catering","name":"Airside Cafe &amp; Catering","inspections":1.0,"number":3103052181.0,"bg_long":-123.176108,"bg_lat":49.191159,"violations":4.0,"id":"a68o1630297x","province":"BC","address":"350 - 5400  Airport Road South Richmond, BC  V7B 1K6","violations/inspection":4.0},"type":"Feature","geometry":{"type":"Point","coordinates":[-123.176108,49.191159]}},{"properties":{"city":"Richmond","company":"6307485 Canada Ltd.","name":"McDonald's Restaurants - Russ Baker Way","inspections":1.0,"number":3103052188.0,"bg_long":-123.1533505,"bg_lat":49.1797451,"violations":4.0,"id":"a68o15z6p9xv","province":"BC","address":"6060  Russ Baker Way Richmond, BC  V7B 1B4","violations/inspection":4.0},"type":"Feature","geometry":{"type":"Point","coordinates":[-123.1533505,49.1797451]}},{"properties":{"city":"Richmond","company":"Chubbz Enterprises Ltd.","name":"Summer Night Market - F22 - Chubbz Enterprises Ltd.","inspections":1.0,"number":3103052226.0,"bg_long":-123.0831257,"bg_lat":49.1951994,"violations":4.0,"id":"a68o15thv9u2","province":"BC","address":"12631 Vulcan Way Richmond, BC  V6V 1J7","violations/inspection":4.0},"type":"Feature","geometry":{"type":"Point","coordinates":[-123.0831257,49.1951994]}},{"properties":{"city":"Richmond","company":"Jady Inc.","name":"Summer Night Market - F41 - Jady Inc.","inspections":1.0,"number":3103052227.0,"bg_long":-123.0831257,"bg_lat":49.1951994,"violations":1.0,"id":"a68o15v728wp","province":"BC","address":"12631  Vulcan Way Richmond, BC  V6V 1J7","violations/inspection":1.0},"type":"Feature","geometry":{"type":"Point","coordinates":[-123.0831257,49.1951994]}},{"properties":{"city":"Richmond","company":"Chubbz Enterprises Ltd.","name":"Summer Night Market - F21 - Chubbz Enterprises Ltd.","inspections":2.0,"number":3103052228.0,"bg_long":-123.0831257,"bg_lat":49.1951994,"violations":6.0,"id":"a68o1615sgmt","province":"BC","address":"12631  Vulcan Way Richmond, BC  V6V 2W2","violations/inspection":3.0},"type":"Feature","geometry":{"type":"Point","coordinates":[-123.0831257,49.1951994]}},{"properties":{"city":"Richmond","company":"Scott Cheng","name":"Summer Night Market - F11 - Scott Cheng / Clarence Lau","inspections":1.0,"number":3103052230.0,"bg_long":-123.0831257,"bg_lat":49.1951994,"violations":3.0,"id":"a68o1622b1y9","province":"BC","address":"12631  Vulcan Way Richmond, BC  V6V 1J7","violations/inspection":3.0},"type":"Feature","geometry":{"type":"Point","coordinates":[-123.0831257,49.1951994]}},{"properties":{"city":"Richmond","company":"Jie Chen","name":"Summer Night Market - F3 - Jie Chen","inspections":1.0,"number":3103052231.0,"bg_long":-123.0862298,"bg_lat":49.1938787,"violations":4.0,"id":"a68o15zqait4","province":"BC","address":"12361 Vulcan Way Richmond, BC  V6V 1J7","violations/inspection":4.0},"type":"Feature","geometry":{"type":"Point","coordinates":[-123.0862298,49.1938787]}},{"properties":{"city":"Richmond","company":"Bi Qiu","name":"Summer Night Market - F38 - Bi Qiu","inspections":1.0,"number":3103052237.0,"bg_long":-123.0831257,"bg_lat":49.1951994,"violations":3.0,"id":"a68o15z299hl","province":"BC","address":"12631 Vulcan Way Richmond, BC  V6V 1J7","violations/inspection":3.0},"type":"Feature","geometry":{"type":"Point","coordinates":[-123.0831257,49.1951994]}},{"properties":{"city":"Richmond","company":"Quang Minh Tran (Billy)","name":"Summer NIght Market - F7 - Nooch Cafe/Quang Minh Tran","inspections":2.0,"number":3103052238.0,"bg_long":-123.0831257,"bg_lat":49.1951994,"violations":8.0,"id":"a68o163hwj7f","province":"BC","address":"12631 Vulcan Way Richmond, BC  V6V 1J7","violations/inspection":4.0},"type":"Feature","geometry":{"type":"Point","coordinates":[-123.0831257,49.1951994]}},{"properties":{"city":"Richmond","company":"Pro-Biz Enterprises Ltd.","name":"Summer Night Market - F35 - Pro-Biz Enterprises Ltd.","inspections":1.0,"number":3103052239.0,"bg_long":-123.0862298,"bg_lat":49.1938787,"violations":4.0,"id":"a68o15s2t746","province":"BC","address":"12361 Vulcan Way Richmond, BC  V6V 1H7","violations/inspection":4.0},"type":"Feature","geometry":{"type":"Point","coordinates":[-123.0862298,49.1938787]}},{"properties":{"city":"Richmond","company":"John Jun","name":"Summer Night Market - F23 - John Jun","inspections":1.0,"number":3103052246.0,"bg_long":-123.0831257,"bg_lat":49.1951994,"violations":5.0,"id":"a68o15viifn2","province":"BC","address":"12631  Vulcan Way Richmond, BC  V6V 1J7","violations/inspection":5.0},"type":"Feature","geometry":{"type":"Point","coordinates":[-123.0831257,49.1951994]}},{"properties":{"city":"Richmond","company":"B.D. Canada Ltd.","name":"Cobs Bread - No 9023","inspections":1.0,"number":3104851941.0,"bg_long":-123.159079,"bg_lat":49.15383,"violations":3.0,"id":"a68o15xr88pu","province":"BC","address":"180 - 8180 No. 2 Road Richmond, BC  V7C 5K1","violations/inspection":3.0},"type":"Feature","geometry":{"type":"Point","coordinates":[-123.159079,49.15383]}},{"properties":{"city":"Richmond","company":"Richmond Youth Soccer Association","name":"Pioneer Club House","inspections":2.0,"number":3111552024.0,"bg_long":-123.187159,"bg_lat":49.128354,"violations":7.0,"id":"a68o15wjhro3","province":"BC","address":"9200 No 1 Road Richmond, BC","violations/inspection":3.5},"type":"Feature","geometry":{"type":"Point","coordinates":[-123.187159,49.128354]}},{"properties":{"city":"Richmond","company":"City of Richmond","name":"London Heritage Farm","inspections":2.0,"number":3111552088.0,"bg_long":-123.162454,"bg_lat":49.152886,"violations":2.0,"id":"a68o15pgr95t","province":"BC","address":"6511  Dyke Road Richmond, BC  V7C 3R3","violations/inspection":1.0},"type":"Feature","geometry":{"type":"Point","coordinates":[-123.162454,49.152886]}},{"properties":{"city":"Richmond","company":"Sandy Chong","name":"Kari House Restaurant","inspections":3.0,"number":3111552112.0,"bg_long":-123.182842,"bg_lat":49.123872,"violations":25.0,"id":"a68o15r4eas5","province":"BC","address":"125-130 - 3900 Bayview Street Richmond, BC  V7E 4R7","violations/inspection":8.333333333},"type":"Feature","geometry":{"type":"Point","coordinates":[-123.182842,49.123872]}},{"properties":{"city":"Richmond","company":"Host International of Canada Ltd.","name":"Starbucks C","inspections":1.0,"number":3111552189.0,"bg_long":-123.178414,"bg_lat":49.204257,"violations":2.0,"id":"a68o15pexdbf","province":"BC","address":"3339-01 - 3880 Grant McConachie Way Richmond, BC  V7B 1Y7","violations/inspection":2.0},"type":"Feature","geometry":{"type":"Point","coordinates":[-123.178414,49.204257]}},{"properties":{"city":"Richmond","company":"Fortune Way Ventures International Inc.","name":"Fortune Wok","inspections":1.0,"number":3111552192.0,"bg_long":-123.178414,"bg_lat":49.204257,"violations":6.0,"id":"a68o15whrw4r","province":"BC","address":"C3849.0 - 3211 Grant McConachie Way Richmond, BC  V7B 1Y7","violations/inspection":6.0},"type":"Feature","geometry":{"type":"Point","coordinates":[-123.178414,49.204257]}},{"properties":{"city":"Richmond","company":"Fortune Way Ventures International Inc.","name":"Toshi","inspections":2.0,"number":3111552193.0,"bg_long":-123.178414,"bg_lat":49.204257,"violations":11.0,"id":"a68o15wd2s70","province":"BC","address":"C3848.0 - 3211 Grant McConachie Way Richmond, BC  V7B 1Y7","violations/inspection":5.5},"type":"Feature","geometry":{"type":"Point","coordinates":[-123.178414,49.204257]}},{"properties":{"city":"Richmond","company":"Fortune Way Ventures International Inc.","name":"Hanami Restaurant","inspections":1.0,"number":3111552194.0,"bg_long":-123.178414,"bg_lat":49.204257,"violations":9.0,"id":"a68o161wifwe","province":"BC","address":"C3380.1 - 3211 Grant McConachie Way Richmond, BC  V7B 1Y7","violations/inspection":9.0},"type":"Feature","geometry":{"type":"Point","coordinates":[-123.178414,49.204257]}},{"properties":{"city":"Richmond","company":"Fortune Way Ventures International Inc.","name":"Hanami Asian Cuisine","inspections":1.0,"number":3111552195.0,"bg_long":-123.178414,"bg_lat":49.204257,"violations":4.0,"id":"a68o15wsvlt9","province":"BC","address":"C3696.2 - 3211 Grant McConachie Way Richmond, BC  V7B 1Y7","violations/inspection":4.0},"type":"Feature","geometry":{"type":"Point","coordinates":[-123.178414,49.204257]}},{"properties":{"city":"Richmond","company":"Fortune Way Ventures International Inc.","name":"Hanami Cafe","inspections":1.0,"number":3111552196.0,"bg_long":-123.178414,"bg_lat":49.204257,"violations":1.0,"id":"a68o15xumbic","province":"BC","address":"C3380.1 - 3211 Grant McConachie Way Richmond, BC  V7B 1Y7","violations/inspection":1.0},"type":"Feature","geometry":{"type":"Point","coordinates":[-123.178414,49.204257]}},{"properties":{"city":"Richmond","company":"Canuel Enterprise Ltd","name":"Canuel Caterers - Palmer Secondary School","inspections":1.0,"number":3111552327.0,"bg_long":-123.1309413,"bg_lat":49.1540567,"violations":2.0,"id":"a68o15smjpcv","province":"BC","address":"8160 St. Albans Road Richmond, BC  V6Y 2K9","violations/inspection":2.0},"type":"Feature","geometry":{"type":"Point","coordinates":[-123.1309413,49.1540567]}},{"properties":{"city":"Richmond","company":"Beth Tikvah Board of Directors","name":"Beth Tikvah Centre Kitchen","inspections":1.0,"number":3111552333.0,"bg_long":-123.1703056,"bg_lat":49.14214,"violations":1.0,"id":"a68o163k932p","province":"BC","address":"9711 Geal Road Richmond, BC  V7E 1R4","violations/inspection":1.0},"type":"Feature","geometry":{"type":"Point","coordinates":[-123.1703056,49.14214]}},{"properties":{"city":"Richmond","company":"Sushi Box Restaurant Ltd.","name":"Proposed:  Pink Swirl","inspections":1.0,"number":3111552351.0,"bg_long":-123.136451,"bg_lat":49.18101,"violations":4.0,"id":"a68o15t283zu","province":"BC","address":"1040/1045 - 4540 No. 3 Road Richmond, BC  V6X 4E4","violations/inspection":4.0},"type":"Feature","geometry":{"type":"Point","coordinates":[-123.136451,49.18101]}},{"properties":{"city":"Richmond","company":"Sun Wai Mar","name":"Summer Night Market - F34 - Sun Wai Mar","inspections":1.0,"number":3111552371.0,"bg_long":-123.0831257,"bg_lat":49.1951994,"violations":2.0,"id":"a68o1631g15r","province":"BC","address":"12631 Vulcan Way Richmond, BC  V6V 1J7","violations/inspection":2.0},"type":"Feature","geometry":{"type":"Point","coordinates":[-123.0831257,49.1951994]}},{"properties":{"city":"Richmond","company":"Wayan International Trading Co. Ltd.","name":"Summer Night Market - F18 - Wayan International Trading Co. Ltd.","inspections":1.0,"number":3111552373.0,"bg_long":-123.0831257,"bg_lat":49.1951994,"violations":2.0,"id":"a68o1631c0z9","province":"BC","address":"12631 Vulcan Way Richmond, BC  V6V 1J7","violations/inspection":2.0},"type":"Feature","geometry":{"type":"Point","coordinates":[-123.0831257,49.1951994]}},{"properties":{"city":"Richmond","company":"Wayan International Trading Co. Ltd.","name":"Summer Night Market - F17 - Wayan International Trading Co. Ltd.","inspections":1.0,"number":3111552374.0,"bg_long":-123.0831257,"bg_lat":49.1951994,"violations":2.0,"id":"a68o15o6ehdw","province":"BC","address":"12631 Vulcan Way Richmond, BC  V6V 1J7","violations/inspection":2.0},"type":"Feature","geometry":{"type":"Point","coordinates":[-123.0831257,49.1951994]}},{"properties":{"city":"Richmond","company":"Naomi Sekio","name":"Summer Night Market - F50 - Naomi Sekio","inspections":1.0,"number":3111552377.0,"bg_long":-123.0831257,"bg_lat":49.1951994,"violations":2.0,"id":"a68o15pox9fu","province":"BC","address":"12631 Vulcan Way Richmond, BC  V6V 1J7","violations/inspection":2.0},"type":"Feature","geometry":{"type":"Point","coordinates":[-123.0831257,49.1951994]}},{"properties":{"city":"Richmond","company":"Karl Tang &amp; Ivanna Chan","name":"Summer Night Market - F5 - Karl Tang &amp; Ivanna Chan","inspections":1.0,"number":3111552382.0,"bg_long":-123.0831257,"bg_lat":49.1951994,"violations":4.0,"id":"a68o15ux98dp","province":"BC","address":"12631 Vulcan Way Richmond, BC  V6V 1J7","violations/inspection":4.0},"type":"Feature","geometry":{"type":"Point","coordinates":[-123.0831257,49.1951994]}},{"properties":{"city":"Richmond","company":"Celia Ou","name":"Summer Night Market - F37 - Celia Ou","inspections":1.0,"number":3111552383.0,"bg_long":-123.0831257,"bg_lat":49.1951994,"violations":2.0,"id":"a68o15py13k5","province":"BC","address":"12631 Vulcan Way Richmond, BC  V6V 1J7","violations/inspection":2.0},"type":"Feature","geometry":{"type":"Point","coordinates":[-123.0831257,49.1951994]}},{"properties":{"city":"Richmond","company":"Chia-Jui Mai","name":"Summer Night Market - F60 - Chia-Jui Mai","inspections":1.0,"number":3111552384.0,"bg_long":-123.0831257,"bg_lat":49.1951994,"violations":2.0,"id":"a68o15tg7gyt","province":"BC","address":"12631 Vulcan Way Richmond, BC  V6V 1J7","violations/inspection":2.0},"type":"Feature","geometry":{"type":"Point","coordinates":[-123.0831257,49.1951994]}},{"properties":{"city":"Richmond","company":"Ricky Chen &amp; Joyce Chung","name":"Summer Night Market - F8 - Ricky Chen &amp; Joyce Chung","inspections":1.0,"number":3111552390.0,"bg_long":-123.0831257,"bg_lat":49.1951994,"violations":5.0,"id":"a68o161iiv2s","province":"BC","address":"12631 Vulcan Way Richmond, BC  V6V 1J7","violations/inspection":5.0},"type":"Feature","geometry":{"type":"Point","coordinates":[-123.0831257,49.1951994]}},{"properties":{"city":"Richmond","company":"0824698 BC Ltd","name":"Summer Night Market - F20 - 0824698 BC Ltd","inspections":2.0,"number":3111552391.0,"bg_long":-123.0831257,"bg_lat":49.1951994,"violations":11.0,"id":"a68o15np9e6w","province":"BC","address":"12631 Vulcan Way Richmond, BC  V6V 1J7","violations/inspection":5.5},"type":"Feature","geometry":{"type":"Point","coordinates":[-123.0831257,49.1951994]}},{"properties":{"city":"Richmond","company":"Jose Sabir","name":"Summer Night Market - F32 - Jose Sabir","inspections":1.0,"number":3111552401.0,"bg_long":-123.0831257,"bg_lat":49.1951994,"violations":1.0,"id":"a68o1635dd7n","province":"BC","address":"12631 Vulcan Way Richmond, BC  V6V 1J7","violations/inspection":1.0},"type":"Feature","geometry":{"type":"Point","coordinates":[-123.0831257,49.1951994]}},{"properties":{"city":"Richmond","company":"Totoro Catering Inc.","name":"Summer Night Market - F19 - Totoro Catering Inc.","inspections":1.0,"number":3111552404.0,"bg_long":-123.0831257,"bg_lat":49.1951994,"violations":4.0,"id":"a68o162p6cwn","province":"BC","address":"12631 Vulcan Way Richmond, BC  V6V 1J7","violations/inspection":4.0},"type":"Feature","geometry":{"type":"Point","coordinates":[-123.0831257,49.1951994]}},{"properties":{"city":"Richmond","company":"Chubbz Enterprises Ltd.","name":"Summer Night Market - F36 - Chubbz Enterprises Ltd.","inspections":1.0,"number":3111552407.0,"bg_long":-123.0831257,"bg_lat":49.1951994,"violations":3.0,"id":"a68o15qqp8hq","province":"BC","address":"12631 Vulcan Way Richmond, BC  V6V 1J7","violations/inspection":3.0},"type":"Feature","geometry":{"type":"Point","coordinates":[-123.0831257,49.1951994]}},{"properties":{"city":"Richmond","company":"Victoria Do","name":"Summer Night Market - F16 - Victoria Do","inspections":1.0,"number":3111552412.0,"bg_long":-123.0831257,"bg_lat":49.1951994,"violations":2.0,"id":"a68o15yl5ue4","province":"BC","address":"12631  Vulcan Way Richmond, BC  V6V 1J7","violations/inspection":2.0},"type":"Feature","geometry":{"type":"Point","coordinates":[-123.0831257,49.1951994]}},{"properties":{"city":"Richmond","company":"0825608 BC Ltd","name":"Summer Night Market - F13 - 0825608 BC Ltd","inspections":2.0,"number":3111552417.0,"bg_long":-123.0831257,"bg_lat":49.1951994,"violations":6.0,"id":"a68o15skza9u","province":"BC","address":"12631 Vulcan Way Richmond, BC  V6V 1J7","violations/inspection":3.0},"type":"Feature","geometry":{"type":"Point","coordinates":[-123.0831257,49.1951994]}},{"properties":{"city":"Richmond","company":"Daniel Jaber","name":"Summer Night Market - S9 - Mini Melts Ice Cream","inspections":1.0,"number":3111552420.0,"bg_long":-123.0831257,"bg_lat":49.1951994,"violations":2.0,"id":"a68o15npvpqw","province":"BC","address":"12631 Vulcan Way Richmond, BC  V6V 1J7","violations/inspection":2.0},"type":"Feature","geometry":{"type":"Point","coordinates":[-123.0831257,49.1951994]}},{"properties":{"city":"Richmond","company":"City of Richmond","name":"Steveston Community Centre Kitchen","inspections":2.0,"number":3113051911.0,"bg_long":-123.1801357,"bg_lat":49.1251903,"violations":3.0,"id":"a68o15y7ins5","province":"BC","address":"4111 Moncton Street Richmond, BC  V7E 3A8","violations/inspection":1.5},"type":"Feature","geometry":{"type":"Point","coordinates":[-123.1801357,49.1251903]}},{"properties":{"city":"Richmond","company":"Millenium Karaoke Ltd.","name":"Millenium Karaoke Ltd.","inspections":1.0,"number":3113051912.0,"bg_long":-123.136733,"bg_lat":49.179958,"violations":3.0,"id":"a68o15quwfkn","province":"BC","address":"201 - 4451 No. 3 Road Richmond, BC  V6X 2C3","violations/inspection":3.0},"type":"Feature","geometry":{"type":"Point","coordinates":[-123.136733,49.179958]}},{"properties":{"city":"Richmond","company":"Balwinder Bedi","name":"Best Tandoori Chicken and Meats","inspections":1.0,"number":3113051934.0,"bg_long":-123.0915604,"bg_lat":49.1835368,"violations":5.0,"id":"a68o15wjdz34","province":"BC","address":"4117 No. 5 Road Richmond, BC  V6X 2T9","violations/inspection":5.0},"type":"Feature","geometry":{"type":"Point","coordinates":[-123.0915604,49.1835368]}},{"properties":{"city":"Richmond","company":"Philippe Leroux","name":"Damien's Belgian Waffle Factory Ltd.","inspections":2.0,"number":3113051951.0,"bg_long":-123.182699,"bg_lat":49.126508,"violations":8.0,"id":"a68o15z42dg0","province":"BC","address":"2 - 3891 Chatham Street Richmond, BC  V7E 2Z6","violations/inspection":4.0},"type":"Feature","geometry":{"type":"Point","coordinates":[-123.182699,49.126508]}},{"properties":{"city":"Richmond","company":"Chit Chat Cafe Inc.","name":"Cafe' di Rica","inspections":1.0,"number":3113051955.0,"bg_long":-123.125295,"bg_lat":49.183487,"violations":3.0,"id":"a68o15uagufs","province":"BC","address":"2130 - 8788 McKim Way Richmond, BC  V6X 4G4","violations/inspection":3.0},"type":"Feature","geometry":{"type":"Point","coordinates":[-123.125295,49.183487]}},{"properties":{"city":"Richmond","company":"Bombay Pan Centre","name":"Bombay Pan Centre","inspections":1.0,"number":3113051965.0,"bg_long":-123.091384,"bg_lat":49.183866,"violations":4.0,"id":"a68o15zshav6","province":"BC","address":"130 - 4011 No. 5 Road Richmond, BC  V6X 2T9","violations/inspection":4.0},"type":"Feature","geometry":{"type":"Point","coordinates":[-123.091384,49.183866]}},{"properties":{"city":"Richmond","company":"Tung Thach","name":"Pho King Thai Hoa","inspections":1.0,"number":3113051994.0,"bg_long":-123.130304,"bg_lat":49.187885,"violations":1.0,"id":"a68o163mlys4","province":"BC","address":"1101 - 8328 Capstan Way Richmond, BC  V6X 4B6","violations/inspection":1.0},"type":"Feature","geometry":{"type":"Point","coordinates":[-123.130304,49.187885]}},{"properties":{"city":"Richmond","company":"0751293 B.C. LTD.","name":"(B.C. 0751293) Mongolian Hot Pot","inspections":2.0,"number":3113052009.0,"bg_long":-123.136289,"bg_lat":49.175608,"violations":18.0,"id":"a68o15wirqvm","province":"BC","address":"405 - 5300 No. 3 Road Richmond, BC  V6X 2X9","violations/inspection":9.0},"type":"Feature","geometry":{"type":"Point","coordinates":[-123.136289,49.175608]}},{"properties":{"city":"Richmond","company":"Candy Bowl Enterprises Inc","name":"100% Healthy Dessert","inspections":1.0,"number":3113052014.0,"bg_long":-123.134042,"bg_lat":49.170111,"violations":4.0,"id":"a68o15rmh8j4","province":"BC","address":"150 - 8291 Westminster Highway Richmond, BC  V6X 1A7","violations/inspection":4.0},"type":"Feature","geometry":{"type":"Point","coordinates":[-123.134042,49.170111]}},{"properties":{"city":"Richmond","company":"F &amp; G Enterprises Ltd.","name":"Manzo Itamae Japanese Restaurant","inspections":1.0,"number":3113052016.0,"bg_long":-123.124291,"bg_lat":49.187685,"violations":5.0,"id":"a68o15oogbhb","province":"BC","address":"120 - 9020 Capstan Way Richmond, BC  V6X 3V9","violations/inspection":5.0},"type":"Feature","geometry":{"type":"Point","coordinates":[-123.124291,49.187685]}},{"properties":{"city":"Richmond","company":"Allan Yeo","name":"Proposed:  Mandalay Lounge &amp; Steak House","inspections":1.0,"number":3113052020.0,"bg_long":-123.182842,"bg_lat":49.123872,"violations":5.0,"id":"a68o15wkljo4","province":"BC","address":"140 - 3900 Bayview Street Richmond, BC  V7E 4R7","violations/inspection":5.0},"type":"Feature","geometry":{"type":"Point","coordinates":[-123.182842,49.123872]}},{"properties":{"city":"Richmond","company":"Patrick Xu","name":"Yavis Club Cafe","inspections":1.0,"number":3113052027.0,"bg_long":-123.129962,"bg_lat":49.187806,"violations":3.0,"id":"a68o15wn6kdu","province":"BC","address":"1231 - 8338 Capstan Way Richmond, BC  V6X 4B5","violations/inspection":3.0},"type":"Feature","geometry":{"type":"Point","coordinates":[-123.129962,49.187806]}},{"properties":{"city":"Richmond","company":"Taj Enterprises Ltd","name":"Subway - Steveston","inspections":1.0,"number":3113052085.0,"bg_long":-123.183494,"bg_lat":49.126329,"violations":5.0,"id":"a68o161crfy9","province":"BC","address":"3 - 3740 Chatham Street Richmond, BC  V7E 2Z3","violations/inspection":5.0},"type":"Feature","geometry":{"type":"Point","coordinates":[-123.183494,49.126329]}},{"properties":{"city":"Richmond","company":"Bao Tong Enterprises Canada Ltd.","name":"Thai Kitchen","inspections":6.0,"number":3113052089.0,"bg_long":-123.159079,"bg_lat":49.15383,"violations":27.0,"id":"a68o15s0v6kz","province":"BC","address":"160 - 8180 No. 2 Road Richmond, BC  V7C 5K1","violations/inspection":4.5},"type":"Feature","geometry":{"type":"Point","coordinates":[-123.159079,49.15383]}},{"properties":{"city":"Richmond","company":"Cucumber Cafe Corporation","name":"Cucumber Cafe","inspections":1.0,"number":3113052096.0,"bg_long":-123.112079,"bg_lat":49.1882082,"violations":3.0,"id":"a68o15oc6kru","province":"BC","address":"10211 St. Edwards Drive Richmond, BC  V6X 2M8","violations/inspection":3.0},"type":"Feature","geometry":{"type":"Point","coordinates":[-123.112079,49.1882082]}},{"properties":{"city":"Richmond","company":"Steveston Buddhist Temple","name":"Steveston Buddhist Temple","inspections":2.0,"number":3113052166.0,"bg_long":-123.1762735,"bg_lat":49.1292826,"violations":8.0,"id":"a68o15we5dyn","province":"BC","address":"4360 Garry Street Richmond, BC  V7E 2V2","violations/inspection":4.0},"type":"Feature","geometry":{"type":"Point","coordinates":[-123.1762735,49.1292826]}},{"properties":{"city":"Richmond","company":"Either Cup Enterprises Ltd.","name":"Either Cup","inspections":3.0,"number":3113052196.0,"bg_long":-123.136548,"bg_lat":49.169332,"violations":18.0,"id":"a68o16251rz8","province":"BC","address":"130 - 6068 No. 3 Road Richmond, BC  V6Y 4M7","violations/inspection":6.0},"type":"Feature","geometry":{"type":"Point","coordinates":[-123.136548,49.169332]}},{"properties":{"city":"Richmond","company":"K &amp; J Foods Ltd.","name":"Panago Pizza","inspections":1.0,"number":3113052200.0,"bg_long":-123.138373,"bg_lat":49.170291,"violations":1.0,"id":"a68o15raf9ks","province":"BC","address":"140 - 7771 Westminster Highway Richmond, BC  V6X 1A4","violations/inspection":1.0},"type":"Feature","geometry":{"type":"Point","coordinates":[-123.138373,49.170291]}},{"properties":{"city":"Richmond","company":"O'Tray Enterprises Ltd","name":"O'Tray Noodle","inspections":1.0,"number":3115351914.0,"bg_long":-123.132428,"bg_lat":49.184773,"violations":4.0,"id":"a68o15w4xooj","province":"BC","address":"2285 - 8181 Cambie Road Richmond, BC  V6X 1J8","violations/inspection":4.0},"type":"Feature","geometry":{"type":"Point","coordinates":[-123.132428,49.184773]}},{"properties":{"city":"Richmond","company":"Mary Carter","name":"The British Home","inspections":2.0,"number":3120351933.0,"bg_long":-123.183494,"bg_lat":49.126329,"violations":10.0,"id":"a68o15v05k9o","province":"BC","address":"4 - 3740 Chatham Street Richmond, BC  V7E 2Z3","violations/inspection":5.0},"type":"Feature","geometry":{"type":"Point","coordinates":[-123.183494,49.126329]}},{"properties":{"city":"Richmond","company":"Rachel Chou","name":"Proposed - Orange Julius","inspections":1.0,"number":3120351951.0,"bg_long":-123.136695,"bg_lat":49.165617,"violations":4.0,"id":"a68o15sub217","province":"BC","address":"1448 - 6551 No. 3 Road Richmond, BC  V6Y 2B6","violations/inspection":4.0},"type":"Feature","geometry":{"type":"Point","coordinates":[-123.136695,49.165617]}},{"properties":{"city":"Richmond","company":"0828305 BC Ltd.","name":"Famous Hakka Restaurant","inspections":1.0,"number":3123351933.0,"bg_long":-123.136436,"bg_lat":49.183002,"violations":4.0,"id":"a68o1610ira8","province":"BC","address":"190 - 4200 No. 3 Road Richmond, BC  V6X 2C2","violations/inspection":4.0},"type":"Feature","geometry":{"type":"Point","coordinates":[-123.136436,49.183002]}},{"properties":{"city":"Richmond","company":"Juliana Chen","name":"J-Zone Tea House","inspections":1.0,"number":3123351934.0,"bg_long":-123.109102,"bg_lat":49.191946,"violations":10.0,"id":"a68o15ppe9px","province":"BC","address":"140 - 3031 Beckman Place Richmond, BC  V6X 3R2","violations/inspection":10.0},"type":"Feature","geometry":{"type":"Point","coordinates":[-123.109102,49.191946]}},{"properties":{"city":"Richmond","company":"Rainflower Enterprises Ltd.","name":"Rainflower Chinese Restaurant","inspections":1.0,"number":3123351938.0,"bg_long":-123.1339267,"bg_lat":49.1872737,"violations":7.0,"id":"a68o15w4og0i","province":"BC","address":"3600 No. 3 Road Richmond, BC  V6X 2C1","violations/inspection":7.0},"type":"Feature","geometry":{"type":"Point","coordinates":[-123.1339267,49.1872737]}},{"properties":{"city":"Richmond","company":"Wah Shang Supermarket Ltd.","name":"Cho's Juice","inspections":3.0,"number":3123351939.0,"bg_long":-123.133424,"bg_lat":49.183445,"violations":10.0,"id":"a68o15nx0dlk","province":"BC","address":"1430 - 4151 Hazelbridge Way Richmond, BC  V6X 4J7","violations/inspection":3.333333333},"type":"Feature","geometry":{"type":"Point","coordinates":[-123.133424,49.183445]}},{"properties":{"city":"Richmond","company":"Diplomat Bakery and Pastry Ltd.","name":"Diplomat Bakery and Pastry Ltd.","inspections":1.0,"number":3123351948.0,"bg_long":-123.158393,"bg_lat":49.117723,"violations":6.0,"id":"a68o162gh47p","province":"BC","address":"110 - 6111 London Road Richmond, BC  V7E 3S3","violations/inspection":6.0},"type":"Feature","geometry":{"type":"Point","coordinates":[-123.158393,49.117723]}},{"properties":{"city":"Richmond","company":"Nova Food Services Ltd","name":"Nova Food Services Ltd","inspections":2.0,"number":3123351952.0,"bg_long":-123.096015,"bg_lat":49.128948,"violations":6.0,"id":"a68o161fea96","province":"BC","address":"3 - 11171 Horseshoe Way Richmond, BC  V7A 4S5","violations/inspection":3.0},"type":"Feature","geometry":{"type":"Point","coordinates":[-123.096015,49.128948]}},{"properties":{"city":"Richmond","company":"Blackberry Bistro Ltd.","name":"Blackberry Bistro","inspections":2.0,"number":3123351956.0,"bg_long":-123.1574206,"bg_lat":49.1176189,"violations":15.0,"id":"a68o15s5ly13","province":"BC","address":"6011 Dyke Road Richmond, BC  V7E 3R3","violations/inspection":7.5},"type":"Feature","geometry":{"type":"Point","coordinates":[-123.1574206,49.1176189]}},{"properties":{"city":"Richmond","company":"gudrun tasting room","name":"gudrun tasting room","inspections":2.0,"number":3123351961.0,"bg_long":-123.184995,"bg_lat":49.125091,"violations":5.0,"id":"a68o15rk1xdt","province":"BC","address":"150 - 3500 Moncton Street Richmond, BC  V7E 3A2","violations/inspection":2.5},"type":"Feature","geometry":{"type":"Point","coordinates":[-123.184995,49.125091]}},{"properties":{"city":"Richmond","company":"Rebound International Investment Ltd.","name":"Totally Juiced","inspections":1.0,"number":3123351962.0,"bg_long":-123.18411,"bg_lat":49.124442,"violations":14.0,"id":"a68o15pmb275","province":"BC","address":"250 - 12240 Second Avenue Richmond, BC  V7E 3L8","violations/inspection":14.0},"type":"Feature","geometry":{"type":"Point","coordinates":[-123.18411,49.124442]}},{"properties":{"city":"Richmond","company":"South Arm United Church","name":"South Arm United Church","inspections":1.0,"number":3123351998.0,"bg_long":-123.1366402,"bg_lat":49.1318645,"violations":3.0,"id":"a68o15wyhi1q","province":"BC","address":"11051 No. 3 Road Richmond, BC  V7A 1X3","violations/inspection":3.0},"type":"Feature","geometry":{"type":"Point","coordinates":[-123.1366402,49.1318645]}},{"properties":{"city":"Richmond","company":"Folima Group Inc.","name":"Tenku","inspections":1.0,"number":3123352022.0,"bg_long":-123.1465706,"bg_lat":49.172521,"violations":2.0,"id":"a68o15soys1m","province":"BC","address":"7100 Elmbridge Way Richmond, BC","violations/inspection":2.0},"type":"Feature","geometry":{"type":"Point","coordinates":[-123.1465706,49.172521]}},{"properties":{"city":"Richmond","company":"OJ's Richmond Restaurant Inc.","name":"Original Joe's Restaurant &amp; Bar","inspections":1.0,"number":3123451964.0,"bg_long":-123.136579,"bg_lat":49.170171,"violations":2.0,"id":"a68o15twxi8e","province":"BC","address":"110 - 11080 No. 5 Rd Richmond, BC  V7A 0A2","violations/inspection":2.0},"type":"Feature","geometry":{"type":"Point","coordinates":[-123.136579,49.170171]}},{"properties":{"city":"Richmond","company":"Sun Cheung Loong Restaurant Ltd","name":"Sun Cheung Loong Restaurant","inspections":1.0,"number":3123451970.0,"bg_long":-123.134042,"bg_lat":49.170111,"violations":8.0,"id":"a68o161tpo66","province":"BC","address":"150 - 8191 Westminster Hwy Richmond, BC  V6X 1A7","violations/inspection":8.0},"type":"Feature","geometry":{"type":"Point","coordinates":[-123.134042,49.170111]}},{"properties":{"city":"Richmond","company":"Internation Investments Inc","name":"A &amp; W Restaurant","inspections":1.0,"number":3123451971.0,"bg_long":-123.125267,"bg_lat":49.1537744,"violations":2.0,"id":"a68o15wcgx9s","province":"BC","address":"8140 Garden City Rd Richmond, BC  V6Y 2N9","violations/inspection":2.0},"type":"Feature","geometry":{"type":"Point","coordinates":[-123.125267,49.1537744]}},{"properties":{"city":"Richmond","company":"De Fresh Bakery Ltd.","name":"De Fresh Bakery","inspections":1.0,"number":3125651938.0,"bg_long":-123.132428,"bg_lat":49.184773,"violations":6.0,"id":"a68o15uukeqx","province":"BC","address":"111 - 4600 No. 3 Road Richmond, BC  V6X 1J8","violations/inspection":6.0},"type":"Feature","geometry":{"type":"Point","coordinates":[-123.132428,49.184773]}},{"properties":{"city":"Richmond","company":"Magic Steam Crusine Ltd.","name":"Magic Steam Crusine","inspections":1.0,"number":3125651960.0,"bg_long":-123.130585,"bg_lat":49.178427,"violations":8.0,"id":"a68o15pqx3n6","province":"BC","address":"2150 - 8391 Alexandra Road Richmond, BC  V6X 3W5","violations/inspection":8.0},"type":"Feature","geometry":{"type":"Point","coordinates":[-123.130585,49.178427]}},{"properties":{"city":"Richmond","company":"KKBL No. 496 Ventures Ltd.","name":"Frappe Bliss","inspections":1.0,"number":3126351915.0,"bg_long":-123.133424,"bg_lat":49.183445,"violations":3.0,"id":"a68o15wxiq98","province":"BC","address":"3000 - 4151 Hazelbridge Way Richmond, BC  V6X 4J7","violations/inspection":3.0},"type":"Feature","geometry":{"type":"Point","coordinates":[-123.133424,49.183445]}},{"properties":{"city":"Richmond","company":"Rajinder Dhatt","name":"Subway - Sea Island Way","inspections":1.0,"number":3126351920.0,"bg_long":-123.133708,"bg_lat":49.17011,"violations":3.0,"id":"a68o15ptwd4p","province":"BC","address":"130 - 8555 Sea Island Way Richmond, BC  V6X 0A8","violations/inspection":3.0},"type":"Feature","geometry":{"type":"Point","coordinates":[-123.133708,49.17011]}},{"properties":{"city":"Richmond","company":"Royal Canadian Legion 291","name":"Royal Canadian Legion - Branch 291","inspections":1.0,"number":3126351931.0,"bg_long":-123.1016105,"bg_lat":49.1920117,"violations":3.0,"id":"a68o15o1k2aa","province":"BC","address":"11131 Bridgeport Road Richmond, BC  V6X 1T7","violations/inspection":3.0},"type":"Feature","geometry":{"type":"Point","coordinates":[-123.1016105,49.1920117]}},{"properties":{"city":"Richmond","company":"Fortune Way Ventures International Inc.","name":"Toshi","inspections":1.0,"number":3126351958.0,"bg_long":-123.178414,"bg_lat":49.204257,"violations":4.0,"id":"a68o15y8p566","province":"BC","address":"3848-03 - 3211 Grant McConachie Way Richmond, BC  V7B 1X8","violations/inspection":4.0},"type":"Feature","geometry":{"type":"Point","coordinates":[-123.178414,49.204257]}},{"properties":{"city":"Richmond","company":"Inadequate Cooling and/or Refrigerated Storage of Potentially Hazardous Food(s)","name":"Proposed: Jugo Juice - Terra Nova","inspections":1.0,"number":3126351983.0,"bg_long":-123.182276,"bg_lat":49.170204,"violations":1.0,"id":"a68o15rixexu","province":"BC","address":"100 - 3671 Westminster Highway Richmond, BC  V7C 5V2","violations/inspection":1.0},"type":"Feature","geometry":{"type":"Point","coordinates":[-123.182276,49.170204]}},{"properties":{"city":"Richmond","company":"Inadequate Cooling and/or Refrigerated Storage of Potentially Hazardous Food(s)","name":"Proposed - Shanghai JJ","inspections":1.0,"number":3130351944.0,"bg_long":-123.1364554,"bg_lat":49.165487,"violations":8.0,"id":"a68o15qn7qvj","province":"BC","address":"6610 No. 3 Road Richmond, BC  V6Y 2C2","violations/inspection":8.0},"type":"Feature","geometry":{"type":"Point","coordinates":[-123.1364554,49.165487]}},{"properties":{"city":"Richmond","company":"Improper Cleaning, Sanitizing of Equipment and Utensils","name":"Proposed - FE1 Sushi Garden","inspections":1.0,"number":3130351945.0,"bg_long":-123.125362,"bg_lat":49.15556,"violations":8.0,"id":"a68o15pjgwxs","province":"BC","address":"190 - 8780  Blundell Road Richmond, BC  V6Y 3Y8","violations/inspection":8.0},"type":"Feature","geometry":{"type":"Point","coordinates":[-123.125362,49.15556]}},{"properties":{"city":"Richmond","company":"Jennifer Liu","name":"Yamato East Asia Cuisine","inspections":1.0,"number":3130351956.0,"bg_long":-123.133676,"bg_lat":49.17011,"violations":11.0,"id":"a68o15yh7lj2","province":"BC","address":"1160 - 8260  Westminster Highway Richmond, BC  V6X 3Y2","violations/inspection":11.0},"type":"Feature","geometry":{"type":"Point","coordinates":[-123.133676,49.17011]}},{"properties":{"city":"Richmond","company":"Viswananthan  Ganeshan","name":"Proposed - Dosa Grill","inspections":2.0,"number":3130351961.0,"bg_long":-123.133676,"bg_lat":49.17011,"violations":18.0,"id":"a68o15spohrb","province":"BC","address":"1670 - 8260 Westminster Highway Richmond, BC  V6X 3Y2","violations/inspection":9.0},"type":"Feature","geometry":{"type":"Point","coordinates":[-123.133676,49.17011]}},{"properties":{"city":"Richmond","company":"Compass Group Canada Ltd.","name":"Eurest Dining Services at Microsoft Canada Development Centre","inspections":1.0,"number":3130551916.0,"bg_long":-123.071895,"bg_lat":49.173353,"violations":1.0,"id":"a68o16389kth","province":"BC","address":"100 - 13511  Commerce Parkway Richmond, BC  V6V 2J8","violations/inspection":1.0},"type":"Feature","geometry":{"type":"Point","coordinates":[-123.071895,49.173353]}},{"properties":{"city":"Richmond","company":"Marquee Hotels, Richmond Inc.","name":"Holiday Inn Express Hotel &amp; Suites Riverport","inspections":1.0,"number":3130551918.0,"bg_long":-123.068333,"bg_lat":49.135396,"violations":2.0,"id":"a68o163ka7ej","province":"BC","address":"10688 No. 6 Road Richmond, BC  V6W 1E7","violations/inspection":2.0},"type":"Feature","geometry":{"type":"Point","coordinates":[-123.068333,49.135396]}},{"properties":{"city":"Richmond","company":"SDD - Contracting","name":"Big Bite Pizzeria","inspections":1.0,"number":3132352005.0,"bg_long":-123.187159,"bg_lat":49.128354,"violations":4.0,"id":"a68o15pwr9fl","province":"BC","address":"130 - 12420 No.1 Road Richmond, BC  V7E 6N2","violations/inspection":4.0},"type":"Feature","geometry":{"type":"Point","coordinates":[-123.187159,49.128354]}},{"properties":{"city":"Richmond","company":"Improper Cleaning, Sanitizing of Equipment and Utensils","name":"Proposed: Blenz Coffee - Richmond Centre","inspections":1.0,"number":3132551911.0,"bg_long":-123.140045,"bg_lat":49.163078,"violations":2.0,"id":"a68o15vdg29h","province":"BC","address":"2232 - 6060 Minoru Blvd. Richmond, BC  V6Y 2V7","violations/inspection":2.0},"type":"Feature","geometry":{"type":"Point","coordinates":[-123.140045,49.163078]}},{"properties":{"city":"Richmond","company":"Lu &amp; Sons Enterprises Ltd.","name":"Super Grocer &amp; Pharmacy FE1","inspections":1.0,"number":3132551931.0,"bg_long":-123.187159,"bg_lat":49.128354,"violations":5.0,"id":"a68o15woih9m","province":"BC","address":"12051 No. 1 Road Richmond, BC  V7E 1T5","violations/inspection":5.0},"type":"Feature","geometry":{"type":"Point","coordinates":[-123.187159,49.128354]}},{"properties":{"city":"Richmond","company":"Hatchan Takoyaki","name":"Summer Night Market - F31 - Hatchan Takoyaki","inspections":1.0,"number":3134151911.0,"bg_long":-123.0831257,"bg_lat":49.1951994,"violations":3.0,"id":"a68o15v0q0nl","province":"BC","address":"12631 Vulcan Way Richmond, BC","violations/inspection":3.0},"type":"Feature","geometry":{"type":"Point","coordinates":[-123.0831257,49.1951994]}},{"properties":{"city":"Richmond","company":"Run Lan Yee","name":"Summer Night Market - F30 - Run Lan Yee","inspections":1.0,"number":3134151912.0,"bg_long":-123.0831257,"bg_lat":49.1951994,"violations":3.0,"id":"a68o15t00ryq","province":"BC","address":"12631 Vulcan Way Richmond, BC  V6V 1S7","violations/inspection":3.0},"type":"Feature","geometry":{"type":"Point","coordinates":[-123.0831257,49.1951994]}},{"properties":{"city":"Richmond","company":"Run Lan Yee","name":"Summer Night Market - F29 - Run Lan Yee","inspections":1.0,"number":3134151913.0,"bg_long":-123.0831257,"bg_lat":49.1951994,"violations":2.0,"id":"a68o15vscb7f","province":"BC","address":"12631 Vulcan Way Richmond, BC  V6V 1J7","violations/inspection":2.0},"type":"Feature","geometry":{"type":"Point","coordinates":[-123.0831257,49.1951994]}},{"properties":{"city":"Richmond","company":"Gala Ip","name":"Ipearl Smoothies Ltd. (Hon's Wun-Tun House Richmond)","inspections":1.0,"number":3226351912.0,"bg_long":-123.136436,"bg_lat":49.183002,"violations":3.0,"id":"a68o15wlmasn","province":"BC","address":"101 - 4600 No. 3 Road Richmond, BC  V6X 2C2","violations/inspection":3.0},"type":"Feature","geometry":{"type":"Point","coordinates":[-123.136436,49.183002]}},{"properties":{"city":"Richmond","company":"K. Teramura","name":"Bamboo Express (1987) Limited","inspections":2.0,"number":5010012.0,"bg_long":-123.136579,"bg_lat":49.170171,"violations":13.0,"id":"a68o1638old5","province":"BC","address":"178 - 8180 No. 2 Road Richmond, BC  V6T 2C1","violations/inspection":6.5},"type":"Feature","geometry":{"type":"Point","coordinates":[-123.136579,49.170171]}},{"properties":{"city":"Richmond","company":"750368 B.C. Ltd.","name":"The Pantry Restaurant","inspections":1.0,"number":5010027.0,"bg_long":-123.1123348,"bg_lat":49.1915361,"violations":4.0,"id":"a68o15pph953","province":"BC","address":"3051 St. Edwards Drive Richmond, BC  V6X 3K4","violations/inspection":4.0},"type":"Feature","geometry":{"type":"Point","coordinates":[-123.1123348,49.1915361]}},{"properties":{"city":"Richmond","company":"Delta Triangle Holdings Ltd.","name":"Tasty Noodle House","inspections":1.0,"number":5010029.0,"bg_long":-123.083014,"bg_lat":49.189148,"violations":9.0,"id":"a68o15x0s2h9","province":"BC","address":"1 - 12880 Bathgate Way Richmond, BC  V6V 1Z4","violations/inspection":9.0},"type":"Feature","geometry":{"type":"Point","coordinates":[-123.083014,49.189148]}},{"properties":{"city":"Richmond","company":"Roman St. Germain - Hotel Manager","name":"Elephant and Castle on the River","inspections":1.0,"number":5010069.0,"bg_long":-123.1421492,"bg_lat":49.1909297,"violations":5.0,"id":"a68o15o0w7ok","province":"BC","address":"3500 Cessna Drive Richmond, BC  V7B 1C7","violations/inspection":5.0},"type":"Feature","geometry":{"type":"Point","coordinates":[-123.1421492,49.1909297]}},{"properties":{"city":"Richmond","company":"Faraz or Pejman Ghassemikian","name":"Italian Tomato Restaurant","inspections":2.0,"number":5010072.0,"bg_long":-123.1312973,"bg_lat":49.1919575,"violations":14.0,"id":"a68o15rialjj","province":"BC","address":"8380 Bridgeport Road Richmond, BC  V6X 3C7","violations/inspection":7.0},"type":"Feature","geometry":{"type":"Point","coordinates":[-123.1312973,49.1919575]}},{"properties":{"city":"Richmond","company":"General Manager","name":"Executive Inn \"Tivoli's Too\"","inspections":1.0,"number":5010093.0,"bg_long":-123.137126,"bg_lat":49.170453,"violations":10.0,"id":"a68o15ypbjr3","province":"BC","address":"7211 Westminster Highway Richmond, BC  V6X 1A3","violations/inspection":10.0},"type":"Feature","geometry":{"type":"Point","coordinates":[-123.137126,49.170453]}},{"properties":{"city":"Richmond","company":"Arlene Hunter","name":"Greenacres Golf Club","inspections":2.0,"number":5010113.0,"bg_long":-123.0691546,"bg_lat":49.1763287,"violations":8.0,"id":"a68o15tvdb0d","province":"BC","address":"5040 No. 6 Road Richmond, BC  V6V 1T1","violations/inspection":4.0},"type":"Feature","geometry":{"type":"Point","coordinates":[-123.0691546,49.1763287]}},{"properties":{"city":"Richmond","company":"Kurt Landert","name":"Keg, The (Richmond South)","inspections":2.0,"number":5010131.0,"bg_long":-123.0922171,"bg_lat":49.1316508,"violations":18.0,"id":"a68o15nuuj0m","province":"BC","address":"11151 No. 5 Road Richmond, BC  V7A 4E8","violations/inspection":9.0},"type":"Feature","geometry":{"type":"Point","coordinates":[-123.0922171,49.1316508]}},{"properties":{"city":"Richmond","company":"KIT Limited Partnership","name":"Kentucky Fried Chicken No. 1 Rd. - #1827","inspections":5.0,"number":5010134.0,"bg_long":-123.181121,"bg_lat":49.150871,"violations":23.0,"id":"a68o15pxwdxa","province":"BC","address":"6 - 8751 No. 1 Road Richmond, BC  V7C 1V2","violations/inspection":4.6},"type":"Feature","geometry":{"type":"Point","coordinates":[-123.181121,49.150871]}},{"properties":{"city":"Richmond","company":"McDonald's Restaurants Of Canada Ltd.","name":"Mcdonald's - Lansdowne","inspections":1.0,"number":5010157.0,"bg_long":-123.134076,"bg_lat":49.1772937,"violations":6.0,"id":"a68o15wyktme","province":"BC","address":"8190 Alderbridge Way Richmond, BC  V6X 3A9","violations/inspection":6.0},"type":"Feature","geometry":{"type":"Point","coordinates":[-123.134076,49.1772937]}},{"properties":{"city":"Richmond","company":"McDonald's Restaurants Of Canada Ltd.","name":"Mcdonald's No. 3 Rd.","inspections":3.0,"number":5010159.0,"bg_long":-123.1365594,"bg_lat":49.1614728,"violations":19.0,"id":"a68o15yh4tn5","province":"BC","address":"7120 No. 3 Road Richmond, BC  V6Y 2C6","violations/inspection":6.333333333},"type":"Feature","geometry":{"type":"Point","coordinates":[-123.1365594,49.1614728]}},{"properties":{"city":"Richmond","company":"Lansdowne LBR Mkt. Ltd.","name":"J. Malones Bar and Grill","inspections":1.0,"number":5010168.0,"bg_long":-123.1235526,"bg_lat":49.1554786,"violations":4.0,"id":"a68o15qm2kzd","province":"BC","address":"9031 Blundell Road Richmond, BC  V6Y 1K4","violations/inspection":4.0},"type":"Feature","geometry":{"type":"Point","coordinates":[-123.1235526,49.1554786]}},{"properties":{"city":"Richmond","company":"HBM 2002 BC Holding Ltd","name":"Continental Seafood Restaurant","inspections":3.0,"number":5010190.0,"bg_long":-123.096455,"bg_lat":49.184484,"violations":53.0,"id":"a68o15t7yv1r","province":"BC","address":"150 - 11700 Cambie Road Richmond, BC  V6X 1L5","violations/inspection":17.66666667},"type":"Feature","geometry":{"type":"Point","coordinates":[-123.096455,49.184484]}},{"properties":{"city":"Richmond","company":"Leny Vivanco","name":"Empanada Hut","inspections":2.0,"number":5010191.0,"bg_long":-123.136289,"bg_lat":49.175608,"violations":5.0,"id":"a68o15oxckx2","province":"BC","address":"1065 - 5300 No. 3 Road Richmond, BC  V6X 2X9","violations/inspection":2.5},"type":"Feature","geometry":{"type":"Point","coordinates":[-123.136289,49.175608]}},{"properties":{"city":"Richmond","company":"0834820 BC Ltd.","name":"Vina","inspections":2.0,"number":5010201.0,"bg_long":-123.128904,"bg_lat":49.167943,"violations":8.0,"id":"a68o15rncktn","province":"BC","address":"1728 - 6551 No. 3 Road Richmond, BC  V6Y 2V6","violations/inspection":4.0},"type":"Feature","geometry":{"type":"Point","coordinates":[-123.128904,49.167943]}},{"properties":{"city":"Richmond","company":"Satinder Jaswal","name":"Paesano's","inspections":2.0,"number":5010208.0,"bg_long":-123.136411,"bg_lat":49.17838,"violations":7.0,"id":"a68o15qmmc2o","province":"BC","address":"133 - 4800 No. 3 Road Richmond, BC  V6X 3A6","violations/inspection":3.5},"type":"Feature","geometry":{"type":"Point","coordinates":[-123.136411,49.17838]}},{"properties":{"city":"Richmond","company":"Shun Cheong Holdings Ltd.","name":"Paterson Restaurant","inspections":1.0,"number":5010218.0,"bg_long":-123.134042,"bg_lat":49.170111,"violations":9.0,"id":"a68o15v24m5c","province":"BC","address":"160 - 8191 Westminster Highway Richmond, BC  V6X 1A7","violations/inspection":9.0},"type":"Feature","geometry":{"type":"Point","coordinates":[-123.134042,49.170111]}},{"properties":{"city":"Richmond","company":"Blair Armitage","name":"Quilchena Golf &amp; Country Club","inspections":1.0,"number":5010232.0,"bg_long":-123.1880467,"bg_lat":49.1628067,"violations":5.0,"id":"a68o15wl83rw","province":"BC","address":"3551 Granville Avenue Richmond, BC  V7C 1C8","violations/inspection":5.0},"type":"Feature","geometry":{"type":"Point","coordinates":[-123.1880467,49.1628067]}},{"properties":{"city":"Richmond","company":"Richmond Inn Hotel Ltd.","name":"Richmond Inn - Wayfaring Tree","inspections":1.0,"number":5010249.0,"bg_long":-123.1418752,"bg_lat":49.1702474,"violations":6.0,"id":"a68o161es0cb","province":"BC","address":"7551 Westminster Highway Richmond, BC  V6X 1A3","violations/inspection":6.0},"type":"Feature","geometry":{"type":"Point","coordinates":[-123.1418752,49.1702474]}},{"properties":{"city":"Richmond","company":"Boknows Hotel Inc.","name":"Buck N' Ear","inspections":1.0,"number":5010291.0,"bg_long":-123.1857849,"bg_lat":49.1257397,"violations":7.0,"id":"a68o15umdugx","province":"BC","address":"12111 Third Avenue Richmond, BC  V7E 3K1","violations/inspection":7.0},"type":"Feature","geometry":{"type":"Point","coordinates":[-123.1857849,49.1257397]}},{"properties":{"city":"Richmond","company":"0806352 BC Ltd","name":"Steveston Seafood House","inspections":1.0,"number":5010293.0,"bg_long":-123.1816151,"bg_lat":49.1251927,"violations":12.0,"id":"a68o15u8ojs2","province":"BC","address":"3951 Moncton Street Richmond, BC  V7E 3A7","violations/inspection":12.0},"type":"Feature","geometry":{"type":"Point","coordinates":[-123.1816151,49.1251927]}},{"properties":{"city":"Richmond","company":"Boathouse Restaurants of Canada","name":"The Boathouse Restaurant","inspections":2.0,"number":5010305.0,"bg_long":-123.1338466,"bg_lat":49.1913506,"violations":9.0,"id":"a68o15yc1xs2","province":"BC","address":"8331 River Road Richmond, BC  V6X 1Y1","violations/inspection":4.5},"type":"Feature","geometry":{"type":"Point","coordinates":[-123.1338466,49.1913506]}},{"properties":{"city":"Richmond","company":"White Spot Restaurant Ltd.","name":"White Spot Restaurants Ltd. (No.3 Road)","inspections":2.0,"number":5010324.0,"bg_long":-123.1365079,"bg_lat":49.1713659,"violations":13.0,"id":"a68o15wxdt93","province":"BC","address":"5880 No. 3 Road Richmond, BC  V6X 3P7","violations/inspection":6.5},"type":"Feature","geometry":{"type":"Point","coordinates":[-123.1365079,49.1713659]}},{"properties":{"city":"Richmond","company":"Gerben &amp; Hennie Beeksma","name":"Broadmoor Bakery","inspections":1.0,"number":5010338.0,"bg_long":-123.1374911,"bg_lat":49.1408737,"violations":14.0,"id":"a68o15nm3pui","province":"BC","address":"7860 Williams Road Richmond, BC  V7A 1G3","violations/inspection":14.0},"type":"Feature","geometry":{"type":"Point","coordinates":[-123.1374911,49.1408737]}},{"properties":{"city":"Richmond","company":"Lilibeth Reyes","name":"Aling Mary's Fastfood &amp; Bakery","inspections":3.0,"number":5010347.0,"bg_long":-123.1353084,"bg_lat":49.1647267,"violations":17.0,"id":"a68o15og7flx","province":"BC","address":"8085 Park Road Richmond, BC  V6Y 1S8","violations/inspection":5.666666667},"type":"Feature","geometry":{"type":"Point","coordinates":[-123.1353084,49.1647267]}},{"properties":{"city":"Richmond","company":"3388668 Enterprises Ltd.","name":"Dinesty Chinese Restaurant","inspections":2.0,"number":5010798.0,"bg_long":-123.1331,"bg_lat":49.172061,"violations":13.0,"id":"a68o15x26flu","province":"BC","address":"160 - 8111 Ackroyd Road Richmond, BC  V6X 3J9","violations/inspection":6.5},"type":"Feature","geometry":{"type":"Point","coordinates":[-123.1331,49.172061]}},{"properties":{"city":"Richmond","company":"Richforever Enterprises Ltd.","name":"Hiko Sushi Japanese Restaurant","inspections":2.0,"number":5010884.0,"bg_long":-123.136824,"bg_lat":49.139687,"violations":12.0,"id":"a68o1602x7xs","province":"BC","address":"111 - 10151  No. 3 Road Richmond, BC  V7A 4R6","violations/inspection":6.0},"type":"Feature","geometry":{"type":"Point","coordinates":[-123.136824,49.139687]}},{"properties":{"city":"Richmond","company":"Marcus VonAlbrecht","name":"Mava Foods Ltd.","inspections":2.0,"number":5010910.0,"bg_long":-123.087065,"bg_lat":49.196696,"violations":8.0,"id":"a68o15qeidyu","province":"BC","address":"4 - 2211 Vauxhall Place Richmond, BC  V6V 1Z5","violations/inspection":4.0},"type":"Feature","geometry":{"type":"Point","coordinates":[-123.087065,49.196696]}},{"properties":{"city":"Richmond","company":"Rahul Mehta","name":"Dairy Queen - Anderson Rd.","inspections":3.0,"number":5010934.0,"bg_long":-123.1348274,"bg_lat":49.1634982,"violations":19.0,"id":"a68o15zf3g4m","province":"BC","address":"8151 Anderson Road Richmond, BC  V6Y 2V9","violations/inspection":6.333333333},"type":"Feature","geometry":{"type":"Point","coordinates":[-123.1348274,49.1634982]}},{"properties":{"city":"Richmond","company":"Sockeye City Restaurant Ltd.","name":"Sockeye City Diner","inspections":2.0,"number":5011003.0,"bg_long":-123.184369,"bg_lat":49.124107,"violations":27.0,"id":"a68o15oxi6mt","province":"BC","address":"108 - 3800 Bayview Steeet Richmond, BC  V7E 6K7","violations/inspection":13.5},"type":"Feature","geometry":{"type":"Point","coordinates":[-123.184369,49.124107]}},{"properties":{"city":"Richmond","company":"George Groumoutis","name":"Crono's Pizza","inspections":1.0,"number":5011016.0,"bg_long":-123.139988,"bg_lat":49.170697,"violations":5.0,"id":"a68o15y8s026","province":"BC","address":"140 - 5960 Minoru Boulevard Richmond, BC  V6X 3J3","violations/inspection":5.0},"type":"Feature","geometry":{"type":"Point","coordinates":[-123.139988,49.170697]}},{"properties":{"city":"Richmond","company":"Sun Sui Wah Seafood Restaurant (Richmond) Ltd.","name":"Sun Sui Wah Seafood Restaurant","inspections":2.0,"number":5011059.0,"bg_long":-123.140577,"bg_lat":49.176363,"violations":40.0,"id":"a68o161uh7l0","province":"BC","address":"102 - 4940 No. 3 Road Richmond, BC  V6X 2A5","violations/inspection":20.0},"type":"Feature","geometry":{"type":"Point","coordinates":[-123.140577,49.176363]}},{"properties":{"city":"Richmond","company":"Jerry &amp; Jeffery Enterprises Ltd.","name":"Tokyo Ichiban Japanese Rest. Ltd.","inspections":2.0,"number":5011079.0,"bg_long":-123.131562,"bg_lat":49.173669,"violations":23.0,"id":"a68o15qdtn3p","province":"BC","address":"170 - 8380 Lansdowne Road Richmond, BC  V6X 3M6","violations/inspection":11.5},"type":"Feature","geometry":{"type":"Point","coordinates":[-123.131562,49.173669]}},{"properties":{"city":"Richmond","company":"Shady Island Ent. Ltd.","name":"Shady Island Seafood Bar &amp; Grill","inspections":3.0,"number":5011108.0,"bg_long":-123.184369,"bg_lat":49.124107,"violations":30.0,"id":"a68o15p7q3pj","province":"BC","address":"112 - 3800 Bayview Street Richmond, BC  V7E 6K7","violations/inspection":10.0},"type":"Feature","geometry":{"type":"Point","coordinates":[-123.184369,49.124107]}},{"properties":{"city":"Richmond","company":"Myta Enterprises Ltd.","name":"Greek To Me #1714","inspections":2.0,"number":5011112.0,"bg_long":-123.136695,"bg_lat":49.165617,"violations":17.0,"id":"a68o15ukxrmb","province":"BC","address":"1714 - 6551 No. 3 Road Richmond, BC  V6Y 2B8","violations/inspection":8.5},"type":"Feature","geometry":{"type":"Point","coordinates":[-123.136695,49.165617]}},{"properties":{"city":"Richmond","company":"Waterfield Investments (Rich) Inc","name":"Little Caesar's Pizza - Seafair","inspections":4.0,"number":5011197.0,"bg_long":-123.181075,"bg_lat":49.173899,"violations":26.0,"id":"a68o15t7qryo","province":"BC","address":"5 - 8751 No. 1 Road Richmond, BC  V7C 1T1","violations/inspection":6.5},"type":"Feature","geometry":{"type":"Point","coordinates":[-123.181075,49.173899]}},{"properties":{"city":"Richmond","company":"Chi Keung Cheung","name":"Akita Japanese Restaurant","inspections":2.0,"number":5011242.0,"bg_long":-123.136289,"bg_lat":49.175608,"violations":8.0,"id":"a68o163l46yk","province":"BC","address":"1015 - 5300 No. 3 Road Richmond, BC  V6X 2X9","violations/inspection":4.0},"type":"Feature","geometry":{"type":"Point","coordinates":[-123.136289,49.175608]}},{"properties":{"city":"Richmond","company":"0835950 B.C. Ltd.","name":"Lois Lanes Ltd.","inspections":1.0,"number":5011246.0,"bg_long":-122.967744,"bg_lat":49.174835,"violations":6.0,"id":"a68o15s5722l","province":"BC","address":"175 - 23200 Gilley Road Richmond, BC  V6V 2L6","violations/inspection":6.0},"type":"Feature","geometry":{"type":"Point","coordinates":[-122.967744,49.174835]}},{"properties":{"city":"Richmond","company":"Monica Flores","name":"Garden City Bakery","inspections":1.0,"number":5011268.0,"bg_long":-123.12259,"bg_lat":49.155389,"violations":6.0,"id":"a68o15sk3g0x","province":"BC","address":"360 - 9100 Blundell Road Richmond, BC  V6Y 3X9","violations/inspection":6.0},"type":"Feature","geometry":{"type":"Point","coordinates":[-123.12259,49.155389]}},{"properties":{"city":"Richmond","company":"Golden Apple Bakery Ltd.","name":"Golden Apple Bakery","inspections":2.0,"number":5011342.0,"bg_long":-123.134042,"bg_lat":49.170111,"violations":7.0,"id":"a68o15wuhe8z","province":"BC","address":"168 - 8131 Westminster Highway Richmond, BC  V6X 1A7","violations/inspection":3.5},"type":"Feature","geometry":{"type":"Point","coordinates":[-123.134042,49.170111]}},{"properties":{"city":"Richmond","company":"Compass Group Canada Ltd.","name":"Kwantlen College (67413)","inspections":2.0,"number":5011353.0,"bg_long":-123.127491,"bg_lat":49.174395,"violations":9.0,"id":"a68o15okd6ll","province":"BC","address":"8771 Lansdowne Road Richmond, BC  V6X 3V8","violations/inspection":4.5},"type":"Feature","geometry":{"type":"Point","coordinates":[-123.127491,49.174395]}},{"properties":{"city":"Richmond","company":"Pu Shi Zhou","name":"Shun Feng Seafood Restaurant","inspections":3.0,"number":5011398.0,"bg_long":-123.136438,"bg_lat":49.182695,"violations":58.0,"id":"a68o15pcb5ix","province":"BC","address":"1425 - 4380 No. 3 Road Richmond, BC  V6X 3V7","violations/inspection":19.33333333},"type":"Feature","geometry":{"type":"Point","coordinates":[-123.136438,49.182695]}},{"properties":{"city":"Richmond","company":"0800932 BC Limited","name":"Fruities Juice Bar","inspections":2.0,"number":5011428.0,"bg_long":-123.136438,"bg_lat":49.182695,"violations":5.0,"id":"a68o15v72lmy","province":"BC","address":"1500 - 4380 No. 3 Road Richmond, BC  V6X 3V7","violations/inspection":2.5},"type":"Feature","geometry":{"type":"Point","coordinates":[-123.136438,49.182695]}},{"properties":{"city":"Richmond","company":"Papi's Ristorante Italiano Ltd.","name":"Papi's Ristorante Italiano","inspections":3.0,"number":5011450.0,"bg_long":-123.187159,"bg_lat":49.128354,"violations":35.0,"id":"a68o15rhgdtq","province":"BC","address":"110 - 12251 No. 1 Road Richmond, BC  V7E 1T6","violations/inspection":11.66666667},"type":"Feature","geometry":{"type":"Point","coordinates":[-123.187159,49.128354]}},{"properties":{"city":"Richmond","company":"Bauhinia Restaurant Ltd.","name":"Bauhinia Restaurant","inspections":4.0,"number":5011454.0,"bg_long":-123.134034,"bg_lat":49.162583,"violations":41.0,"id":"a68o15o3j2f4","province":"BC","address":"120 - 8360 Granville Avenue Richmond, BC  V6Y 1P3","violations/inspection":10.25},"type":"Feature","geometry":{"type":"Point","coordinates":[-123.134034,49.162583]}},{"properties":{"city":"Richmond","company":"King's Bakery Holdings Ltd.","name":"King's Bakery","inspections":3.0,"number":5011470.0,"bg_long":-123.136436,"bg_lat":49.183002,"violations":14.0,"id":"a68o15ryjnpv","province":"BC","address":"135 - 4200 No. 3 Road Richmond, BC  V6X 2C2","violations/inspection":4.666666667},"type":"Feature","geometry":{"type":"Point","coordinates":[-123.136436,49.183002]}},{"properties":{"city":"Richmond","company":"OVERMAN.CHEN RESTAURANT LTD.","name":"Master Chen Restaurant","inspections":1.0,"number":5011472.0,"bg_long":-123.1337268,"bg_lat":49.1655031,"violations":8.0,"id":"a68o15r930h0","province":"BC","address":"6611 Buswell Street Richmond, BC  V6Y 2G9","violations/inspection":8.0},"type":"Feature","geometry":{"type":"Point","coordinates":[-123.1337268,49.1655031]}},{"properties":{"city":"Richmond","company":"0798948 B.C. LTD","name":"Ajisen Ramen","inspections":4.0,"number":5011484.0,"bg_long":-123.136438,"bg_lat":49.182695,"violations":43.0,"id":"a68o15ocjtvm","province":"BC","address":"1190 - 4380 No. 3 Road Richmond, BC  V6X 3V7","violations/inspection":10.75},"type":"Feature","geometry":{"type":"Point","coordinates":[-123.136438,49.182695]}},{"properties":{"city":"Richmond","company":"Ka Cheung Lew","name":"Mak's Noodle Restaurant","inspections":3.0,"number":5011625.0,"bg_long":-123.130952,"bg_lat":49.17843,"violations":28.0,"id":"a68o15zw8vjn","province":"BC","address":"185 - 8291 Alexandra Road Richmond, BC  V6X 1C3","violations/inspection":9.333333333},"type":"Feature","geometry":{"type":"Point","coordinates":[-123.130952,49.17843]}},{"properties":{"city":"Richmond","company":"J. He Enterprises Ltd.","name":"Mai Mei Hong Foods","inspections":2.0,"number":5011645.0,"bg_long":-123.136579,"bg_lat":49.170171,"violations":8.0,"id":"a68o15pc9jhx","province":"BC","address":"1242 - 4380 No. 3 Road Richmond, BC  V6C 2X2","violations/inspection":4.0},"type":"Feature","geometry":{"type":"Point","coordinates":[-123.136579,49.170171]}},{"properties":{"city":"Richmond","company":"Clay Pot Restaurant Ltd.","name":"Proposed - Clay Pot Restaurant Ltd.","inspections":1.0,"number":5011695.0,"bg_long":-123.130952,"bg_lat":49.17843,"violations":15.0,"id":"a68o15smtrol","province":"BC","address":"105 - 8291 Alexandra Road Richmond, BC  V6X 1C3","violations/inspection":15.0},"type":"Feature","geometry":{"type":"Point","coordinates":[-123.130952,49.17843]}},{"properties":{"city":"Richmond","company":"Kit Hung Cheng","name":"Diva's Coffee","inspections":1.0,"number":5011726.0,"bg_long":-123.136289,"bg_lat":49.175608,"violations":4.0,"id":"a68o15nqalvm","province":"BC","address":"916 - 5300 No. 3 Road Richmond, BC  V6X 2X9","violations/inspection":4.0},"type":"Feature","geometry":{"type":"Point","coordinates":[-123.136289,49.175608]}},{"properties":{"city":"Richmond","company":"Radisson President Hotel","name":"President Cafe","inspections":1.0,"number":5011742.0,"bg_long":-123.1340614,"bg_lat":49.1846899,"violations":3.0,"id":"a68o160fr2s2","province":"BC","address":"8181 Cambie Road Richmond, BC  V6X 3X9","violations/inspection":3.0},"type":"Feature","geometry":{"type":"Point","coordinates":[-123.1340614,49.1846899]}},{"properties":{"city":"Richmond","company":"Garden City Kabob Grill Inc.","name":"Garden City Kabob Grill Inc.","inspections":1.0,"number":5011752.0,"bg_long":-123.12259,"bg_lat":49.155389,"violations":1.0,"id":"a68o161u4l7v","province":"BC","address":"137 - 9040 Blundell Road Richmond, BC  V6Y 1K3","violations/inspection":1.0},"type":"Feature","geometry":{"type":"Point","coordinates":[-123.12259,49.155389]}},{"properties":{"city":"Richmond","company":"0804715 B.C. Ltd.","name":"Jimmy The Greek","inspections":2.0,"number":5011753.0,"bg_long":-123.136289,"bg_lat":49.175608,"violations":4.0,"id":"a68o15supcu5","province":"BC","address":"1030 - 5300 No. 3 Road Richmond, BC  V6X 2X9","violations/inspection":2.0},"type":"Feature","geometry":{"type":"Point","coordinates":[-123.136289,49.175608]}},{"properties":{"city":"Richmond","company":"Michael Huynh","name":"Pho Viet Restaurant","inspections":4.0,"number":5011769.0,"bg_long":-123.131679,"bg_lat":49.172857,"violations":33.0,"id":"a68o161ox0v9","province":"BC","address":"125 - 8291 Ackroyd Road Richmond, BC  V6X 3J5","violations/inspection":8.25},"type":"Feature","geometry":{"type":"Point","coordinates":[-123.131679,49.172857]}},{"properties":{"city":"Richmond","company":"Run Lan Yee","name":"Lumingchun Food Company","inspections":1.0,"number":5011800.0,"bg_long":-123.133964,"bg_lat":49.187124,"violations":7.0,"id":"a68o15ua5qs0","province":"BC","address":"1100 - 3700 No. 3 Road Richmond, BC  V6X 3X2","violations/inspection":7.0},"type":"Feature","geometry":{"type":"Point","coordinates":[-123.133964,49.187124]}},{"properties":{"city":"Richmond","company":"Terry Wong","name":"Elite Food Ltd.","inspections":1.0,"number":5011851.0,"bg_long":-123.133676,"bg_lat":49.17011,"violations":4.0,"id":"a68o15p87kem","province":"BC","address":"1520 - 8260 Westminster Highway Richmond, BC  V6X 3Y2","violations/inspection":4.0},"type":"Feature","geometry":{"type":"Point","coordinates":[-123.133676,49.17011]}},{"properties":{"city":"Richmond","company":"Eric Shum / Eddie Yun","name":"Pine House Bakery (Richmond)","inspections":3.0,"number":5011860.0,"bg_long":-123.133676,"bg_lat":49.17011,"violations":33.0,"id":"a68o15wuhouj","province":"BC","address":"1540 - 8260 Westminster Highway Richmond, BC  V6X 3Y2","violations/inspection":11.0},"type":"Feature","geometry":{"type":"Point","coordinates":[-123.133676,49.17011]}},{"properties":{"city":"Richmond","company":"Bin Nian Chen","name":"Chen's Shanghai Restaurant","inspections":4.0,"number":5011864.0,"bg_long":-123.1351701,"bg_lat":49.1647264,"violations":37.0,"id":"a68o15wj5z7w","province":"BC","address":"8095 Park Road Richmond, BC  V6Y 1S8","violations/inspection":9.25},"type":"Feature","geometry":{"type":"Point","coordinates":[-123.1351701,49.1647264]}},{"properties":{"city":"Richmond","company":"0824698 BC Ltd.","name":"Point Zero Four Fusion Restaurant","inspections":1.0,"number":5011911.0,"bg_long":-123.129683,"bg_lat":49.178239,"violations":3.0,"id":"a68o15vcotii","province":"BC","address":"140-160 - 8500 Alexandra Road Richmond, BC  V6X 3L4","violations/inspection":3.0},"type":"Feature","geometry":{"type":"Point","coordinates":[-123.129683,49.178239]}},{"properties":{"city":"Richmond","company":"Fresh Burrito Industry Enterprises Ltd.","name":"Taco Luis","inspections":1.0,"number":5011963.0,"bg_long":-123.136289,"bg_lat":49.175608,"violations":4.0,"id":"a68o15p017k6","province":"BC","address":"1040 - 5300 No. 3 Road Richmond, BC  V6X 2X9","violations/inspection":4.0},"type":"Feature","geometry":{"type":"Point","coordinates":[-123.136289,49.175608]}},{"properties":{"city":"Richmond","company":"Steveston Restaurant Group Inc.","name":"Blue Canoe Waterfront Restaurant","inspections":2.0,"number":5012027.0,"bg_long":-123.182842,"bg_lat":49.123872,"violations":19.0,"id":"a68o162998tv","province":"BC","address":"140 - 3866 Bayview Street Richmond, BC  V7E 4R7","violations/inspection":9.5},"type":"Feature","geometry":{"type":"Point","coordinates":[-123.182842,49.123872]}},{"properties":{"city":"Richmond","company":"Banzai Sushi House Ltd","name":"Banzai Sushi House Ltd","inspections":2.0,"number":5012029.0,"bg_long":-123.134042,"bg_lat":49.170111,"violations":16.0,"id":"a68o15tlq3iv","province":"BC","address":"40 - 8251 Westminster Highway Richmond, BC  V6X 1A7","violations/inspection":8.0},"type":"Feature","geometry":{"type":"Point","coordinates":[-123.134042,49.170111]}},{"properties":{"city":"Richmond","company":"G  2ND Enterprises Ltd.","name":"Nan-Chuu Japanese Restaurant","inspections":1.0,"number":5012047.0,"bg_long":-123.130952,"bg_lat":49.17843,"violations":7.0,"id":"a68o15yfye57","province":"BC","address":"1160 - 8391 Alexandra Road Richmond, BC  V6X 1C3","violations/inspection":7.0},"type":"Feature","geometry":{"type":"Point","coordinates":[-123.130952,49.17843]}},{"properties":{"city":"Richmond","company":"Yonas Zeru","name":"Blue Plate Cafe &amp; Catering","inspections":3.0,"number":5012063.0,"bg_long":-123.061907,"bg_lat":49.201195,"violations":15.0,"id":"a68o15t93xrx","province":"BC","address":"110 - 1211 Valmont Way Richmond, BC  V6V 1Y3","violations/inspection":5.0},"type":"Feature","geometry":{"type":"Point","coordinates":[-123.061907,49.201195]}},{"properties":{"city":"Richmond","company":"0845797 B.C. LTD.","name":"Yellow Dots Cafe","inspections":1.0,"number":5012094.0,"bg_long":-123.136438,"bg_lat":49.182695,"violations":5.0,"id":"a68o15tjxozz","province":"BC","address":"1510 - 4380 No. 3 Road Richmond, BC  V6X 3V7","violations/inspection":5.0},"type":"Feature","geometry":{"type":"Point","coordinates":[-123.136438,49.182695]}},{"properties":{"city":"Richmond","company":"SJR Food Services Ltd","name":"McDonald's - Sweden Way","inspections":1.0,"number":5012175.0,"bg_long":-123.0825793,"bg_lat":49.1932951,"violations":4.0,"id":"a68o15w404rh","province":"BC","address":"2760 Sweden Way Richmond, BC  V6V 2W8","violations/inspection":4.0},"type":"Feature","geometry":{"type":"Point","coordinates":[-123.0825793,49.1932951]}},{"properties":{"city":"Richmond","company":"N &amp; V Enterprises Ltd.","name":"Northwest Coffee Company","inspections":4.0,"number":5012220.0,"bg_long":-123.1364539,"bg_lat":49.1657098,"violations":16.0,"id":"a68o15tnb8u9","province":"BC","address":"6564 No. 3 Road Richmond, BC  V6Y 2C2","violations/inspection":4.0},"type":"Feature","geometry":{"type":"Point","coordinates":[-123.1364539,49.1657098]}},{"properties":{"city":"Richmond","company":"Murchies Tea &amp; Coffee (2007)  Ltd","name":"Murchies Tea &amp; Coffee (2007)  Ltd.","inspections":1.0,"number":5012226.0,"bg_long":-123.078016,"bg_lat":49.1743117,"violations":6.0,"id":"a68o15ozj0ne","province":"BC","address":"5580 Parkwood Way Richmond, BC  V6V 2M4","violations/inspection":6.0},"type":"Feature","geometry":{"type":"Point","coordinates":[-123.078016,49.1743117]}},{"properties":{"city":"Richmond","company":"Pamir Market Ltd.","name":"Pamir Market Ltd","inspections":2.0,"number":5012252.0,"bg_long":-123.114352,"bg_lat":49.136574,"violations":7.0,"id":"a68o15tdsal5","province":"BC","address":"180 - 10811 No. 4 Road Richmond, BC  V7A 2Z5","violations/inspection":3.5},"type":"Feature","geometry":{"type":"Point","coordinates":[-123.114352,49.136574]}},{"properties":{"city":"Richmond","company":"Joe Chung","name":"Skyway Gourmet Food Court","inspections":2.0,"number":5012256.0,"bg_long":-123.136695,"bg_lat":49.165617,"violations":6.0,"id":"a68o15s81yjc","province":"BC","address":"1548A - 6551 No. 3 Road Richmond, BC  V6Y 2B6","violations/inspection":3.0},"type":"Feature","geometry":{"type":"Point","coordinates":[-123.136695,49.165617]}},{"properties":{"city":"Richmond","company":"Wang &amp; Chao Enterprises Co. Ltd.","name":"Shanghai House Restaurant","inspections":4.0,"number":5012268.0,"bg_long":-123.187159,"bg_lat":49.128354,"violations":65.0,"id":"a68o15trxkqz","province":"BC","address":"7 - 6340 No. 3 Road Richmond, BC","violations/inspection":16.25},"type":"Feature","geometry":{"type":"Point","coordinates":[-123.187159,49.128354]}},{"properties":{"city":"Richmond","company":"Eileen Kobayashi","name":"E. Kobayashi Catering - London","inspections":1.0,"number":5012289.0,"bg_long":-123.1502961,"bg_lat":49.1409551,"violations":3.0,"id":"a68o161wcngf","province":"BC","address":"6600  Williams Road Richmond, BC  V7E 1K5","violations/inspection":3.0},"type":"Feature","geometry":{"type":"Point","coordinates":[-123.1502961,49.1409551]}},{"properties":{"city":"Richmond","company":"La Patisserie","name":"La Patisserie (2000) Holdings Ltd.","inspections":3.0,"number":5012310.0,"bg_long":-123.136408,"bg_lat":49.168439,"violations":26.0,"id":"a68o161cmnvm","province":"BC","address":"2 - 6360 No. 3 Road Richmond, BC  V6Y 2B3","violations/inspection":8.666666667},"type":"Feature","geometry":{"type":"Point","coordinates":[-123.136408,49.168439]}},{"properties":{"city":"Richmond","company":"HPS Enterprise Ltd","name":"Donna's Cafe","inspections":1.0,"number":5012311.0,"bg_long":-123.073144,"bg_lat":49.1874,"violations":5.0,"id":"a68o15s9tp5x","province":"BC","address":"2 - 3260 Viking Way Richmond, BC  V6V 1N6","violations/inspection":5.0},"type":"Feature","geometry":{"type":"Point","coordinates":[-123.073144,49.1874]}},{"properties":{"city":"Richmond","company":"Saigon City Vietnamese Restaurant","name":"Saigon City Vietnamese Restaurant","inspections":1.0,"number":5012321.0,"bg_long":-123.12259,"bg_lat":49.155389,"violations":4.0,"id":"a68o163cnn7h","province":"BC","address":"125 - 9040 Blundell Road Richmond, BC  V6Y 1K3","violations/inspection":4.0},"type":"Feature","geometry":{"type":"Point","coordinates":[-123.12259,49.155389]}},{"properties":{"city":"Richmond","company":"Regent Bakery No. 3 Ltd.","name":"Regent Bakery","inspections":2.0,"number":5012323.0,"bg_long":-123.133588,"bg_lat":49.182842,"violations":10.0,"id":"a68o15wmc1jg","province":"BC","address":"110 - 4231 Hazelbridge Way Richmond, BC  V6X 3L7","violations/inspection":5.0},"type":"Feature","geometry":{"type":"Point","coordinates":[-123.133588,49.182842]}},{"properties":{"city":"Richmond","company":"0810380 B.C. Ltd.","name":"Richmond Red Star Seafood Restaurant","inspections":4.0,"number":5012377.0,"bg_long":-123.133435,"bg_lat":49.184781,"violations":33.0,"id":"a68o15tvvnw8","province":"BC","address":"2200 - 8181 Cambie Road Richmond, BC  V6X 3X9","violations/inspection":8.25},"type":"Feature","geometry":{"type":"Point","coordinates":[-123.133435,49.184781]}},{"properties":{"city":"Richmond","company":"Lack of/Inadequate Food Safety Plan","name":"Proposed: Pearl Castle Restaurant - Richmond Centre","inspections":1.0,"number":5012388.0,"bg_long":-123.140045,"bg_lat":49.163078,"violations":2.0,"id":"a68o15ue0w77","province":"BC","address":"1782 - 6060 Minoru Boulevard Richmond, BC  V6Y 2V7","violations/inspection":2.0},"type":"Feature","geometry":{"type":"Point","coordinates":[-123.140045,49.163078]}},{"properties":{"city":"Richmond","company":"Mega Noodles Inc.","name":"Garden Fresh Express","inspections":1.0,"number":5012409.0,"bg_long":-123.136289,"bg_lat":49.175608,"violations":3.0,"id":"a68o15yeg9f8","province":"BC","address":"1050 - 5300 No. 3 Road Richmond, BC  V6X 2X9","violations/inspection":3.0},"type":"Feature","geometry":{"type":"Point","coordinates":[-123.136289,49.175608]}},{"properties":{"city":"Richmond","company":"Bea Tosh","name":"Hugh Boyd Secondary School","inspections":1.0,"number":5012412.0,"bg_long":-123.187159,"bg_lat":49.128354,"violations":2.0,"id":"a68o15v6bkt8","province":"BC","address":"9200 No. 1 Road Richmond, BC  V7E 6L5","violations/inspection":2.0},"type":"Feature","geometry":{"type":"Point","coordinates":[-123.187159,49.128354]}},{"properties":{"city":"Richmond","company":"David Li","name":"Viva City Restaurant Ltd.","inspections":4.0,"number":5012440.0,"bg_long":-123.131197,"bg_lat":49.178431,"violations":65.0,"id":"a68o15sa9i9t","province":"BC","address":"110 - 8351 Alexandra Road Richmond, BC  V6X 3P3","violations/inspection":16.25},"type":"Feature","geometry":{"type":"Point","coordinates":[-123.131197,49.178431]}},{"properties":{"city":"Richmond","company":"Speedi Gourmet (Jack Senior)","name":"Mrs. Vanelli's Pizza &amp; Italian Food","inspections":1.0,"number":5012441.0,"bg_long":-123.136695,"bg_lat":49.165617,"violations":3.0,"id":"a68o15z0zfs3","province":"BC","address":"1710 - 6551 No. 3 Road Richmond, BC  V6Y 2B6","violations/inspection":3.0},"type":"Feature","geometry":{"type":"Point","coordinates":[-123.136695,49.165617]}},{"properties":{"city":"Richmond","company":"Gordon Gerussi / Peter Evanow","name":"Taste the Art Gourmet Deli &amp; Catering","inspections":2.0,"number":5012509.0,"bg_long":-123.073417,"bg_lat":49.188089,"violations":9.0,"id":"a68o162f4khu","province":"BC","address":"7 - 3331 Viking Way Richmond, BC  V6V 1X7","violations/inspection":4.5},"type":"Feature","geometry":{"type":"Point","coordinates":[-123.073417,49.188089]}},{"properties":{"city":"Richmond","company":"Daimasu International Enterprise Ltd","name":"Ebisu In Richmond","inspections":1.0,"number":5012521.0,"bg_long":-123.1331,"bg_lat":49.172061,"violations":4.0,"id":"a68o15q1s1lp","province":"BC","address":"100 - 8111 Ackroyd Road Richmond, BC  V6X 3J9","violations/inspection":4.0},"type":"Feature","geometry":{"type":"Point","coordinates":[-123.1331,49.172061]}},{"properties":{"city":"Richmond","company":"Star Galaxy Cafe Inc","name":"Twinkle 2","inspections":3.0,"number":5012537.0,"bg_long":-123.130952,"bg_lat":49.17843,"violations":31.0,"id":"a68o15ukw9iy","province":"BC","address":"125 - 8291 Alexandra Road  Richmond, BC  V6X 1C3","violations/inspection":10.33333333},"type":"Feature","geometry":{"type":"Point","coordinates":[-123.130952,49.17843]}},{"properties":{"city":"Richmond","company":"Shu Xian He","name":"The One","inspections":4.0,"number":5012600.0,"bg_long":-123.136438,"bg_lat":49.182695,"violations":25.0,"id":"a68o15tx2jiz","province":"BC","address":"1238 - 4380 No. 3 Road Richmond, BC  V6X 3V7","violations/inspection":6.25},"type":"Feature","geometry":{"type":"Point","coordinates":[-123.136438,49.182695]}},{"properties":{"city":"Richmond","company":"669240 B.C. Ltd.","name":"Neptune Shark Fin Seafood Rest.","inspections":2.0,"number":5012619.0,"bg_long":-123.1331,"bg_lat":49.172061,"violations":27.0,"id":"a68o16006xxu","province":"BC","address":"100 - 8171 Ackroyd Road Richmond, BC  V6X 3K1","violations/inspection":13.5},"type":"Feature","geometry":{"type":"Point","coordinates":[-123.1331,49.172061]}},{"properties":{"city":"Richmond","company":"0832551 BC Ltd.","name":"Blenz Coffee","inspections":2.0,"number":5012620.0,"bg_long":-123.136418,"bg_lat":49.171917,"violations":5.0,"id":"a68o15u1d6i9","province":"BC","address":"60 - 8100 Ackroyd Road Richmond, BC  V6X 3K2","violations/inspection":2.5},"type":"Feature","geometry":{"type":"Point","coordinates":[-123.136418,49.171917]}},{"properties":{"city":"Richmond","company":"Lucia Liu","name":"Beijing Shanghai Fast Food","inspections":1.0,"number":5012622.0,"bg_long":-123.133676,"bg_lat":49.17011,"violations":6.0,"id":"a68o15ymqqac","province":"BC","address":"2350 - 8260 Westminster Highway Richmond, BC  V6X 3Y2","violations/inspection":6.0},"type":"Feature","geometry":{"type":"Point","coordinates":[-123.133676,49.17011]}},{"properties":{"city":"Richmond","company":"Albert W. L. Chew","name":"Sandwich Tree &amp; Grill #59","inspections":2.0,"number":5012623.0,"bg_long":-123.070672,"bg_lat":49.1846,"violations":10.0,"id":"a68o160hs6wx","province":"BC","address":"213 - 13986 Cambie Road Richmond, BC  V6V 2K3","violations/inspection":5.0},"type":"Feature","geometry":{"type":"Point","coordinates":[-123.070672,49.1846]}},{"properties":{"city":"Richmond","company":"Matt Derkson","name":"The Point","inspections":2.0,"number":5012628.0,"bg_long":-123.191044,"bg_lat":49.126513,"violations":12.0,"id":"a68o15vj9pj4","province":"BC","address":"100 - 3131 Chatham Street Richmond, BC  V7E 2Y4","violations/inspection":6.0},"type":"Feature","geometry":{"type":"Point","coordinates":[-123.191044,49.126513]}},{"properties":{"city":"Richmond","company":"Hau Ying Chan","name":"Mocha Moon Cafe","inspections":2.0,"number":5012629.0,"bg_long":-123.096012,"bg_lat":49.127232,"violations":22.0,"id":"a68o15w8977k","province":"BC","address":"1101 - 11871 Horseshoe Way Richmond, BC  V7A 5H5","violations/inspection":11.0},"type":"Feature","geometry":{"type":"Point","coordinates":[-123.096012,49.127232]}},{"properties":{"city":"Richmond","company":"Wing Yan Cheung","name":"Bo Boo BBQ Hot Pot Restaurant","inspections":1.0,"number":5012654.0,"bg_long":-123.09578,"bg_lat":49.192056,"violations":6.0,"id":"a68o15oncsz4","province":"BC","address":"2 - 11600 Bridgeport Road Richmond, BC  V6X 1T2","violations/inspection":6.0},"type":"Feature","geometry":{"type":"Point","coordinates":[-123.09578,49.192056]}},{"properties":{"city":"Richmond","company":"Bach Xien (Sean) Ha","name":"Coco Chilli Restaurant","inspections":1.0,"number":5012660.0,"bg_long":-123.130952,"bg_lat":49.17843,"violations":17.0,"id":"a68o15urrmg0","province":"BC","address":"180 - 8611 Alexandra Road Richmond, BC  V6X 1C3","violations/inspection":17.0},"type":"Feature","geometry":{"type":"Point","coordinates":[-123.130952,49.17843]}},{"properties":{"city":"Richmond","company":"Highbreak Enterprises Ltd.","name":"Highbreak Billiards","inspections":1.0,"number":5012661.0,"bg_long":-123.124827,"bg_lat":49.178102,"violations":3.0,"id":"a68o15wts7d7","province":"BC","address":"140 - 4731 Garden City Road Richmond, BC  V6X 3M7","violations/inspection":3.0},"type":"Feature","geometry":{"type":"Point","coordinates":[-123.124827,49.178102]}},{"properties":{"city":"Richmond","company":"0809860 BC Ltd.","name":"Kusshi","inspections":1.0,"number":5012663.0,"bg_long":-123.136436,"bg_lat":49.183002,"violations":29.0,"id":"a68o15ufp6b2","province":"BC","address":"180 - 4260 No. 3 Road Richmond, BC  V6X 2C2","violations/inspection":29.0},"type":"Feature","geometry":{"type":"Point","coordinates":[-123.136436,49.183002]}},{"properties":{"city":"Richmond","company":"D. Malyk Catering","name":"Debora Malyk Catering - Burnett School","inspections":2.0,"number":5012668.0,"bg_long":-123.1695287,"bg_lat":49.1627148,"violations":5.0,"id":"a68o163n871u","province":"BC","address":"5011 Granville Avenue Richmond, BC  V7C 1E6","violations/inspection":2.5},"type":"Feature","geometry":{"type":"Point","coordinates":[-123.1695287,49.1627148]}},{"properties":{"city":"Richmond","company":"Benefit China Enterprises Ltd.","name":"Juice King","inspections":2.0,"number":5012686.0,"bg_long":-123.133964,"bg_lat":49.187124,"violations":26.0,"id":"a68o15yydo3d","province":"BC","address":"1060 - 3700 No. 3 Road Richmond, BC  V6X 3X2","violations/inspection":13.0},"type":"Feature","geometry":{"type":"Point","coordinates":[-123.133964,49.187124]}},{"properties":{"city":"Richmond","company":"He, Hui Tao (Cindy)","name":"Hollywood Steak House","inspections":2.0,"number":5012711.0,"bg_long":-123.13524,"bg_lat":49.17981,"violations":59.0,"id":"a68o15pa13ef","province":"BC","address":"110 - 8080 Leslie Road Richmond, BC  V6X 3W1","violations/inspection":29.5},"type":"Feature","geometry":{"type":"Point","coordinates":[-123.13524,49.17981]}},{"properties":{"city":"Richmond","company":"0858791 BC Ltd.","name":"Aji Taro Japanese Bistro","inspections":1.0,"number":5012784.0,"bg_long":-123.136282,"bg_lat":49.177902,"violations":5.0,"id":"a68o15sfz5wx","province":"BC","address":"101 - 4940 No. 3 Road Richmond, BC  V6X 3A5","violations/inspection":5.0},"type":"Feature","geometry":{"type":"Point","coordinates":[-123.136282,49.177902]}},{"properties":{"city":"Richmond","company":"Man Lee Ng","name":"Timmy Kitchen","inspections":2.0,"number":5012791.0,"bg_long":-123.184567,"bg_lat":49.124134,"violations":35.0,"id":"a68o15o0t5q7","province":"BC","address":"100 - 3791 Bayview Street Richmond, BC  V7E 3B6","violations/inspection":17.5},"type":"Feature","geometry":{"type":"Point","coordinates":[-123.184567,49.124134]}},{"properties":{"city":"Richmond","company":"Little Ongpin Restaurant Ltd.","name":"Little Ongpin Restaurant","inspections":1.0,"number":5012793.0,"bg_long":-123.0915566,"bg_lat":49.1837482,"violations":10.0,"id":"a68o15v47h6w","province":"BC","address":"4093 No. 5 Road Richmond, BC  V6X 2T9","violations/inspection":10.0},"type":"Feature","geometry":{"type":"Point","coordinates":[-123.0915566,49.1837482]}},{"properties":{"city":"Richmond","company":"Sun Ohk Uema","name":"Sushi House","inspections":1.0,"number":5012805.0,"bg_long":-123.12828,"bg_lat":49.18469,"violations":11.0,"id":"a68o15ye5r8w","province":"BC","address":"2182 - 3779 Sexsmith Road Richmond, BC  V6X 3Z9","violations/inspection":11.0},"type":"Feature","geometry":{"type":"Point","coordinates":[-123.12828,49.18469]}},{"properties":{"city":"Richmond","company":"D &amp; F International Holding Inc.","name":"Cafina","inspections":1.0,"number":5012810.0,"bg_long":-123.13651,"bg_lat":49.16991,"violations":3.0,"id":"a68o15vr79s2","province":"BC","address":"105 - 6011 No. 3 Road Richmond, BC  V6Y 2B2","violations/inspection":3.0},"type":"Feature","geometry":{"type":"Point","coordinates":[-123.13651,49.16991]}},{"properties":{"city":"Richmond","company":"Earleeray Holdings Inc.","name":"Mcdonald's Restaurants - Ironwood","inspections":1.0,"number":5012831.0,"bg_long":-123.093495,"bg_lat":49.13328,"violations":4.0,"id":"a68o15s0q2zx","province":"BC","address":"4000 - 11680 Steveston Highway Richmond, BC  V7A 1N6","violations/inspection":4.0},"type":"Feature","geometry":{"type":"Point","coordinates":[-123.093495,49.13328]}},{"properties":{"city":"Richmond","company":"Golden Crown Ent. Ltd.","name":"Bella Pizza (Blundell)","inspections":3.0,"number":5012843.0,"bg_long":-123.171024,"bg_lat":49.155714,"violations":16.0,"id":"a68o15t784vp","province":"BC","address":"170 - 4775 Blundell Road Richmond, BC  V7C 1H2","violations/inspection":5.333333333},"type":"Feature","geometry":{"type":"Point","coordinates":[-123.171024,49.155714]}},{"properties":{"city":"Richmond","company":"Richard Kim","name":"Rush Arcade","inspections":1.0,"number":5012844.0,"bg_long":-123.136719,"bg_lat":49.181853,"violations":1.0,"id":"a68o15y05i4b","province":"BC","address":"120 - 4351 No. 3 Road Richmond, BC  V6X 3A7","violations/inspection":1.0},"type":"Feature","geometry":{"type":"Point","coordinates":[-123.136719,49.181853]}},{"properties":{"city":"Richmond","company":"Janice Sieg","name":"Pierside Deli Ltd.","inspections":2.0,"number":5012845.0,"bg_long":-123.182842,"bg_lat":49.123872,"violations":7.0,"id":"a68o163nenu6","province":"BC","address":"115 - 3800 Bayview Street Richmond, BC  V7E 4R7","violations/inspection":3.5},"type":"Feature","geometry":{"type":"Point","coordinates":[-123.182842,49.123872]}},{"properties":{"city":"Richmond","company":"Lotus Hospitality Inc.","name":"Curry Express - Lansdowne","inspections":3.0,"number":5012855.0,"bg_long":-123.136289,"bg_lat":49.175608,"violations":14.0,"id":"a68o15n95s47","province":"BC","address":"1045 - 5300 No. 3 Road Richmond, BC  V6X 2X9","violations/inspection":4.666666667},"type":"Feature","geometry":{"type":"Point","coordinates":[-123.136289,49.175608]}},{"properties":{"city":"Richmond","company":"G-Men 75 (Richmond) Ramen Shop Ltd. BC0844774","name":"G-Men 75 (Richmond) Ramen Shop Ltd.","inspections":1.0,"number":5012860.0,"bg_long":-123.12828,"bg_lat":49.18469,"violations":3.0,"id":"a68o15r1gzdo","province":"BC","address":"1101 - 3779 Sexsmith Road Richmond, BC  V6X 3Z9","violations/inspection":3.0},"type":"Feature","geometry":{"type":"Point","coordinates":[-123.12828,49.18469]}},{"properties":{"city":"Richmond","company":"0797200 BC Ltd.","name":"Good Food","inspections":7.0,"number":5012878.0,"bg_long":-123.136438,"bg_lat":49.182695,"violations":44.0,"id":"a68o161e5od4","province":"BC","address":"1055 - 4380 No. 3 Road Richmond, BC  V6X 3V7","violations/inspection":6.285714286},"type":"Feature","geometry":{"type":"Point","coordinates":[-123.136438,49.182695]}},{"properties":{"city":"Richmond","company":"Dip23 Restaurant Ltd.","name":"Dip23 Dining Lounge","inspections":1.0,"number":5012879.0,"bg_long":-123.136436,"bg_lat":49.183002,"violations":4.0,"id":"a68o15yfon2o","province":"BC","address":"200 - 4200 No. 3 Road Richmond, BC  V6X 2C2","violations/inspection":4.0},"type":"Feature","geometry":{"type":"Point","coordinates":[-123.136436,49.183002]}},{"properties":{"city":"Richmond","company":"0706424 B.C. Ltd.","name":"New Asia Deli","inspections":2.0,"number":5012885.0,"bg_long":-123.12828,"bg_lat":49.18469,"violations":7.0,"id":"a68o160axmnf","province":"BC","address":"1113 - 3779 Sexsmith Road Richmond, BC  V6X 3Z9","violations/inspection":3.5},"type":"Feature","geometry":{"type":"Point","coordinates":[-123.12828,49.18469]}},{"properties":{"city":"Richmond","company":"Mascot Enterprises Inc.","name":"Chuan Xiang Ge Restaurant","inspections":1.0,"number":5012887.0,"bg_long":-123.134042,"bg_lat":49.170111,"violations":6.0,"id":"a68o15tb9v83","province":"BC","address":"140 - 8211 Westminster Highway Richmond, BC  V6X 1A7","violations/inspection":6.0},"type":"Feature","geometry":{"type":"Point","coordinates":[-123.134042,49.170111]}},{"properties":{"city":"Richmond","company":"Advance Food Ltd.","name":"Fresh Slice Pizza","inspections":1.0,"number":5012891.0,"bg_long":-123.136289,"bg_lat":49.175608,"violations":5.0,"id":"a68o15pkjlp7","province":"BC","address":"920 - 5300 No. 3 Road Richmond, BC  V6X 2X9","violations/inspection":5.0},"type":"Feature","geometry":{"type":"Point","coordinates":[-123.136289,49.175608]}},{"properties":{"city":"Richmond","company":"Power 3 Restaurant Ltd.","name":"Hakkasan Restaurant","inspections":1.0,"number":5012893.0,"bg_long":-123.091591,"bg_lat":49.195723,"violations":10.0,"id":"a68o161otf60","province":"BC","address":"110 - 2188 No. 5 Road Richmond, BC  V6X 2T1","violations/inspection":10.0},"type":"Feature","geometry":{"type":"Point","coordinates":[-123.091591,49.195723]}},{"properties":{"city":"Richmond","company":"Hossein Mehrabi","name":"At Your Table Cafe","inspections":1.0,"number":5012910.0,"bg_long":-123.1298547,"bg_lat":49.1916999,"violations":4.0,"id":"a68o162orbh5","province":"BC","address":"3031 No. 3 Road Richmond, BC  V6X 2B6","violations/inspection":4.0},"type":"Feature","geometry":{"type":"Point","coordinates":[-123.1298547,49.1916999]}},{"properties":{"city":"Richmond","company":"0802835 BC Ltd.","name":"Daisy's Sports Bar and Grill","inspections":1.0,"number":5012948.0,"bg_long":-123.12756,"bg_lat":49.169993,"violations":14.0,"id":"a68o15v0nzt5","province":"BC","address":"1450 - 8260 Westminster Highway Richmond, BC  V6X 1A8","violations/inspection":14.0},"type":"Feature","geometry":{"type":"Point","coordinates":[-123.12756,49.169993]}},{"properties":{"city":"Richmond","company":"Yan Zhao","name":"Guo Men Jia Yan Restaurant","inspections":1.0,"number":5012954.0,"bg_long":-123.136436,"bg_lat":49.183002,"violations":26.0,"id":"a68o15umodb8","province":"BC","address":"150 - 4160 No. 3 Road Richmond, BC  V6X 2C2","violations/inspection":26.0},"type":"Feature","geometry":{"type":"Point","coordinates":[-123.136436,49.183002]}},{"properties":{"city":"Richmond","company":"BC0771333","name":"May Vietnamese Cuisine","inspections":1.0,"number":5012973.0,"bg_long":-123.136719,"bg_lat":49.181853,"violations":8.0,"id":"a68o161xr720","province":"BC","address":"170 - 4351 No. 3 Road Richmond, BC  V6X 3A7","violations/inspection":8.0},"type":"Feature","geometry":{"type":"Point","coordinates":[-123.136719,49.181853]}},{"properties":{"city":"Richmond","company":"Cho Yin Kwan","name":"Imperial Court Beijing &amp; Szechuan Restaurant","inspections":2.0,"number":5012984.0,"bg_long":-123.136408,"bg_lat":49.168439,"violations":15.0,"id":"a68o15s0jaj9","province":"BC","address":"6&amp;7 - 6360 No. 3 Road Richmond, BC  V6Y 2B3","violations/inspection":7.5},"type":"Feature","geometry":{"type":"Point","coordinates":[-123.136408,49.168439]}},{"properties":{"city":"Richmond","company":"Osaka Supermarket Inc","name":"Osaka Hot Deli","inspections":2.0,"number":5013010.0,"bg_long":-123.133964,"bg_lat":49.187124,"violations":5.0,"id":"a68o1618kxzl","province":"BC","address":"1000 - 3700 No. 3 Road Richmond, BC  V6X 3X2","violations/inspection":2.5},"type":"Feature","geometry":{"type":"Point","coordinates":[-123.133964,49.187124]}},{"properties":{"city":"Richmond","company":"Keta Enterprises Ltd.","name":"Caesar's Bar and Grill","inspections":2.0,"number":5013021.0,"bg_long":-123.1825683,"bg_lat":49.1337509,"violations":10.0,"id":"a68o15tojhsl","province":"BC","address":"3880 Steveston Highway Richmond, BC  V7E 2K2","violations/inspection":5.0},"type":"Feature","geometry":{"type":"Point","coordinates":[-123.1825683,49.1337509]}},{"properties":{"city":"Richmond","company":"Top One Enterprise Ltd.","name":"Dessert Kitchen","inspections":1.0,"number":5013022.0,"bg_long":-123.128212,"bg_lat":49.17823,"violations":3.0,"id":"a68o15nz00fr","province":"BC","address":"2000 - 8580 Alexandra Road Richmond, BC  V6X 4B3","violations/inspection":3.0},"type":"Feature","geometry":{"type":"Point","coordinates":[-123.128212,49.17823]}},{"properties":{"city":"Richmond","company":"Bubble Queen Cafe Co. LTD.","name":"Bubble Queen","inspections":2.0,"number":5013029.0,"bg_long":-123.147684,"bg_lat":49.170089,"violations":5.0,"id":"a68o162ldnmy","province":"BC","address":"1200 - 8888 Odlin Crescent Richmond, BC  V6X 1A2","violations/inspection":2.5},"type":"Feature","geometry":{"type":"Point","coordinates":[-123.147684,49.170089]}},{"properties":{"city":"Richmond","company":"FMT Enterprises Inc.","name":"Always Good","inspections":1.0,"number":5013034.0,"bg_long":-123.132428,"bg_lat":49.184773,"violations":4.0,"id":"a68o15p0gq9j","province":"BC","address":"2270 - 8181 Cambie Road Richmond, BC  V6X 1J8","violations/inspection":4.0},"type":"Feature","geometry":{"type":"Point","coordinates":[-123.132428,49.184773]}},{"properties":{"city":"Richmond","company":"Myron Van Snick","name":"Flying Wedge Pizza Company","inspections":1.0,"number":5013044.0,"bg_long":-123.187159,"bg_lat":49.128354,"violations":1.0,"id":"a68o15q02cnh","province":"BC","address":"198 - 8120 No. 2 Road Richmond, BC  V7E 5J8","violations/inspection":1.0},"type":"Feature","geometry":{"type":"Point","coordinates":[-123.187159,49.128354]}},{"properties":{"city":"Richmond","company":"Fresh Experience Foods Ltd.","name":"Soul Robata &amp; Izakaya Restaurant","inspections":2.0,"number":5013049.0,"bg_long":-123.132095,"bg_lat":49.178257,"violations":13.0,"id":"a68o15t7iqs9","province":"BC","address":"1015 - 8580 Alexandra Road Richmond, BC  V6X 1C4","violations/inspection":6.5},"type":"Feature","geometry":{"type":"Point","coordinates":[-123.132095,49.178257]}},{"properties":{"city":"Richmond","company":"Michigan Noodle Shop Ltd.","name":"Michigan Noodle Shop","inspections":5.0,"number":5013065.0,"bg_long":-123.128212,"bg_lat":49.17823,"violations":43.0,"id":"a68o15t4qirw","province":"BC","address":"1160 - 8580 Alexandra Road Richmond, BC  V6X 4B3","violations/inspection":8.6},"type":"Feature","geometry":{"type":"Point","coordinates":[-123.128212,49.17823]}},{"properties":{"city":"Richmond","company":"Guo Xiong Lu","name":"Thai Way Express","inspections":3.0,"number":5013080.0,"bg_long":-123.136289,"bg_lat":49.175608,"violations":24.0,"id":"a68o15v00izp","province":"BC","address":"1055 - 5300 No. 3 Road Richmond, BC  V6X 2X9","violations/inspection":8.0},"type":"Feature","geometry":{"type":"Point","coordinates":[-123.136289,49.175608]}},{"properties":{"city":"Richmond","company":"B Khera Mart Ltd","name":"99 Mart","inspections":1.0,"number":5013081.0,"bg_long":-123.091971,"bg_lat":49.145754,"violations":7.0,"id":"a68o15n7fzku","province":"BC","address":"2 - 9371 No. 5 Road Richmond, BC  V7A 4E1","violations/inspection":7.0},"type":"Feature","geometry":{"type":"Point","coordinates":[-123.091971,49.145754]}},{"properties":{"city":"Richmond","company":"Anita Oi Fong Wong","name":"Happy Together Fast Food","inspections":2.0,"number":5013098.0,"bg_long":-123.126987,"bg_lat":49.183493,"violations":10.0,"id":"a68o15pkto2q","province":"BC","address":"2178 - 8700 McKim Way Richmond, BC  V6X 4A5","violations/inspection":5.0},"type":"Feature","geometry":{"type":"Point","coordinates":[-123.126987,49.183493]}},{"properties":{"city":"Richmond","company":"John Nguyen","name":"Saigon Garden Restaurant","inspections":1.0,"number":5013112.0,"bg_long":-123.124815,"bg_lat":49.178981,"violations":5.0,"id":"a68o15z2hbmr","province":"BC","address":"2215 - 4653 Garden City Road Richmond, BC  V6X 4B8","violations/inspection":5.0},"type":"Feature","geometry":{"type":"Point","coordinates":[-123.124815,49.178981]}},{"properties":{"city":"Richmond","company":"Alina  Lau","name":"Silver Tower Cafe Restaurant","inspections":2.0,"number":5013113.0,"bg_long":-123.129683,"bg_lat":49.178239,"violations":32.0,"id":"a68o160dtnho","province":"BC","address":"100 - 8500 Alexandra Road Richmond, BC  V6X 3L4","violations/inspection":16.0},"type":"Feature","geometry":{"type":"Point","coordinates":[-123.129683,49.178239]}},{"properties":{"city":"Richmond","company":"Hai Jun Restaurant Ltd.","name":"Hai Jun Restaurant","inspections":2.0,"number":5013124.0,"bg_long":-123.126867,"bg_lat":49.184119,"violations":13.0,"id":"a68o15r25qmo","province":"BC","address":"1030 - 8888 Odlin Crescent Richmond, BC  V6X 3Z8","violations/inspection":6.5},"type":"Feature","geometry":{"type":"Point","coordinates":[-123.126867,49.184119]}},{"properties":{"city":"Richmond","company":"Farooqi and Sons Enterprises Limited","name":"Kebab &amp; Kurry","inspections":2.0,"number":5013130.0,"bg_long":-123.128212,"bg_lat":49.17823,"violations":6.0,"id":"a68o162l2ia1","province":"BC","address":"1100 - 8580 Alexandra Road Richmond, BC  V6X 4B3","violations/inspection":3.0},"type":"Feature","geometry":{"type":"Point","coordinates":[-123.128212,49.17823]}},{"properties":{"city":"Richmond","company":"0791964 B.C. Ltd.","name":"0791964 B.C. Ltd. dba Browns Social House","inspections":3.0,"number":5013143.0,"bg_long":-123.093495,"bg_lat":49.13328,"violations":21.0,"id":"a68o161hx6hk","province":"BC","address":"1020 - 11660 Steveston Highway Richmond, BC  V7A 1N6","violations/inspection":7.0},"type":"Feature","geometry":{"type":"Point","coordinates":[-123.093495,49.13328]}},{"properties":{"city":"Richmond","company":"687773 BC Ltd.","name":"Northern Dynasty","inspections":4.0,"number":5013146.0,"bg_long":-123.130952,"bg_lat":49.17843,"violations":61.0,"id":"a68o15y0hod1","province":"BC","address":"1170-1180 - 8391 Alexandra Road Richmond, BC  V6X 1C3","violations/inspection":15.25},"type":"Feature","geometry":{"type":"Point","coordinates":[-123.130952,49.17843]}},{"properties":{"city":"Richmond","company":"Metro Blacktop Co Ltd","name":"Mitchell Island Cafe &amp; Deli","inspections":1.0,"number":5013155.0,"bg_long":-123.095089,"bg_lat":49.202774,"violations":4.0,"id":"a68o15nss4pp","province":"BC","address":"100 - 11528 Twigg Place Richmond, BC  V6V 2Y5","violations/inspection":4.0},"type":"Feature","geometry":{"type":"Point","coordinates":[-123.095089,49.202774]}},{"properties":{"city":"Richmond","company":"Bacs Coffee Corporation","name":"Blenz Coffee","inspections":4.0,"number":5013168.0,"bg_long":-123.07553,"bg_lat":49.196765,"violations":16.0,"id":"a68o15uy59is","province":"BC","address":"130 - 9040 Blundell Road Richmond, BC  V6V 1K3","violations/inspection":4.0},"type":"Feature","geometry":{"type":"Point","coordinates":[-123.07553,49.196765]}},{"properties":{"city":"Richmond","company":"Wah Wing Seafood Restaurant Ltd.","name":"Wah Wing Seafood Restaurant","inspections":5.0,"number":5013172.0,"bg_long":-123.12828,"bg_lat":49.18469,"violations":56.0,"id":"a68o15o5cmru","province":"BC","address":"1298 - 3779 Sexsmith Road Richmond, BC  V6X 3Z9","violations/inspection":11.2},"type":"Feature","geometry":{"type":"Point","coordinates":[-123.12828,49.18469]}},{"properties":{"city":"Richmond","company":"Yue Fa Hu","name":"S &amp; W Pepper House (Richmond)","inspections":3.0,"number":5013176.0,"bg_long":-123.1364743,"bg_lat":49.1642291,"violations":34.0,"id":"a68o15xvwuz6","province":"BC","address":"6820 No. 3 Road Richmond, BC  V6Y 2C4","violations/inspection":11.33333333},"type":"Feature","geometry":{"type":"Point","coordinates":[-123.1364743,49.1642291]}},{"properties":{"city":"Richmond","company":"Q Q tea and coffee","name":"Q Q tea and coffee","inspections":2.0,"number":5013177.0,"bg_long":-123.133676,"bg_lat":49.17011,"violations":19.0,"id":"a68o15n551rx","province":"BC","address":"2400 - 8260 Westminster Highway Richmond, BC  V6X 3Y2","violations/inspection":9.5},"type":"Feature","geometry":{"type":"Point","coordinates":[-123.133676,49.17011]}},{"properties":{"city":"Richmond","company":"Han Sheng Liu","name":"Tri-ty Cafe","inspections":1.0,"number":5013185.0,"bg_long":-123.136418,"bg_lat":49.171917,"violations":6.0,"id":"a68o15qzslm8","province":"BC","address":"130 - 8100 Ackroyd Road Richmond, BC  V6X 3K2","violations/inspection":6.0},"type":"Feature","geometry":{"type":"Point","coordinates":[-123.136418,49.171917]}},{"properties":{"city":"Richmond","company":"Sik Kin Lee","name":"Spicy Vegi Cuisine Ltd.","inspections":4.0,"number":5013188.0,"bg_long":-123.136436,"bg_lat":49.183002,"violations":20.0,"id":"a68o15qe7sxp","province":"BC","address":"132 - 4200 No. 3 Road Richmond, BC  V6X 2C2","violations/inspection":5.0},"type":"Feature","geometry":{"type":"Point","coordinates":[-123.136436,49.183002]}},{"properties":{"city":"Richmond","company":"Overwaitea Food Group","name":"Save-On-Foods - Terra Nova - Deli","inspections":1.0,"number":5013208.0,"bg_long":-123.1828786,"bg_lat":49.1699591,"violations":3.0,"id":"a68o15sjrnia","province":"BC","address":"3673 Westminster Highway Richmond, BC  V7C 5V2","violations/inspection":3.0},"type":"Feature","geometry":{"type":"Point","coordinates":[-123.1828786,49.1699591]}},{"properties":{"city":"Richmond","company":"Guo Min","name":"Golden Szechuan Restaurant","inspections":2.0,"number":5013214.0,"bg_long":-123.134357,"bg_lat":49.187056,"violations":16.0,"id":"a68o15s38xy7","province":"BC","address":"170 - 3631 No. 3 Road Richmond, BC  V6X 2B9","violations/inspection":8.0},"type":"Feature","geometry":{"type":"Point","coordinates":[-123.134357,49.187056]}},{"properties":{"city":"Richmond","company":"Namtez Singh Sohal","name":"Quizno's Classic Subs - Steveston","inspections":2.0,"number":5013216.0,"bg_long":-123.093919,"bg_lat":49.133278,"violations":11.0,"id":"a68o15x39se1","province":"BC","address":"3130 - 11666 Steveston Highway Richmond, BC  V7A 5J3","violations/inspection":5.5},"type":"Feature","geometry":{"type":"Point","coordinates":[-123.093919,49.133278]}},{"properties":{"city":"Richmond","company":"HML Seafood Restaurant Co. Ltd","name":"HML Seafood Restaurant","inspections":1.0,"number":5013252.0,"bg_long":-123.136323,"bg_lat":49.170709,"violations":6.0,"id":"a68o160rtt6p","province":"BC","address":"200 - 5890 No. 3 Road Richmond, BC  V6X 3P6","violations/inspection":6.0},"type":"Feature","geometry":{"type":"Point","coordinates":[-123.136323,49.170709]}},{"properties":{"city":"Richmond","company":"0834758 B.C. Ltd.","name":"Cattle Cafe","inspections":2.0,"number":5013254.0,"bg_long":-123.132095,"bg_lat":49.178257,"violations":20.0,"id":"a68o15td8ov9","province":"BC","address":"1020, 1025 - 8580 Alexandra Road Richmond, BC  V6X 1C4","violations/inspection":10.0},"type":"Feature","geometry":{"type":"Point","coordinates":[-123.132095,49.178257]}},{"properties":{"city":"Richmond","company":"Man Szeto/Lian Zhen Szeto","name":"Lucky Tao Restaurant","inspections":3.0,"number":5013274.0,"bg_long":-123.130952,"bg_lat":49.17843,"violations":26.0,"id":"a68o1606heuw","province":"BC","address":"101 - 8077 Alexandra Road Richmond, BC  V6X 1C3","violations/inspection":8.666666667},"type":"Feature","geometry":{"type":"Point","coordinates":[-123.130952,49.17843]}},{"properties":{"city":"Richmond","company":"Xay Phan","name":"Hue Cafe","inspections":4.0,"number":5013277.0,"bg_long":-123.1364557,"bg_lat":49.1654386,"violations":22.0,"id":"a68o15u4yq9g","province":"BC","address":"6620 No. 3 Road Richmond, BC  V6A 2C2","violations/inspection":5.5},"type":"Feature","geometry":{"type":"Point","coordinates":[-123.1364557,49.1654386]}},{"properties":{"city":"Richmond","company":"Pine House Bakery (Pacific Plaza) Ltd.","name":"Pine House Bakery","inspections":1.0,"number":5013290.0,"bg_long":-123.136436,"bg_lat":49.183002,"violations":5.0,"id":"a68o15q3yy60","province":"BC","address":"1060 - 4380 No. 3 Road Richmond, BC  V6X 2C2","violations/inspection":5.0},"type":"Feature","geometry":{"type":"Point","coordinates":[-123.136436,49.183002]}},{"properties":{"city":"Richmond","company":"Raza Ladak","name":"Danny's Market","inspections":2.0,"number":5013300.0,"bg_long":-123.1241029,"bg_lat":49.1481648,"violations":7.0,"id":"a68o15wdbgze","province":"BC","address":"9040 Francis Road Richmond, BC  V6Y 1B1","violations/inspection":3.5},"type":"Feature","geometry":{"type":"Point","coordinates":[-123.1241029,49.1481648]}},{"properties":{"city":"Richmond","company":"Cafe Jose Inc. DBA Quiche Me! Catering","name":"Quiche Me! Catering","inspections":2.0,"number":5013303.0,"bg_long":-123.100412,"bg_lat":49.13,"violations":10.0,"id":"a68o160z4445","province":"BC","address":"103 - 11782 Hammersmith Way Richmond, BC  V7A 5E2","violations/inspection":5.0},"type":"Feature","geometry":{"type":"Point","coordinates":[-123.100412,49.13]}},{"properties":{"city":"Richmond","company":"1381688 Enterprises Ltd.","name":"Posh Charcoal Collaboration Dining","inspections":3.0,"number":5013322.0,"bg_long":-123.12828,"bg_lat":49.18469,"violations":17.0,"id":"a68o15oxdqoy","province":"BC","address":"1123 - 3779 Sexsmith Road Richmond, BC  V6X 3Z9","violations/inspection":5.666666667},"type":"Feature","geometry":{"type":"Point","coordinates":[-123.12828,49.18469]}},{"properties":{"city":"Richmond","company":"William Lui","name":"Nova Food Services Ltd.","inspections":1.0,"number":5013324.0,"bg_long":-123.126867,"bg_lat":49.184119,"violations":5.0,"id":"a68o15xqtsni","province":"BC","address":"2230 - 8888 Odlin Crescent Richmond, BC  V6X 3Z8","violations/inspection":5.0},"type":"Feature","geometry":{"type":"Point","coordinates":[-123.126867,49.184119]}},{"properties":{"city":"Richmond","company":"Ho Yuen Restaurant Company Ltd.","name":"Ho Yuen Restaurant","inspections":1.0,"number":5013356.0,"bg_long":-123.129962,"bg_lat":49.187806,"violations":12.0,"id":"a68o162hopco","province":"BC","address":"1226 - 8338 Capstan Way Richmond, BC  V6X 4B5","violations/inspection":12.0},"type":"Feature","geometry":{"type":"Point","coordinates":[-123.129962,49.187806]}},{"properties":{"city":"Richmond","company":"Sunil Yang","name":"Katsu-Ya Sushi","inspections":1.0,"number":5013363.0,"bg_long":-123.136788,"bg_lat":49.170119,"violations":8.0,"id":"a68o160j50bi","province":"BC","address":"101 - 7900 Westminster Highway Richmond, BC  V6X 1A5","violations/inspection":8.0},"type":"Feature","geometry":{"type":"Point","coordinates":[-123.136788,49.170119]}},{"properties":{"city":"Richmond","company":"Assiduus Management Ltd.","name":"Sensus Bistro","inspections":2.0,"number":5013365.0,"bg_long":-123.130304,"bg_lat":49.187885,"violations":9.0,"id":"a68o15zpaeec","province":"BC","address":"1136 - 8328 Capstan Way Richmond, BC  V6X 4B6","violations/inspection":4.5},"type":"Feature","geometry":{"type":"Point","coordinates":[-123.130304,49.187885]}},{"properties":{"city":"Richmond","company":"Peter Cheung","name":"Lucky Joy BBQ Restaurant","inspections":3.0,"number":5013380.0,"bg_long":-123.094678,"bg_lat":49.183175,"violations":37.0,"id":"a68o15vxbcyn","province":"BC","address":"150 - 11780 Thorpe Road Richmond, BC  V6X 1J6","violations/inspection":12.33333333},"type":"Feature","geometry":{"type":"Point","coordinates":[-123.094678,49.183175]}},{"properties":{"city":"Richmond","company":"Chiang Po-Chi/Liu Shu-Chen","name":"Classical Taiwanese Cuisine","inspections":1.0,"number":5013382.0,"bg_long":-123.133676,"bg_lat":49.17011,"violations":3.0,"id":"a68o15scfkz2","province":"BC","address":"2385 - 8260 Westminster Highway Richmond, BC  V6X 3Y2","violations/inspection":3.0},"type":"Feature","geometry":{"type":"Point","coordinates":[-123.133676,49.17011]}},{"properties":{"city":"Richmond","company":"Nat's Bistro &amp; Convenience Store Ltd.","name":"Nat's Bistro &amp; Convenience Store","inspections":1.0,"number":5013398.0,"bg_long":-123.170049,"bg_lat":49.170045,"violations":5.0,"id":"a68o161quvtr","province":"BC","address":"113 - 5188 Westminster Highway Richmond, BC  V7C 5S7","violations/inspection":5.0},"type":"Feature","geometry":{"type":"Point","coordinates":[-123.170049,49.170045]}},{"properties":{"city":"Richmond","company":"Jolly Restaurant Ltd.","name":"Nooch Noodle Cafe","inspections":2.0,"number":5013407.0,"bg_long":-123.124291,"bg_lat":49.187685,"violations":9.0,"id":"a68o15wr0734","province":"BC","address":"110 - 9020 Capstan Way Richmond, BC  V6X 3V9","violations/inspection":4.5},"type":"Feature","geometry":{"type":"Point","coordinates":[-123.124291,49.187685]}},{"properties":{"city":"Richmond","company":"Adams Handling &amp; Conveyor Systems","name":"Cafe De Hickory","inspections":3.0,"number":5013409.0,"bg_long":-123.144731,"bg_lat":49.170294,"violations":11.0,"id":"a68o15r1fn42","province":"BC","address":"108 - 7031 Westminster Highway Richmond, BC  V6X 1A3","violations/inspection":3.666666667},"type":"Feature","geometry":{"type":"Point","coordinates":[-123.144731,49.170294]}},{"properties":{"city":"Richmond","company":"Little Man's Kitchen Ltd.","name":"Tin Tin Kitchen","inspections":6.0,"number":5013412.0,"bg_long":-123.136438,"bg_lat":49.182695,"violations":36.0,"id":"a68o162csjm5","province":"BC","address":"1395 - 4380 No. 3 Road Richmond, BC  V6X 3V7","violations/inspection":6.0},"type":"Feature","geometry":{"type":"Point","coordinates":[-123.136438,49.182695]}},{"properties":{"city":"Richmond","company":"Jia Zhen Enterprises Inc.","name":"Admiralty Chinese Cuisine","inspections":1.0,"number":5013424.0,"bg_long":-123.126987,"bg_lat":49.183493,"violations":3.0,"id":"a68o15w7yvt9","province":"BC","address":"2188 - 8700 McKim Way Richmond, BC  V6X 4A5","violations/inspection":3.0},"type":"Feature","geometry":{"type":"Point","coordinates":[-123.126987,49.183493]}},{"properties":{"city":"Richmond","company":"Keltomlex Food (2007) Ltd","name":"Yung Ho Soy Drink","inspections":2.0,"number":5013428.0,"bg_long":-123.133435,"bg_lat":49.184781,"violations":7.0,"id":"a68o15t23s7n","province":"BC","address":"2255 - 8181 Cambie Road Richmond, BC  V6X 3X9","violations/inspection":3.5},"type":"Feature","geometry":{"type":"Point","coordinates":[-123.133435,49.184781]}},{"properties":{"city":"Richmond","company":"Jin Xia Xu","name":"Joy Lunch Station","inspections":2.0,"number":5013434.0,"bg_long":-123.069286,"bg_lat":49.180587,"violations":10.0,"id":"a68o15pcswkl","province":"BC","address":"180 - 4611 No. 6 Road Richmond, BC  V6V 2L3","violations/inspection":5.0},"type":"Feature","geometry":{"type":"Point","coordinates":[-123.069286,49.180587]}},{"properties":{"city":"Richmond","company":"Cute Pearl Ent. Ltd.","name":"Edge Restaurant","inspections":2.0,"number":5013436.0,"bg_long":-123.128212,"bg_lat":49.17823,"violations":18.0,"id":"a68o15y3vaf8","province":"BC","address":"1080 - 8580 Alexandra Road Richmond, BC  V6X 4B3","violations/inspection":9.0},"type":"Feature","geometry":{"type":"Point","coordinates":[-123.128212,49.17823]}},{"properties":{"city":"Richmond","company":"Kanpeki Teppanyaki Restaurant Ltd.","name":"Kanpeki Tappanyaki Restaurant","inspections":1.0,"number":5013438.0,"bg_long":-123.131197,"bg_lat":49.178431,"violations":2.0,"id":"a68o161405ze","province":"BC","address":"140 - 8351 Alexandra Road Richmond, BC  V6X 3P3","violations/inspection":2.0},"type":"Feature","geometry":{"type":"Point","coordinates":[-123.131197,49.178431]}},{"properties":{"city":"Richmond","company":"Man Kit Lau","name":"Mary's Italian Ice Cream House Ltd.","inspections":2.0,"number":5013452.0,"bg_long":-123.18411,"bg_lat":49.124442,"violations":10.0,"id":"a68o15zlvgwb","province":"BC","address":"120 - 12240 Second Avenue Richmond, BC  V7E 3L8","violations/inspection":5.0},"type":"Feature","geometry":{"type":"Point","coordinates":[-123.18411,49.124442]}},{"properties":{"city":"Richmond","company":"Elsie Chau","name":"Mckim Wonton Mein Saga","inspections":4.0,"number":5013463.0,"bg_long":-123.12473,"bg_lat":49.183485,"violations":32.0,"id":"a68o160312is","province":"BC","address":"1180 - 8788 McKim Way Richmond, BC  V6X 4E2","violations/inspection":8.0},"type":"Feature","geometry":{"type":"Point","coordinates":[-123.12473,49.183485]}},{"properties":{"city":"Richmond","company":"Alliance Group Enterprise Ltd.","name":"Ninkazu Japanese Restaurant","inspections":2.0,"number":5013483.0,"bg_long":-123.133588,"bg_lat":49.182842,"violations":14.0,"id":"a68o1625wsuu","province":"BC","address":"205 - 4231 Hazelbridge Way Richmond, BC  V6X 3L7","violations/inspection":7.0},"type":"Feature","geometry":{"type":"Point","coordinates":[-123.133588,49.182842]}},{"properties":{"city":"Richmond","company":"Italgroup Holding Inc.","name":"A Taste Of Italy Catering","inspections":2.0,"number":5013486.0,"bg_long":-123.069195,"bg_lat":49.181744,"violations":10.0,"id":"a68o160tnz61","province":"BC","address":"1133 - 13700 Mayfield Place Richmond, BC  V6V 2E4","violations/inspection":5.0},"type":"Feature","geometry":{"type":"Point","coordinates":[-123.069195,49.181744]}},{"properties":{"city":"Richmond","company":"0804943 B.C. Ltd.","name":"Oscar Billiards","inspections":1.0,"number":5013496.0,"bg_long":-123.114352,"bg_lat":49.136574,"violations":4.0,"id":"a68o15tvprqw","province":"BC","address":"100 - 10811 No. 4 Road Richmond, BC  V7A 2Z5","violations/inspection":4.0},"type":"Feature","geometry":{"type":"Point","coordinates":[-123.114352,49.136574]}},{"properties":{"city":"Richmond","company":"Tsuyoshi Shishido","name":"Sakura Sushi","inspections":3.0,"number":5013516.0,"bg_long":-123.136408,"bg_lat":49.168439,"violations":8.0,"id":"a68o15yt553h","province":"BC","address":"4 - 6390 No. 3 Road Richmond, BC  V6Y 2B3","violations/inspection":2.666666667},"type":"Feature","geometry":{"type":"Point","coordinates":[-123.136408,49.168439]}},{"properties":{"city":"Richmond","company":"Bo Lequan","name":"Jun Sushi","inspections":3.0,"number":5013526.0,"bg_long":-123.136282,"bg_lat":49.177902,"violations":25.0,"id":"a68o160wcxa7","province":"BC","address":"115 - 4940 No. 3 Road Richmond, BC  V6X 3A5","violations/inspection":8.333333333},"type":"Feature","geometry":{"type":"Point","coordinates":[-123.136282,49.177902]}},{"properties":{"city":"Richmond","company":"Datang Food Processing Co. Ltd","name":"Datang BBQ Express","inspections":3.0,"number":5013530.0,"bg_long":-123.133964,"bg_lat":49.187124,"violations":13.0,"id":"a68o15rxplrj","province":"BC","address":"1090 - 3700 No. 3 Road Richmond, BC  V6X 3X2","violations/inspection":4.333333333},"type":"Feature","geometry":{"type":"Point","coordinates":[-123.133964,49.187124]}},{"properties":{"city":"Richmond","company":"Wismart'y Enterprises Ltd.","name":"Bread Garden","inspections":2.0,"number":5013547.0,"bg_long":-123.070472,"bg_lat":49.173793,"violations":10.0,"id":"a68o15qcx6ea","province":"BC","address":"120 - 13711 International Place Richmond, BC  V6V 2Z8","violations/inspection":5.0},"type":"Feature","geometry":{"type":"Point","coordinates":[-123.070472,49.173793]}},{"properties":{"city":"Richmond","company":"Tan &amp; Chen Enterprises Ltd.","name":"Wonder Wok","inspections":3.0,"number":5013550.0,"bg_long":-123.133676,"bg_lat":49.17011,"violations":36.0,"id":"a68o15y014cq","province":"BC","address":"2375 - 8260 Westminster Highway Richmond, BC  V6X 3Y2","violations/inspection":12.0},"type":"Feature","geometry":{"type":"Point","coordinates":[-123.133676,49.17011]}},{"properties":{"city":"Richmond","company":"Thomas Law","name":"Kong's Kitchen Chinese Food","inspections":2.0,"number":5013553.0,"bg_long":-123.091971,"bg_lat":49.145754,"violations":24.0,"id":"a68o15w8xvt4","province":"BC","address":"3 - 9371 No. 5 Road Richmond, BC  V7A 4E1","violations/inspection":12.0},"type":"Feature","geometry":{"type":"Point","coordinates":[-123.091971,49.145754]}},{"properties":{"city":"Richmond","company":"Epsilogic Consulting Inc.","name":"Celsius Cafe","inspections":1.0,"number":5013563.0,"bg_long":-123.136411,"bg_lat":49.17838,"violations":4.0,"id":"a68o15zsgdex","province":"BC","address":"105 - 4800 No. 3 Road Richmond, BC  V6X 3A6","violations/inspection":4.0},"type":"Feature","geometry":{"type":"Point","coordinates":[-123.136411,49.17838]}},{"properties":{"city":"Richmond","company":"Brian Leung","name":"Queen's Cafe","inspections":2.0,"number":5013574.0,"bg_long":-123.1366188,"bg_lat":49.1694098,"violations":13.0,"id":"a68o160rkiw8","province":"BC","address":"6091 No. 3 Road Richmond, BC  V6Y 2B1","violations/inspection":6.5},"type":"Feature","geometry":{"type":"Point","coordinates":[-123.1366188,49.1694098]}},{"properties":{"city":"Richmond","company":"Darryl Ray","name":"The Butler Did It Catering Co. Inc.","inspections":3.0,"number":5013591.0,"bg_long":-123.1366679,"bg_lat":49.1633966,"violations":8.0,"id":"a68o15p885ht","province":"BC","address":"6911 No. 3 Road Richmond, BC  V6Y 2C1","violations/inspection":2.666666667},"type":"Feature","geometry":{"type":"Point","coordinates":[-123.1366679,49.1633966]}},{"properties":{"city":"Richmond","company":"Eddie Cheung","name":"Ginger &amp; Garlic Malaysian Restaurant and Grill","inspections":5.0,"number":5013592.0,"bg_long":-123.138373,"bg_lat":49.170291,"violations":81.0,"id":"a68o15otyqo0","province":"BC","address":"180 - 7771 Westminster Highway Richmond, BC  V6X 1A4","violations/inspection":16.2},"type":"Feature","geometry":{"type":"Point","coordinates":[-123.138373,49.170291]}},{"properties":{"city":"Richmond","company":"Blue Fish Holdings Ltd.","name":"Blue Fish Sushi &amp; Oyster Bar","inspections":1.0,"number":5013606.0,"bg_long":-123.130952,"bg_lat":49.17843,"violations":6.0,"id":"a68o15wva7pt","province":"BC","address":"101 - 8171 Alexandra Road Richmond, BC  V6X 1C3","violations/inspection":6.0},"type":"Feature","geometry":{"type":"Point","coordinates":[-123.130952,49.17843]}},{"properties":{"city":"Richmond","company":"Triumph Vending Co. Ltd.","name":"E Spot Billiard &amp; Arcade","inspections":4.0,"number":5013615.0,"bg_long":-123.139832,"bg_lat":49.176706,"violations":19.0,"id":"a68o15r0dxdd","province":"BC","address":"160 - 7951 Alderbridge Way Richmond, BC  V6X 2A4","violations/inspection":4.75},"type":"Feature","geometry":{"type":"Point","coordinates":[-123.139832,49.176706]}},{"properties":{"city":"Richmond","company":"Kevin McDowell/Hyun Joo Shim","name":"Kimchi Nara Korean BBQ","inspections":2.0,"number":5013619.0,"bg_long":-123.14375,"bg_lat":49.170112,"violations":6.0,"id":"a68o15r6o64w","province":"BC","address":"250 - 7997 Westminster Highway Richmond, BC  V6X 1A1","violations/inspection":3.0},"type":"Feature","geometry":{"type":"Point","coordinates":[-123.14375,49.170112]}},{"properties":{"city":"Richmond","company":"Chun Sum Chan","name":"Totoro Cafe","inspections":3.0,"number":5013623.0,"bg_long":-123.130585,"bg_lat":49.178427,"violations":11.0,"id":"a68o15zq1oey","province":"BC","address":"2140 - 8391  Alexandra Road Richmond, BC  V6X 3W5","violations/inspection":3.666666667},"type":"Feature","geometry":{"type":"Point","coordinates":[-123.130585,49.178427]}},{"properties":{"city":"Richmond","company":"To Sang Tse","name":"Tasty Lane Enterprises Ltd.","inspections":1.0,"number":5013624.0,"bg_long":-123.133964,"bg_lat":49.187124,"violations":3.0,"id":"a68o162cxun9","province":"BC","address":"1075 - 3700 No. 3 Road Richmond, BC  V6X 3X2","violations/inspection":3.0},"type":"Feature","geometry":{"type":"Point","coordinates":[-123.133964,49.187124]}},{"properties":{"city":"Richmond","company":"2622108 Enterprises Ltd.","name":"Crab House Restaurant","inspections":1.0,"number":5013626.0,"bg_long":-123.128167,"bg_lat":49.187703,"violations":4.0,"id":"a68o15qybaxv","province":"BC","address":"1318 - 8368 Capstan Way Richmond, BC  V6X 4A7","violations/inspection":4.0},"type":"Feature","geometry":{"type":"Point","coordinates":[-123.128167,49.187703]}},{"properties":{"city":"Richmond","company":"Kelsey's International","name":"Kelsey's","inspections":1.0,"number":5013630.0,"bg_long":-123.098005,"bg_lat":49.133272,"violations":5.0,"id":"a68o160g7j9v","province":"BC","address":"100 - 11300  Steveston Highway Richmond, BC  V7A 5J5","violations/inspection":5.0},"type":"Feature","geometry":{"type":"Point","coordinates":[-123.098005,49.133272]}},{"properties":{"city":"Richmond","company":"Canada Heng Da Economic &amp; Trading Development Co. Ltd.","name":"Beijing Noodle House","inspections":2.0,"number":5013637.0,"bg_long":-123.133847,"bg_lat":49.166507,"violations":20.0,"id":"a68o162c144o","province":"BC","address":"190 - 6451 Buswell Street Richmond, BC  V6Y 2G4","violations/inspection":10.0},"type":"Feature","geometry":{"type":"Point","coordinates":[-123.133847,49.166507]}},{"properties":{"city":"Richmond","company":"Woo Ying","name":"Woo Ying Vegetarian","inspections":1.0,"number":5013638.0,"bg_long":-123.126867,"bg_lat":49.184119,"violations":2.0,"id":"a68o15nsupk3","province":"BC","address":"2160 - 8888 Odlin Crescent Richmond, BC  V6X 3Z8","violations/inspection":2.0},"type":"Feature","geometry":{"type":"Point","coordinates":[-123.126867,49.184119]}},{"properties":{"city":"Richmond","company":"Shiang Garden Restaurant Ltd.","name":"Shiang Garden Seafood Restaurant","inspections":4.0,"number":5013639.0,"bg_long":-123.136451,"bg_lat":49.18101,"violations":80.0,"id":"a68o15uunlw9","province":"BC","address":"2200 - 4540 No. 3 Road Richmond, BC  V6X 4E4","violations/inspection":20.0},"type":"Feature","geometry":{"type":"Point","coordinates":[-123.136451,49.18101]}},{"properties":{"city":"Richmond","company":"0835242 BC Ltd.","name":"Szechwan Harvest Moon Cuisine","inspections":1.0,"number":5013641.0,"bg_long":-123.136436,"bg_lat":49.183002,"violations":24.0,"id":"a68o15smry1y","province":"BC","address":"121 - 4600 No. 3 Road Richmond, BC  V6X 2C2","violations/inspection":24.0},"type":"Feature","geometry":{"type":"Point","coordinates":[-123.136436,49.183002]}},{"properties":{"city":"Richmond","company":"Alan Ng and Ping Deng","name":"E Canteen","inspections":5.0,"number":5013672.0,"bg_long":-123.134042,"bg_lat":49.170111,"violations":54.0,"id":"a68o16066qiw","province":"BC","address":"200 - 8171 Westminster Highway Richmond, BC  V6X 1A7","violations/inspection":10.8},"type":"Feature","geometry":{"type":"Point","coordinates":[-123.134042,49.170111]}},{"properties":{"city":"Richmond","company":"Raj Kumar","name":"Tandoori Kona Restaurant Ltd.","inspections":2.0,"number":5013678.0,"bg_long":-123.096455,"bg_lat":49.184484,"violations":24.0,"id":"a68o162exdqc","province":"BC","address":"170 - 11700 Cambie Road Richmond, BC  V6X 1L5","violations/inspection":12.0},"type":"Feature","geometry":{"type":"Point","coordinates":[-123.096455,49.184484]}},{"properties":{"city":"Richmond","company":"Rainbows Bakery Ltd.","name":"Wheat Garden Bakery","inspections":2.0,"number":5013680.0,"bg_long":-123.134042,"bg_lat":49.170111,"violations":15.0,"id":"a68o15u1u8w3","province":"BC","address":"155 - 8191 Westminster Highway Richmond, BC  V6X 1A7","violations/inspection":7.5},"type":"Feature","geometry":{"type":"Point","coordinates":[-123.134042,49.170111]}},{"properties":{"city":"Richmond","company":"Tony Lin","name":"Jugo Juice","inspections":2.0,"number":5013691.0,"bg_long":-123.136695,"bg_lat":49.165617,"violations":12.0,"id":"a68o15woug27","province":"BC","address":"1550 - 6551 No. 3 Road Richmond, BC  V6Y 2B6","violations/inspection":6.0},"type":"Feature","geometry":{"type":"Point","coordinates":[-123.136695,49.165617]}},{"properties":{"city":"Richmond","company":"0805550 BC LTD","name":"Zheng Wei Yuan","inspections":3.0,"number":5013730.0,"bg_long":-123.133676,"bg_lat":49.17011,"violations":21.0,"id":"a68o15xopst6","province":"BC","address":"2420 - 8260 Westminster Highway Richmond, BC  V6X 3Y2","violations/inspection":7.0},"type":"Feature","geometry":{"type":"Point","coordinates":[-123.133676,49.17011]}},{"properties":{"city":"Richmond","company":"B.D. Canada Ltd.","name":"Cobs Bread - Coppersmith","inspections":2.0,"number":5013733.0,"bg_long":-123.093495,"bg_lat":49.13328,"violations":6.0,"id":"a68o15zla3eo","province":"BC","address":"170 - 11380 Steveston Highway Richmond, BC  V7A 1N6","violations/inspection":3.0},"type":"Feature","geometry":{"type":"Point","coordinates":[-123.093495,49.13328]}},{"properties":{"city":"Richmond","company":"H.Y. Chen Enterprises Ltd.","name":"Happy Shabu Shabu","inspections":1.0,"number":5013739.0,"bg_long":-123.12828,"bg_lat":49.18469,"violations":10.0,"id":"a68o15ozvidj","province":"BC","address":"2116 - 3779 Sexsmith Road Richmond, BC  V6X 3Z9","violations/inspection":10.0},"type":"Feature","geometry":{"type":"Point","coordinates":[-123.12828,49.18469]}},{"properties":{"city":"Richmond","company":"SJMC Enterprises Ltd.","name":"Sora Restaurant","inspections":1.0,"number":5013740.0,"bg_long":-123.136451,"bg_lat":49.18101,"violations":8.0,"id":"a68o15nugrm9","province":"BC","address":"1300 - 4540 No. 3 Road Richmond, BC  V6X 4E4","violations/inspection":8.0},"type":"Feature","geometry":{"type":"Point","coordinates":[-123.136451,49.18101]}},{"properties":{"city":"Richmond","company":"Good Eat Restaurant Ltd.","name":"Good Eat Seafood Restaurant","inspections":4.0,"number":5013748.0,"bg_long":-123.1350923,"bg_lat":49.1797488,"violations":41.0,"id":"a68o162b4st4","province":"BC","address":"8111 Leslie Road Richmond, BC  V6X 1E4","violations/inspection":10.25},"type":"Feature","geometry":{"type":"Point","coordinates":[-123.1350923,49.1797488]}},{"properties":{"city":"Richmond","company":"Joys Taiwanese Restaurant Ltd.","name":"Joys Taiwanese Restaurant Ltd.","inspections":3.0,"number":5013749.0,"bg_long":-123.136438,"bg_lat":49.182695,"violations":20.0,"id":"a68o1623dvgx","province":"BC","address":"1100 - 4380 No. 3 Road Richmond, BC  V6X 3V7","violations/inspection":6.666666667},"type":"Feature","geometry":{"type":"Point","coordinates":[-123.136438,49.182695]}},{"properties":{"city":"Richmond","company":"Silver Dragon Restaurant Ltd.","name":"Golden Dynasty Restaurant","inspections":6.0,"number":5013769.0,"bg_long":-123.134034,"bg_lat":49.162583,"violations":93.0,"id":"a68o15xgpam8","province":"BC","address":"145 - 8360 Granville Avenue Richmond, BC  V6Y 1P3","violations/inspection":15.5},"type":"Feature","geometry":{"type":"Point","coordinates":[-123.134034,49.162583]}},{"properties":{"city":"Richmond","company":"Jack  Kuang Yu Fu","name":"Go Go Tea Cafe","inspections":2.0,"number":5013776.0,"bg_long":-123.12473,"bg_lat":49.183485,"violations":28.0,"id":"a68o15ztczum","province":"BC","address":"2170 - 8788 McKim Way Richmond, BC  V6X 4E2","violations/inspection":14.0},"type":"Feature","geometry":{"type":"Point","coordinates":[-123.12473,49.183485]}},{"properties":{"city":"Richmond","company":"Executive Inn","name":"Executive Inn - Banquet Kitchen","inspections":1.0,"number":5013779.0,"bg_long":-123.137126,"bg_lat":49.170453,"violations":5.0,"id":"a68o15ompbp8","province":"BC","address":"7211  Westminster Highway Richmond, BC  V6X 1A3","violations/inspection":5.0},"type":"Feature","geometry":{"type":"Point","coordinates":[-123.137126,49.170453]}},{"properties":{"city":"Richmond","company":"681 681 Enterprise Ltd","name":"Vogue Chinese Cuisine","inspections":1.0,"number":5013785.0,"bg_long":-123.12828,"bg_lat":49.18469,"violations":5.0,"id":"a68o15onm4pm","province":"BC","address":"1118 - 3779 Sexsmith Road Richmond, BC  V6X 3Z9","violations/inspection":5.0},"type":"Feature","geometry":{"type":"Point","coordinates":[-123.12828,49.18469]}},{"properties":{"city":"Richmond","company":"398398 Enterprises Ltd.","name":"Tong Kung (Chiu Chow) Restaurant","inspections":3.0,"number":5013796.0,"bg_long":-123.135502,"bg_lat":49.1647272,"violations":28.0,"id":"a68o163ieubn","province":"BC","address":"8071 Park Road Richmond, BC  V5Y 1S8","violations/inspection":9.333333333},"type":"Feature","geometry":{"type":"Point","coordinates":[-123.135502,49.1647272]}},{"properties":{"city":"Richmond","company":"Leung Wai-Kuen (Eric)","name":"H. K. BBQ Master","inspections":1.0,"number":5013797.0,"bg_long":-123.13671,"bg_lat":49.179048,"violations":14.0,"id":"a68o15trt1hk","province":"BC","address":"145 - 4651 No. 3 Road Richmond, BC  V6X 2C4","violations/inspection":14.0},"type":"Feature","geometry":{"type":"Point","coordinates":[-123.13671,49.179048]}},{"properties":{"city":"Richmond","company":"E2 Cafe Ltd.","name":"E2 Pasta House Ltd.","inspections":2.0,"number":5013810.0,"bg_long":-123.128212,"bg_lat":49.17823,"violations":11.0,"id":"a68o1623iwit","province":"BC","address":"2015/2020 - 8580 Alexandra Road Richmond, BC  V6X 4B3","violations/inspection":5.5},"type":"Feature","geometry":{"type":"Point","coordinates":[-123.128212,49.17823]}},{"properties":{"city":"Richmond","company":"0830132 BC Ltd.","name":"First Choice Cafe","inspections":1.0,"number":5013811.0,"bg_long":-123.136451,"bg_lat":49.18101,"violations":6.0,"id":"a68o15xon9uf","province":"BC","address":"1150  - 4540 No. 3 Road Richmond, BC  V6X 4E4","violations/inspection":6.0},"type":"Feature","geometry":{"type":"Point","coordinates":[-123.136451,49.18101]}},{"properties":{"city":"Richmond","company":"You Fu Ji","name":"Tian Jing Northern Cuisine","inspections":3.0,"number":5013820.0,"bg_long":-123.133676,"bg_lat":49.17011,"violations":30.0,"id":"a68o1622dzc7","province":"BC","address":"2360 - 8260 Westminster Highway Richmond, BC  V6X 3Y2","violations/inspection":10.0},"type":"Feature","geometry":{"type":"Point","coordinates":[-123.133676,49.17011]}},{"properties":{"city":"Richmond","company":"Sanoor Investments Ltd &amp; All Star Motor Inns Ltd DBA Carver's Steakhouse","name":"Carvers Steakhouse","inspections":1.0,"number":5013828.0,"bg_long":-123.137126,"bg_lat":49.170453,"violations":2.0,"id":"a68o163hfyo9","province":"BC","address":"7211 Westminster Highway Richmond, BC  V6X 1A3","violations/inspection":2.0},"type":"Feature","geometry":{"type":"Point","coordinates":[-123.137126,49.170453]}},{"properties":{"city":"Richmond","company":"Ou Feng Enterprises Ltd.","name":"Food Express","inspections":2.0,"number":5013844.0,"bg_long":-123.147694,"bg_lat":49.153858,"violations":11.0,"id":"a68o15o9rxx2","province":"BC","address":"1130 - 4540 No. 3 Road Richmond, BC  V7C 3W7","violations/inspection":5.5},"type":"Feature","geometry":{"type":"Point","coordinates":[-123.147694,49.153858]}},{"properties":{"city":"Richmond","company":"Excelsior Chicken Noodle House","name":"Excelsior Chicken Noodle House","inspections":5.0,"number":5013846.0,"bg_long":-123.136408,"bg_lat":49.168439,"violations":66.0,"id":"a68o161cap0w","province":"BC","address":"6 - 6340 No. 3 Road Richmond, BC  V6Y 2B3","violations/inspection":13.2},"type":"Feature","geometry":{"type":"Point","coordinates":[-123.136408,49.168439]}},{"properties":{"city":"Richmond","company":"Pak Cheung Chan/Huei Chin Chiang","name":"Cheung Kee Fast Food","inspections":2.0,"number":5013847.0,"bg_long":-123.133676,"bg_lat":49.17011,"violations":13.0,"id":"a68o15osiy4x","province":"BC","address":"1365 - 8260 Westminster Highway Richmond, BC  V6X 3Y2","violations/inspection":6.5},"type":"Feature","geometry":{"type":"Point","coordinates":[-123.133676,49.17011]}},{"properties":{"city":"Richmond","company":"Nader Mir Hosseini","name":"Bean &amp; Beyond Cafe","inspections":1.0,"number":5013865.0,"bg_long":-123.187159,"bg_lat":49.128354,"violations":5.0,"id":"a68o160svtsu","province":"BC","address":"120 - 12420 No. 1 Road Richmond, BC  V7E 6N2","violations/inspection":5.0},"type":"Feature","geometry":{"type":"Point","coordinates":[-123.187159,49.128354]}},{"properties":{"city":"Richmond","company":"Sophie (Cheng Hong) Sun","name":"Big Orange","inspections":3.0,"number":5013871.0,"bg_long":-123.140045,"bg_lat":49.163078,"violations":11.0,"id":"a68o15ve1syc","province":"BC","address":"2261 - 6060 Minoru Boulevard Richmond, BC  V6Y 2V7","violations/inspection":3.666666667},"type":"Feature","geometry":{"type":"Point","coordinates":[-123.140045,49.163078]}},{"properties":{"city":"Richmond","company":"0790546 BC LTD","name":"Chiffon Chinese Cuisine","inspections":3.0,"number":5013875.0,"bg_long":-123.124827,"bg_lat":49.178102,"violations":24.0,"id":"a68o15x2g29x","province":"BC","address":"125 &amp;120 - 4751 Garden City Road Richmond, BC  V6X 3M7","violations/inspection":8.0},"type":"Feature","geometry":{"type":"Point","coordinates":[-123.124827,49.178102]}},{"properties":{"city":"Richmond","company":"The Ivy House Vegetarian Food Services Ltd.","name":"Evergreen Vegetarian House","inspections":1.0,"number":5013901.0,"bg_long":-123.136451,"bg_lat":49.18101,"violations":4.0,"id":"a68o15uaok6f","province":"BC","address":"1155 - 4540 No. 3 Road Richmond, BC  V6X 4E4","violations/inspection":4.0},"type":"Feature","geometry":{"type":"Point","coordinates":[-123.136451,49.18101]}},{"properties":{"city":"Richmond","company":"Roman Catholic Archbishop of Vancouver","name":"St. Monica Parish","inspections":1.0,"number":5013940.0,"bg_long":-123.0913178,"bg_lat":49.1823597,"violations":4.0,"id":"a68o160s6jb8","province":"BC","address":"12011 Woodhead Road Richmond, BC  V6V 1G2","violations/inspection":4.0},"type":"Feature","geometry":{"type":"Point","coordinates":[-123.0913178,49.1823597]}},{"properties":{"city":"Richmond","company":"Lionel Hop","name":"Oasis Cafe","inspections":2.0,"number":5013985.0,"bg_long":-123.182291,"bg_lat":49.1251927,"violations":9.0,"id":"a68o160qbaun","province":"BC","address":"3871 Moncton Street Richmond, BC  V7E 3A7","violations/inspection":4.5},"type":"Feature","geometry":{"type":"Point","coordinates":[-123.182291,49.1251927]}},{"properties":{"city":"Richmond","company":"California Cafe Restaurant Ltd.","name":"California Cafe Restaurant","inspections":2.0,"number":5014009.0,"bg_long":-123.136289,"bg_lat":49.175608,"violations":20.0,"id":"a68o15or8nia","province":"BC","address":"322 - 5300 No. 3 Road Richmond, BC  V6X 2X9","violations/inspection":10.0},"type":"Feature","geometry":{"type":"Point","coordinates":[-123.136289,49.175608]}},{"properties":{"city":"Richmond","company":"Alex Dolovai","name":"Alexander's Bistro","inspections":2.0,"number":5014013.0,"bg_long":-123.159091,"bg_lat":49.151702,"violations":11.0,"id":"a68o161k5hmx","province":"BC","address":"128 - 8100 No. 2 Road Richmond, BC  V7C 3M3","violations/inspection":5.5},"type":"Feature","geometry":{"type":"Point","coordinates":[-123.159091,49.151702]}},{"properties":{"city":"Richmond","company":"North Road Trading Ltd.","name":"Dai Jang Kum Restaurant","inspections":3.0,"number":5014022.0,"bg_long":-123.112158,"bg_lat":49.191927,"violations":29.0,"id":"a68o15ps9vto","province":"BC","address":"109 - 3088 St. Edwards Drive   Richmond, BC  V6X 4C4","violations/inspection":9.666666667},"type":"Feature","geometry":{"type":"Point","coordinates":[-123.112158,49.191927]}},{"properties":{"city":"Richmond","company":"McDonald's Restaurants of Canada","name":"McDonald's Restaurants - Cambie","inspections":1.0,"number":5014034.0,"bg_long":-123.105431,"bg_lat":49.184478,"violations":3.0,"id":"a68o163jf8bk","province":"BC","address":"115 - 10700 Cambie Road Richmond, BC  V6X 1K8","violations/inspection":3.0},"type":"Feature","geometry":{"type":"Point","coordinates":[-123.105431,49.184478]}},{"properties":{"city":"Richmond","company":"Etsuo Shimizu","name":"Sushi Ten","inspections":4.0,"number":5014035.0,"bg_long":-123.1823969,"bg_lat":49.1251673,"violations":25.0,"id":"a68o163h8chs","province":"BC","address":"3804 Moncton Street Richmond, BC  V7E 3A6","violations/inspection":6.25},"type":"Feature","geometry":{"type":"Point","coordinates":[-123.1823969,49.1251673]}},{"properties":{"city":"Richmond","company":"King Lee Enterprises Ltd.","name":"Kingspark Steakhouse Restaurant","inspections":2.0,"number":5014040.0,"bg_long":-123.134042,"bg_lat":49.170111,"violations":10.0,"id":"a68o15s6s0pp","province":"BC","address":"180 - 8291 Westminster Highway Richmond, BC  V6X 1A7","violations/inspection":5.0},"type":"Feature","geometry":{"type":"Point","coordinates":[-123.134042,49.170111]}},{"properties":{"city":"Richmond","company":"KWT Space Design Ltd","name":"Lucky Mart","inspections":1.0,"number":5014042.0,"bg_long":-123.136282,"bg_lat":49.177902,"violations":11.0,"id":"a68o15s6x35g","province":"BC","address":"121 - 4940 No. 3 Road Richmond, BC  V6X 3A5","violations/inspection":11.0},"type":"Feature","geometry":{"type":"Point","coordinates":[-123.136282,49.177902]}},{"properties":{"city":"Richmond","company":"Butcher's Best Meat Market Inc.","name":"Butcher's Best Meat","inspections":5.0,"number":5014052.0,"bg_long":-123.140045,"bg_lat":49.163078,"violations":29.0,"id":"a68o15x3891y","province":"BC","address":"1778 - 6060 Minoru Boulevard Richmond, BC  V6Y 2V7","violations/inspection":5.8},"type":"Feature","geometry":{"type":"Point","coordinates":[-123.140045,49.163078]}},{"properties":{"city":"Richmond","company":"Lawrence Chan","name":"Red Palms Malaysian Pondok Inc.","inspections":1.0,"number":5014085.0,"bg_long":-123.134042,"bg_lat":49.170111,"violations":3.0,"id":"a68o15vhh8ns","province":"BC","address":"130-140 - 8291 Westminster Highway Richmond, BC  V6X 1A7","violations/inspection":3.0},"type":"Feature","geometry":{"type":"Point","coordinates":[-123.134042,49.170111]}},{"properties":{"city":"Richmond","company":"Narbada Langham &amp; DeAnn McBride","name":"Alegria Cafe &amp; Giftware Ltd","inspections":2.0,"number":5014100.0,"bg_long":-123.1827431,"bg_lat":49.1253804,"violations":6.0,"id":"a68o15qlps2t","province":"BC","address":"12151 First Avenue Richmond, BC  V7E 3M1","violations/inspection":3.0},"type":"Feature","geometry":{"type":"Point","coordinates":[-123.1827431,49.1253804]}},{"properties":{"city":"Richmond","company":"649168 BC Ltd.","name":"Also Restaurant and Lounge","inspections":1.0,"number":5014104.0,"bg_long":-123.126867,"bg_lat":49.184119,"violations":19.0,"id":"a68o15zkwala","province":"BC","address":"120 - 4200 No. 3 Road Richmond, BC  V6X 3Z8","violations/inspection":19.0},"type":"Feature","geometry":{"type":"Point","coordinates":[-123.126867,49.184119]}},{"properties":{"city":"Richmond","company":"0705113 BC  Ltd.","name":"Mac's Convenience Store - #1197","inspections":1.0,"number":5014105.0,"bg_long":-123.102025,"bg_lat":49.140611,"violations":3.0,"id":"a68o15o87aqk","province":"BC","address":"110 - 11000 Williams Road Richmond, BC  V7A 1X8","violations/inspection":3.0},"type":"Feature","geometry":{"type":"Point","coordinates":[-123.102025,49.140611]}},{"properties":{"city":"Richmond","company":"Tsai Tsung-Sin","name":"At Ease Taiwanese Cuisine","inspections":1.0,"number":5014112.0,"bg_long":-123.131201,"bg_lat":49.188196,"violations":4.0,"id":"a68o15wje8py","province":"BC","address":"1028 - 8300 Capstan Way Richmond, BC  V6X 4B7","violations/inspection":4.0},"type":"Feature","geometry":{"type":"Point","coordinates":[-123.131201,49.188196]}},{"properties":{"city":"Richmond","company":"Harvest Moon Bakery Boutique Ltd.","name":"Harvest Moon Bakery Boutique","inspections":2.0,"number":5014176.0,"bg_long":-123.138373,"bg_lat":49.170291,"violations":13.0,"id":"a68o15wjzfg1","province":"BC","address":"150 - 7771 Westminster Highway Richmond, BC  V6X 1A4","violations/inspection":6.5},"type":"Feature","geometry":{"type":"Point","coordinates":[-123.138373,49.170291]}},{"properties":{"city":"Richmond","company":"0763746 B.C. Ltd.","name":"Amato Gelato Cafe","inspections":1.0,"number":5014181.0,"bg_long":-123.136768,"bg_lat":49.170711,"violations":4.0,"id":"a68o15tv4udv","province":"BC","address":"100 - 5951 No. 3 Road Richmond, BC  V6X 2E3","violations/inspection":4.0},"type":"Feature","geometry":{"type":"Point","coordinates":[-123.136768,49.170711]}},{"properties":{"city":"Richmond","company":"TW Van Trading Ltd.","name":"Comic Station Cafe","inspections":4.0,"number":5014185.0,"bg_long":-123.124815,"bg_lat":49.178981,"violations":20.0,"id":"a68o1627t1ml","province":"BC","address":"2110 - 4653 Garden City Road Richmond, BC  V6X 4B8","violations/inspection":5.0},"type":"Feature","geometry":{"type":"Point","coordinates":[-123.124815,49.178981]}},{"properties":{"city":"Richmond","company":"IKen Music Inc.","name":"More Noodle Soup","inspections":1.0,"number":5014186.0,"bg_long":-123.126987,"bg_lat":49.183493,"violations":5.0,"id":"a68o15r7cf31","province":"BC","address":"2093/2098 - 8700 McKim Way Richmond, BC  V6X 4A5","violations/inspection":5.0},"type":"Feature","geometry":{"type":"Point","coordinates":[-123.126987,49.183493]}},{"properties":{"city":"Richmond","company":"Paolo Medrano","name":"Powerhouse Athletica","inspections":1.0,"number":5014217.0,"bg_long":-123.152672,"bg_lat":49.170493,"violations":3.0,"id":"a68o161sp6xl","province":"BC","address":"172 - 7011 Elmbridge Way Richmond, BC  V7C 5C2","violations/inspection":3.0},"type":"Feature","geometry":{"type":"Point","coordinates":[-123.152672,49.170493]}},{"properties":{"city":"Richmond","company":"DIRS Enterprises Inc.","name":"Pisces Fish &amp; Chips","inspections":2.0,"number":5014220.0,"bg_long":-123.182276,"bg_lat":49.170204,"violations":5.0,"id":"a68o15peq9ys","province":"BC","address":"115 - 3675 Westminster Highway Richmond, BC  V7C 5V2","violations/inspection":2.5},"type":"Feature","geometry":{"type":"Point","coordinates":[-123.182276,49.170204]}},{"properties":{"city":"Richmond","company":"Nuestra Familia Cigar Co. Ltd.","name":"Robusto","inspections":3.0,"number":5014240.0,"bg_long":-123.187159,"bg_lat":49.128354,"violations":7.0,"id":"a68o15vk0m32","province":"BC","address":"160 - 13020 No. 2 Road Richmond, BC  V7E 6S3","violations/inspection":2.333333333},"type":"Feature","geometry":{"type":"Point","coordinates":[-123.187159,49.128354]}},{"properties":{"city":"Richmond","company":"738 Oakview Holdings Ltd. dba Gingeri Chinese Cuisine","name":"Gingeri Chinese Cuisine","inspections":3.0,"number":5014242.0,"bg_long":-123.136289,"bg_lat":49.175608,"violations":23.0,"id":"a68o15r5c9jc","province":"BC","address":"323 - 5300 No. 3 Road Richmond, BC  V6X 2X9","violations/inspection":7.666666667},"type":"Feature","geometry":{"type":"Point","coordinates":[-123.136289,49.175608]}},{"properties":{"city":"Richmond","company":"Andrei Vaguine","name":"Blenz Coffee - Steveston","inspections":2.0,"number":5014251.0,"bg_long":-123.182842,"bg_lat":49.123872,"violations":12.0,"id":"a68o15om7d0t","province":"BC","address":"105 - 3900 Bayview Street Richmond, BC  V7E 4R7","violations/inspection":6.0},"type":"Feature","geometry":{"type":"Point","coordinates":[-123.182842,49.123872]}},{"properties":{"city":"Richmond","company":"Yunchu Kitchen Co. Ltd.","name":"Paul's Kitchen","inspections":4.0,"number":5014264.0,"bg_long":-123.13671,"bg_lat":49.179048,"violations":11.0,"id":"a68o161edqns","province":"BC","address":"135 - 4651 No. 3 Road Richmond, BC  V6X 2C4","violations/inspection":2.75},"type":"Feature","geometry":{"type":"Point","coordinates":[-123.13671,49.179048]}},{"properties":{"city":"Richmond","company":"Lung Kee Congee &amp; Noodles Ltd.","name":"Lung Kee Congee &amp; Noodles Ltd.","inspections":2.0,"number":5014269.0,"bg_long":-123.133424,"bg_lat":49.183445,"violations":14.0,"id":"a68o15yw92ec","province":"BC","address":"3230 - 4151 Hazelbridge Way Richmond, BC  V6X 4J7","violations/inspection":7.0},"type":"Feature","geometry":{"type":"Point","coordinates":[-123.133424,49.183445]}},{"properties":{"city":"Richmond","company":"Georgiana Yau","name":"DGY High Tea","inspections":2.0,"number":5014284.0,"bg_long":-123.126987,"bg_lat":49.183493,"violations":5.0,"id":"a68o1634yqdv","province":"BC","address":"2108 - 8700 McKim Way Richmond, BC  V6X 4A5","violations/inspection":2.5},"type":"Feature","geometry":{"type":"Point","coordinates":[-123.126987,49.183493]}},{"properties":{"city":"Richmond","company":"Norman Ng","name":"Hainanese Chicken","inspections":1.0,"number":5014288.0,"bg_long":-123.133424,"bg_lat":49.183445,"violations":3.0,"id":"a68o161s2jm5","province":"BC","address":"3210 - 4151 Hazelbridge Way Richmond, BC  V6X 4J7","violations/inspection":3.0},"type":"Feature","geometry":{"type":"Point","coordinates":[-123.133424,49.183445]}},{"properties":{"city":"Richmond","company":"An Nam Restaurant Ltd.","name":"An Nam Restaurant Ltd.","inspections":2.0,"number":5014302.0,"bg_long":-123.132624,"bg_lat":49.1626527,"violations":28.0,"id":"a68o15qns06r","province":"BC","address":"8280 Granville Avenue Richmond, BC  V6Y 1P3","violations/inspection":14.0},"type":"Feature","geometry":{"type":"Point","coordinates":[-123.132624,49.1626527]}},{"properties":{"city":"Richmond","company":"Janet Lau Po Kam","name":"JAC Fast Food","inspections":3.0,"number":5014363.0,"bg_long":-123.126987,"bg_lat":49.183493,"violations":13.0,"id":"a68o15y189ov","province":"BC","address":"2088 - 8700 McKim Way Richmond, BC  V6X 4A5","violations/inspection":4.333333333},"type":"Feature","geometry":{"type":"Point","coordinates":[-123.126987,49.183493]}},{"properties":{"city":"Richmond","company":"Hua Ding Enterprises Ltd.","name":"Shanghai Shanghai","inspections":3.0,"number":5014373.0,"bg_long":-123.133424,"bg_lat":49.183445,"violations":33.0,"id":"a68o15ppk193","province":"BC","address":"3010 - 4151  Hazelbridge Way Richmond, BC  V6X 4J7","violations/inspection":11.0},"type":"Feature","geometry":{"type":"Point","coordinates":[-123.133424,49.183445]}},{"properties":{"city":"Richmond","company":"669743 B.C. Ltd.","name":"Saint Germaine Bakery","inspections":2.0,"number":5014385.0,"bg_long":-123.133424,"bg_lat":49.183445,"violations":4.0,"id":"a68o15povw59","province":"BC","address":"1428 - 4151 Hazelbridge Way Richmond, BC  V6X 4J7","violations/inspection":2.0},"type":"Feature","geometry":{"type":"Point","coordinates":[-123.133424,49.183445]}},{"properties":{"city":"Richmond","company":"0839694 B.C. Ltd.","name":"Seventh Heaven Cafe","inspections":4.0,"number":5014389.0,"bg_long":-123.133424,"bg_lat":49.183445,"violations":38.0,"id":"a68o15ocit0t","province":"BC","address":"2792 - 4151 Hazelbridge Way Richmond, BC  V6X 4J7","violations/inspection":9.5},"type":"Feature","geometry":{"type":"Point","coordinates":[-123.133424,49.183445]}},{"properties":{"city":"Richmond","company":"Paul &amp; Peter Ent. Inc.","name":"Pat's Galley","inspections":3.0,"number":5014418.0,"bg_long":-123.182842,"bg_lat":49.123872,"violations":15.0,"id":"a68o15oxum72","province":"BC","address":"110 - 3900 Bayview Street Richmond, BC  V7E 4R7","violations/inspection":5.0},"type":"Feature","geometry":{"type":"Point","coordinates":[-123.182842,49.123872]}},{"properties":{"city":"Richmond","company":"Allan Yeo","name":"Correlis Mediterranean Grill","inspections":3.0,"number":5014441.0,"bg_long":-123.182842,"bg_lat":49.123872,"violations":21.0,"id":"a68o15o9reyr","province":"BC","address":"160 - 3900 Bayview Street Richmond, BC  V7E 4R7","violations/inspection":7.0},"type":"Feature","geometry":{"type":"Point","coordinates":[-123.182842,49.123872]}},{"properties":{"city":"Richmond","company":"Van Cheong Tea Palace","name":"Van Cheong Tea Palace","inspections":3.0,"number":5014459.0,"bg_long":-123.133424,"bg_lat":49.183445,"violations":56.0,"id":"a68o15ucnfzj","province":"BC","address":"2800 - 4151 Hazelbridge Way Richmond, BC  V6X 4J7","violations/inspection":18.66666667},"type":"Feature","geometry":{"type":"Point","coordinates":[-123.133424,49.183445]}},{"properties":{"city":"Richmond","company":"Bean Factory Ltd","name":"Bean Factor Ltd. DBA Beard Papa's Canada Store","inspections":1.0,"number":5014473.0,"bg_long":-123.133424,"bg_lat":49.183445,"violations":2.0,"id":"a68o15prv1a4","province":"BC","address":"3160 - 4151 Hazelbridge Way Richmond, BC  V6X 4J7","violations/inspection":2.0},"type":"Feature","geometry":{"type":"Point","coordinates":[-123.133424,49.183445]}},{"properties":{"city":"Richmond","company":"Amy Lai","name":"Amy's Dessert","inspections":1.0,"number":5014478.0,"bg_long":-123.135095,"bg_lat":49.168739,"violations":10.0,"id":"a68o161su7ix","province":"BC","address":"180 - 8188 Saba Road Richmond, BC  V6Y 4B2","violations/inspection":10.0},"type":"Feature","geometry":{"type":"Point","coordinates":[-123.135095,49.168739]}},{"properties":{"city":"Richmond","company":"Vicent Yin","name":"Four Seasons Hot Pot Restaurant","inspections":2.0,"number":5014481.0,"bg_long":-123.133424,"bg_lat":49.183445,"violations":16.0,"id":"a68o15zca2ko","province":"BC","address":"3600 - 4151 Hazelbridge Way Richmond, BC  V6X 4J7","violations/inspection":8.0},"type":"Feature","geometry":{"type":"Point","coordinates":[-123.133424,49.183445]}},{"properties":{"city":"Richmond","company":"Great Snack Services Ltd.","name":"Szechwan Restaurant","inspections":5.0,"number":5014546.0,"bg_long":-123.135095,"bg_lat":49.168739,"violations":89.0,"id":"a68o15yfn087","province":"BC","address":"110 - 8188 Saba Road Richmond, BC  V6Y 4B2","violations/inspection":17.8},"type":"Feature","geometry":{"type":"Point","coordinates":[-123.135095,49.168739]}},{"properties":{"city":"Richmond","company":"Teresa Troock","name":"Triple O White Spot","inspections":1.0,"number":5014549.0,"bg_long":-123.0913378,"bg_lat":49.19199,"violations":1.0,"id":"a68o162fbwje","province":"BC","address":"12011 Bridgeport Road Richmond, BC  V6V 1J4","violations/inspection":1.0},"type":"Feature","geometry":{"type":"Point","coordinates":[-123.0913378,49.19199]}},{"properties":{"city":"Richmond","company":"Stephen Ward","name":"Mercato Nel Vicolo","inspections":1.0,"number":5014551.0,"bg_long":-123.187159,"bg_lat":49.128354,"violations":4.0,"id":"a68o15w7r0ng","province":"BC","address":"130 - 12251 No. 1 Road Richmond, BC  V7E 1T6","violations/inspection":4.0},"type":"Feature","geometry":{"type":"Point","coordinates":[-123.187159,49.128354]}},{"properties":{"city":"Richmond","company":"Steve Clair","name":"Reflex/Powerhouse Food and Shake Bar","inspections":2.0,"number":5014568.0,"bg_long":-123.084241,"bg_lat":49.19186,"violations":6.0,"id":"a68o15xmu61n","province":"BC","address":"130 - 12560 Bridgeport Road Richmond, BC  V6V 2N5","violations/inspection":3.0},"type":"Feature","geometry":{"type":"Point","coordinates":[-123.084241,49.19186]}},{"properties":{"city":"Richmond","company":"Carole Urchenko","name":"Edibles Ent. Inc. dba Gourmet Cup Beverage Station","inspections":1.0,"number":5014590.0,"bg_long":-123.136289,"bg_lat":49.175608,"violations":1.0,"id":"a68o15o374gc","province":"BC","address":"623 - 5300 No. 3 Road Richmond, BC  V6X 2X9","violations/inspection":1.0},"type":"Feature","geometry":{"type":"Point","coordinates":[-123.136289,49.175608]}},{"properties":{"city":"Richmond","company":"Great Canadian Casinos","name":"River Rock Casino Resort - Conference Centre","inspections":1.0,"number":5014592.0,"bg_long":-123.1271902,"bg_lat":49.1959625,"violations":3.0,"id":"a68o15tfdos7","province":"BC","address":"8811 River Road Richmond, BC  V6X 3P8","violations/inspection":3.0},"type":"Feature","geometry":{"type":"Point","coordinates":[-123.1271902,49.1959625]}},{"properties":{"city":"Richmond","company":"Castle Cake Shop Ltd.","name":"Castle Cake Shop","inspections":1.0,"number":5014605.0,"bg_long":-123.130952,"bg_lat":49.17843,"violations":2.0,"id":"a68o15q827hp","province":"BC","address":"175 - 8291 Alexandra Road Richmond, BC  V6X 1C3","violations/inspection":2.0},"type":"Feature","geometry":{"type":"Point","coordinates":[-123.130952,49.17843]}},{"properties":{"city":"Richmond","company":"Shota Development Inc.","name":"Shota Japanese Cuisine","inspections":4.0,"number":5014608.0,"bg_long":-123.138373,"bg_lat":49.170291,"violations":54.0,"id":"a68o15pp8p9c","province":"BC","address":"100 - 7831 Westminster Highway Richmond, BC  V6X 1A4","violations/inspection":13.5},"type":"Feature","geometry":{"type":"Point","coordinates":[-123.138373,49.170291]}},{"properties":{"city":"Richmond","company":"Sushikan Aberdeen Co. Ltd.","name":"Kitanoya Guu in Aberdeen","inspections":4.0,"number":5014609.0,"bg_long":-123.133424,"bg_lat":49.183445,"violations":36.0,"id":"a68o15vn1t00","province":"BC","address":"2790 - 4151 Hazelbridge Way Richmond, BC  V6X 4J7","violations/inspection":9.0},"type":"Feature","geometry":{"type":"Point","coordinates":[-123.133424,49.183445]}},{"properties":{"city":"Richmond","company":"Brothers Halal Meats &amp; Deli Ltd.","name":"Brothers Halal Meat &amp; Deli Ltd.","inspections":2.0,"number":5014614.0,"bg_long":-123.091376,"bg_lat":49.184326,"violations":8.0,"id":"a68o160lmijx","province":"BC","address":"120 - 4020 No. 5 Road Richmond, BC  V6X 2V1","violations/inspection":4.0},"type":"Feature","geometry":{"type":"Point","coordinates":[-123.091376,49.184326]}},{"properties":{"city":"Richmond","company":"Daiji Matsubara","name":"Kintaro Ramen","inspections":1.0,"number":5014620.0,"bg_long":-123.134042,"bg_lat":49.170111,"violations":4.0,"id":"a68o161jzy4x","province":"BC","address":"110 - 8291 Westminster Highway Richmond, BC  V6X 1A7","violations/inspection":4.0},"type":"Feature","geometry":{"type":"Point","coordinates":[-123.134042,49.170111]}}],"is_temporal":false,"author":{"url":"","metadata":"","contact_name":"","contact_address":"","source":"","contact_phone":""},"source":"","pagination":{"sort":null,"start":0,"total":395,"limit":1000000},"state":"complete","tags":"","published":"2010-01-06T17:00:00Z","id":19868}