{"type":"FeatureCollection","data_type":"Dataset","url_type":null,"permissions":[{"permissions":{"download":true,"view":true},"group_id":"everyone"}],"classification":null,"title":"A Wrinkle in Time, International Reviews, Book-Crossing Dataset","count":155,"stream_id":19879,"contributor":{"url":"http://geocommons.com/users/2943","name":"Margot"},"data_attributes":null,"calculation_params":null,"icon_link":null,"link":"http://geocommons.com/overlays/19879.json","extent":[-158.026,-33.8696,151.207,61.2176],"geometry_types":["point"],"unique_name":null,"name":"A Wrinkle in Time, International Reviews, Book-Crossing Dataset","feature_count":155,"description":"\t\nCollected by Cai-Nicolas Ziegler in a 4-week crawl (August / September 2004) from the Book-Crossing community with kind permission from Ron Hornbaker, CTO of Humankind Systems. Contains 278,858 users (anonymized but with demographic information) providing 1,149,780 ratings (explicit / implicit) about 271,379 books.\n\n[ ! ] Freely available for research use when acknowledged with the following reference (further details on the dataset are given in this publication):\nImproving Recommendation Lists Through Topic Diversification,\nCai-Nicolas Ziegler, Sean M. McNee, Joseph A. Konstan, Georg Lausen; Proceedings of the 14th International World Wide Web Conference (WWW '05), May 10-14, 2005, Chiba, Japan. To appear\n\nContains the book rating information. Ratings (`Book-Rating`) are either explicit, expressed on a scale from 1-10 (higher values denoting higher appreciation), or implicit, expressed by 0.","next_feature":null,"is_raster":false,"short_classification":"Y","stats":{"isbn":{"max":440998050.0,"mean":437715077.490323,"variance":190990202179397.0,"stdev":13819920.4838305,"min":374386137.0,"median":440498058.0},"latitude":{"max":61.21759,"mean":38.056618716129,"variance":83.0145848084124,"stdev":9.11123398933495,"min":-33.869629,"median":38.993265},"book-rating":{"max":10.0,"mean":8.73548387096774,"variance":2.3646418098031,"stdev":1.53773918783489,"min":1.0,"median":9.0},"user-id":{"max":276804.0,"mean":126044.380645161,"variance":5090477268.9256,"stdev":71347.5806802557,"min":3167.0,"median":116073.0},"longitude":{"max":151.206955,"mean":-89.9854374580645,"variance":1366.27665999158,"stdev":36.9631797873449,"min":-158.025549,"median":-88.143045}},"features":[{"properties":{"city":"New Yoek","isbn":440498058.0,"latitude":42.568039,"book-rating":7.0,"title":"A Wrinkle In Time","user-id":100357.0,"longitude":-75.527061,"id":"a651ghg8soky","state":"New York"},"type":"Feature","geometry":{"type":"Point","coordinates":[-75.527061,42.568039]}},{"properties":{"city":"Baltimore","isbn":440998050.0,"latitude":39.290555,"book-rating":9.0,"title":"A Wrinkle in Time","user-id":102915.0,"longitude":-76.609604,"id":"a651ghimt6y4","state":"Maryland"},"type":"Feature","geometry":{"type":"Point","coordinates":[-76.609604,39.290555]}},{"properties":{"city":"Pittsburgh","isbn":440498058.0,"latitude":40.438315,"book-rating":9.0,"title":"A Wrinkle In Time","user-id":105214.0,"longitude":-79.997449,"id":"a651ghfatl7z","state":"Pennsylvania"},"type":"Feature","geometry":{"type":"Point","coordinates":[-79.997449,40.438315]}},{"properties":{"city":"La Mesa","isbn":440998050.0,"latitude":32.766024,"book-rating":8.0,"title":"A Wrinkle in Time","user-id":105221.0,"longitude":-117.023559,"id":"a651ghbj1qrk","state":"California"},"type":"Feature","geometry":{"type":"Point","coordinates":[-117.023559,32.766024]}},{"properties":{"city":"Calgary","isbn":440498058.0,"latitude":51.04522,"book-rating":7.0,"title":"A Wrinkle In Time","user-id":105517.0,"longitude":-114.063014,"id":"a651ghgik3f9","state":"Alberta"},"type":"Feature","geometry":{"type":"Point","coordinates":[-114.063014,51.04522]}},{"properties":{"city":"Mishawaka","isbn":440498058.0,"latitude":41.66017,"book-rating":10.0,"title":"A Wrinkle In Time","user-id":106682.0,"longitude":-86.172579,"id":"a651ghhk7xst","state":"Indiana"},"type":"Feature","geometry":{"type":"Point","coordinates":[-86.172579,41.66017]}},{"properties":{"city":"Richmond","isbn":440498058.0,"latitude":37.74881,"book-rating":9.0,"title":"A Wrinkle In Time","user-id":10819.0,"longitude":-84.297574,"id":"a651gh4qy5rg","state":"Kentucky"},"type":"Feature","geometry":{"type":"Point","coordinates":[-84.297574,37.74881]}},{"properties":{"city":"Rochester","isbn":440998050.0,"latitude":42.683184,"book-rating":9.0,"title":"A Wrinkle in Time","user-id":108352.0,"longitude":-83.137019,"id":"a651ghaypfnx","state":"Michigan"},"type":"Feature","geometry":{"type":"Point","coordinates":[-83.137019,42.683184]}},{"properties":{"city":"Arab","isbn":440998050.0,"latitude":34.322876,"book-rating":10.0,"title":"A Wrinkle in Time","user-id":109779.0,"longitude":-86.49535,"id":"a651ghiwawmt","state":"Alabama"},"type":"Feature","geometry":{"type":"Point","coordinates":[-86.49535,34.322876]}},{"properties":{"city":"Fredericton","isbn":374386137.0,"latitude":45.96064,"book-rating":10.0,"title":"A Wrinkle in Time","user-id":110483.0,"longitude":-66.639124,"id":"a651gh93rp1p","state":"New Brunswick"},"type":"Feature","geometry":{"type":"Point","coordinates":[-66.639124,45.96064]}},{"properties":{"city":"Syracuse","isbn":440998050.0,"latitude":43.04999,"book-rating":5.0,"title":"A Wrinkle in Time","user-id":113227.0,"longitude":-76.147389,"id":"a651ghc86c4d","state":"New York"},"type":"Feature","geometry":{"type":"Point","coordinates":[-76.147389,43.04999]}},{"properties":{"city":"Calgary","isbn":440998050.0,"latitude":51.04522,"book-rating":8.0,"title":"A Wrinkle in Time","user-id":113334.0,"longitude":-114.063014,"id":"a651ghcqqrdn","state":"Alberta"},"type":"Feature","geometry":{"type":"Point","coordinates":[-114.063014,51.04522]}},{"properties":{"city":"Webster","isbn":440498058.0,"latitude":43.217305,"book-rating":7.0,"title":"A Wrinkle In Time","user-id":113955.0,"longitude":-77.430164,"id":"a651ghgo6lob","state":"New York"},"type":"Feature","geometry":{"type":"Point","coordinates":[-77.430164,43.217305]}},{"properties":{"city":"Goodyear","isbn":440220394.0,"latitude":33.436305,"book-rating":7.0,"title":"A Wrinkle in Time","user-id":114258.0,"longitude":-112.358299,"id":"a651ghgoe5iz","state":"Arizona"},"type":"Feature","geometry":{"type":"Point","coordinates":[-112.358299,33.436305]}},{"properties":{"city":"Darlington","isbn":440498058.0,"latitude":34.302464,"book-rating":8.0,"title":"A Wrinkle In Time","user-id":115572.0,"longitude":-79.871629,"id":"a651ghjs5jiu","state":"South Carolina"},"type":"Feature","geometry":{"type":"Point","coordinates":[-79.871629,34.302464]}},{"properties":{"city":"Columbus","isbn":440998050.0,"latitude":39.96196,"book-rating":9.0,"title":"A Wrinkle in Time","user-id":116073.0,"longitude":-83.002984,"id":"a651ghhgndeg","state":"Ohio"},"type":"Feature","geometry":{"type":"Point","coordinates":[-83.002984,39.96196]}},{"properties":{"city":"Murrells Inlet","isbn":440498058.0,"latitude":33.54816,"book-rating":10.0,"title":"A Wrinkle In Time","user-id":120327.0,"longitude":-79.044499,"id":"a651ghj9rtdm","state":"South Carolina"},"type":"Feature","geometry":{"type":"Point","coordinates":[-79.044499,33.54816]}},{"properties":{"city":"Chilhowie","isbn":440998050.0,"latitude":36.800079,"book-rating":8.0,"title":"A Wrinkle in Time","user-id":121330.0,"longitude":-81.679868,"id":"a651gh3k3d0u","state":"Virginia"},"type":"Feature","geometry":{"type":"Point","coordinates":[-81.679868,36.800079]}},{"properties":{"city":"Kamuela","isbn":440998050.0,"latitude":20.02034,"book-rating":7.0,"title":"A Wrinkle in Time","user-id":122429.0,"longitude":-155.669024,"id":"a651ghhe98i9","state":"Hawaii"},"type":"Feature","geometry":{"type":"Point","coordinates":[-155.669024,20.02034]}},{"properties":{"city":"Des Moines","isbn":440498058.0,"latitude":41.58979,"book-rating":10.0,"title":"A Wrinkle In Time","user-id":122542.0,"longitude":-93.615659,"id":"a651gh6ee1l3","state":"Iowa"},"type":"Feature","geometry":{"type":"Point","coordinates":[-93.615659,41.58979]}},{"properties":{"city":"Circleville","isbn":440998050.0,"latitude":39.60089,"book-rating":10.0,"title":"A Wrinkle in Time","user-id":123257.0,"longitude":-82.941834,"id":"a651gh5omhbg","state":"Ohio"},"type":"Feature","geometry":{"type":"Point","coordinates":[-82.941834,39.60089]}},{"properties":{"city":"Byron","isbn":440800544.0,"latitude":44.03263,"book-rating":9.0,"title":"A Wrinkle in Time","user-id":12537.0,"longitude":-92.646164,"id":"a651ghiqw34h","state":"Minnesota"},"type":"Feature","geometry":{"type":"Point","coordinates":[-92.646164,44.03263]}},{"properties":{"city":"Apache Junction","isbn":440998050.0,"latitude":33.42314,"book-rating":10.0,"title":"A Wrinkle in Time","user-id":129338.0,"longitude":-111.546119,"id":"a651ghap4ddm","state":"Arizona"},"type":"Feature","geometry":{"type":"Point","coordinates":[-111.546119,33.42314]}},{"properties":{"city":"West Valley City","isbn":440998050.0,"latitude":40.6941,"book-rating":10.0,"title":"A Wrinkle in Time","user-id":131837.0,"longitude":-111.957979,"id":"a651gh9dplzs","state":"Utah"},"type":"Feature","geometry":{"type":"Point","coordinates":[-111.957979,40.6941]}},{"properties":{"city":"Kansas City","isbn":440998050.0,"latitude":39.10296,"book-rating":10.0,"title":"A Wrinkle in Time","user-id":132276.0,"longitude":-94.583062,"id":"a651ghhiiz9y","state":"Missouri"},"type":"Feature","geometry":{"type":"Point","coordinates":[-94.583062,39.10296]}},{"properties":{"city":"San Francsico","isbn":440998050.0,"latitude":37.7796,"book-rating":9.0,"title":"A Wrinkle in Time","user-id":134403.0,"longitude":-122.420139,"id":"a651ghc2oa87","state":"California"},"type":"Feature","geometry":{"type":"Point","coordinates":[-122.420139,37.7796]}},{"properties":{"city":"San Jose","isbn":440498058.0,"latitude":37.338475,"book-rating":10.0,"title":"A Wrinkle In Time","user-id":135064.0,"longitude":-121.885794,"id":"a651ghejem66","state":"California"},"type":"Feature","geometry":{"type":"Point","coordinates":[-121.885794,37.338475]}},{"properties":{"city":"Ft. Pierce","isbn":440998050.0,"latitude":27.44865,"book-rating":8.0,"title":"A Wrinkle in Time","user-id":135149.0,"longitude":-80.326614,"id":"a651ghcluq3q","state":"Florida"},"type":"Feature","geometry":{"type":"Point","coordinates":[-80.326614,27.44865]}},{"properties":{"city":"Richmond","isbn":440498058.0,"latitude":37.74881,"book-rating":8.0,"title":"A Wrinkle In Time","user-id":136430.0,"longitude":-84.297574,"id":"a651gh5ebdto","state":"Kentucky"},"type":"Feature","geometry":{"type":"Point","coordinates":[-84.297574,37.74881]}},{"properties":{"city":"Waipahu","isbn":440498058.0,"latitude":21.385712,"book-rating":10.0,"title":"A Wrinkle In Time","user-id":142121.0,"longitude":-158.003335,"id":"a651ghhzsof4","state":"Hawaii"},"type":"Feature","geometry":{"type":"Point","coordinates":[-158.003335,21.385712]}},{"properties":{"city":"Pleasanton","isbn":440498058.0,"latitude":37.658034,"book-rating":8.0,"title":"A Wrinkle In Time","user-id":144531.0,"longitude":-121.87722,"id":"a651gh3v6irq","state":"California"},"type":"Feature","geometry":{"type":"Point","coordinates":[-121.87722,37.658034]}},{"properties":{"city":"Oakland","isbn":440498058.0,"latitude":37.805065,"book-rating":8.0,"title":"A Wrinkle In Time","user-id":148604.0,"longitude":-122.273024,"id":"a651gheoggej","state":"California"},"type":"Feature","geometry":{"type":"Point","coordinates":[-122.273024,37.805065]}},{"properties":{"city":"Campbellsport","isbn":440498058.0,"latitude":43.59811,"book-rating":9.0,"title":"A Wrinkle In Time","user-id":148744.0,"longitude":-88.283704,"id":"a651gh85yee7","state":"Wisconsin"},"type":"Feature","geometry":{"type":"Point","coordinates":[-88.283704,43.59811]}},{"properties":{"city":"Scottsdale","isbn":440498058.0,"latitude":33.49401,"book-rating":9.0,"title":"A Wrinkle In Time","user-id":150661.0,"longitude":-111.921409,"id":"a651ghe05y15","state":"Arizona"},"type":"Feature","geometry":{"type":"Point","coordinates":[-111.921409,33.49401]}},{"properties":{"city":"Greencastle","isbn":440998050.0,"latitude":39.790425,"book-rating":10.0,"title":"A Wrinkle in Time","user-id":150979.0,"longitude":-77.728354,"id":"a651ghaaay4s","state":"Pennsylvania"},"type":"Feature","geometry":{"type":"Point","coordinates":[-77.728354,39.790425]}},{"properties":{"city":"Easthampton","isbn":440998050.0,"latitude":42.270792,"book-rating":8.0,"title":"A Wrinkle in Time","user-id":152016.0,"longitude":-72.672184,"id":"a651ghf6wm24","state":"Massachusetts"},"type":"Feature","geometry":{"type":"Point","coordinates":[-72.672184,42.270792]}},{"properties":{"city":"Ft. Stewart","isbn":440220394.0,"latitude":32.08037,"book-rating":8.0,"title":"A Wrinkle in Time","user-id":153662.0,"longitude":-81.634814,"id":"a651gh9iods4","state":"Georgia"},"type":"Feature","geometry":{"type":"Point","coordinates":[-81.634814,32.08037]}},{"properties":{"city":"Sharon Hill","isbn":440998050.0,"latitude":39.90646,"book-rating":9.0,"title":"A Wrinkle in Time","user-id":154844.0,"longitude":-75.272044,"id":"a651gham7pvf","state":"Pennsylvania"},"type":"Feature","geometry":{"type":"Point","coordinates":[-75.272044,39.90646]}},{"properties":{"city":"Tucson","isbn":374386137.0,"latitude":32.221553,"book-rating":9.0,"title":"A Wrinkle in Time","user-id":155027.0,"longitude":-110.969754,"id":"a651gh9ng6fm","state":"Arizona"},"type":"Feature","geometry":{"type":"Point","coordinates":[-110.969754,32.221553]}},{"properties":{"city":"Athens","isbn":440498058.0,"latitude":39.328502,"book-rating":9.0,"title":"A Wrinkle In Time","user-id":15808.0,"longitude":-82.10444,"id":"a651ghiku74f","state":"Ohio"},"type":"Feature","geometry":{"type":"Point","coordinates":[-82.10444,39.328502]}},{"properties":{"city":"Grand Rapids","isbn":440998050.0,"latitude":42.96641,"book-rating":8.0,"title":"A Wrinkle in Time","user-id":162407.0,"longitude":-85.671179,"id":"a651gh4rjghs","state":"Michigan"},"type":"Feature","geometry":{"type":"Point","coordinates":[-85.671179,42.96641]}},{"properties":{"city":"Kelso","isbn":440498058.0,"latitude":46.144256,"book-rating":8.0,"title":"A Wrinkle In Time","user-id":162639.0,"longitude":-122.898679,"id":"a651ghhb3wpu","state":"Washington"},"type":"Feature","geometry":{"type":"Point","coordinates":[-122.898679,46.144256]}},{"properties":{"city":"Thunder Bay","isbn":440998050.0,"latitude":48.3817,"book-rating":8.0,"title":"A Wrinkle in Time","user-id":162995.0,"longitude":-89.245479,"id":"a651gh41ebn3","state":"Ontario"},"type":"Feature","geometry":{"type":"Point","coordinates":[-89.245479,48.3817]}},{"properties":{"city":"Tucson","isbn":440998050.0,"latitude":32.221553,"book-rating":6.0,"title":"A Wrinkle in Time","user-id":165319.0,"longitude":-110.969754,"id":"a651ghdz1j9g","state":"Arizona"},"type":"Feature","geometry":{"type":"Point","coordinates":[-110.969754,32.221553]}},{"properties":{"city":"Berkeley","isbn":440498058.0,"latitude":37.869885,"book-rating":7.0,"title":"A Wrinkle In Time","user-id":16545.0,"longitude":-122.270539,"id":"a651gh5lzssk","state":"California"},"type":"Feature","geometry":{"type":"Point","coordinates":[-122.270539,37.869885]}},{"properties":{"city":"Barneveld","isbn":440998050.0,"latitude":43.273973,"book-rating":9.0,"title":"A Wrinkle in Time","user-id":167389.0,"longitude":-75.190671,"id":"a651ghi3mh9z","state":"New York"},"type":"Feature","geometry":{"type":"Point","coordinates":[-75.190671,43.273973]}},{"properties":{"city":"Fredericton","isbn":440998050.0,"latitude":45.96064,"book-rating":8.0,"title":"A Wrinkle in Time","user-id":168064.0,"longitude":-66.639124,"id":"a651gh3rlp88","state":"New Brunswick"},"type":"Feature","geometry":{"type":"Point","coordinates":[-66.639124,45.96064]}},{"properties":{"city":"Wadsworth","isbn":440998050.0,"latitude":41.0237,"book-rating":2.0,"title":"A Wrinkle in Time","user-id":170499.0,"longitude":-81.729669,"id":"a651gh3vak0a","state":"Ohio"},"type":"Feature","geometry":{"type":"Point","coordinates":[-81.729669,41.0237]}},{"properties":{"city":"Toronto","isbn":440998050.0,"latitude":43.648565,"book-rating":8.0,"title":"A Wrinkle in Time","user-id":171118.0,"longitude":-79.385329,"id":"a651gh5ve1k7","state":"Ontario"},"type":"Feature","geometry":{"type":"Point","coordinates":[-79.385329,43.648565]}},{"properties":{"city":"Toronto","isbn":374386137.0,"latitude":43.648565,"book-rating":8.0,"title":"A Wrinkle in Time","user-id":171118.0,"longitude":-79.385329,"id":"a651ghhv66qb","state":"Ontario"},"type":"Feature","geometry":{"type":"Point","coordinates":[-79.385329,43.648565]}},{"properties":{"city":"Portland","isbn":440498058.0,"latitude":45.511795,"book-rating":9.0,"title":"A Wrinkle In Time","user-id":172061.0,"longitude":-122.675629,"id":"a651ghj9ivrv","state":"Oregon"},"type":"Feature","geometry":{"type":"Point","coordinates":[-122.675629,45.511795]}},{"properties":{"city":"Chicago","isbn":440498058.0,"latitude":41.88415,"book-rating":10.0,"title":"A Wrinkle In Time","user-id":173415.0,"longitude":-87.632409,"id":"a651ghfhjzqb","state":"Illinois"},"type":"Feature","geometry":{"type":"Point","coordinates":[-87.632409,41.88415]}},{"properties":{"city":"Pittsburgh","isbn":440998050.0,"latitude":40.438315,"book-rating":9.0,"title":"A Wrinkle in Time","user-id":173840.0,"longitude":-79.997449,"id":"a651ghcuo32i","state":"Pennsylvania"},"type":"Feature","geometry":{"type":"Point","coordinates":[-79.997449,40.438315]}},{"properties":{"city":"Ginsheim","isbn":440498058.0,"latitude":49.9659,"book-rating":10.0,"title":"A Wrinkle In Time","user-id":182085.0,"longitude":8.34485,"id":"a651gh3tuqmz","state":"Hessen"},"type":"Feature","geometry":{"type":"Point","coordinates":[8.34485,49.9659]}},{"properties":{"city":"Canton","isbn":440998050.0,"latitude":40.79781,"book-rating":7.0,"title":"A Wrinkle in Time","user-id":182373.0,"longitude":-81.371569,"id":"a651ghb3x12y","state":"Ohio"},"type":"Feature","geometry":{"type":"Point","coordinates":[-81.371569,40.79781]}},{"properties":{"city":"Toronto","isbn":440220394.0,"latitude":43.648565,"book-rating":8.0,"title":"A Wrinkle in Time","user-id":183046.0,"longitude":-79.385329,"id":"a651gh4bf91a","state":"Ontario"},"type":"Feature","geometry":{"type":"Point","coordinates":[-79.385329,43.648565]}},{"properties":{"city":"Dunkirk","isbn":440998050.0,"latitude":38.724788,"book-rating":9.0,"title":"A Wrinkle in Time","user-id":183472.0,"longitude":-76.660063,"id":"a651ghi2u1pe","state":"Maryland"},"type":"Feature","geometry":{"type":"Point","coordinates":[-76.660063,38.724788]}},{"properties":{"city":"Vancouver","isbn":440998050.0,"latitude":49.26044,"book-rating":8.0,"title":"A Wrinkle in Time","user-id":184789.0,"longitude":-123.114034,"id":"a651gh5j8qu2","state":"British Columbia"},"type":"Feature","geometry":{"type":"Point","coordinates":[-123.114034,49.26044]}},{"properties":{"city":"Orlando","isbn":440498058.0,"latitude":28.538235,"book-rating":10.0,"title":"A Wrinkle In Time","user-id":187830.0,"longitude":-81.377389,"id":"a651ghejsgju","state":"Florida"},"type":"Feature","geometry":{"type":"Point","coordinates":[-81.377389,28.538235]}},{"properties":{"city":"Honolulu","isbn":440498058.0,"latitude":21.30477,"book-rating":5.0,"title":"A Wrinkle In Time","user-id":189835.0,"longitude":-157.857614,"id":"a651ghjoqpv6","state":"Hawaii"},"type":"Feature","geometry":{"type":"Point","coordinates":[-157.857614,21.30477]}},{"properties":{"city":"Mitchell","isbn":440498058.0,"latitude":43.702125,"book-rating":10.0,"title":"A Wrinkle In Time","user-id":193352.0,"longitude":-98.028914,"id":"a651ghjwxu0i","state":"South Dakota"},"type":"Feature","geometry":{"type":"Point","coordinates":[-98.028914,43.702125]}},{"properties":{"city":"Auburn","isbn":440498058.0,"latitude":32.607465,"book-rating":9.0,"title":"A Wrinkle In Time","user-id":196160.0,"longitude":-85.481735,"id":"a651ghdojwsk","state":"Alabama"},"type":"Feature","geometry":{"type":"Point","coordinates":[-85.481735,32.607465]}},{"properties":{"city":"Kalamazoo","isbn":440800544.0,"latitude":42.292435,"book-rating":10.0,"title":"A Wrinkle in Time","user-id":19962.0,"longitude":-85.601114,"id":"a651gh5hef6w","state":"Michigan"},"type":"Feature","geometry":{"type":"Point","coordinates":[-85.601114,42.292435]}},{"properties":{"city":"Dodge Center","isbn":440498058.0,"latitude":44.03039,"book-rating":10.0,"title":"A Wrinkle In Time","user-id":202127.0,"longitude":-92.859214,"id":"a651gh8hwam6","state":"Minnesota"},"type":"Feature","geometry":{"type":"Point","coordinates":[-92.859214,44.03039]}},{"properties":{"city":"Tampa","isbn":440998050.0,"latitude":27.94653,"book-rating":10.0,"title":"A Wrinkle in Time","user-id":20265.0,"longitude":-82.459269,"id":"a651ghf01c3s","state":"Florida"},"type":"Feature","geometry":{"type":"Point","coordinates":[-82.459269,27.94653]}},{"properties":{"city":"St. Louis","isbn":440498058.0,"latitude":38.62774,"book-rating":9.0,"title":"A Wrinkle In Time","user-id":203240.0,"longitude":-90.199514,"id":"a651ghh1jzf1","state":"Missouri"},"type":"Feature","geometry":{"type":"Point","coordinates":[-90.199514,38.62774]}},{"properties":{"city":"St. Louis","isbn":440998050.0,"latitude":38.62774,"book-rating":8.0,"title":"A Wrinkle in Time","user-id":203240.0,"longitude":-90.199514,"id":"a651gh57yaw8","state":"Missouri"},"type":"Feature","geometry":{"type":"Point","coordinates":[-90.199514,38.62774]}},{"properties":{"city":"Mountain View","isbn":440498058.0,"latitude":37.389475,"book-rating":10.0,"title":"A Wrinkle In Time","user-id":20332.0,"longitude":-122.081694,"id":"a651gh99ocrw","state":"California"},"type":"Feature","geometry":{"type":"Point","coordinates":[-122.081694,37.389475]}},{"properties":{"city":"Portland","isbn":440498058.0,"latitude":45.511795,"book-rating":10.0,"title":"A Wrinkle In Time","user-id":203900.0,"longitude":-122.675629,"id":"a651gh68muvp","state":"Oregon"},"type":"Feature","geometry":{"type":"Point","coordinates":[-122.675629,45.511795]}},{"properties":{"city":"Manila","isbn":440498058.0,"latitude":14.5667,"book-rating":7.0,"title":"A Wrinkle In Time","user-id":203910.0,"longitude":121.033302,"id":"a651ghhta56s","state":"Makati"},"type":"Feature","geometry":{"type":"Point","coordinates":[121.033302,14.5667]}},{"properties":{"city":"Metuchen","isbn":440220394.0,"latitude":40.544165,"book-rating":10.0,"title":"A Wrinkle in Time","user-id":204676.0,"longitude":-74.363029,"id":"a651ghad753q","state":"New Jersey"},"type":"Feature","geometry":{"type":"Point","coordinates":[-74.363029,40.544165]}},{"properties":{"city":"Birmingham","isbn":440498058.0,"latitude":33.520295,"book-rating":8.0,"title":"A Wrinkle In Time","user-id":205028.0,"longitude":-86.811504,"id":"a651gheoiye8","state":"Alabama"},"type":"Feature","geometry":{"type":"Point","coordinates":[-86.811504,33.520295]}},{"properties":{"city":"Buckhannon","isbn":440998050.0,"latitude":38.993265,"book-rating":9.0,"title":"A Wrinkle in Time","user-id":205536.0,"longitude":-80.231695,"id":"a651gh91s9y6","state":"West Virginia"},"type":"Feature","geometry":{"type":"Point","coordinates":[-80.231695,38.993265]}},{"properties":{"city":"Midland","isbn":440998050.0,"latitude":32.000105,"book-rating":9.0,"title":"A Wrinkle in Time","user-id":207782.0,"longitude":-102.075694,"id":"a651ghfw9ir2","state":"Texas"},"type":"Feature","geometry":{"type":"Point","coordinates":[-102.075694,32.000105]}},{"properties":{"city":"Vienna","isbn":440998050.0,"latitude":38.900375,"book-rating":8.0,"title":"A Wrinkle in Time","user-id":211344.0,"longitude":-77.263654,"id":"a651gh3n4vgz","state":"Virginia"},"type":"Feature","geometry":{"type":"Point","coordinates":[-77.263654,38.900375]}},{"properties":{"city":"Jacksonville","isbn":440998050.0,"latitude":30.33138,"book-rating":9.0,"title":"A Wrinkle in Time","user-id":211919.0,"longitude":-81.655799,"id":"a651ghbuh20w","state":"Florida"},"type":"Feature","geometry":{"type":"Point","coordinates":[-81.655799,30.33138]}},{"properties":{"city":"New Orleans","isbn":440498058.0,"latitude":29.95369,"book-rating":9.0,"title":"A Wrinkle In Time","user-id":215091.0,"longitude":-90.077714,"id":"a651ghfcyzhd","state":"Louisiana"},"type":"Feature","geometry":{"type":"Point","coordinates":[-90.077714,29.95369]}},{"properties":{"city":"Memphis","isbn":440800544.0,"latitude":35.14968,"book-rating":8.0,"title":"A Wrinkle in Time","user-id":21576.0,"longitude":-90.048929,"id":"a651gh8phs23","state":"Tennessee"},"type":"Feature","geometry":{"type":"Point","coordinates":[-90.048929,35.14968]}},{"properties":{"city":"Brighton","isbn":440498058.0,"latitude":39.986685,"book-rating":10.0,"title":"A Wrinkle In Time","user-id":218121.0,"longitude":-104.818169,"id":"a651ghhagljf","state":"Colorado"},"type":"Feature","geometry":{"type":"Point","coordinates":[-104.818169,39.986685]}},{"properties":{"city":"Santa Fe","isbn":440498058.0,"latitude":35.691543,"book-rating":9.0,"title":"A Wrinkle In Time","user-id":218721.0,"longitude":-105.937406,"id":"a651ghggu1ly","state":"New Mexico"},"type":"Feature","geometry":{"type":"Point","coordinates":[-105.937406,35.691543]}},{"properties":{"city":"Chapel Hill","isbn":374386137.0,"latitude":35.914639,"book-rating":10.0,"title":"A Wrinkle in Time","user-id":222296.0,"longitude":-79.056619,"id":"a651gh5pm3dr","state":"North Carolina"},"type":"Feature","geometry":{"type":"Point","coordinates":[-79.056619,35.914639]}},{"properties":{"city":"Wilmington","isbn":440998050.0,"latitude":34.23497,"book-rating":10.0,"title":"A Wrinkle in Time","user-id":223154.0,"longitude":-77.945992,"id":"a651ghbe9non","state":"North Carolina"},"type":"Feature","geometry":{"type":"Point","coordinates":[-77.945992,34.23497]}},{"properties":{"city":"Warsaw","isbn":440998050.0,"latitude":41.23856,"book-rating":9.0,"title":"A Wrinkle in Time","user-id":223231.0,"longitude":-85.852798,"id":"a651ghf9v0w2","state":"N/A"},"type":"Feature","geometry":{"type":"Point","coordinates":[-85.852798,41.23856]}},{"properties":{"city":"Columbia","isbn":440998050.0,"latitude":39.209161,"book-rating":8.0,"title":"A Wrinkle in Time","user-id":224349.0,"longitude":-76.867313,"id":"a651ghj5xney","state":"Maryland"},"type":"Feature","geometry":{"type":"Point","coordinates":[-76.867313,39.209161]}},{"properties":{"city":"Victoria","isbn":440498058.0,"latitude":48.428315,"book-rating":10.0,"title":"A Wrinkle In Time","user-id":22486.0,"longitude":-123.364514,"id":"a651ghf82uwb","state":"British Columbia"},"type":"Feature","geometry":{"type":"Point","coordinates":[-123.364514,48.428315]}},{"properties":{"city":"El Cajon","isbn":440998050.0,"latitude":32.79495,"book-rating":6.0,"title":"A Wrinkle in Time","user-id":225810.0,"longitude":-116.959469,"id":"a651ghgw278s","state":"California"},"type":"Feature","geometry":{"type":"Point","coordinates":[-116.959469,32.79495]}},{"properties":{"city":"Dry Prong","isbn":440498058.0,"latitude":31.575695,"book-rating":7.0,"title":"A Wrinkle In Time","user-id":229505.0,"longitude":-92.527429,"id":"a651ghdmt9ca","state":"Louisiana"},"type":"Feature","geometry":{"type":"Point","coordinates":[-92.527429,31.575695]}},{"properties":{"city":"Brenham","isbn":440498058.0,"latitude":30.16602,"book-rating":8.0,"title":"A Wrinkle In Time","user-id":233431.0,"longitude":-96.399983,"id":"a651gh7g8ys6","state":"Texas"},"type":"Feature","geometry":{"type":"Point","coordinates":[-96.399983,30.16602]}},{"properties":{"city":"Breckenridge","isbn":440998050.0,"latitude":39.482199,"book-rating":5.0,"title":"A Wrinkle in Time","user-id":233923.0,"longitude":-106.047185,"id":"a651gh6xnkit","state":"Colorado"},"type":"Feature","geometry":{"type":"Point","coordinates":[-106.047185,39.482199]}},{"properties":{"city":"Madera","isbn":440498058.0,"latitude":36.962055,"book-rating":10.0,"title":"A Wrinkle In Time","user-id":233928.0,"longitude":-120.063994,"id":"a651gh9u5e8m","state":null},"type":"Feature","geometry":{"type":"Point","coordinates":[-120.063994,36.962055]}},{"properties":{"city":"St Louis","isbn":440998050.0,"latitude":38.62774,"book-rating":10.0,"title":"A Wrinkle in Time","user-id":235105.0,"longitude":-90.199514,"id":"a651gh9ow5xv","state":"Missouri"},"type":"Feature","geometry":{"type":"Point","coordinates":[-90.199514,38.62774]}},{"properties":{"city":"St Louis","isbn":440498058.0,"latitude":38.62774,"book-rating":10.0,"title":"A Wrinkle In Time","user-id":235105.0,"longitude":-90.199514,"id":"a651ghi7sn21","state":"Missouri"},"type":"Feature","geometry":{"type":"Point","coordinates":[-90.199514,38.62774]}},{"properties":{"city":"Normal","isbn":440998050.0,"latitude":40.510823,"book-rating":7.0,"title":"A Wrinkle in Time","user-id":236057.0,"longitude":-88.994139,"id":"a651gh5pjqrf","state":"Illinois"},"type":"Feature","geometry":{"type":"Point","coordinates":[-88.994139,40.510823]}},{"properties":{"city":"Minneapolis","isbn":440227151.0,"latitude":44.979035,"book-rating":10.0,"title":"A Wrinkle in Time","user-id":23699.0,"longitude":-93.264929,"id":"a651gh3o1khz","state":"Minnesota"},"type":"Feature","geometry":{"type":"Point","coordinates":[-93.264929,44.979035]}},{"properties":{"city":"Grayslake","isbn":440498058.0,"latitude":42.343355,"book-rating":10.0,"title":"A Wrinkle In Time","user-id":23803.0,"longitude":-88.038924,"id":"a651gh7rwmxw","state":"Illinois"},"type":"Feature","geometry":{"type":"Point","coordinates":[-88.038924,42.343355]}},{"properties":{"city":"Somewhereville","isbn":440498058.0,"latitude":41.121849,"book-rating":8.0,"title":"A Wrinkle In Time","user-id":238642.0,"longitude":-79.185257,"id":"a651gh40w3rn","state":"Pennsylvania"},"type":"Feature","geometry":{"type":"Point","coordinates":[-79.185257,41.121849]}},{"properties":{"city":"Muskego","isbn":440998050.0,"latitude":42.895197,"book-rating":10.0,"title":"A Wrinkle in Time","user-id":240144.0,"longitude":-88.143045,"id":"a651ghd0nzzr","state":"Wisconsin"},"type":"Feature","geometry":{"type":"Point","coordinates":[-88.143045,42.895197]}},{"properties":{"city":"Waldorf","isbn":440498058.0,"latitude":38.615702,"book-rating":7.0,"title":"A Wrinkle In Time","user-id":240700.0,"longitude":-76.902461,"id":"a651gh6p61la","state":"Maryland"},"type":"Feature","geometry":{"type":"Point","coordinates":[-76.902461,38.615702]}},{"properties":{"city":"Jacksonville","isbn":440498058.0,"latitude":34.74929,"book-rating":8.0,"title":"A Wrinkle In Time","user-id":241806.0,"longitude":-77.421054,"id":"a651ghfevya1","state":"North Carolina"},"type":"Feature","geometry":{"type":"Point","coordinates":[-77.421054,34.74929]}},{"properties":{"city":"Albuquerque","isbn":440998050.0,"latitude":35.08418,"book-rating":10.0,"title":"A Wrinkle in Time","user-id":245827.0,"longitude":-106.648639,"id":"a651ghfx601s","state":null},"type":"Feature","geometry":{"type":"Point","coordinates":[-106.648639,35.08418]}},{"properties":{"city":"Crawfordsville","isbn":440498058.0,"latitude":40.04229,"book-rating":9.0,"title":"A Wrinkle In Time","user-id":248704.0,"longitude":-86.901379,"id":"a651ghc6u546","state":"Indiana"},"type":"Feature","geometry":{"type":"Point","coordinates":[-86.901379,40.04229]}},{"properties":{"city":"Stockbridge","isbn":440498058.0,"latitude":33.543789,"book-rating":10.0,"title":"A Wrinkle In Time","user-id":250197.0,"longitude":-84.227709,"id":"a651ghevwj48","state":"Georgia"},"type":"Feature","geometry":{"type":"Point","coordinates":[-84.227709,33.543789]}},{"properties":{"city":"Mclean","isbn":440227151.0,"latitude":38.936529,"book-rating":7.0,"title":"A Wrinkle in Time","user-id":26624.0,"longitude":-77.184285,"id":"a651gh3k3hvs","state":"Virginia"},"type":"Feature","geometry":{"type":"Point","coordinates":[-77.184285,38.936529]}},{"properties":{"city":"Bountiful","isbn":440498058.0,"latitude":40.88175,"book-rating":10.0,"title":"A Wrinkle In Time","user-id":27472.0,"longitude":-111.87839,"id":"a651ghfoky7w","state":"Utah"},"type":"Feature","geometry":{"type":"Point","coordinates":[-111.87839,40.88175]}},{"properties":{"city":"St. Louis","isbn":440498058.0,"latitude":38.62774,"book-rating":8.0,"title":"A Wrinkle In Time","user-id":276804.0,"longitude":-90.199514,"id":"a651ghgnphlx","state":"Missouri"},"type":"Feature","geometry":{"type":"Point","coordinates":[-90.199514,38.62774]}},{"properties":{"city":"Anaheim","isbn":440998050.0,"latitude":33.83276,"book-rating":8.0,"title":"A Wrinkle in Time","user-id":27907.0,"longitude":-117.915719,"id":"a651gh6au6at","state":"California"},"type":"Feature","geometry":{"type":"Point","coordinates":[-117.915719,33.83276]}},{"properties":{"city":"Anchorage","isbn":440998050.0,"latitude":61.21759,"book-rating":10.0,"title":"A Wrinkle in Time","user-id":28980.0,"longitude":-149.858354,"id":"a651ghiva5mb","state":"Alaska"},"type":"Feature","geometry":{"type":"Point","coordinates":[-149.858354,61.21759]}},{"properties":{"city":"Sydney","isbn":440498058.0,"latitude":-33.869629,"book-rating":9.0,"title":"A Wrinkle In Time","user-id":30711.0,"longitude":151.206955,"id":"a651gh3l5vdd","state":"New South Wales"},"type":"Feature","geometry":{"type":"Point","coordinates":[151.206955,-33.869629]}},{"properties":{"city":"Chula Vista","isbn":440998050.0,"latitude":32.640565,"book-rating":10.0,"title":"A Wrinkle in Time","user-id":31556.0,"longitude":-117.084154,"id":"a651gh85csqb","state":"California"},"type":"Feature","geometry":{"type":"Point","coordinates":[-117.084154,32.640565]}},{"properties":{"city":"Milwaukee","isbn":440998050.0,"latitude":43.04181,"book-rating":10.0,"title":"A Wrinkle in Time","user-id":3167.0,"longitude":-87.906844,"id":"a651gh5mq5pm","state":"Wisconsin"},"type":"Feature","geometry":{"type":"Point","coordinates":[-87.906844,43.04181]}},{"properties":{"city":"Coal City","isbn":440998050.0,"latitude":41.28145,"book-rating":9.0,"title":"A Wrinkle in Time","user-id":32962.0,"longitude":-88.285169,"id":"a651gh8dd3f7","state":"Illinois"},"type":"Feature","geometry":{"type":"Point","coordinates":[-88.285169,41.28145]}},{"properties":{"city":"Baltimore","isbn":440998050.0,"latitude":39.290555,"book-rating":9.0,"title":"A Wrinkle in Time","user-id":36653.0,"longitude":-76.609604,"id":"a651ghc65ov8","state":"Maryland"},"type":"Feature","geometry":{"type":"Point","coordinates":[-76.609604,39.290555]}},{"properties":{"city":"Sudbury","isbn":440498058.0,"latitude":42.384211,"book-rating":10.0,"title":"A Wrinkle In Time","user-id":37644.0,"longitude":-71.409633,"id":"a651ghb35sun","state":"Massachusetts"},"type":"Feature","geometry":{"type":"Point","coordinates":[-71.409633,42.384211]}},{"properties":{"city":"Warren","isbn":440498058.0,"latitude":48.19514,"book-rating":9.0,"title":"A Wrinkle In Time","user-id":38557.0,"longitude":-96.77175,"id":"a651gh95aemo","state":"Minnesota"},"type":"Feature","geometry":{"type":"Point","coordinates":[-96.77175,48.19514]}},{"properties":{"city":"The Woodlands","isbn":440498058.0,"latitude":30.15752,"book-rating":10.0,"title":"A Wrinkle In Time","user-id":42883.0,"longitude":-95.455772,"id":"a651gh7172kb","state":"Texas"},"type":"Feature","geometry":{"type":"Point","coordinates":[-95.455772,30.15752]}},{"properties":{"city":"Asheville","isbn":440498058.0,"latitude":35.59846,"book-rating":8.0,"title":"A Wrinkle In Time","user-id":46443.0,"longitude":-82.553144,"id":"a651gh606h6u","state":"North Carolina"},"type":"Feature","geometry":{"type":"Point","coordinates":[-82.553144,35.59846]}},{"properties":{"city":"Ellensburg","isbn":440498058.0,"latitude":46.99704,"book-rating":10.0,"title":"A Wrinkle In Time","user-id":47118.0,"longitude":-120.54872,"id":"a651ghg9trzo","state":"Washington"},"type":"Feature","geometry":{"type":"Point","coordinates":[-120.54872,46.99704]}},{"properties":{"city":"Sterlington","isbn":440498058.0,"latitude":32.695579,"book-rating":10.0,"title":"A Wrinkle In Time","user-id":53256.0,"longitude":-92.084739,"id":"a651gh61r8ql","state":"Louisiana"},"type":"Feature","geometry":{"type":"Point","coordinates":[-92.084739,32.695579]}},{"properties":{"city":"Lakewood","isbn":440998050.0,"latitude":39.71095,"book-rating":10.0,"title":"A Wrinkle in Time","user-id":54812.0,"longitude":-105.082738,"id":"a651gh7d3l62","state":"Colorado"},"type":"Feature","geometry":{"type":"Point","coordinates":[-105.082738,39.71095]}},{"properties":{"city":"Cheyenne","isbn":440220394.0,"latitude":35.613945,"book-rating":9.0,"title":"A Wrinkle in Time","user-id":55398.0,"longitude":-99.672489,"id":"a651gh64z18p","state":"Oklahoma"},"type":"Feature","geometry":{"type":"Point","coordinates":[-99.672489,35.613945]}},{"properties":{"city":"Monroe Twp.","isbn":440498058.0,"latitude":39.667434,"book-rating":10.0,"title":"A Wrinkle In Time","user-id":56959.0,"longitude":-74.971576,"id":"a651gh5zkbuc","state":"New Jersey"},"type":"Feature","geometry":{"type":"Point","coordinates":[-74.971576,39.667434]}},{"properties":{"city":"Monroe Twp.","isbn":440998050.0,"latitude":39.667434,"book-rating":10.0,"title":"A Wrinkle in Time","user-id":56959.0,"longitude":-74.971576,"id":"a651ghezt41l","state":"New Jersey"},"type":"Feature","geometry":{"type":"Point","coordinates":[-74.971576,39.667434]}},{"properties":{"city":"Alvin","isbn":440998050.0,"latitude":29.42381,"book-rating":10.0,"title":"A Wrinkle in Time","user-id":60244.0,"longitude":-95.245379,"id":"a651gh62gfwr","state":"Texas"},"type":"Feature","geometry":{"type":"Point","coordinates":[-95.245379,29.42381]}},{"properties":{"city":"Vienna","isbn":440998050.0,"latitude":38.900375,"book-rating":10.0,"title":"A Wrinkle in Time","user-id":6184.0,"longitude":-77.263654,"id":"a651ghiyoymy","state":"Virginia"},"type":"Feature","geometry":{"type":"Point","coordinates":[-77.263654,38.900375]}},{"properties":{"city":"Wahiawa","isbn":440498058.0,"latitude":21.49765,"book-rating":10.0,"title":"A Wrinkle In Time","user-id":6251.0,"longitude":-158.025549,"id":"a651ghjdfkxz","state":"Hawaii"},"type":"Feature","geometry":{"type":"Point","coordinates":[-158.025549,21.49765]}},{"properties":{"city":"Wahiawa","isbn":440998050.0,"latitude":21.49765,"book-rating":10.0,"title":"A Wrinkle in Time","user-id":6251.0,"longitude":-158.025549,"id":"a651ghfcgdu9","state":"Hawaii"},"type":"Feature","geometry":{"type":"Point","coordinates":[-158.025549,21.49765]}},{"properties":{"city":"Modesto","isbn":440998050.0,"latitude":37.6383,"book-rating":10.0,"title":"A Wrinkle in Time","user-id":62716.0,"longitude":-120.999589,"id":"a651gh590blg","state":"California"},"type":"Feature","geometry":{"type":"Point","coordinates":[-120.999589,37.6383]}},{"properties":{"city":"Torrance","isbn":440498058.0,"latitude":33.836668,"book-rating":10.0,"title":"A Wrinkle In Time","user-id":63625.0,"longitude":-118.341661,"id":"a651gh655r30","state":"California"},"type":"Feature","geometry":{"type":"Point","coordinates":[-118.341661,33.836668]}},{"properties":{"city":"Nashua","isbn":440998050.0,"latitude":42.758365,"book-rating":8.0,"title":"A Wrinkle in Time","user-id":68220.0,"longitude":-71.464209,"id":"a651ghfbnlue","state":"New Hampshire"},"type":"Feature","geometry":{"type":"Point","coordinates":[-71.464209,42.758365]}},{"properties":{"city":"Sarasota","isbn":440998050.0,"latitude":27.33888,"book-rating":10.0,"title":"A Wrinkle in Time","user-id":71752.0,"longitude":-82.539629,"id":"a651gh5d9g6q","state":"Florida"},"type":"Feature","geometry":{"type":"Point","coordinates":[-82.539629,27.33888]}},{"properties":{"city":"Calgary","isbn":374386137.0,"latitude":51.04522,"book-rating":10.0,"title":"A Wrinkle in Time","user-id":72947.0,"longitude":-114.063014,"id":"a651gh8eim28","state":"Alberta"},"type":"Feature","geometry":{"type":"Point","coordinates":[-114.063014,51.04522]}},{"properties":{"city":"Manhattan Beach","isbn":440498058.0,"latitude":33.887157,"book-rating":8.0,"title":"A Wrinkle In Time","user-id":74787.0,"longitude":-118.410843,"id":"a651ghju5df5","state":"California"},"type":"Feature","geometry":{"type":"Point","coordinates":[-118.410843,33.887157]}},{"properties":{"city":"Southborough","isbn":440498058.0,"latitude":42.305764,"book-rating":9.0,"title":"A Wrinkle In Time","user-id":76168.0,"longitude":-71.531945,"id":"a651ghbwq1uy","state":"Massachusetts"},"type":"Feature","geometry":{"type":"Point","coordinates":[-71.531945,42.305764]}},{"properties":{"city":"London","isbn":440498058.0,"latitude":51.506325,"book-rating":10.0,"title":"A Wrinkle In Time","user-id":76626.0,"longitude":-0.127144,"id":"a651gh9bp72z","state":"England"},"type":"Feature","geometry":{"type":"Point","coordinates":[-0.127144,51.506325]}},{"properties":{"city":"Honolulu","isbn":440220394.0,"latitude":21.30477,"book-rating":10.0,"title":"A Wrinkle in Time","user-id":78834.0,"longitude":-157.857614,"id":"a651ghive4f2","state":"Hawaii"},"type":"Feature","geometry":{"type":"Point","coordinates":[-157.857614,21.30477]}},{"properties":{"city":"Warrensburg","isbn":440998050.0,"latitude":38.771224,"book-rating":10.0,"title":"A Wrinkle in Time","user-id":80810.0,"longitude":-93.741149,"id":"a651ghfw01yq","state":"Missouri"},"type":"Feature","geometry":{"type":"Point","coordinates":[-93.741149,38.771224]}},{"properties":{"city":"Sandpoint","isbn":440998050.0,"latitude":48.272995,"book-rating":7.0,"title":"A Wrinkle in Time","user-id":81460.0,"longitude":-116.547789,"id":"a651ghb5l02d","state":"Idaho"},"type":"Feature","geometry":{"type":"Point","coordinates":[-116.547789,48.272995]}},{"properties":{"city":"Denver","isbn":440498058.0,"latitude":39.74001,"book-rating":9.0,"title":"A Wrinkle In Time","user-id":86303.0,"longitude":-104.992259,"id":"a651gh9zo0of","state":"Colorado"},"type":"Feature","geometry":{"type":"Point","coordinates":[-104.992259,39.74001]}},{"properties":{"city":"Lincoln","isbn":440498058.0,"latitude":40.81362,"book-rating":10.0,"title":"A Wrinkle In Time","user-id":86535.0,"longitude":-96.707739,"id":"a651gh582j7k","state":"Nebraska"},"type":"Feature","geometry":{"type":"Point","coordinates":[-96.707739,40.81362]}},{"properties":{"city":"Redwood Meadows","isbn":440998050.0,"latitude":50.987751,"book-rating":10.0,"title":"A Wrinkle in Time","user-id":87114.0,"longitude":-114.502068,"id":"a651ghiquh1p","state":"Alberta"},"type":"Feature","geometry":{"type":"Point","coordinates":[-114.502068,50.987751]}},{"properties":{"city":"Yarmouth","isbn":440220394.0,"latitude":43.84128,"book-rating":10.0,"title":"A Wrinkle in Time","user-id":87712.0,"longitude":-66.118854,"id":"a651ghg4btfb","state":"Nova Scotia"},"type":"Feature","geometry":{"type":"Point","coordinates":[-66.118854,43.84128]}},{"properties":{"city":"New York","isbn":374386137.0,"latitude":40.71455,"book-rating":5.0,"title":"A Wrinkle in Time","user-id":87911.0,"longitude":-74.007124,"id":"a651ghbp3kz6","state":"New York"},"type":"Feature","geometry":{"type":"Point","coordinates":[-74.007124,40.71455]}},{"properties":{"city":"Oakland","isbn":440498058.0,"latitude":37.805065,"book-rating":10.0,"title":"A Wrinkle In Time","user-id":88098.0,"longitude":-122.273024,"id":"a651ghcvtj0z","state":"California"},"type":"Feature","geometry":{"type":"Point","coordinates":[-122.273024,37.805065]}},{"properties":{"city":"Houston","isbn":440498058.0,"latitude":29.76045,"book-rating":10.0,"title":"A Wrinkle In Time","user-id":88733.0,"longitude":-95.369784,"id":"a651ghj3e5xt","state":"Texas"},"type":"Feature","geometry":{"type":"Point","coordinates":[-95.369784,29.76045]}},{"properties":{"city":"Lisbon","isbn":440498058.0,"latitude":38.72567,"book-rating":7.0,"title":"A Wrinkle In Time","user-id":92215.0,"longitude":-9.15037,"id":"a651ghb30bt1","state":"Lisbon"},"type":"Feature","geometry":{"type":"Point","coordinates":[-9.15037,38.72567]}},{"properties":{"city":"Nashua","isbn":440998050.0,"latitude":42.758365,"book-rating":5.0,"title":"A Wrinkle in Time","user-id":93047.0,"longitude":-71.464209,"id":"a651ghi2pl7r","state":"New Hampshire"},"type":"Feature","geometry":{"type":"Point","coordinates":[-71.464209,42.758365]}},{"properties":{"city":"Plano","isbn":440498058.0,"latitude":33.020795,"book-rating":10.0,"title":"A Wrinkle In Time","user-id":93426.0,"longitude":-96.699214,"id":"a651gh67skzq","state":"Texas"},"type":"Feature","geometry":{"type":"Point","coordinates":[-96.699214,33.020795]}},{"properties":{"city":"O Fallon","isbn":440498058.0,"latitude":38.810295,"book-rating":7.0,"title":"A Wrinkle In Time","user-id":94529.0,"longitude":-90.699944,"id":"a651gh8attyx","state":"Missouri"},"type":"Feature","geometry":{"type":"Point","coordinates":[-90.699944,38.810295]}},{"properties":{"city":"Charleston","isbn":440998050.0,"latitude":38.350195,"book-rating":10.0,"title":"A Wrinkle in Time","user-id":95359.0,"longitude":-81.638989,"id":"a651ghbczd2f","state":"West Virginia"},"type":"Feature","geometry":{"type":"Point","coordinates":[-81.638989,38.350195]}},{"properties":{"city":"Charleston","isbn":440498058.0,"latitude":38.350195,"book-rating":10.0,"title":"A Wrinkle In Time","user-id":95359.0,"longitude":-81.638989,"id":"a651gh9lsuhe","state":"West Virginia"},"type":"Feature","geometry":{"type":"Point","coordinates":[-81.638989,38.350195]}},{"properties":{"city":"Manchester","isbn":440498058.0,"latitude":42.991175,"book-rating":9.0,"title":"A Wrinkle In Time","user-id":95932.0,"longitude":-71.463089,"id":"a651gh8vblcb","state":"New Hampshire"},"type":"Feature","geometry":{"type":"Point","coordinates":[-71.463089,42.991175]}},{"properties":{"city":"Manchester","isbn":374386137.0,"latitude":42.991175,"book-rating":7.0,"title":"A Wrinkle in Time","user-id":95932.0,"longitude":-71.463089,"id":"a651gh9g2on9","state":"New Hampshire"},"type":"Feature","geometry":{"type":"Point","coordinates":[-71.463089,42.991175]}},{"properties":{"city":"Karaville","isbn":440998050.0,"latitude":30.771351,"book-rating":7.0,"title":"A Wrinkle in Time","user-id":97500.0,"longitude":-85.812157,"id":"a651gh816uot","state":"Florida"},"type":"Feature","geometry":{"type":"Point","coordinates":[-85.812157,30.771351]}},{"properties":{"city":"Espoo","isbn":440998050.0,"latitude":60.206242,"book-rating":1.0,"title":"A Wrinkle in Time","user-id":98297.0,"longitude":24.6562,"id":"a651gh92oa6c","state":"Uusimaa"},"type":"Feature","geometry":{"type":"Point","coordinates":[24.6562,60.206242]}},{"properties":{"city":"Yuma","isbn":440998050.0,"latitude":32.68485,"book-rating":10.0,"title":"A Wrinkle in Time","user-id":98440.0,"longitude":-114.624614,"id":"a651ghc6vhr8","state":"Arizona"},"type":"Feature","geometry":{"type":"Point","coordinates":[-114.624614,32.68485]}}],"is_temporal":false,"author":{"url":"http://www.informatik.uni-freiburg.de/~cziegler/BX/","metadata":"http://www.informatik.uni-freiburg.de/~cziegler/BX/","contact_name":"","contact_address":"","source":"Institut für Informatik, Universität Freiburg","contact_phone":""},"source":"http://www.informatik.uni-freiburg.de/~cziegler/BX/","pagination":{"sort":null,"start":0,"total":155,"limit":1000000},"state":"complete","tags":"bookcrossing,books,global,reviews","published":"2005-01-01T17:00:00Z","id":19879}