{"type":"FeatureCollection","data_type":"Dataset","url_type":null,"permissions":[{"permissions":{"download":true,"view":true},"group_id":"everyone"}],"classification":null,"title":"All_Awards","count":27,"stream_id":198881,"contributor":{"url":"http://geocommons.com/users/24096","name":"SonnyT"},"data_attributes":null,"calculation_params":null,"icon_link":null,"link":"http://geocommons.com/overlays/198881.json","extent":[-122.332,26.1276,-71.0598,47.6062],"geometry_types":["point"],"unique_name":null,"name":"All_Awards","feature_count":27,"description":"","next_feature":null,"is_raster":false,"short_classification":"Y","stats":{"# of nominees":{"max":6,"mean":1.22222222222222,"variance":0.948717948717949,"stdev":0.974021534011414,"min":1,"median":1}},"features":[{"properties":{"city":"Newton","geo_score":1.0,"country":"United States","# of nominees":2,"id":"a6nycaf63lib","geo_precision":"zip","state":"MA"},"type":"Feature","geometry":{"type":"Point","coordinates":[-71.2092214,42.3370414]}},{"properties":{"city":"New York City","geo_score":0.948,"country":"United States","# of nominees":6,"id":"a6nycaeppo85","geo_precision":"zip","state":"NY"},"type":"Feature","geometry":{"type":"Point","coordinates":[-75.4998978,43.0003472]}},{"properties":{"city":"Teaneck","geo_score":1.0,"country":"United States","# of nominees":1,"id":"a6nycagj8oec","geo_precision":"zip","state":"NJ"},"type":"Feature","geometry":{"type":"Point","coordinates":[-74.0159727,40.8975992]}},{"properties":{"city":"Sunny Isles","geo_score":0.871,"country":"United States","# of nominees":1,"id":"a6nyca4db54w","geo_precision":"zip","state":"FL"},"type":"Feature","geometry":{"type":"Point","coordinates":[-87.8328505,42.4461322]}},{"properties":{"city":"Glendale","geo_score":1.0,"country":"United States","# of nominees":1,"id":"a6nycadxflxt","geo_precision":"zip","state":"WI"},"type":"Feature","geometry":{"type":"Point","coordinates":[-112.1859866,33.5386523]}},{"properties":{"city":"Shaker Heights","geo_score":1.0,"country":"United States","# of nominees":1,"id":"a6nyca5dilft","geo_precision":"zip","state":"OH"},"type":"Feature","geometry":{"type":"Point","coordinates":[-81.5370671,41.4739419]}},{"properties":{"city":"Boston","geo_score":1.0,"country":"United States","# of nominees":1,"id":"a6nycadv9m54","geo_precision":"zip","state":"MA"},"type":"Feature","geometry":{"type":"Point","coordinates":[-71.0597732,42.3584308]}},{"properties":{"city":"Lakewood","geo_score":1.0,"country":"United States","# of nominees":1,"id":"a6nycafh4zlg","geo_precision":"zip","state":"NJ"},"type":"Feature","geometry":{"type":"Point","coordinates":[-105.0813734,39.7047095]}},{"properties":{"city":"Madison","geo_score":1.0,"country":"United States","# of nominees":1,"id":"a6nycabfa0hc","geo_precision":"zip","state":"WI"},"type":"Feature","geometry":{"type":"Point","coordinates":[-89.4012302,43.0730517]}},{"properties":{"city":"Palo Alto","geo_score":1.0,"country":"United States","# of nominees":1,"id":"a6nyca4y7zc2","geo_precision":"zip","state":"CA"},"type":"Feature","geometry":{"type":"Point","coordinates":[-122.1430195,37.4418834]}},{"properties":{"city":"Colorado Springs","geo_score":0.933,"country":"United States","# of nominees":1,"id":"a6nyca21nqo9","geo_precision":"zip","state":"CO"},"type":"Feature","geometry":{"type":"Point","coordinates":[-105.5008327,39.0002698]}},{"properties":{"city":"West Orange","geo_score":0.943,"country":"United States","# of nominees":1,"id":"a6nycadnmxzn","geo_precision":"zip","state":"NJ"},"type":"Feature","geometry":{"type":"Point","coordinates":[-117.8531119,33.7877945]}},{"properties":{"city":"Livingston","geo_score":0.946,"country":"United States","# of nominees":1,"id":"a6nycadonplb","geo_precision":"zip","state":"NJ"},"type":"Feature","geometry":{"type":"Point","coordinates":[-83.9166168,42.6000329]}},{"properties":{"city":"Boca Raton","geo_score":1.0,"country":"United States","# of nominees":1,"id":"a6nycac2qb6m","geo_precision":"zip","state":"FL"},"type":"Feature","geometry":{"type":"Point","coordinates":[-80.0830984,26.3586885]}},{"properties":{"city":"St. Louis","geo_score":0.918,"country":"United States","# of nominees":1,"id":"a6nyca4fyy6g","geo_precision":"zip","state":"MO"},"type":"Feature","geometry":{"type":"Point","coordinates":[-81.4403898,41.1595005]}},{"properties":{"city":"Beachwood","geo_score":1.0,"country":"United States","# of nominees":1,"id":"a6nyca8rk8ig","geo_precision":"zip","state":"OH"},"type":"Feature","geometry":{"type":"Point","coordinates":[-81.5087322,41.4644979]}},{"properties":{"city":"Mission Viejo","geo_score":1.0,"country":"United States","# of nominees":1,"id":"a6nyca7agttp","geo_precision":"zip","state":"CA"},"type":"Feature","geometry":{"type":"Point","coordinates":[-117.6719953,33.6000233]}},{"properties":{"city":"Seattle","geo_score":1.0,"country":"United States","# of nominees":1,"id":"a6nyca6tvzbe","geo_precision":"zip","state":"WA"},"type":"Feature","geometry":{"type":"Point","coordinates":[-122.3320708,47.6062095]}},{"properties":{"city":"Penn Valley","geo_score":0.943,"country":"United States","# of nominees":1,"id":"a6nycafjpawq","geo_precision":"zip","state":"PA"},"type":"Feature","geometry":{"type":"Point","coordinates":[-92.4343035,31.3224044]}},{"properties":{"city":"Spring Valley","geo_score":1.0,"country":"United States","# of nominees":1,"id":"a6nycabu64ys","geo_precision":"zip","state":"NY"},"type":"Feature","geometry":{"type":"Point","coordinates":[-115.2450006,36.1080258]}},{"properties":{"city":"San Antonio","geo_score":1.0,"country":"United States","# of nominees":1,"id":"a6nyca8o12d0","geo_precision":"zip","state":"TX"},"type":"Feature","geometry":{"type":"Point","coordinates":[-98.4936282,29.4241219]}},{"properties":{"city":"Las Vegas","geo_score":1.0,"country":"United States","# of nominees":1,"id":"a6nyca8ldh2v","geo_precision":"zip","state":"NV"},"type":"Feature","geometry":{"type":"Point","coordinates":[-115.137223,36.1749705]}},{"properties":{"city":"Phoenix","geo_score":1.0,"country":"United States","# of nominees":1,"id":"a6nyca9g09fs","geo_precision":"zip","state":"AZ"},"type":"Feature","geometry":{"type":"Point","coordinates":[-112.0740373,33.4483771]}},{"properties":{"city":"Bridgeport","geo_score":1.0,"country":"United States","# of nominees":1,"id":"a6nycaawjdtp","geo_precision":"zip","state":"CT"},"type":"Feature","geometry":{"type":"Point","coordinates":[-73.2048348,41.1670412]}},{"properties":{"city":"Plantation","geo_score":1.0,"country":"United States","# of nominees":1,"id":"a6nycaep19rm","geo_precision":"zip","state":"FL"},"type":"Feature","geometry":{"type":"Point","coordinates":[-80.2331036,26.1275862]}},{"properties":{"city":"Toronto","geo_score":0.0,"country":"Canada","# of nominees":1,"id":"a6nycaausm7x","geo_precision":"unmatched","state":"ON"},"type":"Feature","geometry":null},{"properties":{"city":"Mississauga","geo_score":0.0,"country":"Canada","# of nominees":1,"id":"a6nyca7c6ptp","geo_precision":"unmatched","state":"ON"},"type":"Feature","geometry":null}],"is_temporal":false,"author":{"url":"","metadata":null,"contact_name":null,"contact_address":null,"source":null,"contact_phone":null},"source":"","pagination":{"sort":null,"start":0,"total":27,"limit":1000000},"state":"complete","tags":"","published":"2014-08-13T09:49:18-04:00","id":198881}