{"type":"FeatureCollection","data_type":"Dataset","url_type":null,"permissions":[{"permissions":{"download":true,"view":true},"group_id":"everyone"}],"classification":null,"title":"Vendor Locations.v3","count":351,"stream_id":19908,"contributor":{"url":"http://geocommons.com/users/3995","name":"amazon"},"data_attributes":null,"calculation_params":null,"icon_link":null,"link":"http://geocommons.com/overlays/19908.json","extent":[-158.057,13.2756,145.756,61.2181],"geometry_types":["point"],"unique_name":null,"name":"Vendor Locations.v3","feature_count":351,"description":"","next_feature":null,"is_raster":false,"short_classification":"Y","stats":{"total":{"max":1676.0,"mean":12.4301994301994,"variance":8518.54297110296,"stdev":92.2959531675304,"min":1.0,"median":2.0},"lat":{"max":61.2180556,"mean":37.1464954905983,"variance":63.1116772525383,"stdev":7.9442858239453,"min":13.27559,"median":39.203},"long":{"max":145.755997,"mean":-78.3297979421653,"variance":3546.49473840148,"stdev":59.5524536723843,"min":-158.056892,"median":-84.2807329}},"features":[{"properties":{"city":"HUNTSVILLE","total":4.0,"id":"a62u5o8rlkqa","lat":34.7303688,"long":-86.5861037,"state":"ALABAMA"},"type":"Feature","geometry":{"type":"Point","coordinates":[-86.5861037,34.7303688]}},{"properties":{"city":"ANCHORAGE","total":89.0,"id":"a62u5o96f7wu","lat":61.2180556,"long":-149.9002778,"state":"ALASKA"},"type":"Feature","geometry":{"type":"Point","coordinates":[-149.9002778,61.2180556]}},{"properties":{"city":"PEORIA","total":1.0,"id":"a62u5o4k0wlx","lat":33.5805955,"long":-112.2373779,"state":"ARIZONA"},"type":"Feature","geometry":{"type":"Point","coordinates":[-112.2373779,33.5805955]}},{"properties":{"city":"SCOTTSDALE","total":1.0,"id":"a62u5o30k9qm","lat":33.5092103,"long":-111.8990327,"state":"ARIZONA"},"type":"Feature","geometry":{"type":"Point","coordinates":[-111.8990327,33.5092103]}},{"properties":{"city":"GLENDALE","total":5.0,"id":"a62u5nvqxyij","lat":33.5386523,"long":-112.1859866,"state":"ARIZONA"},"type":"Feature","geometry":{"type":"Point","coordinates":[-112.1859866,33.5386523]}},{"properties":{"city":"TUCSON","total":1.0,"id":"a62u5o3iih6x","lat":32.2217429,"long":-110.926479,"state":"ARIZONA"},"type":"Feature","geometry":{"type":"Point","coordinates":[-110.926479,32.2217429]}},{"properties":{"city":"PHOENIX","total":1.0,"id":"a62u5o7gy273","lat":33.4483771,"long":-112.0740373,"state":"ARIZONA"},"type":"Feature","geometry":{"type":"Point","coordinates":[-112.0740373,33.4483771]}},{"properties":{"city":"SAN LUIS OBISPO","total":4.0,"id":"a62u5o65m6u4","lat":35.2827524,"long":-120.6596156,"state":"CALIFORNIA"},"type":"Feature","geometry":{"type":"Point","coordinates":[-120.6596156,35.2827524]}},{"properties":{"city":"SACRAMENTO","total":2.0,"id":"a62u5o9mds3f","lat":38.5815719,"long":-121.4943996,"state":"CALIFORNIA"},"type":"Feature","geometry":{"type":"Point","coordinates":[-121.4943996,38.5815719]}},{"properties":{"city":"ROSEVILLE","total":4.0,"id":"a62u5o985fgd","lat":38.7521235,"long":-121.2880059,"state":"CALIFORNIA"},"type":"Feature","geometry":{"type":"Point","coordinates":[-121.2880059,38.7521235]}},{"properties":{"city":"REDWOOD CITY","total":2.0,"id":"a62u5nwrojs9","lat":37.4852152,"long":-122.2363548,"state":"CALIFORNIA"},"type":"Feature","geometry":{"type":"Point","coordinates":[-122.2363548,37.4852152]}},{"properties":{"city":"REDLANDS","total":1.0,"id":"a62u5nxlgw0u","lat":34.0555693,"long":-117.1825381,"state":"CALIFORNIA"},"type":"Feature","geometry":{"type":"Point","coordinates":[-117.1825381,34.0555693]}},{"properties":{"city":"PLEASANTON","total":2.0,"id":"a62u5nw5qo8p","lat":37.6624312,"long":-121.8746789,"state":"CALIFORNIA"},"type":"Feature","geometry":{"type":"Point","coordinates":[-121.8746789,37.6624312]}},{"properties":{"city":"PASADENA","total":9.0,"id":"a62u5nxr34cp","lat":34.1477849,"long":-118.1445155,"state":"CALIFORNIA"},"type":"Feature","geometry":{"type":"Point","coordinates":[-118.1445155,34.1477849]}},{"properties":{"city":"OAKLAND","total":3.0,"id":"a62u5o9xpzf9","lat":37.8043722,"long":-122.2708026,"state":"CALIFORNIA"},"type":"Feature","geometry":{"type":"Point","coordinates":[-122.2708026,37.8043722]}},{"properties":{"city":"NOVATO","total":4.0,"id":"a62u5o23ldzy","lat":38.1074198,"long":-122.5697032,"state":"CALIFORNIA"},"type":"Feature","geometry":{"type":"Point","coordinates":[-122.5697032,38.1074198]}},{"properties":{"city":"VALENCIA","total":2.0,"id":"a62u5nx0k37z","lat":34.1466768,"long":-117.2725427,"state":"CALIFORNIA"},"type":"Feature","geometry":{"type":"Point","coordinates":[-117.2725427,34.1466768]}},{"properties":{"city":"TORRANCE","total":5.0,"id":"a62u5o80wrmx","lat":33.8358492,"long":-118.3406288,"state":"CALIFORNIA"},"type":"Feature","geometry":{"type":"Point","coordinates":[-118.3406288,33.8358492]}},{"properties":{"city":"THOUSAND OAKS","total":1.0,"id":"a62u5o5ip3zl","lat":34.1705609,"long":-118.8375937,"state":"CALIFORNIA"},"type":"Feature","geometry":{"type":"Point","coordinates":[-118.8375937,34.1705609]}},{"properties":{"city":"SONORA","total":1.0,"id":"a62u5oah1ivf","lat":37.9840911,"long":-120.3821381,"state":"CALIFORNIA"},"type":"Feature","geometry":{"type":"Point","coordinates":[-120.3821381,37.9840911]}},{"properties":{"city":"SAN CLEMENTE","total":1.0,"id":"a62u5o2e2o4g","lat":33.4269728,"long":-117.6119925,"state":"CALIFORNIA"},"type":"Feature","geometry":{"type":"Point","coordinates":[-117.6119925,33.4269728]}},{"properties":{"city":"SAN DIEGO","total":26.0,"id":"a62u5nuhf8zw","lat":32.7153292,"long":-117.1572551,"state":"CALIFORNIA"},"type":"Feature","geometry":{"type":"Point","coordinates":[-117.1572551,32.7153292]}},{"properties":{"city":"SAN FRANCISCO","total":14.0,"id":"a62u5nz6ksvb","lat":37.7749295,"long":-122.4194155,"state":"CALIFORNIA"},"type":"Feature","geometry":{"type":"Point","coordinates":[-122.4194155,37.7749295]}},{"properties":{"city":"SAN JOSE","total":1.0,"id":"a62u5o59dvnt","lat":37.3393857,"long":-121.8949555,"state":"CALIFORNIA"},"type":"Feature","geometry":{"type":"Point","coordinates":[-121.8949555,37.3393857]}},{"properties":{"city":"SAN BRUNO","total":4.0,"id":"a62u5o1dy1zc","lat":37.6304904,"long":-122.4110835,"state":"CALIFORNIA"},"type":"Feature","geometry":{"type":"Point","coordinates":[-122.4110835,37.6304904]}},{"properties":{"city":"SAN LEANDRO","total":1.0,"id":"a62u5o62aryy","lat":37.7249296,"long":-122.1560768,"state":"CALIFORNIA"},"type":"Feature","geometry":{"type":"Point","coordinates":[-122.1560768,37.7249296]}},{"properties":{"city":"SANTA CLARITA","total":1.0,"id":"a62u5o47m9s8","lat":34.3916641,"long":-118.542586,"state":"CALIFORNIA"},"type":"Feature","geometry":{"type":"Point","coordinates":[-118.542586,34.3916641]}},{"properties":{"city":"ANAHEIM","total":1.0,"id":"a62u5nyzx3er","lat":33.8352932,"long":-117.9145036,"state":"CALIFORNIA"},"type":"Feature","geometry":{"type":"Point","coordinates":[-117.9145036,33.8352932]}},{"properties":{"city":"BAKERSFIELD","total":24.0,"id":"a62u5nyt7ly4","lat":35.3732921,"long":-119.0187125,"state":"CALIFORNIA"},"type":"Feature","geometry":{"type":"Point","coordinates":[-119.0187125,35.3732921]}},{"properties":{"city":"BEVERLY HILLS","total":1.0,"id":"a62u5nvcd729","lat":34.0736204,"long":-118.4003563,"state":"CALIFORNIA"},"type":"Feature","geometry":{"type":"Point","coordinates":[-118.4003563,34.0736204]}},{"properties":{"city":"BRENTWOOD","total":2.0,"id":"a62u5nz9ka8p","lat":37.931868,"long":-121.6957863,"state":"CALIFORNIA"},"type":"Feature","geometry":{"type":"Point","coordinates":[-121.6957863,37.931868]}},{"properties":{"city":"BURLINGAME","total":18.0,"id":"a62u5o3gdxil","lat":37.5841026,"long":-122.3660825,"state":"CALIFORNIA"},"type":"Feature","geometry":{"type":"Point","coordinates":[-122.3660825,37.5841026]}},{"properties":{"city":"CARLSBAD","total":3.0,"id":"a62u5o75yiod","lat":33.1580933,"long":-117.3505939,"state":"CALIFORNIA"},"type":"Feature","geometry":{"type":"Point","coordinates":[-117.3505939,33.1580933]}},{"properties":{"city":"CHATSWORTH","total":3.0,"id":"a62u5nv62qp8","lat":34.2572252,"long":-118.6011992,"state":"CALIFORNIA"},"type":"Feature","geometry":{"type":"Point","coordinates":[-118.6011992,34.2572252]}},{"properties":{"city":"CULVER CITY","total":4.0,"id":"a62u5o9j2i58","lat":34.0211224,"long":-118.3964665,"state":"CALIFORNIA"},"type":"Feature","geometry":{"type":"Point","coordinates":[-118.3964665,34.0211224]}},{"properties":{"city":"CYPRESS","total":1.0,"id":"a62u5nvtn4su","lat":33.8169599,"long":-118.0372852,"state":"CALIFORNIA"},"type":"Feature","geometry":{"type":"Point","coordinates":[-118.0372852,33.8169599]}},{"properties":{"city":"DALY CITY","total":30.0,"id":"a62u5nuzxzd9","lat":37.7057657,"long":-122.4619166,"state":"CALIFORNIA"},"type":"Feature","geometry":{"type":"Point","coordinates":[-122.4619166,37.7057657]}},{"properties":{"city":"EMERYVILLE","total":2.0,"id":"a62u5nxn4i6e","lat":37.831316,"long":-122.2852473,"state":"CALIFORNIA"},"type":"Feature","geometry":{"type":"Point","coordinates":[-122.2852473,37.831316]}},{"properties":{"city":"ENCINITAS","total":1.0,"id":"a62u5o0e3rov","lat":33.0369867,"long":-117.2919818,"state":"CALIFORNIA"},"type":"Feature","geometry":{"type":"Point","coordinates":[-117.2919818,33.0369867]}},{"properties":{"city":"FOUNTAIN VALLEY","total":1.0,"id":"a62u5nz9h99r","lat":33.7091847,"long":-117.9536697,"state":"CALIFORNIA"},"type":"Feature","geometry":{"type":"Point","coordinates":[-117.9536697,33.7091847]}},{"properties":{"city":"FREMONT","total":1.0,"id":"a62u5o8sskfs","lat":37.5482697,"long":-121.9885719,"state":"CALIFORNIA"},"type":"Feature","geometry":{"type":"Point","coordinates":[-121.9885719,37.5482697]}},{"properties":{"city":"GARDENA","total":1.0,"id":"a62u5o8tgrth","lat":33.8883487,"long":-118.3089624,"state":"CALIFORNIA"},"type":"Feature","geometry":{"type":"Point","coordinates":[-118.3089624,33.8883487]}},{"properties":{"city":"HEMET","total":8.0,"id":"a62u5nx1uug0","lat":33.7475203,"long":-116.9719684,"state":"CALIFORNIA"},"type":"Feature","geometry":{"type":"Point","coordinates":[-116.9719684,33.7475203]}},{"properties":{"city":"IRVINE","total":2.0,"id":"a62u5o2lktmm","lat":33.6694649,"long":-117.8231107,"state":"CALIFORNIA"},"type":"Feature","geometry":{"type":"Point","coordinates":[-117.8231107,33.6694649]}},{"properties":{"city":"LINCOLN","total":1.0,"id":"a62u5o1vlgqh","lat":38.891565,"long":-121.2930079,"state":"CALIFORNIA"},"type":"Feature","geometry":{"type":"Point","coordinates":[-121.2930079,38.891565]}},{"properties":{"city":"LONG BEACH","total":22.0,"id":"a62u5o9ygt6c","lat":33.7669623,"long":-118.1892348,"state":"CALIFORNIA"},"type":"Feature","geometry":{"type":"Point","coordinates":[-118.1892348,33.7669623]}},{"properties":{"city":"NAPA","total":1.0,"id":"a62u5o0lb20e","lat":38.305031,"long":-122.289803,"state":"CALIFORNIA"},"type":"Feature","geometry":{"type":"Point","coordinates":[-122.289803,38.305031]}},{"properties":{"city":"NATIONAL CITY","total":5.0,"id":"a62u5nykxmrx","lat":32.6781085,"long":-117.0991967,"state":"CALIFORNIA"},"type":"Feature","geometry":{"type":"Point","coordinates":[-117.0991967,32.6781085]}},{"properties":{"city":"NEWPORT BEACH","total":1.0,"id":"a62u5o4m6t4w","lat":33.6189101,"long":-117.9289469,"state":"CALIFORNIA"},"type":"Feature","geometry":{"type":"Point","coordinates":[-117.9289469,33.6189101]}},{"properties":{"city":"BOULDER","total":1.0,"id":"a62u5nwsjdt8","lat":40.0149856,"long":-105.2705456,"state":"COLORADO"},"type":"Feature","geometry":{"type":"Point","coordinates":[-105.2705456,40.0149856]}},{"properties":{"city":"CENTENNIAL","total":2.0,"id":"a62u5o5wedr5","lat":39.57917,"long":-104.87639,"state":"COLORADO"},"type":"Feature","geometry":{"type":"Point","coordinates":[-104.87639,39.57917]}},{"properties":{"city":"COLORADO SPRINGS","total":3.0,"id":"a62u5nzkbkl3","lat":38.8338816,"long":-104.8213634,"state":"COLORADO"},"type":"Feature","geometry":{"type":"Point","coordinates":[-104.8213634,38.8338816]}},{"properties":{"city":"DENVER","total":1.0,"id":"a62u5o21nnvq","lat":39.7391536,"long":-104.9847034,"state":"COLORADO"},"type":"Feature","geometry":{"type":"Point","coordinates":[-104.9847034,39.7391536]}},{"properties":{"city":"ENGLEWOOD","total":4.0,"id":"a62u5oao29zs","lat":39.6477653,"long":-104.9877597,"state":"COLORADO"},"type":"Feature","geometry":{"type":"Point","coordinates":[-104.9877597,39.6477653]}},{"properties":{"city":"LAFAYETTE","total":4.0,"id":"a62u5o8kydli","lat":39.9935959,"long":-105.0897058,"state":"COLORADO"},"type":"Feature","geometry":{"type":"Point","coordinates":[-105.0897058,39.9935959]}},{"properties":{"city":"LITTLETON","total":2.0,"id":"a62u5o6u8mlx","lat":39.613321,"long":-105.0166498,"state":"COLORADO"},"type":"Feature","geometry":{"type":"Point","coordinates":[-105.0166498,39.613321]}},{"properties":{"city":"PAGOSA SPRINGS","total":1.0,"id":"a62u5o5yw46u","lat":37.26945,"long":-107.0097617,"state":"COLORADO"},"type":"Feature","geometry":{"type":"Point","coordinates":[-107.0097617,37.26945]}},{"properties":{"city":"AVON","total":4.0,"id":"a62u5nydt6ct","lat":41.8098209,"long":-72.8306541,"state":"CONNECTICUT"},"type":"Feature","geometry":{"type":"Point","coordinates":[-72.8306541,41.8098209]}},{"properties":{"city":"FARMINGTON","total":4.0,"id":"a62u5o3dmnd1","lat":41.7198216,"long":-72.8320435,"state":"CONNECTICUT"},"type":"Feature","geometry":{"type":"Point","coordinates":[-72.8320435,41.7198216]}},{"properties":{"city":"MYSTIC","total":1.0,"id":"a62u5oarj9hf","lat":41.3542656,"long":-71.966462,"state":"CONNECTICUT"},"type":"Feature","geometry":{"type":"Point","coordinates":[-71.966462,41.3542656]}},{"properties":{"city":"STAMFORD","total":4.0,"id":"a62u5oailsje","lat":41.0534302,"long":-73.5387341,"state":"CONNECTICUT"},"type":"Feature","geometry":{"type":"Point","coordinates":[-73.5387341,41.0534302]}},{"properties":{"city":"NEW HAVEN","total":1.0,"id":"a62u5o6qfnki","lat":41.3081527,"long":-72.9281577,"state":"CONNECTICUT"},"type":"Feature","geometry":{"type":"Point","coordinates":[-72.9281577,41.3081527]}},{"properties":{"city":"NEW BRITAIN","total":1.0,"id":"a62u5nw4y4p1","lat":41.6612104,"long":-72.7795419,"state":"CONNECTICUT"},"type":"Feature","geometry":{"type":"Point","coordinates":[-72.7795419,41.6612104]}},{"properties":{"city":"WASHINGTON","total":13.0,"id":"a62u5nxbel3a","lat":38.8951118,"long":-77.0363658,"state":"DISTRICT OF COLUMBIA"},"type":"Feature","geometry":{"type":"Point","coordinates":[-77.0363658,38.8951118]}},{"properties":{"city":"FORT LAUDERDALE","total":1.0,"id":"a62u5nv1dpvs","lat":26.1223084,"long":-80.1433786,"state":"FLORIDA"},"type":"Feature","geometry":{"type":"Point","coordinates":[-80.1433786,26.1223084]}},{"properties":{"city":"BOYNTON BEACH","total":2.0,"id":"a62u5o19e4z5","lat":26.5253491,"long":-80.0664309,"state":"FLORIDA"},"type":"Feature","geometry":{"type":"Point","coordinates":[-80.0664309,26.5253491]}},{"properties":{"city":"BRADENTON","total":1.0,"id":"a62u5o4k8k7i","lat":27.4989278,"long":-82.5748194,"state":"FLORIDA"},"type":"Feature","geometry":{"type":"Point","coordinates":[-82.5748194,27.4989278]}},{"properties":{"city":"CAPE CANAVERAL","total":2.0,"id":"a62u5o3l6q0g","lat":28.392484,"long":-80.614619,"state":"FLORIDA"},"type":"Feature","geometry":{"type":"Point","coordinates":[-80.614619,28.392484]}},{"properties":{"city":"FORT WALTON BEACH","total":2.0,"id":"a62u5o827wkr","lat":30.4057552,"long":-86.618842,"state":"FLORIDA"},"type":"Feature","geometry":{"type":"Point","coordinates":[-86.618842,30.4057552]}},{"properties":{"city":"JACKSONVILLE","total":4.0,"id":"a62u5o77tkmp","lat":30.3321838,"long":-81.655651,"state":"FLORIDA"},"type":"Feature","geometry":{"type":"Point","coordinates":[-81.655651,30.3321838]}},{"properties":{"city":"JUPITER","total":1.0,"id":"a62u5o7hwvvl","lat":26.9342246,"long":-80.0942087,"state":"FLORIDA"},"type":"Feature","geometry":{"type":"Point","coordinates":[-80.0942087,26.9342246]}},{"properties":{"city":"MAITLAND","total":1.0,"id":"a62u5nwca9iz","lat":28.6277767,"long":-81.3631244,"state":"FLORIDA"},"type":"Feature","geometry":{"type":"Point","coordinates":[-81.3631244,28.6277767]}},{"properties":{"city":"MELBOURNE","total":4.0,"id":"a62u5nw03l85","lat":28.0836269,"long":-80.6081089,"state":"FLORIDA"},"type":"Feature","geometry":{"type":"Point","coordinates":[-80.6081089,28.0836269]}},{"properties":{"city":"MIAMI","total":1.0,"id":"a62u5o5w721g","lat":25.7742657,"long":-80.1936589,"state":"FLORIDA"},"type":"Feature","geometry":{"type":"Point","coordinates":[-80.1936589,25.7742657]}},{"properties":{"city":"NAPLES","total":1.0,"id":"a62u5o95uzii","lat":26.1420358,"long":-81.7948103,"state":"FLORIDA"},"type":"Feature","geometry":{"type":"Point","coordinates":[-81.7948103,26.1420358]}},{"properties":{"city":"BOCA RATON","total":1.0,"id":"a62u5o3395xq","lat":26.3586885,"long":-80.0830984,"state":"FLORIDA"},"type":"Feature","geometry":{"type":"Point","coordinates":[-80.0830984,26.3586885]}},{"properties":{"city":"ORLANDO","total":2.0,"id":"a62u5o9igl3a","lat":28.5383355,"long":-81.3792365,"state":"FLORIDA"},"type":"Feature","geometry":{"type":"Point","coordinates":[-81.3792365,28.5383355]}},{"properties":{"city":"SAINT PETERSBU","total":1.0,"id":"a62u5o1t62w6","lat":27.7708606,"long":-82.6792661,"state":"FLORIDA"},"type":"Feature","geometry":{"type":"Point","coordinates":[-82.6792661,27.7708606]}},{"properties":{"city":"SUNRISE","total":1.0,"id":"a62u5o5c4t27","lat":26.1672222,"long":-80.295,"state":"FLORIDA"},"type":"Feature","geometry":{"type":"Point","coordinates":[-80.295,26.1672222]}},{"properties":{"city":"TALLAHASSEE","total":1.0,"id":"a62u5nv9bw01","lat":30.4382559,"long":-84.2807329,"state":"FLORIDA"},"type":"Feature","geometry":{"type":"Point","coordinates":[-84.2807329,30.4382559]}},{"properties":{"city":"TAMPA","total":9.0,"id":"a62u5o4v0tyz","lat":27.9475216,"long":-82.4584279,"state":"FLORIDA"},"type":"Feature","geometry":{"type":"Point","coordinates":[-82.4584279,27.9475216]}},{"properties":{"city":"OPA LOCKA","total":1.0,"id":"a62u5nyjawjq","lat":25.9023168,"long":-80.2503271,"state":"FLORIDA"},"type":"Feature","geometry":{"type":"Point","coordinates":[-80.2503271,25.9023168]}},{"properties":{"city":"MARIETTA","total":1.0,"id":"a62u5nvk7n91","lat":33.952602,"long":-84.5499327,"state":"GEORGIA"},"type":"Feature","geometry":{"type":"Point","coordinates":[-84.5499327,33.952602]}},{"properties":{"city":"STONE MOUNTAIN","total":1.0,"id":"a62u5o9k6h33","lat":33.8081608,"long":-84.170196,"state":"GEORGIA"},"type":"Feature","geometry":{"type":"Point","coordinates":[-84.170196,33.8081608]}},{"properties":{"city":"ATLANTA","total":1.0,"id":"a62u5o434bfm","lat":33.7489954,"long":-84.3879824,"state":"GEORGIA"},"type":"Feature","geometry":{"type":"Point","coordinates":[-84.3879824,33.7489954]}},{"properties":{"city":"TALOFOFO","total":1.0,"id":"a62u5o9x1ue2","lat":13.351667,"long":144.753056,"state":"Guam"},"type":"Feature","geometry":{"type":"Point","coordinates":[144.753056,13.351667]}},{"properties":{"city":"DEDEDO","total":269.0,"id":"a62u5o865ozu","lat":13.54744,"long":144.832596,"state":"Guam"},"type":"Feature","geometry":{"type":"Point","coordinates":[144.832596,13.54744]}},{"properties":{"city":"MANGILAO","total":197.0,"id":"a62u5o2eknip","lat":13.4702123,"long":144.8456217,"state":"Guam"},"type":"Feature","geometry":{"type":"Point","coordinates":[144.8456217,13.4702123]}},{"properties":{"city":"TAMUNING","total":1676.0,"id":"a62u5o6hispj","lat":13.483889,"long":144.776667,"state":"Guam"},"type":"Feature","geometry":{"type":"Point","coordinates":[144.776667,13.483889]}},{"properties":{"city":"SANTA RITA","total":171.0,"id":"a62u5o2w8y0t","lat":13.3742669,"long":144.7082568,"state":"Guam"},"type":"Feature","geometry":{"type":"Point","coordinates":[144.7082568,13.3742669]}},{"properties":{"city":"HAGATNA","total":107.0,"id":"a62u5nx2ia3o","lat":13.4770676,"long":144.7494423,"state":"Guam"},"type":"Feature","geometry":{"type":"Point","coordinates":[144.7494423,13.4770676]}},{"properties":{"city":"BARRIGADA","total":91.0,"id":"a62u5o1yjb3r","lat":13.468333,"long":144.798889,"state":"Guam"},"type":"Feature","geometry":{"type":"Point","coordinates":[144.798889,13.468333]}},{"properties":{"city":"YIGO","total":48.0,"id":"a62u5o75okt5","lat":13.5639627,"long":144.9061342,"state":"Guam"},"type":"Feature","geometry":{"type":"Point","coordinates":[144.9061342,13.5639627]}},{"properties":{"city":"PITI","total":41.0,"id":"a62u5nyjeaxv","lat":13.46,"long":144.691667,"state":"Guam"},"type":"Feature","geometry":{"type":"Point","coordinates":[144.691667,13.46]}},{"properties":{"city":"AGANA","total":28.0,"id":"a62u5nx2y11g","lat":13.4770676,"long":144.7494423,"state":"Guam"},"type":"Feature","geometry":{"type":"Point","coordinates":[144.7494423,13.4770676]}},{"properties":{"city":"HARMON","total":23.0,"id":"a62u5o0od9ro","lat":13.452108,"long":144.7631754,"state":"Guam"},"type":"Feature","geometry":{"type":"Point","coordinates":[144.7631754,13.452108]}},{"properties":{"city":"TUMON","total":21.0,"id":"a62u5o7rafpl","lat":13.5136156,"long":144.8002661,"state":"Guam"},"type":"Feature","geometry":{"type":"Point","coordinates":[144.8002661,13.5136156]}},{"properties":{"city":"MONGMONG","total":21.0,"id":"a62u5o7mr7c8","lat":13.471667,"long":144.761111,"state":"Guam"},"type":"Feature","geometry":{"type":"Point","coordinates":[144.761111,13.471667]}},{"properties":{"city":"INARAJAN","total":3.0,"id":"a62u5nwfhexh","lat":13.27559,"long":144.740601,"state":"Guam"},"type":"Feature","geometry":{"type":"Point","coordinates":[144.740601,13.27559]}},{"properties":{"city":"YONA","total":11.0,"id":"a62u5ny01afi","lat":13.404444,"long":144.773611,"state":"Guam"},"type":"Feature","geometry":{"type":"Point","coordinates":[144.773611,13.404444]}},{"properties":{"city":"CHALAN PAGO","total":8.0,"id":"a62u5o25cdux","lat":13.452108,"long":144.7631754,"state":"Guam"},"type":"Feature","geometry":{"type":"Point","coordinates":[144.7631754,13.452108]}},{"properties":{"city":"UMATAC","total":5.0,"id":"a62u5o2lq64u","lat":13.29798,"long":144.667404,"state":"Guam"},"type":"Feature","geometry":{"type":"Point","coordinates":[144.667404,13.29798]}},{"properties":{"city":"ASAN","total":4.0,"id":"a62u5o1tizgd","lat":13.471389,"long":144.713889,"state":"Guam"},"type":"Feature","geometry":{"type":"Point","coordinates":[144.713889,13.471389]}},{"properties":{"city":"SINAJANA","total":3.0,"id":"a62u5o72jcg5","lat":13.460556,"long":144.751944,"state":"Guam"},"type":"Feature","geometry":{"type":"Point","coordinates":[144.751944,13.460556]}},{"properties":{"city":"AGAT","total":15.0,"id":"a62u5o11nns1","lat":13.38004,"long":144.657898,"state":"Guam"},"type":"Feature","geometry":{"type":"Point","coordinates":[144.657898,13.38004]}},{"properties":{"city":"AIEA","total":4.0,"id":"a62u5o566b9w","lat":21.386338,"long":-157.9255357,"state":"HAWAII"},"type":"Feature","geometry":{"type":"Point","coordinates":[-157.9255357,21.386338]}},{"properties":{"city":"HONOLULU","total":68.0,"id":"a62u5o8dckso","lat":21.3069444,"long":-157.8583333,"state":"HAWAII"},"type":"Feature","geometry":{"type":"Point","coordinates":[-157.8583333,21.3069444]}},{"properties":{"city":"HOOLEHUA","total":1.0,"id":"a62u5o1e853w","lat":21.1711111,"long":-157.0713889,"state":"HAWAII"},"type":"Feature","geometry":{"type":"Point","coordinates":[-157.0713889,21.1711111]}},{"properties":{"city":"KAILUA","total":2.0,"id":"a62u5o6utju8","lat":21.4022222,"long":-157.7394444,"state":"HAWAII"},"type":"Feature","geometry":{"type":"Point","coordinates":[-157.7394444,21.4022222]}},{"properties":{"city":"KAILUA KONA","total":1.0,"id":"a62u5o5jvrry","lat":19.6405556,"long":-155.9955556,"state":"HAWAII"},"type":"Feature","geometry":{"type":"Point","coordinates":[-155.9955556,19.6405556]}},{"properties":{"city":"WAIPAHU","total":3.0,"id":"a62u5o06fmcc","lat":21.3866667,"long":-158.0091667,"state":"HAWAII"},"type":"Feature","geometry":{"type":"Point","coordinates":[-158.0091667,21.3866667]}},{"properties":{"city":"KAPOLEI","total":3.0,"id":"a62u5nvl5b7b","lat":21.3354034,"long":-158.056892,"state":"HAWAII"},"type":"Feature","geometry":{"type":"Point","coordinates":[-158.056892,21.3354034]}},{"properties":{"city":"BOISE","total":1.0,"id":"a62u5nvlvdf0","lat":43.612631,"long":-116.211076,"state":"IDAHO"},"type":"Feature","geometry":{"type":"Point","coordinates":[-116.211076,43.612631]}},{"properties":{"city":"EAGLE","total":1.0,"id":"a62u5nxhlyqy","lat":43.6954424,"long":-116.3540138,"state":"IDAHO"},"type":"Feature","geometry":{"type":"Point","coordinates":[-116.3540138,43.6954424]}},{"properties":{"city":"LAKE FOREST","total":34.0,"id":"a62u5o5ujvbd","lat":42.2586342,"long":-87.840625,"state":"ILLINOIS"},"type":"Feature","geometry":{"type":"Point","coordinates":[-87.840625,42.2586342]}},{"properties":{"city":"AURORA","total":1.0,"id":"a62u5o2yig71","lat":41.7605849,"long":-88.3200715,"state":"ILLINOIS"},"type":"Feature","geometry":{"type":"Point","coordinates":[-88.3200715,41.7605849]}},{"properties":{"city":"DEERFIELD","total":13.0,"id":"a62u5o0fay6s","lat":42.1711365,"long":-87.8445119,"state":"ILLINOIS"},"type":"Feature","geometry":{"type":"Point","coordinates":[-87.8445119,42.1711365]}},{"properties":{"city":"DES PLAINES","total":5.0,"id":"a62u5oatpg70","lat":42.0333623,"long":-87.8833991,"state":"ILLINOIS"},"type":"Feature","geometry":{"type":"Point","coordinates":[-87.8833991,42.0333623]}},{"properties":{"city":"DIXON","total":1.0,"id":"a62u5nxgbdd9","lat":41.8389213,"long":-89.4795478,"state":"ILLINOIS"},"type":"Feature","geometry":{"type":"Point","coordinates":[-89.4795478,41.8389213]}},{"properties":{"city":"GLENVIEW","total":2.0,"id":"a62u5o5l9cv3","lat":42.0697509,"long":-87.7878408,"state":"ILLINOIS"},"type":"Feature","geometry":{"type":"Point","coordinates":[-87.7878408,42.0697509]}},{"properties":{"city":"HIGHLAND PARK","total":2.0,"id":"a62u5o85u1ei","lat":42.1816918,"long":-87.8003437,"state":"ILLINOIS"},"type":"Feature","geometry":{"type":"Point","coordinates":[-87.8003437,42.1816918]}},{"properties":{"city":"HOFFMAN ESTATES","total":1.0,"id":"a62u5o139cv4","lat":42.0428051,"long":-88.079795,"state":"ILLINOIS"},"type":"Feature","geometry":{"type":"Point","coordinates":[-88.079795,42.0428051]}},{"properties":{"city":"KEWANEE","total":1.0,"id":"a62u5o03if82","lat":41.2455927,"long":-89.9248303,"state":"ILLINOIS"},"type":"Feature","geometry":{"type":"Point","coordinates":[-89.9248303,41.2455927]}},{"properties":{"city":"ABBOTT PARK","total":1.0,"id":"a62u5o67djxn","lat":42.3020974,"long":-87.8955595,"state":"ILLINOIS"},"type":"Feature","geometry":{"type":"Point","coordinates":[-87.8955595,42.3020974]}},{"properties":{"city":"LAKE ZURICH","total":4.0,"id":"a62u5o8vdu61","lat":42.1969689,"long":-88.0934108,"state":"ILLINOIS"},"type":"Feature","geometry":{"type":"Point","coordinates":[-88.0934108,42.1969689]}},{"properties":{"city":"MARION","total":2.0,"id":"a62u5nvl31fd","lat":37.7306054,"long":-88.9331256,"state":"ILLINOIS"},"type":"Feature","geometry":{"type":"Point","coordinates":[-88.9331256,37.7306054]}},{"properties":{"city":"MCHENRY","total":2.0,"id":"a62u5o8dq7ke","lat":42.333355,"long":-88.2667534,"state":"ILLINOIS"},"type":"Feature","geometry":{"type":"Point","coordinates":[-88.2667534,42.333355]}},{"properties":{"city":"MONTGOMERY","total":3.0,"id":"a62u5o23zha7","lat":41.730585,"long":-88.3459048,"state":"ILLINOIS"},"type":"Feature","geometry":{"type":"Point","coordinates":[-88.3459048,41.730585]}},{"properties":{"city":"ROUND LAKE","total":1.0,"id":"a62u5o2fs9rg","lat":42.353355,"long":-88.0934145,"state":"ILLINOIS"},"type":"Feature","geometry":{"type":"Point","coordinates":[-88.0934145,42.353355]}},{"properties":{"city":"SCHILLER PARK","total":5.0,"id":"a62u5o7jp87k","lat":41.9558637,"long":-87.8708965,"state":"ILLINOIS"},"type":"Feature","geometry":{"type":"Point","coordinates":[-87.8708965,41.9558637]}},{"properties":{"city":"TINLEY PARK","total":2.0,"id":"a62u5nye295z","lat":41.5733669,"long":-87.7844944,"state":"ILLINOIS"},"type":"Feature","geometry":{"type":"Point","coordinates":[-87.7844944,41.5733669]}},{"properties":{"city":"WOODRIDGE","total":2.0,"id":"a62u5nz52ki0","lat":41.7469749,"long":-88.0503406,"state":"ILLINOIS"},"type":"Feature","geometry":{"type":"Point","coordinates":[-88.0503406,41.7469749]}},{"properties":{"city":"WARRENVILLE","total":2.0,"id":"a62u5o3oqm5g","lat":41.817807,"long":-88.1734021,"state":"ILLINOIS"},"type":"Feature","geometry":{"type":"Point","coordinates":[-88.1734021,41.817807]}},{"properties":{"city":"WHEELING","total":2.0,"id":"a62u5nw5afhf","lat":42.1391927,"long":-87.9289591,"state":"ILLINOIS"},"type":"Feature","geometry":{"type":"Point","coordinates":[-87.9289591,42.1391927]}},{"properties":{"city":"VERNON HILLS","total":1.0,"id":"a62u5o1xj9y3","lat":42.2194686,"long":-87.9795187,"state":"ILLINOIS"},"type":"Feature","geometry":{"type":"Point","coordinates":[-87.9795187,42.2194686]}},{"properties":{"city":"EAST CHICAGO","total":44.0,"id":"a62u5o2eo23t","lat":41.6392024,"long":-87.4547635,"state":"INDIANA"},"type":"Feature","geometry":{"type":"Point","coordinates":[-87.4547635,41.6392024]}},{"properties":{"city":"FORT WAYNE","total":3.0,"id":"a62u5nzcso5d","lat":41.1306041,"long":-85.1288597,"state":"INDIANA"},"type":"Feature","geometry":{"type":"Point","coordinates":[-85.1288597,41.1306041]}},{"properties":{"city":"GREENFIELD","total":1.0,"id":"a62u5ny7aggk","lat":39.785043,"long":-85.7694226,"state":"INDIANA"},"type":"Feature","geometry":{"type":"Point","coordinates":[-85.7694226,39.785043]}},{"properties":{"city":"INDIANAPOLIS","total":2.0,"id":"a62u5o9ogtvt","lat":39.767016,"long":-86.156255,"state":"INDIANA"},"type":"Feature","geometry":{"type":"Point","coordinates":[-86.156255,39.767016]}},{"properties":{"city":"MADISON","total":1.0,"id":"a62u5oalqdjb","lat":38.7358933,"long":-85.3799577,"state":"INDIANA"},"type":"Feature","geometry":{"type":"Point","coordinates":[-85.3799577,38.7358933]}},{"properties":{"city":"SEYMOUR","total":1.0,"id":"a62u5nxgosoh","lat":38.9592201,"long":-85.8902547,"state":"INDIANA"},"type":"Feature","geometry":{"type":"Point","coordinates":[-85.8902547,38.9592201]}},{"properties":{"city":"MUSCATINE","total":3.0,"id":"a62u5nyyg8l1","lat":41.424473,"long":-91.0432051,"state":"IOWA"},"type":"Feature","geometry":{"type":"Point","coordinates":[-91.0432051,41.424473]}},{"properties":{"city":"LEXINGTON","total":2.0,"id":"a62u5o1bo6ed","lat":37.9886892,"long":-84.4777153,"state":"KENTUCKY"},"type":"Feature","geometry":{"type":"Point","coordinates":[-84.4777153,37.9886892]}},{"properties":{"city":"LOUISVILLE","total":2.0,"id":"a62u5o8zw5v5","lat":38.2542376,"long":-85.759407,"state":"KENTUCKY"},"type":"Feature","geometry":{"type":"Point","coordinates":[-85.759407,38.2542376]}},{"properties":{"city":"GALLIANO","total":6.0,"id":"a62u5o17ucvg","lat":29.4421645,"long":-90.2992464,"state":"LOUISIANA"},"type":"Feature","geometry":{"type":"Point","coordinates":[-90.2992464,29.4421645]}},{"properties":{"city":"WELLS","total":2.0,"id":"a62u5o9mtvv2","lat":43.3220301,"long":-70.5808866,"state":"MAINE"},"type":"Feature","geometry":{"type":"Point","coordinates":[-70.5808866,43.3220301]}},{"properties":{"city":"BETHESDA","total":3.0,"id":"a62u5oafxum2","lat":38.9806658,"long":-77.100256,"state":"MARYLAND"},"type":"Feature","geometry":{"type":"Point","coordinates":[-77.100256,38.9806658]}},{"properties":{"city":"BALTIMORE","total":3.0,"id":"a62u5o9yrzsw","lat":39.2903848,"long":-76.6121893,"state":"MARYLAND"},"type":"Feature","geometry":{"type":"Point","coordinates":[-76.6121893,39.2903848]}},{"properties":{"city":"ACCIDENT","total":2.0,"id":"a62u5o2lyvtb","lat":39.628696,"long":-79.319759,"state":"MARYLAND"},"type":"Feature","geometry":{"type":"Point","coordinates":[-79.319759,39.628696]}},{"properties":{"city":"BURTONSVILLE","total":1.0,"id":"a62u5o2smweb","lat":39.1112193,"long":-76.9324752,"state":"MARYLAND"},"type":"Feature","geometry":{"type":"Point","coordinates":[-76.9324752,39.1112193]}},{"properties":{"city":"CLARKSBURG","total":1.0,"id":"a62u5o6f30j2","lat":39.2387164,"long":-77.2794288,"state":"MARYLAND"},"type":"Feature","geometry":{"type":"Point","coordinates":[-77.2794288,39.2387164]}},{"properties":{"city":"COCKEYSVILLE H","total":1.0,"id":"a62u5o9iwuz2","lat":39.4812172,"long":-76.6438598,"state":"MARYLAND"},"type":"Feature","geometry":{"type":"Point","coordinates":[-76.6438598,39.4812172]}},{"properties":{"city":"COLUMBIA","total":28.0,"id":"a62u5o82ydj5","lat":39.203,"long":-76.857981,"state":"MARYLAND"},"type":"Feature","geometry":{"type":"Point","coordinates":[-76.857981,39.203]}},{"properties":{"city":"CROFTON","total":1.0,"id":"a62u5nx4yatz","lat":39.0017772,"long":-76.6874671,"state":"MARYLAND"},"type":"Feature","geometry":{"type":"Point","coordinates":[-76.6874671,39.0017772]}},{"properties":{"city":"FORESTVILLE","total":1.0,"id":"a62u5o1vnevm","lat":38.8451131,"long":-76.8749722,"state":"MARYLAND"},"type":"Feature","geometry":{"type":"Point","coordinates":[-76.8749722,38.8451131]}},{"properties":{"city":"STEVENSVILLE","total":1.0,"id":"a62u5nvi7lvk","lat":38.9806679,"long":-76.3143999,"state":"MARYLAND"},"type":"Feature","geometry":{"type":"Point","coordinates":[-76.3143999,38.9806679]}},{"properties":{"city":"HAGERSTOWN","total":2.0,"id":"a62u5ny3tbqu","lat":39.6417629,"long":-77.7199932,"state":"MARYLAND"},"type":"Feature","geometry":{"type":"Point","coordinates":[-77.7199932,39.6417629]}},{"properties":{"city":"HUNT VALLEY","total":2.0,"id":"a62u5oaxc9mo","lat":39.4812172,"long":-76.6438598,"state":"MARYLAND"},"type":"Feature","geometry":{"type":"Point","coordinates":[-76.6438598,39.4812172]}},{"properties":{"city":"JEFFERSON","total":1.0,"id":"a62u5o1g8ktz","lat":39.3620461,"long":-77.5316543,"state":"MARYLAND"},"type":"Feature","geometry":{"type":"Point","coordinates":[-77.5316543,39.3620461]}},{"properties":{"city":"LAUREL","total":2.0,"id":"a62u5o4at9q9","lat":39.0992752,"long":-76.8483061,"state":"MARYLAND"},"type":"Feature","geometry":{"type":"Point","coordinates":[-76.8483061,39.0992752]}},{"properties":{"city":"ROCKVILLE","total":1.0,"id":"a62u5o8stab6","lat":39.0839973,"long":-77.1527578,"state":"MARYLAND"},"type":"Feature","geometry":{"type":"Point","coordinates":[-77.1527578,39.0839973]}},{"properties":{"city":"GAITHERSBURG","total":4.0,"id":"a62u5nzqsvhf","lat":39.1434406,"long":-77.2013705,"state":"MARYLAND"},"type":"Feature","geometry":{"type":"Point","coordinates":[-77.2013705,39.1434406]}},{"properties":{"city":"ANDOVER","total":2.0,"id":"a62u5nwxic07","lat":42.6584254,"long":-71.1370012,"state":"MASSACHUSETTS"},"type":"Feature","geometry":{"type":"Point","coordinates":[-71.1370012,42.6584254]}},{"properties":{"city":"BEDFORD","total":7.0,"id":"a62u5o7n8ljo","lat":42.4906499,"long":-71.2761686,"state":"MASSACHUSETTS"},"type":"Feature","geometry":{"type":"Point","coordinates":[-71.2761686,42.4906499]}},{"properties":{"city":"BOSTON","total":1.0,"id":"a62u5o735bak","lat":42.3584308,"long":-71.0597732,"state":"MASSACHUSETTS"},"type":"Feature","geometry":{"type":"Point","coordinates":[-71.0597732,42.3584308]}},{"properties":{"city":"BRAINTREE","total":8.0,"id":"a62u5o9h79pm","lat":42.2223218,"long":-70.999492,"state":"MASSACHUSETTS"},"type":"Feature","geometry":{"type":"Point","coordinates":[-70.999492,42.2223218]}},{"properties":{"city":"BURLINGTON","total":2.0,"id":"a62u5o1ps9t0","lat":42.5048167,"long":-71.195611,"state":"MASSACHUSETTS"},"type":"Feature","geometry":{"type":"Point","coordinates":[-71.195611,42.5048167]}},{"properties":{"city":"CHELMSFORD","total":1.0,"id":"a62u5o0grb23","lat":42.5998139,"long":-71.3672838,"state":"MASSACHUSETTS"},"type":"Feature","geometry":{"type":"Point","coordinates":[-71.3672838,42.5998139]}},{"properties":{"city":"FRAMINGHAM","total":2.0,"id":"a62u5o0g8ogo","lat":42.2917623,"long":-71.4258945,"state":"MASSACHUSETTS"},"type":"Feature","geometry":{"type":"Point","coordinates":[-71.4258945,42.2917623]}},{"properties":{"city":"HUDSON","total":1.0,"id":"a62u5nzw6g89","lat":42.3917598,"long":-71.5661769,"state":"MASSACHUSETTS"},"type":"Feature","geometry":{"type":"Point","coordinates":[-71.5661769,42.3917598]}},{"properties":{"city":"MARLBOROUGH","total":6.0,"id":"a62u5o5lnqt0","lat":42.3459271,"long":-71.5522874,"state":"MASSACHUSETTS"},"type":"Feature","geometry":{"type":"Point","coordinates":[-71.5522874,42.3459271]}},{"properties":{"city":"NEEDHAM","total":8.0,"id":"a62u5o6338ls","lat":42.283431,"long":-71.2328329,"state":"MASSACHUSETTS"},"type":"Feature","geometry":{"type":"Point","coordinates":[-71.2328329,42.283431]}},{"properties":{"city":"NORTH BILLERICA","total":4.0,"id":"a62u5o0uju1x","lat":42.5834258,"long":-71.2845035,"state":"MASSACHUSETTS"},"type":"Feature","geometry":{"type":"Point","coordinates":[-71.2845035,42.5834258]}},{"properties":{"city":"NORWELL","total":2.0,"id":"a62u5o2o2z33","lat":42.1617681,"long":-70.7939307,"state":"MASSACHUSETTS"},"type":"Feature","geometry":{"type":"Point","coordinates":[-70.7939307,42.1617681]}},{"properties":{"city":"ROCKLAND","total":1.0,"id":"a62u5nzyreta","lat":42.1306563,"long":-70.9161551,"state":"MASSACHUSETTS"},"type":"Feature","geometry":{"type":"Point","coordinates":[-70.9161551,42.1306563]}},{"properties":{"city":"WILMINGTON","total":2.0,"id":"a62u5nyqxhf0","lat":42.5464828,"long":-71.1736669,"state":"MASSACHUSETTS"},"type":"Feature","geometry":{"type":"Point","coordinates":[-71.1736669,42.5464828]}},{"properties":{"city":"SOUTH DEERFIELD","total":2.0,"id":"a62u5o4o0cyk","lat":42.4773097,"long":-72.6078667,"state":"MASSACHUSETTS"},"type":"Feature","geometry":{"type":"Point","coordinates":[-72.6078667,42.4773097]}},{"properties":{"city":"CADILLAC","total":2.0,"id":"a62u5o008rir","lat":44.2519526,"long":-85.4011619,"state":"MICHIGAN"},"type":"Feature","geometry":{"type":"Point","coordinates":[-85.4011619,44.2519526]}},{"properties":{"city":"CALEDONIA","total":1.0,"id":"a62u5o9d9p9u","lat":42.7891985,"long":-85.5166864,"state":"MICHIGAN"},"type":"Feature","geometry":{"type":"Point","coordinates":[-85.5166864,42.7891985]}},{"properties":{"city":"CENTRAL LAKE","total":1.0,"id":"a62u5o2y9p3t","lat":45.0700047,"long":-85.2645105,"state":"MICHIGAN"},"type":"Feature","geometry":{"type":"Point","coordinates":[-85.2645105,45.0700047]}},{"properties":{"city":"GRAND RAPIDS","total":1.0,"id":"a62u5oaqtpsx","lat":42.9633599,"long":-85.6680863,"state":"MICHIGAN"},"type":"Feature","geometry":{"type":"Point","coordinates":[-85.6680863,42.9633599]}},{"properties":{"city":"IRON MOUNTAIN","total":2.0,"id":"a62u5o16h7hh","lat":45.8202334,"long":-88.0659603,"state":"MICHIGAN"},"type":"Feature","geometry":{"type":"Point","coordinates":[-88.0659603,45.8202334]}},{"properties":{"city":"RICHLAND","total":1.0,"id":"a62u5o1cotc1","lat":42.3761504,"long":-85.4550054,"state":"MICHIGAN"},"type":"Feature","geometry":{"type":"Point","coordinates":[-85.4550054,42.3761504]}},{"properties":{"city":"ZEELAND","total":3.0,"id":"a62u5o4d1sif","lat":42.8125246,"long":-86.018651,"state":"MICHIGAN"},"type":"Feature","geometry":{"type":"Point","coordinates":[-86.018651,42.8125246]}},{"properties":{"city":"WARREN","total":2.0,"id":"a62u5o8z691c","lat":42.493,"long":-83.028197,"state":"MICHIGAN"},"type":"Feature","geometry":{"type":"Point","coordinates":[-83.028197,42.493]}},{"properties":{"city":"SOUTHFIELD","total":1.0,"id":"a62u5nugjint","lat":42.4733688,"long":-83.2218731,"state":"MICHIGAN"},"type":"Feature","geometry":{"type":"Point","coordinates":[-83.2218731,42.4733688]}},{"properties":{"city":"BURNSVILLE","total":2.0,"id":"a62u5oaf6vi9","lat":44.7677424,"long":-93.2777226,"state":"MINNESOTA"},"type":"Feature","geometry":{"type":"Point","coordinates":[-93.2777226,44.7677424]}},{"properties":{"city":"MINNETONKA","total":3.0,"id":"a62u5nzhsg7b","lat":44.9132965,"long":-93.5032877,"state":"MINNESOTA"},"type":"Feature","geometry":{"type":"Point","coordinates":[-93.5032877,44.9132965]}},{"properties":{"city":"MINNEAPOLIS","total":5.0,"id":"a62u5o5r702d","lat":44.9799654,"long":-93.2638361,"state":"MINNESOTA"},"type":"Feature","geometry":{"type":"Point","coordinates":[-93.2638361,44.9799654]}},{"properties":{"city":"MAPLE GROVE","total":1.0,"id":"a62u5o2h7f72","lat":45.0724642,"long":-93.4557877,"state":"MINNESOTA"},"type":"Feature","geometry":{"type":"Point","coordinates":[-93.4557877,45.0724642]}},{"properties":{"city":"CHESTERFIELD","total":1.0,"id":"a62u5o2zfebq","lat":38.6631083,"long":-90.5770675,"state":"MISSOURI"},"type":"Feature","geometry":{"type":"Point","coordinates":[-90.5770675,38.6631083]}},{"properties":{"city":"EARTH CITY","total":1.0,"id":"a62u5oakjfsk","lat":38.7689401,"long":-90.4681741,"state":"MISSOURI"},"type":"Feature","geometry":{"type":"Point","coordinates":[-90.4681741,38.7689401]}},{"properties":{"city":"HAZELWOOD","total":5.0,"id":"a62u5o5hfqqh","lat":38.7714396,"long":-90.3709489,"state":"MISSOURI"},"type":"Feature","geometry":{"type":"Point","coordinates":[-90.3709489,38.7714396]}},{"properties":{"city":"KANSAS CITY","total":1.0,"id":"a62u5o7999bf","lat":39.0997265,"long":-94.5785667,"state":"MISSOURI"},"type":"Feature","geometry":{"type":"Point","coordinates":[-94.5785667,39.0997265]}},{"properties":{"city":"MARYLAND HEIGHTS","total":1.0,"id":"a62u5o61gbsz","lat":38.7131073,"long":-90.4298401,"state":"MISSOURI"},"type":"Feature","geometry":{"type":"Point","coordinates":[-90.4298401,38.7131073]}},{"properties":{"city":"SPRINGFIELD","total":1.0,"id":"a62u5ny74erz","lat":37.215326,"long":-93.2982436,"state":"MISSOURI"},"type":"Feature","geometry":{"type":"Point","coordinates":[-93.2982436,37.215326]}},{"properties":{"city":"SAINT LOUIS","total":2.0,"id":"a62u5o8it98l","lat":38.646991,"long":-90.224967,"state":"MISSOURI"},"type":"Feature","geometry":{"type":"Point","coordinates":[-90.224967,38.646991]}},{"properties":{"city":"SAINT CHARLES","total":3.0,"id":"a62u5o0i4eoj","lat":38.78394,"long":-90.4812298,"state":"MISSOURI"},"type":"Feature","geometry":{"type":"Point","coordinates":[-90.4812298,38.78394]}},{"properties":{"city":"GREAT FALLS","total":1.0,"id":"a62u5o25wlbq","lat":47.5002354,"long":-111.3008083,"state":"MONTANA"},"type":"Feature","geometry":{"type":"Point","coordinates":[-111.3008083,47.5002354]}},{"properties":{"city":"RED LODGE","total":2.0,"id":"a62u5o6smc65","lat":45.1857782,"long":-109.2468211,"state":"MONTANA"},"type":"Feature","geometry":{"type":"Point","coordinates":[-109.2468211,45.1857782]}},{"properties":{"city":"OMAHA","total":2.0,"id":"a62u5nwixjia","lat":41.254006,"long":-95.999258,"state":"NEBRASKA"},"type":"Feature","geometry":{"type":"Point","coordinates":[-95.999258,41.254006]}},{"properties":{"city":"LAS VEGAS","total":1.0,"id":"a62u5nwk0hn5","lat":36.114646,"long":-115.172816,"state":"NEVADA"},"type":"Feature","geometry":{"type":"Point","coordinates":[-115.172816,36.114646]}},{"properties":{"city":"CONCORD","total":1.0,"id":"a62u5o7ha2tx","lat":43.2081366,"long":-71.5375718,"state":"NEW HAMPSHIRE"},"type":"Feature","geometry":{"type":"Point","coordinates":[-71.5375718,43.2081366]}},{"properties":{"city":"MANCHESTER","total":4.0,"id":"a62u5nvcaepl","lat":42.9956397,"long":-71.4547891,"state":"NEW HAMPSHIRE"},"type":"Feature","geometry":{"type":"Point","coordinates":[-71.4547891,42.9956397]}},{"properties":{"city":"DOVER","total":2.0,"id":"a62u5o2x7u15","lat":40.883988,"long":-74.5621025,"state":"NEW JERSEY"},"type":"Feature","geometry":{"type":"Point","coordinates":[-74.5621025,40.883988]}},{"properties":{"city":"DENVILLE","total":1.0,"id":"a62u5nx5yi2h","lat":40.8923212,"long":-74.4773775,"state":"NEW JERSEY"},"type":"Feature","geometry":{"type":"Point","coordinates":[-74.4773775,40.8923212]}},{"properties":{"city":"TRENTON","total":3.0,"id":"a62u5o785byg","lat":40.2170534,"long":-74.7429384,"state":"NEW JERSEY"},"type":"Feature","geometry":{"type":"Point","coordinates":[-74.7429384,40.2170534]}},{"properties":{"city":"EAST BRUNSWICK","total":3.0,"id":"a62u5nx857vb","lat":40.4278841,"long":-74.415984,"state":"NEW JERSEY"},"type":"Feature","geometry":{"type":"Point","coordinates":[-74.415984,40.4278841]}},{"properties":{"city":"ENGLEWOOD","total":1.0,"id":"a62u5o9hbwdu","lat":40.8928771,"long":-73.9726381,"state":"NEW JERSEY"},"type":"Feature","geometry":{"type":"Point","coordinates":[-73.9726381,40.8928771]}},{"properties":{"city":"ENGLISHTOWN","total":2.0,"id":"a62u5o7ua3x5","lat":40.2973319,"long":-74.3582041,"state":"NEW JERSEY"},"type":"Feature","geometry":{"type":"Point","coordinates":[-74.3582041,40.2973319]}},{"properties":{"city":"KEARNY","total":1.0,"id":"a62u5o8yv3im","lat":40.7684342,"long":-74.1454214,"state":"NEW JERSEY"},"type":"Feature","geometry":{"type":"Point","coordinates":[-74.1454214,40.7684342]}},{"properties":{"city":"MAHWAH","total":3.0,"id":"a62u5o5uc3si","lat":41.0887072,"long":-74.1437552,"state":"NEW JERSEY"},"type":"Feature","geometry":{"type":"Point","coordinates":[-74.1437552,41.0887072]}},{"properties":{"city":"NORTHVALE","total":1.0,"id":"a62u5nweebrb","lat":41.0064864,"long":-73.9490258,"state":"NEW JERSEY"},"type":"Feature","geometry":{"type":"Point","coordinates":[-73.9490258,41.0064864]}},{"properties":{"city":"PRINCETON","total":3.0,"id":"a62u5o0a0i2r","lat":40.3487181,"long":-74.6590472,"state":"NEW JERSEY"},"type":"Feature","geometry":{"type":"Point","coordinates":[-74.6590472,40.3487181]}},{"properties":{"city":"CALDWELL","total":1.0,"id":"a62u5o261fm0","lat":40.8398218,"long":-74.2765366,"state":"NEW JERSEY"},"type":"Feature","geometry":{"type":"Point","coordinates":[-74.2765366,40.8398218]}},{"properties":{"city":"ALBUQUERQUE","total":2.0,"id":"a62u5o8bpyei","lat":35.0844909,"long":-106.6511367,"state":"NEW MEXICO"},"type":"Feature","geometry":{"type":"Point","coordinates":[-106.6511367,35.0844909]}},{"properties":{"city":"NEW YORK","total":16.0,"id":"a62u5nuv9tgp","lat":40.7142691,"long":-74.0059729,"state":"NEW YORK"},"type":"Feature","geometry":{"type":"Point","coordinates":[-74.0059729,40.7142691]}},{"properties":{"city":"BROOKLYN","total":2.0,"id":"a62u5o69xx5q","lat":40.6501037,"long":-73.9495823,"state":"NEW YORK"},"type":"Feature","geometry":{"type":"Point","coordinates":[-73.9495823,40.6501037]}},{"properties":{"city":"BUFFALO","total":1.0,"id":"a62u5o0kzol1","lat":42.8864468,"long":-78.8783689,"state":"NEW YORK"},"type":"Feature","geometry":{"type":"Point","coordinates":[-78.8783689,42.8864468]}},{"properties":{"city":"ENDICOTT","total":1.0,"id":"a62u5nygorhj","lat":42.098408,"long":-76.0493684,"state":"NEW YORK"},"type":"Feature","geometry":{"type":"Point","coordinates":[-76.0493684,42.098408]}},{"properties":{"city":"HICKSVILLE","total":1.0,"id":"a62u5o92xmxh","lat":40.7684331,"long":-73.5251253,"state":"NEW YORK"},"type":"Feature","geometry":{"type":"Point","coordinates":[-73.5251253,40.7684331]}},{"properties":{"city":"HUDSON","total":1.0,"id":"a62u5nw58lob","lat":42.2528649,"long":-73.790959,"state":"NEW YORK"},"type":"Feature","geometry":{"type":"Point","coordinates":[-73.790959,42.2528649]}},{"properties":{"city":"YAPHANK","total":3.0,"id":"a62u5nwj4gi2","lat":40.8367653,"long":-72.9170487,"state":"NEW YORK"},"type":"Feature","geometry":{"type":"Point","coordinates":[-72.9170487,40.8367653]}},{"properties":{"city":"ALBANY","total":1.0,"id":"a62u5o6lkzvo","lat":42.6525793,"long":-73.7562317,"state":"NEW YORK"},"type":"Feature","geometry":{"type":"Point","coordinates":[-73.7562317,42.6525793]}},{"properties":{"city":"PORT WASHINGTON","total":1.0,"id":"a62u5o1yjz8h","lat":40.8256561,"long":-73.6981858,"state":"NEW YORK"},"type":"Feature","geometry":{"type":"Point","coordinates":[-73.6981858,40.8256561]}},{"properties":{"city":"ROCHESTER","total":2.0,"id":"a62u5o0magu1","lat":43.1547845,"long":-77.6155567,"state":"NEW YORK"},"type":"Feature","geometry":{"type":"Point","coordinates":[-77.6155567,43.1547845]}},{"properties":{"city":"ROME","total":6.0,"id":"a62u5nuob1wi","lat":43.2128473,"long":-75.4557303,"state":"NEW YORK"},"type":"Feature","geometry":{"type":"Point","coordinates":[-75.4557303,43.2128473]}},{"properties":{"city":"SKANEATELES FALLS","total":1.0,"id":"a62u5nusod03","lat":42.9931214,"long":-76.4560472,"state":"NEW YORK"},"type":"Feature","geometry":{"type":"Point","coordinates":[-76.4560472,42.9931214]}},{"properties":{"city":"SYOSSET","total":1.0,"id":"a62u5nx4y7uz","lat":40.8262101,"long":-73.502068,"state":"NEW YORK"},"type":"Feature","geometry":{"type":"Point","coordinates":[-73.502068,40.8262101]}},{"properties":{"city":"SYRACUSE","total":2.0,"id":"a62u5o4bdhtx","lat":43.0481221,"long":-76.1474244,"state":"NEW YORK"},"type":"Feature","geometry":{"type":"Point","coordinates":[-76.1474244,43.0481221]}},{"properties":{"city":"VICTOR","total":2.0,"id":"a62u5o7p52r6","lat":42.9825633,"long":-77.4088794,"state":"NEW YORK"},"type":"Feature","geometry":{"type":"Point","coordinates":[-77.4088794,42.9825633]}},{"properties":{"city":"WALES CENTER","total":1.0,"id":"a62u5nygkccj","lat":42.7683934,"long":-78.5300228,"state":"NEW YORK"},"type":"Feature","geometry":{"type":"Point","coordinates":[-78.5300228,42.7683934]}},{"properties":{"city":"LANCASTER","total":1.0,"id":"a62u5o1bk4os","lat":42.9006144,"long":-78.6703062,"state":"NEW YORK"},"type":"Feature","geometry":{"type":"Point","coordinates":[-78.6703062,42.9006144]}},{"properties":{"city":"ASHEVILLE","total":1.0,"id":"a62u5nvp1do7","lat":35.6009452,"long":-82.554015,"state":"NORTH CAROLINA"},"type":"Feature","geometry":{"type":"Point","coordinates":[-82.554015,35.6009452]}},{"properties":{"city":"CHARLOTTE","total":3.0,"id":"a62u5nz9li80","lat":35.2270869,"long":-80.8431267,"state":"NORTH CAROLINA"},"type":"Feature","geometry":{"type":"Point","coordinates":[-80.8431267,35.2270869]}},{"properties":{"city":"DEDEDO","total":2.0,"id":"a62u5o58aoc0","lat":35.7595731,"long":-79.0192997,"state":"NORTH CAROLINA"},"type":"Feature","geometry":{"type":"Point","coordinates":[-79.0192997,35.7595731]}},{"properties":{"city":"DURHAM","total":7.0,"id":"a62u5nyj8sol","lat":35.9940329,"long":-78.898619,"state":"NORTH CAROLINA"},"type":"Feature","geometry":{"type":"Point","coordinates":[-78.898619,35.9940329]}},{"properties":{"city":"FAYETTEVILLE","total":1.0,"id":"a62u5nz6urqb","lat":35.0526641,"long":-78.8783585,"state":"NORTH CAROLINA"},"type":"Feature","geometry":{"type":"Point","coordinates":[-78.8783585,35.0526641]}},{"properties":{"city":"TRINITY","total":2.0,"id":"a62u5o1s85zc","lat":35.894581,"long":-79.9908729,"state":"NORTH CAROLINA"},"type":"Feature","geometry":{"type":"Point","coordinates":[-79.9908729,35.894581]}},{"properties":{"city":"HIGH POINT","total":1.0,"id":"a62u5o5zr71y","lat":35.9556923,"long":-80.0053176,"state":"NORTH CAROLINA"},"type":"Feature","geometry":{"type":"Point","coordinates":[-80.0053176,35.9556923]}},{"properties":{"city":"RALEIGH","total":2.0,"id":"a62u5nzb0rpx","lat":35.772096,"long":-78.6386145,"state":"NORTH CAROLINA"},"type":"Feature","geometry":{"type":"Point","coordinates":[-78.6386145,35.772096]}},{"properties":{"city":"SHALLOTTE","total":1.0,"id":"a62u5o74cd0k","lat":33.9732275,"long":-78.3858371,"state":"NORTH CAROLINA"},"type":"Feature","geometry":{"type":"Point","coordinates":[-78.3858371,33.9732275]}},{"properties":{"city":"GREENSBORO","total":3.0,"id":"a62u5o1tv828","lat":36.0726354,"long":-79.7919754,"state":"NORTH CAROLINA"},"type":"Feature","geometry":{"type":"Point","coordinates":[-79.7919754,36.0726354]}},{"properties":{"city":"FARGO","total":1.0,"id":"a62u5nx3s5yg","lat":46.8771863,"long":-96.7898034,"state":"NORTH DAKOTA"},"type":"Feature","geometry":{"type":"Point","coordinates":[-96.7898034,46.8771863]}},{"properties":{"city":"MINOT","total":2.0,"id":"a62u5o7qmwzj","lat":48.2325095,"long":-101.2962732,"state":"NORTH DAKOTA"},"type":"Feature","geometry":{"type":"Point","coordinates":[-101.2962732,48.2325095]}},{"properties":{"city":"SAIPAN","total":29.0,"id":"a62u5nx7nntu","lat":15.18093,"long":145.755997,"state":"NORTHERN MARIANA ISLANDS"},"type":"Feature","geometry":{"type":"Point","coordinates":[145.755997,15.18093]}},{"properties":{"city":"WEST CHESTER","total":1.0,"id":"a62u5nvvto10","lat":39.3303357,"long":-84.408275,"state":"OHIO"},"type":"Feature","geometry":{"type":"Point","coordinates":[-84.408275,39.3303357]}},{"properties":{"city":"BOWLING GREEN","total":1.0,"id":"a62u5o93akxs","lat":41.3747744,"long":-83.6513229,"state":"OHIO"},"type":"Feature","geometry":{"type":"Point","coordinates":[-83.6513229,41.3747744]}},{"properties":{"city":"CINCINNATI","total":2.0,"id":"a62u5o9bptqn","lat":39.14801,"long":-84.47702,"state":"OHIO"},"type":"Feature","geometry":{"type":"Point","coordinates":[-84.47702,39.14801]}},{"properties":{"city":"CLEVELAND","total":1.0,"id":"a62u5o61d48z","lat":41.4994954,"long":-81.6954088,"state":"OHIO"},"type":"Feature","geometry":{"type":"Point","coordinates":[-81.6954088,41.4994954]}},{"properties":{"city":"AMELIA","total":1.0,"id":"a62u5nx3i86g","lat":39.0283966,"long":-84.2177136,"state":"OHIO"},"type":"Feature","geometry":{"type":"Point","coordinates":[-84.2177136,39.0283966]}},{"properties":{"city":"GALION","total":1.0,"id":"a62u5o1xt69w","lat":40.7336687,"long":-82.7899026,"state":"OHIO"},"type":"Feature","geometry":{"type":"Point","coordinates":[-82.7899026,40.7336687]}},{"properties":{"city":"MAUMEE","total":10.0,"id":"a62u5nzfqcr1","lat":41.5628294,"long":-83.6538244,"state":"OHIO"},"type":"Feature","geometry":{"type":"Point","coordinates":[-83.6538244,41.5628294]}},{"properties":{"city":"MENTOR","total":6.0,"id":"a62u5nzwfo25","lat":41.6661573,"long":-81.339552,"state":"OHIO"},"type":"Feature","geometry":{"type":"Point","coordinates":[-81.339552,41.6661573]}},{"properties":{"city":"MIAMISBURG","total":1.0,"id":"a62u5o3fiizs","lat":39.6428362,"long":-84.2866083,"state":"OHIO"},"type":"Feature","geometry":{"type":"Point","coordinates":[-84.2866083,39.6428362]}},{"properties":{"city":"TOLEDO","total":18.0,"id":"a62u5nxifx5x","lat":41.6639383,"long":-83.555212,"state":"OHIO"},"type":"Feature","geometry":{"type":"Point","coordinates":[-83.555212,41.6639383]}},{"properties":{"city":"COLUMBUS","total":2.0,"id":"a62u5ny7nwn1","lat":39.9611755,"long":-82.9987942,"state":"OHIO"},"type":"Feature","geometry":{"type":"Point","coordinates":[-82.9987942,39.9611755]}},{"properties":{"city":"OKLAHOMA CITY","total":1.0,"id":"a62u5o2w27rb","lat":35.4675602,"long":-97.5164276,"state":"OKLAHOMA"},"type":"Feature","geometry":{"type":"Point","coordinates":[-97.5164276,35.4675602]}},{"properties":{"city":"TULSA","total":3.0,"id":"a62u5nwwbyg0","lat":36.1539816,"long":-95.992775,"state":"OKLAHOMA"},"type":"Feature","geometry":{"type":"Point","coordinates":[-95.992775,36.1539816]}},{"properties":{"city":"MCMINNVILLE","total":7.0,"id":"a62u5o4syljn","lat":45.2101162,"long":-123.1987163,"state":"OREGON"},"type":"Feature","geometry":{"type":"Point","coordinates":[-123.1987163,45.2101162]}},{"properties":{"city":"BEAVERTON","total":2.0,"id":"a62u5nyueqed","lat":45.487062,"long":-122.8037102,"state":"OREGON"},"type":"Feature","geometry":{"type":"Point","coordinates":[-122.8037102,45.487062]}},{"properties":{"city":"LAKE OSWEGO","total":3.0,"id":"a62u5o8uywgx","lat":45.4206749,"long":-122.6706498,"state":"OREGON"},"type":"Feature","geometry":{"type":"Point","coordinates":[-122.6706498,45.4206749]}},{"properties":{"city":"ALBANY","total":1.0,"id":"a62u5nz5euu0","lat":44.6365107,"long":-123.1059282,"state":"OREGON"},"type":"Feature","geometry":{"type":"Point","coordinates":[-123.1059282,44.6365107]}},{"properties":{"city":"PORTLAND","total":1.0,"id":"a62u5nyv71nl","lat":45.5234515,"long":-122.6762071,"state":"OREGON"},"type":"Feature","geometry":{"type":"Point","coordinates":[-122.6762071,45.5234515]}},{"properties":{"city":"TUALATIN","total":1.0,"id":"a62u5o2sekga","lat":45.3840077,"long":-122.7639851,"state":"OREGON"},"type":"Feature","geometry":{"type":"Point","coordinates":[-122.7639851,45.3840077]}},{"properties":{"city":"SCAPPOOSE","total":1.0,"id":"a62u5o4abt6w","lat":45.7542809,"long":-122.8776039,"state":"OREGON"},"type":"Feature","geometry":{"type":"Point","coordinates":[-122.8776039,45.7542809]}},{"properties":{"city":"SHERWOOD","total":1.0,"id":"a62u5o5e501w","lat":45.3565074,"long":-122.840098,"state":"OREGON"},"type":"Feature","geometry":{"type":"Point","coordinates":[-122.840098,45.3565074]}},{"properties":{"city":"SALEM","total":1.0,"id":"a62u5o6bhboy","lat":44.9428975,"long":-123.0350963,"state":"OREGON"},"type":"Feature","geometry":{"type":"Point","coordinates":[-123.0350963,44.9428975]}},{"properties":{"city":"BETHLEHEM","total":1.0,"id":"a62u5nxhit3j","lat":40.6259316,"long":-75.3704579,"state":"PENNSYLVANIA"},"type":"Feature","geometry":{"type":"Point","coordinates":[-75.3704579,40.6259316]}},{"properties":{"city":"BRIDGEVILLE","total":1.0,"id":"a62u5o4ndxwz","lat":40.3561805,"long":-80.1100556,"state":"PENNSYLVANIA"},"type":"Feature","geometry":{"type":"Point","coordinates":[-80.1100556,40.3561805]}},{"properties":{"city":"CENTER VALLEY","total":2.0,"id":"a62u5o2aezob","lat":40.529266,"long":-75.393236,"state":"PENNSYLVANIA"},"type":"Feature","geometry":{"type":"Point","coordinates":[-75.393236,40.529266]}},{"properties":{"city":"CLIFTON HEIGHTS","total":1.0,"id":"a62u5nx6pobl","lat":39.9292791,"long":-75.2962972,"state":"PENNSYLVANIA"},"type":"Feature","geometry":{"type":"Point","coordinates":[-75.2962972,39.9292791]}},{"properties":{"city":"COATESVILLE","total":1.0,"id":"a62u5o2hates","lat":39.9831616,"long":-75.8238355,"state":"PENNSYLVANIA"},"type":"Feature","geometry":{"type":"Point","coordinates":[-75.8238355,39.9831616]}},{"properties":{"city":"CREEKSIDE","total":1.0,"id":"a62u5nw05isq","lat":40.679951,"long":-79.193505,"state":"PENNSYLVANIA"},"type":"Feature","geometry":{"type":"Point","coordinates":[-79.193505,40.679951]}},{"properties":{"city":"EAST GREENVILLE","total":10.0,"id":"a62u5nxoecd4","lat":40.4064881,"long":-75.5018477,"state":"PENNSYLVANIA"},"type":"Feature","geometry":{"type":"Point","coordinates":[-75.5018477,40.4064881]}},{"properties":{"city":"EIGHTY FOUR","total":2.0,"id":"a62u5oaity53","lat":40.1817378,"long":-80.1331118,"state":"PENNSYLVANIA"},"type":"Feature","geometry":{"type":"Point","coordinates":[-80.1331118,40.1817378]}},{"properties":{"city":"FRAZER","total":12.0,"id":"a62u5o0s6a5c","lat":40.0323293,"long":-75.5560376,"state":"PENNSYLVANIA"},"type":"Feature","geometry":{"type":"Point","coordinates":[-75.5560376,40.0323293]}},{"properties":{"city":"HARRISBURG","total":1.0,"id":"a62u5o9qtyql","lat":40.2737002,"long":-76.8844179,"state":"PENNSYLVANIA"},"type":"Feature","geometry":{"type":"Point","coordinates":[-76.8844179,40.2737002]}},{"properties":{"city":"WYNCOTE","total":2.0,"id":"a62u5o854d7l","lat":40.0945549,"long":-75.1487863,"state":"PENNSYLVANIA"},"type":"Feature","geometry":{"type":"Point","coordinates":[-75.1487863,40.0945549]}},{"properties":{"city":"MURRYSVILLE","total":1.0,"id":"a62u5nwsukmb","lat":40.4284015,"long":-79.697545,"state":"PENNSYLVANIA"},"type":"Feature","geometry":{"type":"Point","coordinates":[-79.697545,40.4284015]}},{"properties":{"city":"PHILADELPHIA","total":37.0,"id":"a62u5o208e7v","lat":39.952335,"long":-75.163789,"state":"PENNSYLVANIA"},"type":"Feature","geometry":{"type":"Point","coordinates":[-75.163789,39.952335]}},{"properties":{"city":"PITTSBURGH","total":2.0,"id":"a62u5oaw07ch","lat":40.4406248,"long":-79.9958864,"state":"PENNSYLVANIA"},"type":"Feature","geometry":{"type":"Point","coordinates":[-79.9958864,40.4406248]}},{"properties":{"city":"SWIFTWATER","total":5.0,"id":"a62u5o09wtlo","lat":41.0953682,"long":-75.3249054,"state":"PENNSYLVANIA"},"type":"Feature","geometry":{"type":"Point","coordinates":[-75.3249054,41.0953682]}},{"properties":{"city":"WEST CHESTER","total":20.0,"id":"a62u5o6q2ad7","lat":39.9606643,"long":-75.6054882,"state":"PENNSYLVANIA"},"type":"Feature","geometry":{"type":"Point","coordinates":[-75.6054882,39.9606643]}},{"properties":{"city":"WEST MIFFLIN","total":2.0,"id":"a62u5o8ltu48","lat":40.3634026,"long":-79.8664375,"state":"PENNSYLVANIA"},"type":"Feature","geometry":{"type":"Point","coordinates":[-79.8664375,40.3634026]}},{"properties":{"city":"WEST POINT","total":7.0,"id":"a62u5o8micdk","lat":40.3831289,"long":-78.8433568,"state":"PENNSYLVANIA"},"type":"Feature","geometry":{"type":"Point","coordinates":[-78.8433568,40.3831289]}},{"properties":{"city":"WILLIAMSPORT","total":1.0,"id":"a62u5o17k3wn","lat":41.2411897,"long":-77.0010786,"state":"PENNSYLVANIA"},"type":"Feature","geometry":{"type":"Point","coordinates":[-77.0010786,41.2411897]}},{"properties":{"city":"MONROEVILLE","total":1.0,"id":"a62u5oa36wf0","lat":40.4211798,"long":-79.7881024,"state":"PENNSYLVANIA"},"type":"Feature","geometry":{"type":"Point","coordinates":[-79.7881024,40.4211798]}},{"properties":{"city":"CRANSTON","total":1.0,"id":"a62u5nywuy4y","lat":41.7798226,"long":-71.4372796,"state":"RHODE ISLAND"},"type":"Feature","geometry":{"type":"Point","coordinates":[-71.4372796,41.7798226]}},{"properties":{"city":"WARWICK","total":1.0,"id":"a62u5o4awhem","lat":41.7001009,"long":-71.4161671,"state":"RHODE ISLAND"},"type":"Feature","geometry":{"type":"Point","coordinates":[-71.4161671,41.7001009]}},{"properties":{"city":"COLUMBIA","total":3.0,"id":"a62u5o1086rd","lat":34.0007104,"long":-81.0348144,"state":"SOUTH CAROLINA"},"type":"Feature","geometry":{"type":"Point","coordinates":[-81.0348144,34.0007104]}},{"properties":{"city":"IRMO","total":4.0,"id":"a62u5o2qaxqg","lat":34.0859829,"long":-81.1831513,"state":"SOUTH CAROLINA"},"type":"Feature","geometry":{"type":"Point","coordinates":[-81.1831513,34.0859829]}},{"properties":{"city":"ALCESTER","total":1.0,"id":"a62u5o9z9g6l","lat":43.0213783,"long":-96.6308708,"state":"SOUTH DAKOTA"},"type":"Feature","geometry":{"type":"Point","coordinates":[-96.6308708,43.0213783]}},{"properties":{"city":"JOHNSON CITY","total":2.0,"id":"a62u5o48l0pj","lat":36.3134397,"long":-82.3534727,"state":"TENNESSEE"},"type":"Feature","geometry":{"type":"Point","coordinates":[-82.3534727,36.3134397]}},{"properties":{"city":"KNOXVILLE","total":2.0,"id":"a62u5o44tlj9","lat":35.9606384,"long":-83.9207392,"state":"TENNESSEE"},"type":"Feature","geometry":{"type":"Point","coordinates":[-83.9207392,35.9606384]}},{"properties":{"city":"NASHVILLE","total":2.0,"id":"a62u5nx22maq","lat":36.1658899,"long":-86.7844432,"state":"TENNESSEE"},"type":"Feature","geometry":{"type":"Point","coordinates":[-86.7844432,36.1658899]}},{"properties":{"city":"CARROLLTON","total":2.0,"id":"a62u5nzlqs7k","lat":32.9537349,"long":-96.8902816,"state":"TEXAS"},"type":"Feature","geometry":{"type":"Point","coordinates":[-96.8902816,32.9537349]}},{"properties":{"city":"BIG SPRING","total":1.0,"id":"a62u5o595az9","lat":32.2503979,"long":-101.4787355,"state":"TEXAS"},"type":"Feature","geometry":{"type":"Point","coordinates":[-101.4787355,32.2503979]}},{"properties":{"city":"ARLINGTON","total":2.0,"id":"a62u5nwyfkrs","lat":32.735687,"long":-97.1080656,"state":"TEXAS"},"type":"Feature","geometry":{"type":"Point","coordinates":[-97.1080656,32.735687]}},{"properties":{"city":"CORPUS CHRISTI","total":68.0,"id":"a62u5nzgaq8g","lat":27.8005828,"long":-97.396381,"state":"TEXAS"},"type":"Feature","geometry":{"type":"Point","coordinates":[-97.396381,27.8005828]}},{"properties":{"city":"WOODSON","total":1.0,"id":"a62u5o97b8r8","lat":30.0724365,"long":-94.6743644,"state":"TEXAS"},"type":"Feature","geometry":{"type":"Point","coordinates":[-94.6743644,30.0724365]}},{"properties":{"city":"FORT WORTH","total":10.0,"id":"a62u5o6wiq4l","lat":32.725409,"long":-97.3208496,"state":"TEXAS"},"type":"Feature","geometry":{"type":"Point","coordinates":[-97.3208496,32.725409]}},{"properties":{"city":"GARLAND","total":1.0,"id":"a62u5o8cj7su","lat":32.912624,"long":-96.6388833,"state":"TEXAS"},"type":"Feature","geometry":{"type":"Point","coordinates":[-96.6388833,32.912624]}},{"properties":{"city":"IRVING","total":12.0,"id":"a62u5o1rf50s","lat":32.8140177,"long":-96.9488945,"state":"TEXAS"},"type":"Feature","geometry":{"type":"Point","coordinates":[-96.9488945,32.8140177]}},{"properties":{"city":"ROUND ROCK","total":14.0,"id":"a62u5o9vhv46","lat":30.5082551,"long":-97.678896,"state":"TEXAS"},"type":"Feature","geometry":{"type":"Point","coordinates":[-97.678896,30.5082551]}},{"properties":{"city":"SAN ANTONIO","total":17.0,"id":"a62u5o5hw3od","lat":29.4241219,"long":-98.4936282,"state":"TEXAS"},"type":"Feature","geometry":{"type":"Point","coordinates":[-98.4936282,29.4241219]}},{"properties":{"city":"DALLAS","total":2.0,"id":"a62u5o56vt7e","lat":32.802955,"long":-96.769923,"state":"TEXAS"},"type":"Feature","geometry":{"type":"Point","coordinates":[-96.769923,32.802955]}},{"properties":{"city":"LOGAN","total":1.0,"id":"a62u5o2rzziy","lat":41.7354861,"long":-111.834388,"state":"UTAH"},"type":"Feature","geometry":{"type":"Point","coordinates":[-111.834388,41.7354861]}},{"properties":{"city":"OREM","total":1.0,"id":"a62u5nyxiy1g","lat":40.2968979,"long":-111.6946475,"state":"UTAH"},"type":"Feature","geometry":{"type":"Point","coordinates":[-111.6946475,40.2968979]}},{"properties":{"city":"WEST JORDAN","total":1.0,"id":"a62u5nx6vbj4","lat":40.6096698,"long":-111.9391031,"state":"UTAH"},"type":"Feature","geometry":{"type":"Point","coordinates":[-111.9391031,40.6096698]}},{"properties":{"city":"SALT LAKE CITY","total":8.0,"id":"a62u5nwadega","lat":40.7607793,"long":-111.8910474,"state":"UTAH"},"type":"Feature","geometry":{"type":"Point","coordinates":[-111.8910474,40.7607793]}},{"properties":{"city":"PROVO","total":1.0,"id":"a62u5nye0w3m","lat":40.2338438,"long":-111.6585337,"state":"UTAH"},"type":"Feature","geometry":{"type":"Point","coordinates":[-111.6585337,40.2338438]}},{"properties":{"city":"ALEXANDRIA","total":12.0,"id":"a62u5nxqw0p3","lat":38.8048355,"long":-77.0469214,"state":"VIRGINIA"},"type":"Feature","geometry":{"type":"Point","coordinates":[-77.0469214,38.8048355]}},{"properties":{"city":"ARLINGTON","total":22.0,"id":"a62u5nug0o0b","lat":38.8903896,"long":-77.0841446,"state":"VIRGINIA"},"type":"Feature","geometry":{"type":"Point","coordinates":[-77.0841446,38.8903896]}},{"properties":{"city":"BURKE","total":1.0,"id":"a62u5o4o14dk","lat":38.7934466,"long":-77.2716505,"state":"VIRGINIA"},"type":"Feature","geometry":{"type":"Point","coordinates":[-77.2716505,38.7934466]}},{"properties":{"city":"CHANTILLY","total":2.0,"id":"a62u5o2prkzd","lat":38.8942786,"long":-77.4310992,"state":"VIRGINIA"},"type":"Feature","geometry":{"type":"Point","coordinates":[-77.4310992,38.8942786]}},{"properties":{"city":"CHARLOTTESVILLE","total":42.0,"id":"a62u5nxwz24i","lat":38.0293059,"long":-78.4766781,"state":"VIRGINIA"},"type":"Feature","geometry":{"type":"Point","coordinates":[-78.4766781,38.0293059]}},{"properties":{"city":"CHESAPEAKE","total":160.0,"id":"a62u5o0c8t23","lat":36.8190369,"long":-76.2749399,"state":"VIRGINIA"},"type":"Feature","geometry":{"type":"Point","coordinates":[-76.2749399,36.8190369]}},{"properties":{"city":"CROZET","total":1.0,"id":"a62u5o95j50t","lat":38.0695815,"long":-78.700575,"state":"VIRGINIA"},"type":"Feature","geometry":{"type":"Point","coordinates":[-78.700575,38.0695815]}},{"properties":{"city":"FAIRFIELD","total":1.0,"id":"a62u5o4f6u43","lat":39.2048255,"long":-77.9611081,"state":"VIRGINIA"},"type":"Feature","geometry":{"type":"Point","coordinates":[-77.9611081,39.2048255]}},{"properties":{"city":"FALLS CHURCH","total":5.0,"id":"a62u5o3e1spv","lat":38.882334,"long":-77.1710914,"state":"VIRGINIA"},"type":"Feature","geometry":{"type":"Point","coordinates":[-77.1710914,38.882334]}},{"properties":{"city":"HAMPTON","total":1.0,"id":"a62u5o2gqxbm","lat":37.0298687,"long":-76.3452218,"state":"VIRGINIA"},"type":"Feature","geometry":{"type":"Point","coordinates":[-76.3452218,37.0298687]}},{"properties":{"city":"HARRISONBURG","total":3.0,"id":"a62u5o2547g1","lat":38.4495688,"long":-78.8689155,"state":"VIRGINIA"},"type":"Feature","geometry":{"type":"Point","coordinates":[-78.8689155,38.4495688]}},{"properties":{"city":"HERNDON","total":2.0,"id":"a62u5o13brk7","lat":38.9695545,"long":-77.3860976,"state":"VIRGINIA"},"type":"Feature","geometry":{"type":"Point","coordinates":[-77.3860976,38.9695545]}},{"properties":{"city":"MANASSAS","total":2.0,"id":"a62u5nvfbl1t","lat":38.7509488,"long":-77.4752667,"state":"VIRGINIA"},"type":"Feature","geometry":{"type":"Point","coordinates":[-77.4752667,38.7509488]}},{"properties":{"city":"MC LEAN","total":20.0,"id":"a62u5o3sothe","lat":38.9342776,"long":-77.1774801,"state":"VIRGINIA"},"type":"Feature","geometry":{"type":"Point","coordinates":[-77.1774801,38.9342776]}},{"properties":{"city":"NEWPORT NEWS","total":1.0,"id":"a62u5nzzhhd3","lat":36.9787588,"long":-76.428003,"state":"VIRGINIA"},"type":"Feature","geometry":{"type":"Point","coordinates":[-76.428003,36.9787588]}},{"properties":{"city":"NORFOLK","total":2.0,"id":"a62u5o588qng","lat":36.8468146,"long":-76.2852183,"state":"VIRGINIA"},"type":"Feature","geometry":{"type":"Point","coordinates":[-76.2852183,36.8468146]}},{"properties":{"city":"RESTON","total":2.0,"id":"a62u5o27k5ta","lat":38.9687213,"long":-77.3410958,"state":"VIRGINIA"},"type":"Feature","geometry":{"type":"Point","coordinates":[-77.3410958,38.9687213]}},{"properties":{"city":"RICHMOND","total":1.0,"id":"a62u5o7xbw1v","lat":37.542979,"long":-77.469092,"state":"VIRGINIA"},"type":"Feature","geometry":{"type":"Point","coordinates":[-77.469092,37.542979]}},{"properties":{"city":"STERLING","total":1.0,"id":"a62u5o5z8q7w","lat":39.0062203,"long":-77.4285991,"state":"VIRGINIA"},"type":"Feature","geometry":{"type":"Point","coordinates":[-77.4285991,39.0062203]}},{"properties":{"city":"WOODBRIDGE","total":14.0,"id":"a62u5nzd1l3c","lat":38.6581722,"long":-77.2497049,"state":"VIRGINIA"},"type":"Feature","geometry":{"type":"Point","coordinates":[-77.2497049,38.6581722]}},{"properties":{"city":"VIRGINIA BEACH","total":15.0,"id":"a62u5o4oicnb","lat":36.8529263,"long":-75.977985,"state":"VIRGINIA"},"type":"Feature","geometry":{"type":"Point","coordinates":[-75.977985,36.8529263]}},{"properties":{"city":"VIENNA","total":1.0,"id":"a62u5oa1k8lb","lat":38.9012225,"long":-77.2652604,"state":"VIRGINIA"},"type":"Feature","geometry":{"type":"Point","coordinates":[-77.2652604,38.9012225]}},{"properties":{"city":"BOTHELL","total":11.0,"id":"a62u5o8pvcb0","lat":47.7623204,"long":-122.2054035,"state":"WASHINGTON"},"type":"Feature","geometry":{"type":"Point","coordinates":[-122.2054035,47.7623204]}},{"properties":{"city":"ISSAQUAH","total":1.0,"id":"a62u5o7arbry","lat":47.5301011,"long":-122.0326191,"state":"WASHINGTON"},"type":"Feature","geometry":{"type":"Point","coordinates":[-122.0326191,47.5301011]}},{"properties":{"city":"KENT","total":9.0,"id":"a62u5o5oazmp","lat":47.3809335,"long":-122.2348431,"state":"WASHINGTON"},"type":"Feature","geometry":{"type":"Point","coordinates":[-122.2348431,47.3809335]}},{"properties":{"city":"MONROE","total":1.0,"id":"a62u5o79igjz","lat":47.8553772,"long":-121.9709579,"state":"WASHINGTON"},"type":"Feature","geometry":{"type":"Point","coordinates":[-121.9709579,47.8553772]}},{"properties":{"city":"RENTON","total":2.0,"id":"a62u5o0lh3dh","lat":47.4828776,"long":-122.2170661,"state":"WASHINGTON"},"type":"Feature","geometry":{"type":"Point","coordinates":[-122.2170661,47.4828776]}},{"properties":{"city":"SEATTLE","total":12.0,"id":"a62u5o2rmx9q","lat":47.6062095,"long":-122.3320708,"state":"WASHINGTON"},"type":"Feature","geometry":{"type":"Point","coordinates":[-122.3320708,47.6062095]}},{"properties":{"city":"SILVERDALE","total":2.0,"id":"a62u5o9otcq9","lat":47.6445386,"long":-122.6948697,"state":"WASHINGTON"},"type":"Feature","geometry":{"type":"Point","coordinates":[-122.6948697,47.6445386]}},{"properties":{"city":"TUKWILA","total":1.0,"id":"a62u5nyd3m5g","lat":47.4739884,"long":-122.2609558,"state":"WASHINGTON"},"type":"Feature","geometry":{"type":"Point","coordinates":[-122.2609558,47.4739884]}},{"properties":{"city":"WOODINVILLE","total":2.0,"id":"a62u5o9sxgl1","lat":47.7542651,"long":-122.1634582,"state":"WASHINGTON"},"type":"Feature","geometry":{"type":"Point","coordinates":[-122.1634582,47.7542651]}},{"properties":{"city":"APPLETON","total":1.0,"id":"a62u5o6rnlga","lat":44.2619309,"long":-88.4153847,"state":"WISCONSIN"},"type":"Feature","geometry":{"type":"Point","coordinates":[-88.4153847,44.2619309]}},{"properties":{"city":"BERLIN","total":2.0,"id":"a62u5o0vghf6","lat":43.9680364,"long":-88.9434476,"state":"WISCONSIN"},"type":"Feature","geometry":{"type":"Point","coordinates":[-88.9434476,43.9680364]}},{"properties":{"city":"MADISON","total":1.0,"id":"a62u5nxg6ebe","lat":43.0730517,"long":-89.4012302,"state":"WISCONSIN"},"type":"Feature","geometry":{"type":"Point","coordinates":[-89.4012302,43.0730517]}},{"properties":{"city":"MILWAUKEE","total":5.0,"id":"a62u5o4j3as5","lat":43.0389025,"long":-87.9064736,"state":"WISCONSIN"},"type":"Feature","geometry":{"type":"Point","coordinates":[-87.9064736,43.0389025]}},{"properties":{"city":"PLEASANT PRAIRIE","total":1.0,"id":"a62u5o15dgdt","lat":42.5530753,"long":-87.9334118,"state":"WISCONSIN"},"type":"Feature","geometry":{"type":"Point","coordinates":[-87.9334118,42.5530753]}},{"properties":{"city":"RIPON","total":1.0,"id":"a62u5nyrmkrk","lat":43.8422049,"long":-88.8359447,"state":"WISCONSIN"},"type":"Feature","geometry":{"type":"Point","coordinates":[-88.8359447,43.8422049]}},{"properties":{"city":"WAUKESHA","total":1.0,"id":"a62u5nz1qxb2","lat":43.0116784,"long":-88.2314813,"state":"WISCONSIN"},"type":"Feature","geometry":{"type":"Point","coordinates":[-88.2314813,43.0116784]}},{"properties":{"city":"WAUWATOSA","total":1.0,"id":"a62u5nugpcnp","lat":43.0494572,"long":-88.0075875,"state":"WISCONSIN"},"type":"Feature","geometry":{"type":"Point","coordinates":[-88.0075875,43.0494572]}}],"is_temporal":false,"author":{"url":"","metadata":"","contact_name":"","contact_address":"","source":"","contact_phone":""},"source":"","pagination":{"sort":null,"start":0,"total":351,"limit":1000000},"state":"complete","tags":"amazon,guam","published":"2010-01-07T18:59:59Z","id":19908}