{"type":"FeatureCollection","data_type":"Dataset","url_type":null,"permissions":[{"permissions":{"download":true,"view":true},"group_id":"everyone"}],"classification":null,"title":"Charlotte's Web, International Reviews, Book-Crossing Dataset","count":109,"stream_id":19933,"contributor":{"url":"http://geocommons.com/users/2943","name":"Margot"},"data_attributes":null,"calculation_params":null,"icon_link":null,"link":"http://geocommons.com/overlays/19933.json","extent":[-157.858,-33.8696,151.207,60.7209],"geometry_types":["point"],"unique_name":null,"name":"Charlotte's Web, International Reviews, Book-Crossing Dataset","feature_count":109,"description":"Collected by Cai-Nicolas Ziegler in a 4-week crawl (August / September 2004) from the Book-Crossing community with kind permission from Ron Hornbaker, CTO of Humankind Systems. Contains 278,858 users (anonymized but with demographic information) providing 1,149,780 ratings (explicit / implicit) about 271,379 books.\n\n[ ! ] Freely available for research use when acknowledged with the following reference (further details on the dataset are given in this publication):\nImproving Recommendation Lists Through Topic Diversification,\nCai-Nicolas Ziegler, Sean M. McNee, Joseph A. Konstan, Georg Lausen; Proceedings of the 14th International World Wide Web Conference (WWW '05), May 10-14, 2005, Chiba, Japan. To appear.\n\nContains the book rating information. Ratings (`Book-Rating`) are either explicit, expressed on a scale from 1-10 (higher values denoting higher appreciation), or implicit, expressed by 0.","next_feature":null,"is_raster":false,"short_classification":"Y","stats":{"latitude":{"max":60.72087,"mean":39.538321,"variance":94.3021426541719,"stdev":9.71092903146614,"min":-33.869629,"median":40.622905},"book-rating":{"max":10.0,"mean":8.94495412844037,"variance":2.40434930343188,"stdev":1.55059643474112,"min":1.0,"median":10.0},"user-id":{"max":277529.0,"mean":121389.073394495,"variance":5452549219.2353,"stdev":73841.3787739321,"min":4766.0,"median":113663.0},"longitude":{"max":151.206955,"mean":-86.6277314954129,"variance":1333.60888901634,"stdev":36.5186101736681,"min":-157.857614,"median":-87.995949}},"features":[{"properties":{"city":"Bay Area","isbn":"64400557","latitude":37.878689,"book-rating":10.0,"title":"Charlotte's Web (Trophy Newbery)","user-id":100459.0,"longitude":-121.943451,"id":"a64topdlg42e","state":"California"},"type":"Feature","geometry":{"type":"Point","coordinates":[-121.943451,37.878689]}},{"properties":{"city":"London","isbn":"64400557","latitude":51.506325,"book-rating":10.0,"title":"Charlotte's Web (Trophy Newbery)","user-id":100648.0,"longitude":-0.127144,"id":"a64topqfe9of","state":"England"},"type":"Feature","geometry":{"type":"Point","coordinates":[-0.127144,51.506325]}},{"properties":{"city":"Seattle","isbn":"64400557","latitude":47.60356,"book-rating":10.0,"title":"Charlotte's Web (Trophy Newbery)","user-id":100906.0,"longitude":-122.329439,"id":"a64topjshyi6","state":"Washington"},"type":"Feature","geometry":{"type":"Point","coordinates":[-122.329439,47.60356]}},{"properties":{"city":"Millersville","isbn":"64400557","latitude":40.003455,"book-rating":10.0,"title":"Charlotte's Web (Trophy Newbery)","user-id":102801.0,"longitude":-76.356599,"id":"a64topn93w1i","state":"Pennsylvania"},"type":"Feature","geometry":{"type":"Point","coordinates":[-76.356599,40.003455]}},{"properties":{"city":"Martinsburg","isbn":"64400557","latitude":39.45637,"book-rating":10.0,"title":"Charlotte's Web (Trophy Newbery)","user-id":10354.0,"longitude":-77.964564,"id":"a64tope9i3b9","state":"West Virginia"},"type":"Feature","geometry":{"type":"Point","coordinates":[-77.964564,39.45637]}},{"properties":{"city":"Middletown","isbn":"64400557","latitude":39.509897,"book-rating":10.0,"title":"Charlotte's Web (Trophy Newbery)","user-id":104399.0,"longitude":-84.403593,"id":"a64toppdz22i","state":"Ohio"},"type":"Feature","geometry":{"type":"Point","coordinates":[-84.403593,39.509897]}},{"properties":{"city":"Youngstown","isbn":"64400557","latitude":41.0981,"book-rating":10.0,"title":"Charlotte's Web (Trophy Newbery)","user-id":104636.0,"longitude":-80.650789,"id":"a64topj2pgsy","state":"Ohio"},"type":"Feature","geometry":{"type":"Point","coordinates":[-80.650789,41.0981]}},{"properties":{"city":"Calgary","isbn":"60263857","latitude":51.04522,"book-rating":8.0,"title":"Charlotte's Web","user-id":105517.0,"longitude":-114.063014,"id":"a64topl6v5lg","state":"Alberta"},"type":"Feature","geometry":{"type":"Point","coordinates":[-114.063014,51.04522]}},{"properties":{"city":"Kirkland","isbn":"64400557","latitude":47.678855,"book-rating":10.0,"title":"Charlotte's Web (Trophy Newbery)","user-id":110934.0,"longitude":-122.207244,"id":"a64toppd4sdr","state":"Washington"},"type":"Feature","geometry":{"type":"Point","coordinates":[-122.207244,47.678855]}},{"properties":{"city":"Kitchener","isbn":"64400557","latitude":43.45123,"book-rating":10.0,"title":"Charlotte's Web (Trophy Newbery)","user-id":112881.0,"longitude":-80.493049,"id":"a64topiguou6","state":"Ontario"},"type":"Feature","geometry":{"type":"Point","coordinates":[-80.493049,43.45123]}},{"properties":{"city":"Ocala","isbn":"60263857","latitude":29.187525,"book-rating":10.0,"title":"Charlotte's Web","user-id":113663.0,"longitude":-82.140394,"id":"a64toprk7dvu","state":null},"type":"Feature","geometry":{"type":"Point","coordinates":[-82.140394,29.187525]}},{"properties":{"city":"Darlington","isbn":"64400557","latitude":34.302464,"book-rating":10.0,"title":"Charlotte's Web (Trophy Newbery)","user-id":115572.0,"longitude":-79.871629,"id":"a64topm68yq7","state":"South Carolina"},"type":"Feature","geometry":{"type":"Point","coordinates":[-79.871629,34.302464]}},{"properties":{"city":"Welland","isbn":"64400557","latitude":42.993485,"book-rating":10.0,"title":"Charlotte's Web (Trophy Newbery)","user-id":116769.0,"longitude":-79.239244,"id":"a64topq6vntn","state":"Ontario"},"type":"Feature","geometry":{"type":"Point","coordinates":[-79.239244,42.993485]}},{"properties":{"city":"Hollywood","isbn":"60263865","latitude":38.34578,"book-rating":10.0,"title":"Charlotte's Web","user-id":123095.0,"longitude":-76.572514,"id":"a64tophb3k10","state":"Maryland"},"type":"Feature","geometry":{"type":"Point","coordinates":[-76.572514,38.34578]}},{"properties":{"city":"Tallahassee","isbn":"60263857","latitude":30.439775,"book-rating":10.0,"title":"Charlotte's Web","user-id":129716.0,"longitude":-84.280649,"id":"a64topn7s5uf","state":"Florida"},"type":"Feature","geometry":{"type":"Point","coordinates":[-84.280649,30.439775]}},{"properties":{"city":"Montreal","isbn":"059030271X","latitude":45.512288,"book-rating":9.0,"title":"Charlotte's Web","user-id":130076.0,"longitude":-73.554392,"id":"a64topm16luv","state":"Quebec"},"type":"Feature","geometry":{"type":"Point","coordinates":[-73.554392,45.512288]}},{"properties":{"city":"Yarmouth","isbn":"64400557","latitude":43.84128,"book-rating":9.0,"title":"Charlotte's Web (Trophy Newbery)","user-id":130438.0,"longitude":-66.118854,"id":"a64topotsbu7","state":"Nova Scotia"},"type":"Feature","geometry":{"type":"Point","coordinates":[-66.118854,43.84128]}},{"properties":{"city":"Whitehorse","isbn":"64400557","latitude":60.72087,"book-rating":9.0,"title":"Charlotte's Web (Trophy Newbery)","user-id":133037.0,"longitude":-135.053169,"id":"a64topqn4gtg","state":"Yukon Territory"},"type":"Feature","geometry":{"type":"Point","coordinates":[-135.053169,60.72087]}},{"properties":{"city":"Birmingham","isbn":"60263857","latitude":33.520295,"book-rating":10.0,"title":"Charlotte's Web","user-id":135902.0,"longitude":-86.811504,"id":"a64topp6z64y","state":null},"type":"Feature","geometry":{"type":"Point","coordinates":[-86.811504,33.520295]}},{"properties":{"city":"Newark","isbn":"059030271X","latitude":37.5364,"book-rating":7.0,"title":"Charlotte's Web","user-id":137922.0,"longitude":-122.029684,"id":"a64topt4m7vu","state":"California"},"type":"Feature","geometry":{"type":"Point","coordinates":[-122.029684,37.5364]}},{"properties":{"city":"Carson","isbn":"64400557","latitude":33.83161,"book-rating":10.0,"title":"Charlotte's Web (Trophy Newbery)","user-id":138850.0,"longitude":-118.262119,"id":"a64topkkahlt","state":"California"},"type":"Feature","geometry":{"type":"Point","coordinates":[-118.262119,33.83161]}},{"properties":{"city":"Georgetown","isbn":"64400557","latitude":38.910259,"book-rating":7.0,"title":"Charlotte's Web (Trophy Newbery)","user-id":139636.0,"longitude":-77.067307,"id":"a64topdurkv5","state":"Penang"},"type":"Feature","geometry":{"type":"Point","coordinates":[-77.067307,38.910259]}},{"properties":{"city":"Chapin","isbn":"059030271X","latitude":34.165815,"book-rating":10.0,"title":"Charlotte's Web","user-id":146156.0,"longitude":-81.349449,"id":"a64tophkjzdl","state":"South Carolina"},"type":"Feature","geometry":{"type":"Point","coordinates":[-81.349449,34.165815]}},{"properties":{"city":"Upstate","isbn":"059030271X","latitude":40.71455,"book-rating":8.0,"title":"Charlotte's Web","user-id":14698.0,"longitude":-74.007118,"id":"a64topgzt58f","state":"New York"},"type":"Feature","geometry":{"type":"Point","coordinates":[-74.007118,40.71455]}},{"properties":{"city":"Benbrook","isbn":"64400557","latitude":32.677946,"book-rating":9.0,"title":"Charlotte's Web (Trophy Newbery)","user-id":15049.0,"longitude":-97.452588,"id":"a64toplabat9","state":"Texas"},"type":"Feature","geometry":{"type":"Point","coordinates":[-97.452588,32.677946]}},{"properties":{"city":"Benbrook","isbn":"760707251","latitude":32.677946,"book-rating":10.0,"title":"Charlottes Web Special Read Along Edition","user-id":15049.0,"longitude":-97.452588,"id":"a64topg13s28","state":"Texas"},"type":"Feature","geometry":{"type":"Point","coordinates":[-97.452588,32.677946]}},{"properties":{"city":"Houston","isbn":"64400557","latitude":29.76045,"book-rating":10.0,"title":"Charlotte's Web (Trophy Newbery)","user-id":151910.0,"longitude":-95.369784,"id":"a64topky8yqc","state":"Texas"},"type":"Feature","geometry":{"type":"Point","coordinates":[-95.369784,29.76045]}},{"properties":{"city":"Las Cruces","isbn":"64400557","latitude":32.30673,"book-rating":10.0,"title":"Charlotte's Web (Trophy Newbery)","user-id":155014.0,"longitude":-106.777734,"id":"a64topdjuqu2","state":"New Mexico"},"type":"Feature","geometry":{"type":"Point","coordinates":[-106.777734,32.30673]}},{"properties":{"city":"Seattle","isbn":"64400557","latitude":47.60356,"book-rating":7.0,"title":"Charlotte's Web (Trophy Newbery)","user-id":155147.0,"longitude":-122.329439,"id":"a64toprrkai2","state":"Washington"},"type":"Feature","geometry":{"type":"Point","coordinates":[-122.329439,47.60356]}},{"properties":{"city":"Howell","isbn":"60263857","latitude":40.154665,"book-rating":9.0,"title":"Charlotte's Web","user-id":156150.0,"longitude":-74.230729,"id":"a64topm00zv2","state":"New Jersey"},"type":"Feature","geometry":{"type":"Point","coordinates":[-74.230729,40.154665]}},{"properties":{"city":"Heerenveen","isbn":"64400557","latitude":52.958695,"book-rating":9.0,"title":"Charlotte's Web (Trophy Newbery)","user-id":157033.0,"longitude":5.928825,"id":"a64topjy4u2y","state":null},"type":"Feature","geometry":{"type":"Point","coordinates":[5.928825,52.958695]}},{"properties":{"city":"Mechanicsville","isbn":"60263865","latitude":38.445607,"book-rating":8.0,"title":"Charlotte's Web","user-id":16795.0,"longitude":-76.743683,"id":"a64topnah10x","state":"Maryland"},"type":"Feature","geometry":{"type":"Point","coordinates":[-76.743683,38.445607]}},{"properties":{"city":"St. Charles","isbn":"64400557","latitude":38.782435,"book-rating":8.0,"title":"Charlotte's Web (Trophy Newbery)","user-id":171783.0,"longitude":-90.482079,"id":"a64topmubd70","state":"Missouri"},"type":"Feature","geometry":{"type":"Point","coordinates":[-90.482079,38.782435]}},{"properties":{"city":"New Cumberland","isbn":"059030271X","latitude":40.229221,"book-rating":5.0,"title":"Charlotte's Web","user-id":174140.0,"longitude":-76.868692,"id":"a64topnpoq16","state":"Pennsylvania"},"type":"Feature","geometry":{"type":"Point","coordinates":[-76.868692,40.229221]}},{"properties":{"city":"Basye","isbn":"64400557","latitude":38.807483,"book-rating":7.0,"title":"Charlotte's Web (Trophy Newbery)","user-id":176978.0,"longitude":-78.789895,"id":"a64topm0m2yp","state":"Virginia"},"type":"Feature","geometry":{"type":"Point","coordinates":[-78.789895,38.807483]}},{"properties":{"city":"Ottawa","isbn":"64400557","latitude":45.4215,"book-rating":8.0,"title":"Charlotte's Web (Trophy Newbery)","user-id":177458.0,"longitude":-75.691894,"id":"a64toprcgvct","state":"Ontario"},"type":"Feature","geometry":{"type":"Point","coordinates":[-75.691894,45.4215]}},{"properties":{"city":"Hampton","isbn":"059030271X","latitude":33.53799,"book-rating":10.0,"title":"Charlotte's Web","user-id":179075.0,"longitude":-92.470114,"id":"a64topjedp0j","state":null},"type":"Feature","geometry":{"type":"Point","coordinates":[-92.470114,33.53799]}},{"properties":{"city":"Honolulu","isbn":"760707251","latitude":21.30477,"book-rating":10.0,"title":"Charlottes Web Special Read Along Edition","user-id":17926.0,"longitude":-157.857614,"id":"a64toplpopm3","state":"Hawaii"},"type":"Feature","geometry":{"type":"Point","coordinates":[-157.857614,21.30477]}},{"properties":{"city":"Greenville","isbn":"64400557","latitude":33.13907,"book-rating":10.0,"title":"Charlotte's Web (Trophy Newbery)","user-id":179734.0,"longitude":-96.106784,"id":"a64tops69al0","state":"Texas"},"type":"Feature","geometry":{"type":"Point","coordinates":[-96.106784,33.13907]}},{"properties":{"city":"Perry","isbn":"059030271X","latitude":42.71963,"book-rating":8.0,"title":"Charlotte's Web","user-id":179978.0,"longitude":-78.005499,"id":"a64topewxyny","state":"New York"},"type":"Feature","geometry":{"type":"Point","coordinates":[-78.005499,42.71963]}},{"properties":{"city":"Virginia Beach","isbn":"64400557","latitude":36.75502,"book-rating":10.0,"title":"Charlotte's Web (Trophy Newbery)","user-id":181103.0,"longitude":-76.059204,"id":"a64topizbtiz","state":"Virginia"},"type":"Feature","geometry":{"type":"Point","coordinates":[-76.059204,36.75502]}},{"properties":{"city":"London","isbn":"64400557","latitude":42.986895,"book-rating":10.0,"title":"Charlotte's Web (Trophy Newbery)","user-id":182053.0,"longitude":-81.246214,"id":"a64topjwx1zm","state":"Ontario"},"type":"Feature","geometry":{"type":"Point","coordinates":[-81.246214,42.986895]}},{"properties":{"city":"Portland","isbn":"64400557","latitude":45.511795,"book-rating":8.0,"title":"Charlotte's Web (Trophy Newbery)","user-id":182612.0,"longitude":-122.675629,"id":"a64topqm69bo","state":"Oregon"},"type":"Feature","geometry":{"type":"Point","coordinates":[-122.675629,45.511795]}},{"properties":{"city":"Stamford","isbn":"60282983","latitude":41.05182,"book-rating":7.0,"title":"Charlotte's Web","user-id":183284.0,"longitude":-73.542234,"id":"a64topnfu6nt","state":"Connecticut"},"type":"Feature","geometry":{"type":"Point","coordinates":[-73.542234,41.05182]}},{"properties":{"city":"Kingston","isbn":"059030271X","latitude":44.231535,"book-rating":9.0,"title":"Charlotte's Web","user-id":190485.0,"longitude":-76.479334,"id":"a64topgdkf6n","state":"Ontario"},"type":"Feature","geometry":{"type":"Point","coordinates":[-76.479334,44.231535]}},{"properties":{"city":"Southern","isbn":"64400557","latitude":44.212559,"book-rating":9.0,"title":"Charlotte's Web (Trophy Newbery)","user-id":195455.0,"longitude":-100.247063,"id":"a64topn2v7pm","state":"South Dakota"},"type":"Feature","geometry":{"type":"Point","coordinates":[-100.247063,44.212559]}},{"properties":{"city":"Decatur","isbn":"64400557","latitude":33.774021,"book-rating":8.0,"title":"Charlotte's Web (Trophy Newbery)","user-id":196502.0,"longitude":-84.296589,"id":"a64toppekcrv","state":"Georgia"},"type":"Feature","geometry":{"type":"Point","coordinates":[-84.296589,33.774021]}},{"properties":{"city":"Arlington","isbn":"059030271X","latitude":32.7356,"book-rating":8.0,"title":"Charlotte's Web","user-id":196915.0,"longitude":-97.107719,"id":"a64tophiaai1","state":"Texas"},"type":"Feature","geometry":{"type":"Point","coordinates":[-97.107719,32.7356]}},{"properties":{"city":"Indiana","isbn":"64400557","latitude":40.622905,"book-rating":8.0,"title":"Charlotte's Web (Trophy Newbery)","user-id":197659.0,"longitude":-79.150149,"id":"a64topr0egsk","state":"Pennsylvania"},"type":"Feature","geometry":{"type":"Point","coordinates":[-79.150149,40.622905]}},{"properties":{"city":"Ottawa","isbn":"059030271X","latitude":45.4215,"book-rating":10.0,"title":"Charlotte's Web","user-id":200344.0,"longitude":-75.691894,"id":"a64tope51r73","state":"Ontario"},"type":"Feature","geometry":{"type":"Point","coordinates":[-75.691894,45.4215]}},{"properties":{"city":"Saratoga Springs","isbn":"059030271X","latitude":40.34723,"book-rating":10.0,"title":"Charlotte's Web","user-id":20172.0,"longitude":-111.908949,"id":"a64tope49810","state":"Utah"},"type":"Feature","geometry":{"type":"Point","coordinates":[-111.908949,40.34723]}},{"properties":{"city":"Shelby Township","isbn":"059030271X","latitude":42.68326,"book-rating":10.0,"title":"Charlotte's Web","user-id":202706.0,"longitude":-83.034394,"id":"a64topmsh9zm","state":"Michigan"},"type":"Feature","geometry":{"type":"Point","coordinates":[-83.034394,42.68326]}},{"properties":{"city":"Shelby Township","isbn":"60263857","latitude":42.68326,"book-rating":10.0,"title":"Charlotte's Web","user-id":202706.0,"longitude":-83.034394,"id":"a64toplapmbw","state":"Michigan"},"type":"Feature","geometry":{"type":"Point","coordinates":[-83.034394,42.68326]}},{"properties":{"city":"St. Louis","isbn":"059030271X","latitude":38.62774,"book-rating":7.0,"title":"Charlotte's Web","user-id":203240.0,"longitude":-90.199514,"id":"a64topmyctwm","state":"Missouri"},"type":"Feature","geometry":{"type":"Point","coordinates":[-90.199514,38.62774]}},{"properties":{"city":"Scottsdale","isbn":"64400557","latitude":33.49401,"book-rating":8.0,"title":"Charlotte's Web (Trophy Newbery)","user-id":203877.0,"longitude":-111.921409,"id":"a64topd31r3l","state":"Arizona"},"type":"Feature","geometry":{"type":"Point","coordinates":[-111.921409,33.49401]}},{"properties":{"city":"Coimbra","isbn":"64400557","latitude":40.210812,"book-rating":10.0,"title":"Charlotte's Web (Trophy Newbery)","user-id":204663.0,"longitude":-8.416345,"id":"a64topm8ikbu","state":null},"type":"Feature","geometry":{"type":"Point","coordinates":[-8.416345,40.210812]}},{"properties":{"city":"Gilbert","isbn":"64400557","latitude":33.329042,"book-rating":8.0,"title":"Charlotte's Web (Trophy Newbery)","user-id":208786.0,"longitude":-111.789767,"id":"a64topo1av7v","state":"Arizona"},"type":"Feature","geometry":{"type":"Point","coordinates":[-111.789767,33.329042]}},{"properties":{"city":"Medicine Lodge","isbn":"64400557","latitude":37.28634,"book-rating":10.0,"title":"Charlotte's Web (Trophy Newbery)","user-id":209155.0,"longitude":-98.586724,"id":"a64topobeq1i","state":"Kansas"},"type":"Feature","geometry":{"type":"Point","coordinates":[-98.586724,37.28634]}},{"properties":{"city":"Storm Lake","isbn":"059030271X","latitude":42.647475,"book-rating":9.0,"title":"Charlotte's Web","user-id":209486.0,"longitude":-95.201389,"id":"a64topfn61wt","state":"Iowa"},"type":"Feature","geometry":{"type":"Point","coordinates":[-95.201389,42.647475]}},{"properties":{"city":"Fresno","isbn":"64400557","latitude":36.740685,"book-rating":10.0,"title":"Charlotte's Web (Trophy Newbery)","user-id":21014.0,"longitude":-119.785734,"id":"a64topf41ro4","state":"California"},"type":"Feature","geometry":{"type":"Point","coordinates":[-119.785734,36.740685]}},{"properties":{"city":"Seattle","isbn":"059030271X","latitude":47.60356,"book-rating":5.0,"title":"Charlotte's Web","user-id":211288.0,"longitude":-122.329439,"id":"a64topq1b0rk","state":"Washington"},"type":"Feature","geometry":{"type":"Point","coordinates":[-122.329439,47.60356]}},{"properties":{"city":"Newbury Park","isbn":"64400557","latitude":34.188641,"book-rating":10.0,"title":"Charlotte's Web (Trophy Newbery)","user-id":214736.0,"longitude":-118.940559,"id":"a64toprlt5n6","state":"California"},"type":"Feature","geometry":{"type":"Point","coordinates":[-118.940559,34.188641]}},{"properties":{"city":"The Woodlands","isbn":"64400557","latitude":30.15752,"book-rating":10.0,"title":"Charlotte's Web (Trophy Newbery)","user-id":223190.0,"longitude":-95.455772,"id":"a64topq8gqsl","state":"Texas"},"type":"Feature","geometry":{"type":"Point","coordinates":[-95.455772,30.15752]}},{"properties":{"city":"Richmond","isbn":"059030271X","latitude":37.5407,"book-rating":5.0,"title":"Charlotte's Web","user-id":229015.0,"longitude":-77.433654,"id":"a64topsnpa74","state":"Virginia"},"type":"Feature","geometry":{"type":"Point","coordinates":[-77.433654,37.5407]}},{"properties":{"city":"Crawfordsville","isbn":"64400557","latitude":40.04229,"book-rating":9.0,"title":"Charlotte's Web (Trophy Newbery)","user-id":233143.0,"longitude":-86.901379,"id":"a64topdhwwe2","state":"Indiana"},"type":"Feature","geometry":{"type":"Point","coordinates":[-86.901379,40.04229]}},{"properties":{"city":"Aurora","isbn":"64400557","latitude":41.75695,"book-rating":9.0,"title":"Charlotte's Web (Trophy Newbery)","user-id":235059.0,"longitude":-88.315774,"id":"a64topcr8p2z","state":"Illinois"},"type":"Feature","geometry":{"type":"Point","coordinates":[-88.315774,41.75695]}},{"properties":{"city":"Eagan","isbn":"059030271X","latitude":44.81808,"book-rating":9.0,"title":"Charlotte's Web","user-id":237748.0,"longitude":-93.167134,"id":"a64toppsypdg","state":"Minnesota"},"type":"Feature","geometry":{"type":"Point","coordinates":[-93.167134,44.81808]}},{"properties":{"city":"Kenmore","isbn":"64400557","latitude":42.962395,"book-rating":10.0,"title":"Charlotte's Web (Trophy Newbery)","user-id":244420.0,"longitude":-78.878714,"id":"a64topit1seg","state":null},"type":"Feature","geometry":{"type":"Point","coordinates":[-78.878714,42.962395]}},{"properties":{"city":"Westmont","isbn":"60263857","latitude":41.7952,"book-rating":10.0,"title":"Charlotte's Web","user-id":249958.0,"longitude":-87.977399,"id":"a64tophsprt2","state":"Illinois"},"type":"Feature","geometry":{"type":"Point","coordinates":[-87.977399,41.7952]}},{"properties":{"city":"West Valley","isbn":"64400557","latitude":40.694099,"book-rating":9.0,"title":"Charlotte's Web (Trophy Newbery)","user-id":250447.0,"longitude":-111.957977,"id":"a64tophn2yb5","state":"Utah"},"type":"Feature","geometry":{"type":"Point","coordinates":[-111.957977,40.694099]}},{"properties":{"city":"Carmel","isbn":"059030271X","latitude":39.97839,"book-rating":10.0,"title":"Charlotte's Web","user-id":25669.0,"longitude":-86.126419,"id":"a64topehq4vd","state":"Indiana"},"type":"Feature","geometry":{"type":"Point","coordinates":[-86.126419,39.97839]}},{"properties":{"city":"Highland","isbn":"059030271X","latitude":34.121255,"book-rating":5.0,"title":"Charlotte's Web","user-id":276928.0,"longitude":-117.216094,"id":"a64topk3iwq2","state":"California"},"type":"Feature","geometry":{"type":"Point","coordinates":[-117.216094,34.121255]}},{"properties":{"city":"St. Thomas","isbn":"64400557","latitude":18.08169,"book-rating":8.0,"title":"Charlotte's Web (Trophy Newbery)","user-id":277529.0,"longitude":-64.68589,"id":"a64topd4a2em","state":"Virgin Islands"},"type":"Feature","geometry":{"type":"Point","coordinates":[-64.68589,18.08169]}},{"properties":{"city":"Lemon Grove","isbn":"60263857","latitude":32.7408,"book-rating":10.0,"title":"Charlotte's Web","user-id":28932.0,"longitude":-117.031084,"id":"a64topsrxaob","state":"California"},"type":"Feature","geometry":{"type":"Point","coordinates":[-117.031084,32.7408]}},{"properties":{"city":"Sydney","isbn":"553470485","latitude":-33.869629,"book-rating":8.0,"title":"Charlotte's Web","user-id":30711.0,"longitude":151.206955,"id":"a64toplcah13","state":"New South Wales"},"type":"Feature","geometry":{"type":"Point","coordinates":[151.206955,-33.869629]}},{"properties":{"city":"Saint Paul","isbn":"64400557","latitude":44.943829,"book-rating":10.0,"title":"Charlotte's Web (Trophy Newbery)","user-id":30824.0,"longitude":-93.093326,"id":"a64topifts1r","state":"Minnesota"},"type":"Feature","geometry":{"type":"Point","coordinates":[-93.093326,44.943829]}},{"properties":{"city":"Jasper","isbn":"60263857","latitude":37.33982,"book-rating":10.0,"title":"Charlotte's Web","user-id":31826.0,"longitude":-94.302604,"id":"a64topp69izo","state":"Missouri"},"type":"Feature","geometry":{"type":"Point","coordinates":[-94.302604,37.33982]}},{"properties":{"city":"Duluth","isbn":"059030271X","latitude":46.787965,"book-rating":10.0,"title":"Charlotte's Web","user-id":35859.0,"longitude":-92.099849,"id":"a64topmm46xd","state":"Minnesota"},"type":"Feature","geometry":{"type":"Point","coordinates":[-92.099849,46.787965]}},{"properties":{"city":"Duluth","isbn":"760707251","latitude":46.787965,"book-rating":10.0,"title":"Charlottes Web Special Read Along Edition","user-id":35859.0,"longitude":-92.099849,"id":"a64topire9uu","state":"Minnesota"},"type":"Feature","geometry":{"type":"Point","coordinates":[-92.099849,46.787965]}},{"properties":{"city":"Dunnville","isbn":"64400557","latitude":42.904362,"book-rating":10.0,"title":"Charlotte's Web (Trophy Newbery)","user-id":36907.0,"longitude":-79.619873,"id":"a64topfkjs3x","state":"Ontario"},"type":"Feature","geometry":{"type":"Point","coordinates":[-79.619873,42.904362]}},{"properties":{"city":"Newark","isbn":"059030271X","latitude":35.69608,"book-rating":1.0,"title":"Charlotte's Web","user-id":37152.0,"longitude":-91.443379,"id":"a64tope2rbnw","state":null},"type":"Feature","geometry":{"type":"Point","coordinates":[-91.443379,35.69608]}},{"properties":{"city":"Sherwood Park","isbn":"60263857","latitude":53.526402,"book-rating":8.0,"title":"Charlotte's Web","user-id":41841.0,"longitude":-113.295738,"id":"a64topdbjnmz","state":"Alberta"},"type":"Feature","geometry":{"type":"Point","coordinates":[-113.295738,53.526402]}},{"properties":{"city":"Guntersville","isbn":"059030271X","latitude":34.35113,"book-rating":7.0,"title":"Charlotte's Web","user-id":43726.0,"longitude":-86.299159,"id":"a64topkym87x","state":"Alabama"},"type":"Feature","geometry":{"type":"Point","coordinates":[-86.299159,34.35113]}},{"properties":{"city":"Chardon","isbn":"64400557","latitude":41.58328,"book-rating":10.0,"title":"Charlotte's Web (Trophy Newbery)","user-id":46145.0,"longitude":-81.202874,"id":"a64toppaditb","state":"Ohio"},"type":"Feature","geometry":{"type":"Point","coordinates":[-81.202874,41.58328]}},{"properties":{"city":"Chatham","isbn":"059030271X","latitude":42.404442,"book-rating":10.0,"title":"Charlotte's Web","user-id":4766.0,"longitude":-82.189583,"id":"a64topdr27in","state":"Ontario"},"type":"Feature","geometry":{"type":"Point","coordinates":[-82.189583,42.404442]}},{"properties":{"city":"Lemon Grove","isbn":"64400557","latitude":32.7408,"book-rating":10.0,"title":"Charlotte's Web (Trophy Newbery)","user-id":48494.0,"longitude":-117.031084,"id":"a64tope6vhd4","state":"California"},"type":"Feature","geometry":{"type":"Point","coordinates":[-117.031084,32.7408]}},{"properties":{"city":"San Diego","isbn":"059030271X","latitude":32.715685,"book-rating":8.0,"title":"Charlotte's Web","user-id":49646.0,"longitude":-117.161724,"id":"a64topp4wbc4","state":"California"},"type":"Feature","geometry":{"type":"Point","coordinates":[-117.161724,32.715685]}},{"properties":{"city":"Brantford","isbn":"059030271X","latitude":43.14136,"book-rating":10.0,"title":"Charlotte's Web","user-id":51803.0,"longitude":-80.261739,"id":"a64topdejf1g","state":"Ontario"},"type":"Feature","geometry":{"type":"Point","coordinates":[-80.261739,43.14136]}},{"properties":{"city":"Antioch","isbn":"64410935","latitude":42.478167,"book-rating":8.0,"title":"Charlotte's Web (full color)","user-id":55492.0,"longitude":-88.09611,"id":"a64topebn9fb","state":"Illinois"},"type":"Feature","geometry":{"type":"Point","coordinates":[-88.09611,42.478167]}},{"properties":{"city":"St. Paul","isbn":"60263857","latitude":44.943829,"book-rating":8.0,"title":"Charlotte's Web","user-id":58174.0,"longitude":-93.093326,"id":"a64toprmq6ih","state":"Minnesota"},"type":"Feature","geometry":{"type":"Point","coordinates":[-93.093326,44.943829]}},{"properties":{"city":"Chardon","isbn":"64410935","latitude":41.58328,"book-rating":10.0,"title":"Charlotte's Web (full color)","user-id":60569.0,"longitude":-81.202874,"id":"a64topl36n02","state":"Ohio"},"type":"Feature","geometry":{"type":"Point","coordinates":[-81.202874,41.58328]}},{"properties":{"city":"Antioch","isbn":"059030271X","latitude":42.478167,"book-rating":8.0,"title":"Charlotte's Web","user-id":60583.0,"longitude":-88.09611,"id":"a64tophni3yq","state":"Illinois"},"type":"Feature","geometry":{"type":"Point","coordinates":[-88.09611,42.478167]}},{"properties":{"city":"Ebensee","isbn":"64400557","latitude":47.812641,"book-rating":10.0,"title":"Charlotte's Web (Trophy Newbery)","user-id":61147.0,"longitude":13.77438,"id":"a64topok6th1","state":"Oberoesterreich"},"type":"Feature","geometry":{"type":"Point","coordinates":[13.77438,47.812641]}},{"properties":{"city":"Arlington Heights","isbn":"64400557","latitude":42.138015,"book-rating":10.0,"title":"Charlotte's Web (Trophy Newbery)","user-id":62475.0,"longitude":-87.995949,"id":"a64tope28ljf","state":"Illinois"},"type":"Feature","geometry":{"type":"Point","coordinates":[-87.995949,42.138015]}},{"properties":{"city":"Adrian","isbn":"64400557","latitude":38.39745,"book-rating":9.0,"title":"Charlotte's Web (Trophy Newbery)","user-id":6700.0,"longitude":-94.353104,"id":"a64toplxc49y","state":"Missouri"},"type":"Feature","geometry":{"type":"Point","coordinates":[-94.353104,38.39745]}},{"properties":{"city":"Bad Axe","isbn":"760707251","latitude":43.802015,"book-rating":10.0,"title":"Charlottes Web Special Read Along Edition","user-id":68555.0,"longitude":-83.001139,"id":"a64topk7hety","state":"Michigan"},"type":"Feature","geometry":{"type":"Point","coordinates":[-83.001139,43.802015]}},{"properties":{"city":"Houston","isbn":"64400557","latitude":29.76045,"book-rating":6.0,"title":"Charlotte's Web (Trophy Newbery)","user-id":71831.0,"longitude":-95.369784,"id":"a64topmbdqdp","state":"Texas"},"type":"Feature","geometry":{"type":"Point","coordinates":[-95.369784,29.76045]}},{"properties":{"city":"Milford","isbn":"64400557","latitude":43.328505,"book-rating":5.0,"title":"Charlotte's Web (Trophy Newbery)","user-id":72368.0,"longitude":-95.149994,"id":"a64topqneua9","state":"Iowa"},"type":"Feature","geometry":{"type":"Point","coordinates":[-95.149994,43.328505]}},{"properties":{"city":"Seattle","isbn":"64400557","latitude":47.60356,"book-rating":10.0,"title":"Charlotte's Web (Trophy Newbery)","user-id":73330.0,"longitude":-122.329439,"id":"a64topglkpq4","state":"Washington"},"type":"Feature","geometry":{"type":"Point","coordinates":[-122.329439,47.60356]}},{"properties":{"city":"Sunnyvale","isbn":"059030271X","latitude":37.371612,"book-rating":10.0,"title":"Charlotte's Web","user-id":7346.0,"longitude":-122.038258,"id":"a64topk2r8pv","state":"California"},"type":"Feature","geometry":{"type":"Point","coordinates":[-122.038258,37.371612]}},{"properties":{"city":"Bamberg","isbn":"64400557","latitude":49.89178,"book-rating":10.0,"title":"Charlotte's Web (Trophy Newbery)","user-id":75668.0,"longitude":10.89334,"id":"a64topnx3yn2","state":"Bayern"},"type":"Feature","geometry":{"type":"Point","coordinates":[10.89334,49.89178]}},{"properties":{"city":"London","isbn":"64400557","latitude":51.506325,"book-rating":9.0,"title":"Charlotte's Web (Trophy Newbery)","user-id":76626.0,"longitude":-0.127144,"id":"a64topkabtm2","state":"England"},"type":"Feature","geometry":{"type":"Point","coordinates":[-0.127144,51.506325]}},{"properties":{"city":"Kent Bridge","isbn":"059030271X","latitude":42.51506,"book-rating":10.0,"title":"Charlotte's Web","user-id":77790.0,"longitude":-82.073036,"id":"a64topsa809p","state":"Ontario"},"type":"Feature","geometry":{"type":"Point","coordinates":[-82.073036,42.51506]}},{"properties":{"city":"Tacoma","isbn":"64400557","latitude":47.255135,"book-rating":10.0,"title":"Charlotte's Web (Trophy Newbery)","user-id":80015.0,"longitude":-122.441654,"id":"a64topkhz1zh","state":"Washington"},"type":"Feature","geometry":{"type":"Point","coordinates":[-122.441654,47.255135]}},{"properties":{"city":"Houston","isbn":"64400557","latitude":29.76045,"book-rating":10.0,"title":"Charlotte's Web (Trophy Newbery)","user-id":88733.0,"longitude":-95.369784,"id":"a64topnuxqye","state":"Texas"},"type":"Feature","geometry":{"type":"Point","coordinates":[-95.369784,29.76045]}},{"properties":{"city":"Baker City","isbn":"059030271X","latitude":44.774004,"book-rating":9.0,"title":"Charlotte's Web","user-id":92547.0,"longitude":-117.829896,"id":"a64topdm646l","state":"Oregon"},"type":"Feature","geometry":{"type":"Point","coordinates":[-117.829896,44.774004]}},{"properties":{"city":"Sherwood Park","isbn":"64400557","latitude":53.526402,"book-rating":10.0,"title":"Charlotte's Web (Trophy Newbery)","user-id":93092.0,"longitude":-113.295738,"id":"a64toppf1ucn","state":"Alberta"},"type":"Feature","geometry":{"type":"Point","coordinates":[-113.295738,53.526402]}},{"properties":{"city":"Allegan","isbn":"059030271X","latitude":42.531208,"book-rating":10.0,"title":"Charlotte's Web","user-id":94630.0,"longitude":-85.847982,"id":"a64topg94aoc","state":"Michigan"},"type":"Feature","geometry":{"type":"Point","coordinates":[-85.847982,42.531208]}},{"properties":{"city":"Havre De Grace","isbn":"64400557","latitude":39.548574,"book-rating":8.0,"title":"Charlotte's Web (Trophy Newbery)","user-id":99616.0,"longitude":-76.096167,"id":"a64topl22zoi","state":"Maryland"},"type":"Feature","geometry":{"type":"Point","coordinates":[-76.096167,39.548574]}}],"is_temporal":false,"author":{"url":"http://www.informatik.uni-freiburg.de/~cziegler/BX/","metadata":"http://www.informatik.uni-freiburg.de/~cziegler/BX/","contact_name":"","contact_address":"","source":"Institut für Informatik, Universität Freiburg","contact_phone":""},"source":"http://www.informatik.uni-freiburg.de/~cziegler/BX/","pagination":{"sort":null,"start":0,"total":109,"limit":1000000},"state":"complete","tags":"bookcrossing,books,global,reviews","published":"2005-01-01T17:00:00Z","id":19933}