{"type":"FeatureCollection","data_type":"Dataset","url_type":null,"permissions":[{"permissions":{"download":true,"view":true},"group_id":"everyone"}],"classification":null,"title":"stroke data","count":126,"stream_id":199546,"contributor":{"url":"http://geocommons.com/users/39016","name":"stefanom"},"data_attributes":null,"calculation_params":null,"icon_link":null,"link":"http://geocommons.com/overlays/199546.json","extent":[-86.5806,32.1746,-86.5806,32.1746],"geometry_types":["point"],"unique_name":null,"name":"stroke data","feature_count":126,"description":"","next_feature":null,"is_raster":false,"short_classification":"Y","stats":{"month":{"max":12,"mean":5.5,"variance":11.004,"stdev":3.31722775823428,"min":1,"median":5},"year":{"max":2009,"mean":2008.33333333333,"variance":0.224,"stdev":0.47328638264797,"min":2008,"median":2008},"count":{"max":2488,"mean":915.380952380952,"variance":180342.989714286,"stdev":424.668093591084,"min":298,"median":874}},"features":[{"properties":{"city":null,"month":1,"postcode":"NG7 2RD","geo_score":0.0,"country":null,"year":2008,"count":577,"id":"a6m1jopq21pi","geo_precision":"","address":null},"type":"Feature","geometry":null},{"properties":{"city":null,"month":2,"postcode":"NG7 2RD","geo_score":0.0,"country":null,"year":2008,"count":484,"id":"a6m1jom30xxd","geo_precision":"","address":null},"type":"Feature","geometry":null},{"properties":{"city":null,"month":3,"postcode":"NG7 2RD","geo_score":0.0,"country":null,"year":2008,"count":646,"id":"a6m1joff2lvj","geo_precision":"","address":null},"type":"Feature","geometry":null},{"properties":{"city":null,"month":4,"postcode":"NG7 2RD","geo_score":0.0,"country":null,"year":2008,"count":473,"id":"a6m1job90wvg","geo_precision":"","address":null},"type":"Feature","geometry":null},{"properties":{"city":null,"month":5,"postcode":"NG7 2RD","geo_score":0.0,"country":null,"year":2008,"count":450,"id":"a6m1jopzhstj","geo_precision":"","address":null},"type":"Feature","geometry":null},{"properties":{"city":null,"month":6,"postcode":"NG7 2RD","geo_score":0.0,"country":null,"year":2008,"count":573,"id":"a6m1joe49p41","geo_precision":"","address":null},"type":"Feature","geometry":null},{"properties":{"city":null,"month":7,"postcode":"NG7 2RD","geo_score":0.0,"country":null,"year":2008,"count":466,"id":"a6m1jojveznb","geo_precision":"","address":null},"type":"Feature","geometry":null},{"properties":{"city":null,"month":8,"postcode":"NG7 2RD","geo_score":0.0,"country":null,"year":2008,"count":414,"id":"a6m1jon7tudp","geo_precision":"","address":null},"type":"Feature","geometry":null},{"properties":{"city":null,"month":9,"postcode":"NG7 2RD","geo_score":0.0,"country":null,"year":2008,"count":567,"id":"a6m1johzzou3","geo_precision":"","address":null},"type":"Feature","geometry":null},{"properties":{"city":null,"month":10,"postcode":"NG7 2RD","geo_score":0.0,"country":null,"year":2008,"count":465,"id":"a6m1jombvfae","geo_precision":"","address":null},"type":"Feature","geometry":null},{"properties":{"city":null,"month":11,"postcode":"NG7 2RD","geo_score":0.0,"country":null,"year":2008,"count":498,"id":"a6m1joi2hoba","geo_precision":"","address":null},"type":"Feature","geometry":null},{"properties":{"city":null,"month":12,"postcode":"NG7 2RD","geo_score":0.0,"country":null,"year":2008,"count":623,"id":"a6m1jocm6g7m","geo_precision":"","address":null},"type":"Feature","geometry":null},{"properties":{"city":null,"month":1,"postcode":"NG7 2RD","geo_score":0.0,"country":null,"year":2009,"count":522,"id":"a6m1jokcs0yo","geo_precision":"","address":null},"type":"Feature","geometry":null},{"properties":{"city":null,"month":2,"postcode":"NG7 2RD","geo_score":0.0,"country":null,"year":2009,"count":603,"id":"a6m1joptasvn","geo_precision":"","address":null},"type":"Feature","geometry":null},{"properties":{"city":null,"month":3,"postcode":"NG7 2RD","geo_score":0.0,"country":null,"year":2009,"count":992,"id":"a6m1jodzr6mh","geo_precision":"","address":null},"type":"Feature","geometry":null},{"properties":{"city":null,"month":4,"postcode":"NG7 2RD","geo_score":0.0,"country":null,"year":2009,"count":735,"id":"a6m1jojp5jd2","geo_precision":"","address":null},"type":"Feature","geometry":null},{"properties":{"city":null,"month":5,"postcode":"NG7 2RD","geo_score":0.0,"country":null,"year":2009,"count":817,"id":"a6m1jodmjqbs","geo_precision":"","address":null},"type":"Feature","geometry":null},{"properties":{"city":null,"month":6,"postcode":"NG7 2RD","geo_score":0.0,"country":null,"year":2009,"count":671,"id":"a6m1joo3xowh","geo_precision":"","address":null},"type":"Feature","geometry":null},{"properties":{"city":null,"month":1,"postcode":"m13 9pl","geo_score":0.0,"country":null,"year":2008,"count":1580,"id":"a6m1jodokn95","geo_precision":"","address":null},"type":"Feature","geometry":null},{"properties":{"city":null,"month":2,"postcode":"m13 9pl","geo_score":0.0,"country":null,"year":2008,"count":1202,"id":"a6m1jofczzcu","geo_precision":"","address":null},"type":"Feature","geometry":null},{"properties":{"city":null,"month":3,"postcode":"m13 9pl","geo_score":0.0,"country":null,"year":2008,"count":1572,"id":"a6m1johek5la","geo_precision":"","address":null},"type":"Feature","geometry":null},{"properties":{"city":null,"month":4,"postcode":"m13 9pl","geo_score":0.0,"country":null,"year":2008,"count":1293,"id":"a6m1jolst79b","geo_precision":"","address":null},"type":"Feature","geometry":null},{"properties":{"city":null,"month":5,"postcode":"m13 9pl","geo_score":0.0,"country":null,"year":2008,"count":1249,"id":"a6m1jopu787f","geo_precision":"","address":null},"type":"Feature","geometry":null},{"properties":{"city":null,"month":6,"postcode":"m13 9pl","geo_score":0.0,"country":null,"year":2008,"count":1585,"id":"a6m1joql95oa","geo_precision":"","address":null},"type":"Feature","geometry":null},{"properties":{"city":null,"month":7,"postcode":"m13 9pl","geo_score":0.0,"country":null,"year":2008,"count":1247,"id":"a6m1joeeo59a","geo_precision":"","address":null},"type":"Feature","geometry":null},{"properties":{"city":null,"month":8,"postcode":"m13 9pl","geo_score":0.0,"country":null,"year":2008,"count":1243,"id":"a6m1jod6semf","geo_precision":"","address":null},"type":"Feature","geometry":null},{"properties":{"city":null,"month":9,"postcode":"m13 9pl","geo_score":0.0,"country":null,"year":2008,"count":1527,"id":"a6m1jogw9xpm","geo_precision":"","address":null},"type":"Feature","geometry":null},{"properties":{"city":null,"month":10,"postcode":"m13 9pl","geo_score":0.0,"country":null,"year":2008,"count":1292,"id":"a6m1jodqkzd8","geo_precision":"","address":null},"type":"Feature","geometry":null},{"properties":{"city":null,"month":11,"postcode":"m13 9pl","geo_score":0.0,"country":null,"year":2008,"count":1457,"id":"a6m1jojlatw2","geo_precision":"","address":null},"type":"Feature","geometry":null},{"properties":{"city":null,"month":12,"postcode":"m13 9pl","geo_score":0.0,"country":null,"year":2008,"count":1654,"id":"a6m1johkrjcj","geo_precision":"","address":null},"type":"Feature","geometry":null},{"properties":{"city":null,"month":1,"postcode":"m13 9pl","geo_score":0.0,"country":null,"year":2009,"count":1468,"id":"a6m1jofree48","geo_precision":"","address":null},"type":"Feature","geometry":null},{"properties":{"city":null,"month":2,"postcode":"m13 9pl","geo_score":0.0,"country":null,"year":2009,"count":1710,"id":"a6m1jop5ess7","geo_precision":"","address":null},"type":"Feature","geometry":null},{"properties":{"city":null,"month":3,"postcode":"m13 9pl","geo_score":0.0,"country":null,"year":2009,"count":2488,"id":"a6m1joo33yd0","geo_precision":"","address":null},"type":"Feature","geometry":null},{"properties":{"city":null,"month":4,"postcode":"m13 9pl","geo_score":0.0,"country":null,"year":2009,"count":1841,"id":"a6m1joowhocy","geo_precision":"","address":null},"type":"Feature","geometry":null},{"properties":{"city":null,"month":5,"postcode":"m13 9pl","geo_score":0.0,"country":null,"year":2009,"count":2214,"id":"a6m1jol7l5gc","geo_precision":"","address":null},"type":"Feature","geometry":null},{"properties":{"city":null,"month":6,"postcode":"m13 9pl","geo_score":0.0,"country":null,"year":2009,"count":1717,"id":"a6m1joig9dm1","geo_precision":"","address":null},"type":"Feature","geometry":null},{"properties":{"city":null,"month":1,"postcode":"bn1 1ee","geo_score":0.0,"country":null,"year":2008,"count":860,"id":"a6m1jogzp6kk","geo_precision":"","address":null},"type":"Feature","geometry":null},{"properties":{"city":null,"month":2,"postcode":"bn1 1ee","geo_score":0.0,"country":null,"year":2008,"count":702,"id":"a6m1jod7827z","geo_precision":"","address":null},"type":"Feature","geometry":null},{"properties":{"city":null,"month":3,"postcode":"bn1 1ee","geo_score":0.0,"country":null,"year":2008,"count":852,"id":"a6m1joiqolq0","geo_precision":"","address":null},"type":"Feature","geometry":null},{"properties":{"city":null,"month":4,"postcode":"bn1 1ee","geo_score":0.0,"country":null,"year":2008,"count":657,"id":"a6m1jodk7amz","geo_precision":"","address":null},"type":"Feature","geometry":null},{"properties":{"city":null,"month":5,"postcode":"bn1 1ee","geo_score":0.0,"country":null,"year":2008,"count":661,"id":"a6m1joc3l999","geo_precision":"","address":null},"type":"Feature","geometry":null},{"properties":{"city":null,"month":6,"postcode":"bn1 1ee","geo_score":0.0,"country":null,"year":2008,"count":881,"id":"a6m1job0cdpf","geo_precision":"","address":null},"type":"Feature","geometry":null},{"properties":{"city":null,"month":7,"postcode":"bn1 1ee","geo_score":0.0,"country":null,"year":2008,"count":633,"id":"a6m1jobz01kl","geo_precision":"","address":null},"type":"Feature","geometry":null},{"properties":{"city":null,"month":8,"postcode":"bn1 1ee","geo_score":0.0,"country":null,"year":2008,"count":699,"id":"a6m1johjbk7i","geo_precision":"","address":null},"type":"Feature","geometry":null},{"properties":{"city":null,"month":9,"postcode":"bn1 1ee","geo_score":0.0,"country":null,"year":2008,"count":874,"id":"a6m1jokckmm7","geo_precision":"","address":null},"type":"Feature","geometry":null},{"properties":{"city":null,"month":10,"postcode":"bn1 1ee","geo_score":0.0,"country":null,"year":2008,"count":731,"id":"a6m1jook0zyh","geo_precision":"","address":null},"type":"Feature","geometry":null},{"properties":{"city":null,"month":11,"postcode":"bn1 1ee","geo_score":0.0,"country":null,"year":2008,"count":807,"id":"a6m1job6kqpq","geo_precision":"","address":null},"type":"Feature","geometry":null},{"properties":{"city":null,"month":12,"postcode":"bn1 1ee","geo_score":0.0,"country":null,"year":2008,"count":991,"id":"a6m1jojo1uho","geo_precision":"","address":null},"type":"Feature","geometry":null},{"properties":{"city":null,"month":1,"postcode":"bn1 1ee","geo_score":0.0,"country":null,"year":2009,"count":787,"id":"a6m1joc8xp77","geo_precision":"","address":null},"type":"Feature","geometry":null},{"properties":{"city":null,"month":2,"postcode":"bn1 1ee","geo_score":0.0,"country":null,"year":2009,"count":952,"id":"a6m1job9vwpp","geo_precision":"","address":null},"type":"Feature","geometry":null},{"properties":{"city":null,"month":3,"postcode":"bn1 1ee","geo_score":0.0,"country":null,"year":2009,"count":1373,"id":"a6m1joml8s4c","geo_precision":"","address":null},"type":"Feature","geometry":null},{"properties":{"city":null,"month":4,"postcode":"bn1 1ee","geo_score":0.0,"country":null,"year":2009,"count":1078,"id":"a6m1jobcnm8v","geo_precision":"","address":null},"type":"Feature","geometry":null},{"properties":{"city":null,"month":5,"postcode":"bn1 1ee","geo_score":0.0,"country":null,"year":2009,"count":1226,"id":"a6m1johtrfx8","geo_precision":"","address":null},"type":"Feature","geometry":null},{"properties":{"city":null,"month":6,"postcode":"bn1 1ee","geo_score":0.0,"country":null,"year":2009,"count":997,"id":"a6m1jogvm5ad","geo_precision":"","address":null},"type":"Feature","geometry":null},{"properties":{"city":null,"month":1,"postcode":"bs27 3qf","geo_score":0.0,"country":null,"year":2008,"count":640,"id":"a6m1jodfxeqg","geo_precision":"","address":null},"type":"Feature","geometry":null},{"properties":{"city":null,"month":2,"postcode":"bs27 3qf","geo_score":0.0,"country":null,"year":2008,"count":529,"id":"a6m1joee4ecz","geo_precision":"","address":null},"type":"Feature","geometry":null},{"properties":{"city":null,"month":3,"postcode":"bs27 3qf","geo_score":0.0,"country":null,"year":2008,"count":730,"id":"a6m1jojt6x0q","geo_precision":"","address":null},"type":"Feature","geometry":null},{"properties":{"city":null,"month":4,"postcode":"bs27 3qf","geo_score":0.0,"country":null,"year":2008,"count":601,"id":"a6m1joabje5w","geo_precision":"","address":null},"type":"Feature","geometry":null},{"properties":{"city":null,"month":5,"postcode":"bs27 3qf","geo_score":0.0,"country":null,"year":2008,"count":641,"id":"a6m1jolrb5wi","geo_precision":"","address":null},"type":"Feature","geometry":null},{"properties":{"city":null,"month":6,"postcode":"bs27 3qf","geo_score":0.0,"country":null,"year":2008,"count":739,"id":"a6m1joouzp2j","geo_precision":"","address":null},"type":"Feature","geometry":null},{"properties":{"city":null,"month":7,"postcode":"bs27 3qf","geo_score":0.0,"country":null,"year":2008,"count":581,"id":"a6m1joj4ofsq","geo_precision":"","address":null},"type":"Feature","geometry":null},{"properties":{"city":null,"month":8,"postcode":"bs27 3qf","geo_score":0.0,"country":null,"year":2008,"count":656,"id":"a6m1jog42we7","geo_precision":"","address":null},"type":"Feature","geometry":null},{"properties":{"city":null,"month":9,"postcode":"bs27 3qf","geo_score":0.0,"country":null,"year":2008,"count":739,"id":"a6m1joobdxbl","geo_precision":"","address":null},"type":"Feature","geometry":null},{"properties":{"city":null,"month":10,"postcode":"bs27 3qf","geo_score":0.0,"country":null,"year":2008,"count":610,"id":"a6m1johiqbei","geo_precision":"","address":null},"type":"Feature","geometry":null},{"properties":{"city":null,"month":11,"postcode":"bs27 3qf","geo_score":0.0,"country":null,"year":2008,"count":651,"id":"a6m1jocucrx9","geo_precision":"","address":null},"type":"Feature","geometry":null},{"properties":{"city":null,"month":12,"postcode":"bs27 3qf","geo_score":0.0,"country":null,"year":2008,"count":752,"id":"a6m1joepjyzm","geo_precision":"","address":null},"type":"Feature","geometry":null},{"properties":{"city":null,"month":1,"postcode":"bs27 3qf","geo_score":0.0,"country":null,"year":2009,"count":680,"id":"a6m1jobexdd9","geo_precision":"","address":null},"type":"Feature","geometry":null},{"properties":{"city":null,"month":2,"postcode":"bs27 3qf","geo_score":0.0,"country":null,"year":2009,"count":767,"id":"a6m1jocegqil","geo_precision":"","address":null},"type":"Feature","geometry":null},{"properties":{"city":null,"month":3,"postcode":"bs27 3qf","geo_score":0.0,"country":null,"year":2009,"count":1167,"id":"a6m1jod5tddt","geo_precision":"","address":null},"type":"Feature","geometry":null},{"properties":{"city":null,"month":4,"postcode":"bs27 3qf","geo_score":0.0,"country":null,"year":2009,"count":875,"id":"a6m1joji3o9v","geo_precision":"","address":null},"type":"Feature","geometry":null},{"properties":{"city":null,"month":5,"postcode":"bs27 3qf","geo_score":0.0,"country":null,"year":2009,"count":1134,"id":"a6m1jocuvu0t","geo_precision":"","address":null},"type":"Feature","geometry":null},{"properties":{"city":null,"month":6,"postcode":"bs27 3qf","geo_score":0.0,"country":null,"year":2009,"count":888,"id":"a6m1jodmi3fh","geo_precision":"","address":null},"type":"Feature","geometry":null},{"properties":{"city":"London","month":1,"postcode":"w1w 7rt","geo_score":0.513,"country":"England","year":2008,"count":1110,"id":"a6m1joiqwzgt","geo_precision":"street","address":"60 great portland street"},"type":"Feature","geometry":{"type":"Point","coordinates":[-86.580565,32.174633]}},{"properties":{"city":"London","month":2,"postcode":"w1w 7rt","geo_score":0.391,"country":"England","year":2008,"count":920,"id":"a6m1joaltfub","geo_precision":"street","address":"61 great portland street"},"type":"Feature","geometry":{"type":"Point","coordinates":[-86.580565,32.174633]}},{"properties":{"city":"London","month":3,"postcode":"w1w 7rt","geo_score":0.513,"country":"England","year":2008,"count":1241,"id":"a6m1jols1p9p","geo_precision":"street","address":"62 great portland street"},"type":"Feature","geometry":{"type":"Point","coordinates":[-86.580565,32.174633]}},{"properties":{"city":"London","month":4,"postcode":"w1w 7rt","geo_score":0.391,"country":"England","year":2008,"count":962,"id":"a6m1joeb040w","geo_precision":"street","address":"63 great portland street"},"type":"Feature","geometry":{"type":"Point","coordinates":[-86.580565,32.174633]}},{"properties":{"city":"London","month":5,"postcode":"w1w 7rt","geo_score":0.513,"country":"England","year":2008,"count":946,"id":"a6m1jonessr1","geo_precision":"street","address":"64 great portland street"},"type":"Feature","geometry":{"type":"Point","coordinates":[-86.580565,32.174633]}},{"properties":{"city":"London","month":6,"postcode":"w1w 7rt","geo_score":0.391,"country":"England","year":2008,"count":1127,"id":"a6m1johi5lj4","geo_precision":"street","address":"65 great portland street"},"type":"Feature","geometry":{"type":"Point","coordinates":[-86.580565,32.174633]}},{"properties":{"city":"London","month":7,"postcode":"w1w 7rt","geo_score":0.513,"country":"England","year":2008,"count":927,"id":"a6m1jon7md0d","geo_precision":"street","address":"66 great portland street"},"type":"Feature","geometry":{"type":"Point","coordinates":[-86.580565,32.174633]}},{"properties":{"city":"London","month":8,"postcode":"w1w 7rt","geo_score":0.391,"country":"England","year":2008,"count":904,"id":"a6m1jojllzge","geo_precision":"street","address":"67 great portland street"},"type":"Feature","geometry":{"type":"Point","coordinates":[-86.580565,32.174633]}},{"properties":{"city":"London","month":9,"postcode":"w1w 7rt","geo_score":0.513,"country":"England","year":2008,"count":1188,"id":"a6m1jokacizz","geo_precision":"street","address":"68 great portland street"},"type":"Feature","geometry":{"type":"Point","coordinates":[-86.580565,32.174633]}},{"properties":{"city":"London","month":10,"postcode":"w1w 7rt","geo_score":0.391,"country":"England","year":2008,"count":981,"id":"a6m1jomdpa73","geo_precision":"street","address":"69 great portland street"},"type":"Feature","geometry":{"type":"Point","coordinates":[-86.580565,32.174633]}},{"properties":{"city":"London","month":11,"postcode":"w1w 7rt","geo_score":0.513,"country":"England","year":2008,"count":1100,"id":"a6m1joqeq6i1","geo_precision":"street","address":"70 great portland street"},"type":"Feature","geometry":{"type":"Point","coordinates":[-86.580565,32.174633]}},{"properties":{"city":"London","month":12,"postcode":"w1w 7rt","geo_score":0.391,"country":"England","year":2008,"count":1193,"id":"a6m1jopqoaxt","geo_precision":"street","address":"71 great portland street"},"type":"Feature","geometry":{"type":"Point","coordinates":[-86.580565,32.174633]}},{"properties":{"city":"London","month":1,"postcode":"w1w 7rt","geo_score":0.513,"country":"England","year":2009,"count":1157,"id":"a6m1joajuc5f","geo_precision":"street","address":"72 great portland street"},"type":"Feature","geometry":{"type":"Point","coordinates":[-86.580565,32.174633]}},{"properties":{"city":"London","month":2,"postcode":"w1w 7rt","geo_score":0.391,"country":"England","year":2009,"count":1354,"id":"a6m1jonuc6kj","geo_precision":"street","address":"73 great portland street"},"type":"Feature","geometry":{"type":"Point","coordinates":[-86.580565,32.174633]}},{"properties":{"city":"London","month":3,"postcode":"w1w 7rt","geo_score":0.513,"country":"England","year":2009,"count":1827,"id":"a6m1jocqmf74","geo_precision":"street","address":"74 great portland street"},"type":"Feature","geometry":{"type":"Point","coordinates":[-86.580565,32.174633]}},{"properties":{"city":"London","month":4,"postcode":"w1w 7rt","geo_score":0.391,"country":"England","year":2009,"count":1278,"id":"a6m1jomyikrg","geo_precision":"street","address":"75 great portland street"},"type":"Feature","geometry":{"type":"Point","coordinates":[-86.580565,32.174633]}},{"properties":{"city":"London","month":5,"postcode":"w1w 7rt","geo_score":0.513,"country":"England","year":2009,"count":1562,"id":"a6m1joik3ivv","geo_precision":"street","address":"76 great portland street"},"type":"Feature","geometry":{"type":"Point","coordinates":[-86.580565,32.174633]}},{"properties":{"city":"London","month":6,"postcode":"w1w 7rt","geo_score":0.391,"country":"England","year":2009,"count":1215,"id":"a6m1johwlcwz","geo_precision":"street","address":"77 great portland street"},"type":"Feature","geometry":{"type":"Point","coordinates":[-86.580565,32.174633]}},{"properties":{"city":null,"month":1,"postcode":"b6 6he","geo_score":0.0,"country":null,"year":2008,"count":307,"id":"a6m1joj6cu8v","geo_precision":"","address":null},"type":"Feature","geometry":null},{"properties":{"city":null,"month":2,"postcode":"b6 6he","geo_score":0.0,"country":null,"year":2008,"count":299,"id":"a6m1jojan4q9","geo_precision":"","address":null},"type":"Feature","geometry":null},{"properties":{"city":null,"month":3,"postcode":"b6 6he","geo_score":0.0,"country":null,"year":2008,"count":319,"id":"a6m1jogp7xtj","geo_precision":"","address":null},"type":"Feature","geometry":null},{"properties":{"city":null,"month":4,"postcode":"b6 6he","geo_score":0.0,"country":null,"year":2008,"count":299,"id":"a6m1jobvho3q","geo_precision":"","address":null},"type":"Feature","geometry":null},{"properties":{"city":null,"month":5,"postcode":"b6 6he","geo_score":0.0,"country":null,"year":2008,"count":298,"id":"a6m1jofasxta","geo_precision":"","address":null},"type":"Feature","geometry":null},{"properties":{"city":null,"month":6,"postcode":"b6 6he","geo_score":0.0,"country":null,"year":2008,"count":334,"id":"a6m1jolbrpdi","geo_precision":"","address":null},"type":"Feature","geometry":null},{"properties":{"city":null,"month":7,"postcode":"b6 6he","geo_score":0.0,"country":null,"year":2008,"count":344,"id":"a6m1jomwfhst","geo_precision":"","address":null},"type":"Feature","geometry":null},{"properties":{"city":null,"month":8,"postcode":"b6 6he","geo_score":0.0,"country":null,"year":2008,"count":319,"id":"a6m1jokou9wu","geo_precision":"","address":null},"type":"Feature","geometry":null},{"properties":{"city":null,"month":9,"postcode":"b6 6he","geo_score":0.0,"country":null,"year":2008,"count":312,"id":"a6m1jon59ex5","geo_precision":"","address":null},"type":"Feature","geometry":null},{"properties":{"city":null,"month":10,"postcode":"b6 6he","geo_score":0.0,"country":null,"year":2008,"count":376,"id":"a6m1jod92fg6","geo_precision":"","address":null},"type":"Feature","geometry":null},{"properties":{"city":null,"month":11,"postcode":"b6 6he","geo_score":0.0,"country":null,"year":2008,"count":384,"id":"a6m1jobrq824","geo_precision":"","address":null},"type":"Feature","geometry":null},{"properties":{"city":null,"month":12,"postcode":"b6 6he","geo_score":0.0,"country":null,"year":2008,"count":440,"id":"a6m1joi3scpm","geo_precision":"","address":null},"type":"Feature","geometry":null},{"properties":{"city":null,"month":1,"postcode":"b6 6he","geo_score":0.0,"country":null,"year":2009,"count":405,"id":"a6m1joh3xqbm","geo_precision":"","address":null},"type":"Feature","geometry":null},{"properties":{"city":null,"month":2,"postcode":"b6 6he","geo_score":0.0,"country":null,"year":2009,"count":496,"id":"a6m1jobp5fjk","geo_precision":"","address":null},"type":"Feature","geometry":null},{"properties":{"city":null,"month":3,"postcode":"b6 6he","geo_score":0.0,"country":null,"year":2009,"count":619,"id":"a6m1jojtozb5","geo_precision":"","address":null},"type":"Feature","geometry":null},{"properties":{"city":null,"month":4,"postcode":"b6 6he","geo_score":0.0,"country":null,"year":2009,"count":556,"id":"a6m1jopmciox","geo_precision":"","address":null},"type":"Feature","geometry":null},{"properties":{"city":null,"month":5,"postcode":"b6 6he","geo_score":0.0,"country":null,"year":2009,"count":524,"id":"a6m1johjiehg","geo_precision":"","address":null},"type":"Feature","geometry":null},{"properties":{"city":null,"month":6,"postcode":"b6 6he","geo_score":0.0,"country":null,"year":2009,"count":487,"id":"a6m1joaooiho","geo_precision":"","address":null},"type":"Feature","geometry":null},{"properties":{"city":null,"month":1,"postcode":"ip33 1ls","geo_score":0.0,"country":null,"year":2008,"count":904,"id":"a6m1jokn3h9f","geo_precision":"","address":null},"type":"Feature","geometry":null},{"properties":{"city":null,"month":2,"postcode":"ip33 1ls","geo_score":0.0,"country":null,"year":2008,"count":766,"id":"a6m1jofwdefm","geo_precision":"","address":null},"type":"Feature","geometry":null},{"properties":{"city":null,"month":3,"postcode":"ip33 1ls","geo_score":0.0,"country":null,"year":2008,"count":915,"id":"a6m1jogaun1u","geo_precision":"","address":null},"type":"Feature","geometry":null},{"properties":{"city":null,"month":4,"postcode":"ip33 1ls","geo_score":0.0,"country":null,"year":2008,"count":815,"id":"a6m1johnt123","geo_precision":"","address":null},"type":"Feature","geometry":null},{"properties":{"city":null,"month":5,"postcode":"ip33 1ls","geo_score":0.0,"country":null,"year":2008,"count":820,"id":"a6m1joov49e5","geo_precision":"","address":null},"type":"Feature","geometry":null},{"properties":{"city":null,"month":6,"postcode":"ip33 1ls","geo_score":0.0,"country":null,"year":2008,"count":837,"id":"a6m1jojipjqd","geo_precision":"","address":null},"type":"Feature","geometry":null},{"properties":{"city":null,"month":7,"postcode":"ip33 1ls","geo_score":0.0,"country":null,"year":2008,"count":908,"id":"a6m1jonybj2g","geo_precision":"","address":null},"type":"Feature","geometry":null},{"properties":{"city":null,"month":8,"postcode":"ip33 1ls","geo_score":0.0,"country":null,"year":2008,"count":923,"id":"a6m1joluwf6p","geo_precision":"","address":null},"type":"Feature","geometry":null},{"properties":{"city":null,"month":9,"postcode":"ip33 1ls","geo_score":0.0,"country":null,"year":2008,"count":912,"id":"a6m1jog492qj","geo_precision":"","address":null},"type":"Feature","geometry":null},{"properties":{"city":null,"month":10,"postcode":"ip33 1ls","geo_score":0.0,"country":null,"year":2008,"count":948,"id":"a6m1johk10tp","geo_precision":"","address":null},"type":"Feature","geometry":null},{"properties":{"city":null,"month":11,"postcode":"ip33 1ls","geo_score":0.0,"country":null,"year":2008,"count":1065,"id":"a6m1jobh2ths","geo_precision":"","address":null},"type":"Feature","geometry":null},{"properties":{"city":null,"month":12,"postcode":"ip33 1ls","geo_score":0.0,"country":null,"year":2008,"count":1183,"id":"a6m1joq37itk","geo_precision":"","address":null},"type":"Feature","geometry":null},{"properties":{"city":null,"month":1,"postcode":"ip33 1ls","geo_score":0.0,"country":null,"year":2009,"count":1087,"id":"a6m1jof2k0ke","geo_precision":"","address":null},"type":"Feature","geometry":null},{"properties":{"city":null,"month":2,"postcode":"ip33 1ls","geo_score":0.0,"country":null,"year":2009,"count":1323,"id":"a6m1jojq3qwe","geo_precision":"","address":null},"type":"Feature","geometry":null},{"properties":{"city":null,"month":3,"postcode":"ip33 1ls","geo_score":0.0,"country":null,"year":2009,"count":1633,"id":"a6m1joau4nvh","geo_precision":"","address":null},"type":"Feature","geometry":null},{"properties":{"city":null,"month":4,"postcode":"ip33 1ls","geo_score":0.0,"country":null,"year":2009,"count":1405,"id":"a6m1jodx1s1p","geo_precision":"","address":null},"type":"Feature","geometry":null},{"properties":{"city":null,"month":5,"postcode":"ip33 1ls","geo_score":0.0,"country":null,"year":2009,"count":1386,"id":"a6m1jolcq2oo","geo_precision":"","address":null},"type":"Feature","geometry":null},{"properties":{"city":null,"month":6,"postcode":"ip33 1ls","geo_score":0.0,"country":null,"year":2009,"count":1342,"id":"a6m1joeqveyx","geo_precision":"","address":null},"type":"Feature","geometry":null}],"is_temporal":false,"author":{"url":"","metadata":"","contact_name":"","contact_address":"","source":"","contact_phone":""},"source":"","pagination":{"sort":null,"start":0,"total":126,"limit":1000000},"state":"complete","tags":"","published":"2014-08-13T10:43:37-04:00","id":199546}