{"type":"FeatureCollection","data_type":"Dataset","url_type":null,"permissions":[{"permissions":{"download":true,"view":true},"group_id":"everyone"}],"classification":null,"title":"Counties participating in redistricting hearing","count":9,"stream_id":199762,"contributor":{"url":"http://geocommons.com/users/33442","name":"ivanlajara"},"data_attributes":null,"calculation_params":null,"icon_link":null,"link":"http://geocommons.com/overlays/199762.json","extent":[0.0,0.0,0.0,0.0],"geometry_types":[],"unique_name":null,"name":"Counties participating in redistricting hearing","feature_count":9,"description":"","next_feature":null,"is_raster":false,"short_classification":"Y","stats":{"zipcode":{"max":14614,"variance":16321373.1944444,"mean":11126.7777777778,"stdev":4039.97192990798,"min":1007,"median":11787}},"features":[{"properties":{"city":"Albany","zipcode":12248,"geo_score":0.0,"id":"a6hbnq07xd1l","geo_precision":"unmatched","state":"NY"},"type":"Feature","geometry":null},{"properties":{"city":"Bronx","zipcode":10456,"geo_score":0.0,"id":"a6hbnpspwh1r","geo_precision":"unmatched","state":"NY"},"type":"Feature","geometry":null},{"properties":{"city":"Brooklyn Heights","zipcode":11201,"geo_score":0.0,"id":"a6hbnpwz5ekr","geo_precision":"unmatched","state":"NY"},"type":"Feature","geometry":null},{"properties":{"city":"New York","zipcode":1007,"geo_score":0.0,"id":"a6hbnq7tyn4j","geo_precision":"unmatched","state":"NY"},"type":"Feature","geometry":null},{"properties":{"city":"Kew Gardens","zipcode":11424,"geo_score":0.0,"id":"a6hbnpv1r0rv","geo_precision":"unmatched","state":"NY"},"type":"Feature","geometry":null},{"properties":{"city":"Smithtown","zipcode":11787,"geo_score":0.0,"id":"a6hbnq6vjad9","geo_precision":"unmatched","state":"NY"},"type":"Feature","geometry":null},{"properties":{"city":"Syracuse","zipcode":13202,"geo_score":0.0,"id":"a6hbnq5v268b","geo_precision":"unmatched","state":"NY"},"type":"Feature","geometry":null},{"properties":{"city":"Rochester","zipcode":14614,"geo_score":0.0,"id":"a6hbnq2l15qd","geo_precision":"unmatched","state":"NY"},"type":"Feature","geometry":null},{"properties":{"city":"Buffalo","zipcode":14202,"geo_score":0.0,"id":"a6hbnpysxy8m","geo_precision":"unmatched","state":"NY"},"type":"Feature","geometry":null}],"is_temporal":false,"author":{"url":"","metadata":null,"contact_name":null,"contact_address":null,"source":null,"contact_phone":null},"source":"","pagination":{"sort":null,"start":0,"total":9,"limit":1000000},"state":"complete","tags":"","published":"2014-08-13T10:58:48-04:00","id":199762}