{"type":"FeatureCollection","data_type":"Dataset","url_type":null,"permissions":[{"permissions":{"download":true,"view":true},"group_id":"everyone"}],"classification":null,"title":"Cricket on Foursquare","count":449,"stream_id":200117,"contributor":{"url":"http://geocommons.com/users/12003","name":"LauraHale"},"data_attributes":null,"calculation_params":null,"icon_link":null,"link":"http://geocommons.com/overlays/200117.json","extent":[-76.7825,-42.8773,176.913,53.457],"geometry_types":["point"],"unique_name":null,"name":"Cricket on Foursquare","feature_count":449,"description":"","next_feature":null,"is_raster":false,"short_classification":"Y","stats":{"total people":{"max":5442,"mean":1925.87527839644,"variance":4583108.33262409,"stdev":2140.81954695488,"min":9,"median":784},"lattitude":{"max":53.456978,"mean":-27.8743592504232,"variance":440.954251088135,"stdev":20.9989107119425,"min":-42.87728497,"median":-34.91554024},"total checkins":{"max":14219,"mean":4713.92873051225,"variance":32914917.4725879,"stdev":5737.15238359483,"min":9,"median":1423},"longitude":{"max":176.913375,"mean":115.641253797062,"variance":2753.20137035522,"stdev":52.4709573988813,"min":-76.78250313,"median":144.9833965},"count":{"max":181,"mean":20.1158129175947,"variance":528.928521714923,"stdev":22.9984460717441,"min":6,"median":12}},"features":[{"properties":{"total people":1147,"city":"London","lattitude":51.5294838,"total checkins":1774,"date time":"9/11/11 13:39","postal code":"NW8 8QN","longitude":-0.172208,"count":6,"id":"a62vxcqj6l56","state":"UK","location":"St John's Wood Road"},"type":"Feature","geometry":{"type":"Point","coordinates":[-0.172208,51.5294838]}},{"properties":{"total people":1153,"city":"London","lattitude":51.5294838,"total checkins":1782,"date time":"9/11/11 17:40","postal code":"NW8 8QN","longitude":-0.172208,"count":6,"id":"a62vxcyuyac4","state":"UK","location":"St John's Wood Road"},"type":"Feature","geometry":{"type":"Point","coordinates":[-0.172208,51.5294838]}},{"properties":{"total people":291,"city":"Melbourne","lattitude":-37.819193,"total checkins":597,"date time":"9/09/11 10:03","postal code":null,"longitude":144.98273,"count":6,"id":"a62vxcxobeg4","state":"Victoria","location":"MCC Members"},"type":"Feature","geometry":{"type":"Point","coordinates":[144.98273,-37.819193]}},{"properties":{"total people":295,"city":"Melbourne","lattitude":-37.819193,"total checkins":608,"date time":"9/10/11 5:03","postal code":null,"longitude":144.98273,"count":8,"id":"a62vxcx3uzma","state":"Victoria","location":"MCC Members"},"type":"Feature","geometry":{"type":"Point","coordinates":[144.98273,-37.819193]}},{"properties":{"total people":295,"city":"Melbourne","lattitude":-37.819193,"total checkins":608,"date time":"9/10/11 6:03","postal code":null,"longitude":144.98273,"count":7,"id":"a62vxcs30xv1","state":"Victoria","location":"MCC Members"},"type":"Feature","geometry":{"type":"Point","coordinates":[144.98273,-37.819193]}},{"properties":{"total people":4752,"city":"Melbourne","lattitude":-37.82000569,"total checkins":11971,"date time":"9/09/11 7:03","postal code":"3002","longitude":144.9833965,"count":7,"id":"a62vxcso09r4","state":"VIC","location":"Melbourne Cricket Ground (MCG)"},"type":"Feature","geometry":{"type":"Point","coordinates":[144.9833965,-37.82000569]}},{"properties":{"total people":4752,"city":"Melbourne","lattitude":-37.82000569,"total checkins":11982,"date time":"9/09/11 8:03","postal code":"3002","longitude":144.9833965,"count":15,"id":"a62vxcvb06t1","state":"VIC","location":"Melbourne Cricket Ground (MCG)"},"type":"Feature","geometry":{"type":"Point","coordinates":[144.9833965,-37.82000569]}},{"properties":{"total people":4756,"city":"Melbourne","lattitude":-37.82000569,"total checkins":12001,"date time":"9/09/11 9:03","postal code":"3002","longitude":144.9833965,"count":30,"id":"a62vxcou182r","state":"VIC","location":"Melbourne Cricket Ground (MCG)"},"type":"Feature","geometry":{"type":"Point","coordinates":[144.9833965,-37.82000569]}},{"properties":{"total people":4764,"city":"Melbourne","lattitude":-37.82000569,"total checkins":12046,"date time":"9/09/11 10:03","postal code":"3002","longitude":144.9833965,"count":70,"id":"a62vxd1us7hv","state":"VIC","location":"Melbourne Cricket Ground (MCG)"},"type":"Feature","geometry":{"type":"Point","coordinates":[144.9833965,-37.82000569]}},{"properties":{"total people":4766,"city":"Melbourne","lattitude":-37.82000569,"total checkins":12067,"date time":"9/09/11 12:03","postal code":"3002","longitude":144.9833965,"count":64,"id":"a62vxcoo7vbu","state":"VIC","location":"Melbourne Cricket Ground (MCG)"},"type":"Feature","geometry":{"type":"Point","coordinates":[144.9833965,-37.82000569]}},{"properties":{"total people":4766,"city":"Melbourne","lattitude":-37.82000569,"total checkins":12071,"date time":"9/09/11 14:03","postal code":"3002","longitude":144.9833965,"count":9,"id":"a62vxczhwnsd","state":"VIC","location":"Melbourne Cricket Ground (MCG)"},"type":"Feature","geometry":{"type":"Point","coordinates":[144.9833965,-37.82000569]}},{"properties":{"total people":4770,"city":"Melbourne","lattitude":-37.82000569,"total checkins":12082,"date time":"9/10/11 3:03","postal code":"3002","longitude":144.9833965,"count":10,"id":"a62vxd1mvi7d","state":"VIC","location":"Melbourne Cricket Ground (MCG)"},"type":"Feature","geometry":{"type":"Point","coordinates":[144.9833965,-37.82000569]}},{"properties":{"total people":4778,"city":"Melbourne","lattitude":-37.82000569,"total checkins":12128,"date time":"9/10/11 4:03","postal code":"3002","longitude":144.9833965,"count":51,"id":"a62vxcst9nm5","state":"VIC","location":"Melbourne Cricket Ground (MCG)"},"type":"Feature","geometry":{"type":"Point","coordinates":[144.9833965,-37.82000569]}},{"properties":{"total people":4787,"city":"Melbourne","lattitude":-37.82000569,"total checkins":12156,"date time":"9/10/11 5:03","postal code":"3002","longitude":144.9833965,"count":74,"id":"a62vxcuf61z6","state":"VIC","location":"Melbourne Cricket Ground (MCG)"},"type":"Feature","geometry":{"type":"Point","coordinates":[144.9833965,-37.82000569]}},{"properties":{"total people":92,"city":"East Melbourne","lattitude":-37.819938,"total checkins":139,"date time":"9/10/11 5:03","postal code":null,"longitude":144.9834492,"count":7,"id":"a62vxctufsmj","state":"VIC","location":"Great Southern Stand, MCG"},"type":"Feature","geometry":{"type":"Point","coordinates":[144.9834492,-37.819938]}},{"properties":{"total people":4789,"city":"Melbourne","lattitude":-37.82000569,"total checkins":12172,"date time":"9/10/11 6:03","postal code":"3002","longitude":144.9833965,"count":83,"id":"a62vxd0t5nv4","state":"VIC","location":"Melbourne Cricket Ground (MCG)"},"type":"Feature","geometry":{"type":"Point","coordinates":[144.9833965,-37.82000569]}},{"properties":{"total people":92,"city":"East Melbourne","lattitude":-37.819938,"total checkins":139,"date time":"9/10/11 6:03","postal code":null,"longitude":144.9834492,"count":6,"id":"a62vxcsavnep","state":"VIC","location":"Great Southern Stand, MCG"},"type":"Feature","geometry":{"type":"Point","coordinates":[144.9834492,-37.819938]}},{"properties":{"total people":4793,"city":"Melbourne","lattitude":-37.82000569,"total checkins":12183,"date time":"9/10/11 7:03","postal code":"3002","longitude":144.9833965,"count":58,"id":"a62vxczx5hqu","state":"VIC","location":"Melbourne Cricket Ground (MCG)"},"type":"Feature","geometry":{"type":"Point","coordinates":[144.9833965,-37.82000569]}},{"properties":{"total people":4794,"city":"Melbourne","lattitude":-37.82000569,"total checkins":12186,"date time":"9/10/11 8:03","postal code":"3002","longitude":144.9833965,"count":26,"id":"a62vxctuente","state":"VIC","location":"Melbourne Cricket Ground (MCG)"},"type":"Feature","geometry":{"type":"Point","coordinates":[144.9833965,-37.82000569]}},{"properties":{"total people":4794,"city":"Melbourne","lattitude":-37.82000569,"total checkins":12186,"date time":"9/10/11 9:03","postal code":"3002","longitude":144.9833965,"count":12,"id":"a62vxd15tvve","state":"VIC","location":"Melbourne Cricket Ground (MCG)"},"type":"Feature","geometry":{"type":"Point","coordinates":[144.9833965,-37.82000569]}},{"properties":{"total people":4795,"city":"Melbourne","lattitude":-37.82000569,"total checkins":12196,"date time":"9/11/11 2:03","postal code":"3002","longitude":144.9833965,"count":7,"id":"a62vxcz9zq6q","state":"VIC","location":"Melbourne Cricket Ground (MCG)"},"type":"Feature","geometry":{"type":"Point","coordinates":[144.9833965,-37.82000569]}},{"properties":{"total people":4798,"city":"Melbourne","lattitude":-37.82000569,"total checkins":12206,"date time":"9/11/11 3:03","postal code":"3002","longitude":144.9833965,"count":16,"id":"a62vxcphdt7z","state":"VIC","location":"Melbourne Cricket Ground (MCG)"},"type":"Feature","geometry":{"type":"Point","coordinates":[144.9833965,-37.82000569]}},{"properties":{"total people":4808,"city":"Melbourne","lattitude":-37.82000569,"total checkins":12243,"date time":"9/11/11 4:03","postal code":"3002","longitude":144.9833965,"count":49,"id":"a62vxd0m2j3p","state":"VIC","location":"Melbourne Cricket Ground (MCG)"},"type":"Feature","geometry":{"type":"Point","coordinates":[144.9833965,-37.82000569]}},{"properties":{"total people":4818,"city":"Melbourne","lattitude":-37.82000569,"total checkins":12293,"date time":"9/11/11 5:04","postal code":"3002","longitude":144.9833965,"count":92,"id":"a62vxcp12vn0","state":"VIC","location":"Melbourne Cricket Ground (MCG)"},"type":"Feature","geometry":{"type":"Point","coordinates":[144.9833965,-37.82000569]}},{"properties":{"total people":4821,"city":"Melbourne","lattitude":-37.82000569,"total checkins":12306,"date time":"9/11/11 6:40","postal code":"3002","longitude":144.9833965,"count":80,"id":"a62vxcwkq9if","state":"VIC","location":"Melbourne Cricket Ground (MCG)"},"type":"Feature","geometry":{"type":"Point","coordinates":[144.9833965,-37.82000569]}},{"properties":{"total people":4821,"city":"Melbourne","lattitude":-37.82000569,"total checkins":12306,"date time":"9/11/11 7:03","postal code":"3002","longitude":144.9833965,"count":65,"id":"a62vxcvwkwaw","state":"VIC","location":"Melbourne Cricket Ground (MCG)"},"type":"Feature","geometry":{"type":"Point","coordinates":[144.9833965,-37.82000569]}},{"properties":{"total people":4833,"city":"Melbourne","lattitude":-37.82000569,"total checkins":12363,"date time":"09/16/2011 09:03","postal code":"3002","longitude":144.9833965,"count":16,"id":"a62vxcxux1gv","state":"VIC","location":"Melbourne Cricket Ground (MCG)"},"type":"Feature","geometry":{"type":"Point","coordinates":[144.9833965,-37.82000569]}},{"properties":{"total people":4833,"city":"Melbourne","lattitude":-37.82000569,"total checkins":12363,"date time":"09/16/2011 09:03","postal code":"3002","longitude":144.9833965,"count":15,"id":"a62vxd20rvfw","state":"VIC","location":"Melbourne Cricket Ground (MCG)"},"type":"Feature","geometry":{"type":"Point","coordinates":[144.9833965,-37.82000569]}},{"properties":{"total people":4833,"city":"Melbourne","lattitude":-37.82000569,"total checkins":12364,"date time":"09/16/2011 09:03","postal code":"3002","longitude":144.9833965,"count":16,"id":"a62vxcxbzs8x","state":"VIC","location":"Melbourne Cricket Ground (MCG)"},"type":"Feature","geometry":{"type":"Point","coordinates":[144.9833965,-37.82000569]}},{"properties":{"total people":4833,"city":"Melbourne","lattitude":-37.82000569,"total checkins":12367,"date time":"09/16/2011 09:09","postal code":"3002","longitude":144.9833965,"count":17,"id":"a62vxd38u8qe","state":"VIC","location":"Melbourne Cricket Ground (MCG)"},"type":"Feature","geometry":{"type":"Point","coordinates":[144.9833965,-37.82000569]}},{"properties":{"total people":4847,"city":"Melbourne","lattitude":-37.82000569,"total checkins":12407,"date time":"09/16/2011 10:03","postal code":"3002","longitude":144.9833965,"count":55,"id":"a62vxcsepw12","state":"VIC","location":"Melbourne Cricket Ground (MCG)"},"type":"Feature","geometry":{"type":"Point","coordinates":[144.9833965,-37.82000569]}},{"properties":{"total people":4856,"city":"Melbourne","lattitude":-37.82000569,"total checkins":12424,"date time":"09/16/2011 12:03","postal code":"3002","longitude":144.9833965,"count":58,"id":"a62vxcpxreq9","state":"VIC","location":"Melbourne Cricket Ground (MCG)"},"type":"Feature","geometry":{"type":"Point","coordinates":[144.9833965,-37.82000569]}},{"properties":{"total people":4858,"city":"Melbourne","lattitude":-37.82000569,"total checkins":12427,"date time":"09/16/2011 13:02","postal code":"3002","longitude":144.9833965,"count":19,"id":"a62vxcyslx9z","state":"VIC","location":"Melbourne Cricket Ground (MCG)"},"type":"Feature","geometry":{"type":"Point","coordinates":[144.9833965,-37.82000569]}},{"properties":{"total people":4858,"city":"Melbourne","lattitude":-37.82000569,"total checkins":12427,"date time":"09/16/2011 13:03","postal code":"3002","longitude":144.9833965,"count":19,"id":"a62vxctxnb98","state":"VIC","location":"Melbourne Cricket Ground (MCG)"},"type":"Feature","geometry":{"type":"Point","coordinates":[144.9833965,-37.82000569]}},{"properties":{"total people":113,"city":"Cardiff","lattitude":51.4871287,"total checkins":168,"date time":"09/16/2011 13:38","postal code":"CF11 9XR","longitude":-3.191463947,"count":6,"id":"a62vxcznl91x","state":null,"location":"The Swalec Stadium"},"type":"Feature","geometry":{"type":"Point","coordinates":[-3.191463947,51.4871287]}},{"properties":{"total people":114,"city":"Cardiff","lattitude":51.4871287,"total checkins":169,"date time":"09/16/2011 14:38","postal code":"CF11 9XR","longitude":-3.191463947,"count":7,"id":"a62vxcopdxe4","state":null,"location":"The Swalec Stadium"},"type":"Feature","geometry":{"type":"Point","coordinates":[-3.191463947,51.4871287]}},{"properties":{"total people":114,"city":"Cardiff","lattitude":51.4871287,"total checkins":169,"date time":"09/16/2011 15:37","postal code":"CF11 9XR","longitude":-3.191463947,"count":6,"id":"a62vxctu5b6r","state":null,"location":"The Swalec Stadium"},"type":"Feature","geometry":{"type":"Point","coordinates":[-3.191463947,51.4871287]}},{"properties":{"total people":114,"city":"Cardiff","lattitude":51.4871287,"total checkins":169,"date time":"09/16/2011 15:38","postal code":"CF11 9XR","longitude":-3.191463947,"count":6,"id":"a62vxcx51vt6","state":null,"location":"The Swalec Stadium"},"type":"Feature","geometry":{"type":"Point","coordinates":[-3.191463947,51.4871287]}},{"properties":{"total people":1162,"city":"London","lattitude":51.52926,"total checkins":1806,"date time":"09/17/2011 09:44","postal code":"NW8 8QN","longitude":-0.172173,"count":6,"id":"a62vxctunpkg","state":"UK","location":"Lord's Cricket Ground (MCC)"},"type":"Feature","geometry":{"type":"Point","coordinates":[-0.172173,51.52926]}},{"properties":{"total people":1173,"city":"London","lattitude":51.52926,"total checkins":1825,"date time":"09/17/2011 12:45","postal code":"NW8 8QN","longitude":-0.172173,"count":17,"id":"a62vxcxjcd4i","state":"UK","location":"Lord's Cricket Ground (MCC)"},"type":"Feature","geometry":{"type":"Point","coordinates":[-0.172173,51.52926]}},{"properties":{"total people":1174,"city":"London","lattitude":51.52926,"total checkins":1827,"date time":"09/17/2011 13:38","postal code":"NW8 8QN","longitude":-0.172173,"count":7,"id":"a62vxd1pkw4t","state":"UK","location":"Lord's Cricket Ground (MCC)"},"type":"Feature","geometry":{"type":"Point","coordinates":[-0.172173,51.52926]}},{"properties":{"total people":30,"city":"Napier","lattitude":-39.501654,"total checkins":52,"date time":"09/18/2011 09:03","postal code":null,"longitude":176.913375,"count":10,"id":"a62vxd240va5","state":"New Zealand","location":"McLean Park"},"type":"Feature","geometry":{"type":"Point","coordinates":[176.913375,-39.501654]}},{"properties":{"total people":4889,"city":"Melbourne","lattitude":-37.82000569,"total checkins":12598,"date time":"09/24/2011 03:03","postal code":"3002","longitude":144.9833965,"count":12,"id":"a62vxcx9vijq","state":"VIC","location":"Melbourne Cricket Ground (MCG)"},"type":"Feature","geometry":{"type":"Point","coordinates":[144.9833965,-37.82000569]}},{"properties":{"total people":4900,"city":"Melbourne","lattitude":-37.82000569,"total checkins":12628,"date time":"09/24/2011 04:03","postal code":"3002","longitude":144.9833965,"count":40,"id":"a62vxcy6r6wu","state":"VIC","location":"Melbourne Cricket Ground (MCG)"},"type":"Feature","geometry":{"type":"Point","coordinates":[144.9833965,-37.82000569]}},{"properties":{"total people":4904,"city":"Melbourne","lattitude":-37.82000569,"total checkins":12645,"date time":"09/24/2011 05:03","postal code":"3002","longitude":144.9833965,"count":47,"id":"a62vxctoclkg","state":"VIC","location":"Melbourne Cricket Ground (MCG)"},"type":"Feature","geometry":{"type":"Point","coordinates":[144.9833965,-37.82000569]}},{"properties":{"total people":303,"city":"Melbourne","lattitude":-37.81916106,"total checkins":650,"date time":"09/24/2011 05:03","postal code":null,"longitude":144.9827349,"count":6,"id":"a62vxd0r5tdy","state":"Victoria","location":"MCC Members"},"type":"Feature","geometry":{"type":"Point","coordinates":[144.9827349,-37.81916106]}},{"properties":{"total people":4907,"city":"Melbourne","lattitude":-37.82000569,"total checkins":12657,"date time":"09/24/2011 06:03","postal code":"3002","longitude":144.9833965,"count":51,"id":"a62vxcu0bifw","state":"VIC","location":"Melbourne Cricket Ground (MCG)"},"type":"Feature","geometry":{"type":"Point","coordinates":[144.9833965,-37.82000569]}},{"properties":{"total people":304,"city":"Melbourne","lattitude":-37.81916106,"total checkins":651,"date time":"09/24/2011 06:03","postal code":null,"longitude":144.9827349,"count":6,"id":"a62vxcwiiwhu","state":"Victoria","location":"MCC Members"},"type":"Feature","geometry":{"type":"Point","coordinates":[144.9827349,-37.81916106]}},{"properties":{"total people":4911,"city":"Melbourne","lattitude":-37.82000569,"total checkins":12669,"date time":"09/24/2011 08:03","postal code":"3002","longitude":144.9833965,"count":17,"id":"a62vxcrahag1","state":"VIC","location":"Melbourne Cricket Ground (MCG)"},"type":"Feature","geometry":{"type":"Point","coordinates":[144.9833965,-37.82000569]}},{"properties":{"total people":4911,"city":"Melbourne","lattitude":-37.82000569,"total checkins":12670,"date time":"09/24/2011 09:03","postal code":"3002","longitude":144.9833965,"count":9,"id":"a62vxd03gau9","state":"VIC","location":"Melbourne Cricket Ground (MCG)"},"type":"Feature","geometry":{"type":"Point","coordinates":[144.9833965,-37.82000569]}},{"properties":{"total people":64,"city":"Hyderabad","lattitude":17.41054066,"total checkins":107,"date time":"09/25/2011 16:14","postal code":null,"longitude":78.55089092,"count":6,"id":"a62vxcw293ug","state":"Andhra Pradesh","location":"Rajiv Gandhi Cricket Stadium"},"type":"Feature","geometry":{"type":"Point","coordinates":[78.55089092,17.41054066]}},{"properties":{"total people":822,"city":"London","lattitude":51.48373642,"total checkins":1399,"date time":"09/25/2011 17:38","postal code":"SE11 5SS","longitude":-0.114956796,"count":20,"id":"a62vxcwo2wol","state":"Greater London","location":"The Kia Oval"},"type":"Feature","geometry":{"type":"Point","coordinates":[-0.114956796,51.48373642]}},{"properties":{"total people":829,"city":"London","lattitude":51.48373642,"total checkins":1407,"date time":"09/25/2011 19:38","postal code":"SE11 5SS","longitude":-0.114956796,"count":25,"id":"a62vxcygla4v","state":"Greater London","location":"The Kia Oval"},"type":"Feature","geometry":{"type":"Point","coordinates":[-0.114956796,51.48373642]}},{"properties":{"total people":829,"city":"London","lattitude":51.48373642,"total checkins":1409,"date time":"09/25/2011 20:38","postal code":"SE11 5SS","longitude":-0.114956796,"count":11,"id":"a62vxd4yof9f","state":"Greater London","location":"The Kia Oval"},"type":"Feature","geometry":{"type":"Point","coordinates":[-0.114956796,51.48373642]}},{"properties":{"total people":264,"city":"Bengaluru","lattitude":12.9788404,"total checkins":515,"date time":"09/26/2011 15:14","postal code":"560001","longitude":77.59955764,"count":10,"id":"a62vxd3ubc6c","state":"Karnataka","location":"M. Chinnaswamy Stadium"},"type":"Feature","geometry":{"type":"Point","coordinates":[77.59955764,12.9788404]}},{"properties":{"total people":265,"city":"Bengaluru","lattitude":12.9788404,"total checkins":516,"date time":"09/26/2011 17:14","postal code":"560001","longitude":77.59955764,"count":8,"id":"a62vxd4uh73d","state":"Karnataka","location":"M. Chinnaswamy Stadium"},"type":"Feature","geometry":{"type":"Point","coordinates":[77.59955764,12.9788404]}},{"properties":{"total people":40,"city":"Napier","lattitude":-39.501654,"total checkins":66,"date time":"09/27/2011 05:02","postal code":null,"longitude":176.913375,"count":7,"id":"a62vxd0rma4l","state":"New Zealand","location":"McLean Park"},"type":"Feature","geometry":{"type":"Point","coordinates":[176.913375,-39.501654]}},{"properties":{"total people":41,"city":"Napier","lattitude":-39.501654,"total checkins":67,"date time":"09/27/2011 06:02","postal code":null,"longitude":176.913375,"count":8,"id":"a62vxd3g7tcw","state":"New Zealand","location":"McLean Park"},"type":"Feature","geometry":{"type":"Point","coordinates":[176.913375,-39.501654]}},{"properties":{"total people":268,"city":"Bengaluru","lattitude":12.9788404,"total checkins":524,"date time":"09/29/2011 16:18","postal code":"560001","longitude":77.59955764,"count":6,"id":"a62vxcrybm6w","state":"Karnataka","location":"M. Chinnaswamy Stadium"},"type":"Feature","geometry":{"type":"Point","coordinates":[77.59955764,12.9788404]}},{"properties":{"total people":4917,"city":"Melbourne","lattitude":-37.82000569,"total checkins":12720,"date time":"09/30/2011 23:03","postal code":"3002","longitude":144.9833965,"count":6,"id":"a62vxcuih9xe","state":"VIC","location":"Melbourne Cricket Ground (MCG)"},"type":"Feature","geometry":{"type":"Point","coordinates":[144.9833965,-37.82000569]}},{"properties":{"total people":4917,"city":"Melbourne","lattitude":-37.82000569,"total checkins":12725,"date time":"10/01/11 0:03","postal code":"3002","longitude":144.9833965,"count":8,"id":"a62vxd3b52zw","state":"VIC","location":"Melbourne Cricket Ground (MCG)"},"type":"Feature","geometry":{"type":"Point","coordinates":[144.9833965,-37.82000569]}},{"properties":{"total people":4918,"city":"Melbourne","lattitude":-37.82000569,"total checkins":12730,"date time":"10/01/11 1:03","postal code":"3002","longitude":144.9833965,"count":9,"id":"a62vxczyoi98","state":"VIC","location":"Melbourne Cricket Ground (MCG)"},"type":"Feature","geometry":{"type":"Point","coordinates":[144.9833965,-37.82000569]}},{"properties":{"total people":4922,"city":"Melbourne","lattitude":-37.82000569,"total checkins":12750,"date time":"10/01/11 2:03","postal code":"3002","longitude":144.9833965,"count":25,"id":"a62vxd3qtfy4","state":"VIC","location":"Melbourne Cricket Ground (MCG)"},"type":"Feature","geometry":{"type":"Point","coordinates":[144.9833965,-37.82000569]}},{"properties":{"total people":4926,"city":"Melbourne","lattitude":-37.82000569,"total checkins":12779,"date time":"10/01/11 3:03","postal code":"3002","longitude":144.9833965,"count":45,"id":"a62vxd05kh1w","state":"VIC","location":"Melbourne Cricket Ground (MCG)"},"type":"Feature","geometry":{"type":"Point","coordinates":[144.9833965,-37.82000569]}},{"properties":{"total people":4926,"city":"Melbourne","lattitude":-37.82000569,"total checkins":12780,"date time":"10/01/11 3:03","postal code":"3002","longitude":144.9833965,"count":46,"id":"a62vxcwg2ddp","state":"VIC","location":"Melbourne Cricket Ground (MCG)"},"type":"Feature","geometry":{"type":"Point","coordinates":[144.9833965,-37.82000569]}},{"properties":{"total people":4926,"city":"Melbourne","lattitude":-37.82000569,"total checkins":12781,"date time":"10/01/11 3:03","postal code":"3002","longitude":144.9833965,"count":47,"id":"a62vxd4l3348","state":"VIC","location":"Melbourne Cricket Ground (MCG)"},"type":"Feature","geometry":{"type":"Point","coordinates":[144.9833965,-37.82000569]}},{"properties":{"total people":4929,"city":"Melbourne","lattitude":-37.82000569,"total checkins":12825,"date time":"10/01/11 4:03","postal code":"3002","longitude":144.9833965,"count":83,"id":"a62vxd2zflls","state":"VIC","location":"Melbourne Cricket Ground (MCG)"},"type":"Feature","geometry":{"type":"Point","coordinates":[144.9833965,-37.82000569]}},{"properties":{"total people":4935,"city":"Melbourne","lattitude":-37.82000569,"total checkins":12842,"date time":"10/01/11 5:03","postal code":"3002","longitude":144.9833965,"count":85,"id":"a62vxcpx3k3q","state":"VIC","location":"Melbourne Cricket Ground (MCG)"},"type":"Feature","geometry":{"type":"Point","coordinates":[144.9833965,-37.82000569]}},{"properties":{"total people":4935,"city":"Melbourne","lattitude":-37.82000569,"total checkins":12849,"date time":"10/01/11 6:03","postal code":"3002","longitude":144.9833965,"count":62,"id":"a62vxd47gtlu","state":"VIC","location":"Melbourne Cricket Ground (MCG)"},"type":"Feature","geometry":{"type":"Point","coordinates":[144.9833965,-37.82000569]}},{"properties":{"total people":4935,"city":"Melbourne","lattitude":-37.82000569,"total checkins":12849,"date time":"10/01/11 6:04","postal code":"3002","longitude":144.9833965,"count":62,"id":"a62vxcw8b5dw","state":"VIC","location":"Melbourne Cricket Ground (MCG)"},"type":"Feature","geometry":{"type":"Point","coordinates":[144.9833965,-37.82000569]}},{"properties":{"total people":4936,"city":"Melbourne","lattitude":-37.82000569,"total checkins":12850,"date time":"10/01/11 6:04","postal code":"3002","longitude":144.9833965,"count":63,"id":"a62vxcwqg7pl","state":"VIC","location":"Melbourne Cricket Ground (MCG)"},"type":"Feature","geometry":{"type":"Point","coordinates":[144.9833965,-37.82000569]}},{"properties":{"total people":4939,"city":"Melbourne","lattitude":-37.82000569,"total checkins":12857,"date time":"10/01/11 7:05","postal code":"3002","longitude":144.9833965,"count":26,"id":"a62vxcx8sjkx","state":"VIC","location":"Melbourne Cricket Ground (MCG)"},"type":"Feature","geometry":{"type":"Point","coordinates":[144.9833965,-37.82000569]}},{"properties":{"total people":4940,"city":"Melbourne","lattitude":-37.82000569,"total checkins":12865,"date time":"10/01/11 9:04","postal code":"3002","longitude":144.9833965,"count":9,"id":"a62vxctn8kze","state":"VIC","location":"Melbourne Cricket Ground (MCG)"},"type":"Feature","geometry":{"type":"Point","coordinates":[144.9833965,-37.82000569]}},{"properties":{"total people":400,"city":"North Adelaide","lattitude":-34.91561062,"total checkins":715,"date time":"10/03/11 3:04","postal code":"5006","longitude":138.5959947,"count":10,"id":"a62vxd3d121u","state":"SA","location":"Adelaide Oval"},"type":"Feature","geometry":{"type":"Point","coordinates":[138.5959947,-34.91561062]}},{"properties":{"total people":400,"city":"North Adelaide","lattitude":-34.91561062,"total checkins":715,"date time":"10/03/11 3:05","postal code":"5006","longitude":138.5959947,"count":10,"id":"a62vxctn85gj","state":"SA","location":"Adelaide Oval"},"type":"Feature","geometry":{"type":"Point","coordinates":[138.5959947,-34.91561062]}},{"properties":{"total people":401,"city":"North Adelaide","lattitude":-34.91561062,"total checkins":717,"date time":"10/03/11 4:05","postal code":"5006","longitude":138.5959947,"count":10,"id":"a62vxd2gwfim","state":"SA","location":"Adelaide Oval"},"type":"Feature","geometry":{"type":"Point","coordinates":[138.5959947,-34.91561062]}},{"properties":{"total people":401,"city":"North Adelaide","lattitude":-34.91561062,"total checkins":719,"date time":"10/03/11 5:05","postal code":"5006","longitude":138.5959947,"count":11,"id":"a62vxcppjrsr","state":"SA","location":"Adelaide Oval"},"type":"Feature","geometry":{"type":"Point","coordinates":[138.5959947,-34.91561062]}},{"properties":{"total people":282,"city":"Bengaluru","lattitude":12.9788404,"total checkins":546,"date time":"10/03/11 15:14","postal code":"560001","longitude":77.59955764,"count":6,"id":"a62vxd4eivzx","state":"Karnataka","location":"M. Chinnaswamy Stadium"},"type":"Feature","geometry":{"type":"Point","coordinates":[77.59955764,12.9788404]}},{"properties":{"total people":282,"city":"Bengaluru","lattitude":12.9788404,"total checkins":546,"date time":"10/03/11 16:14","postal code":"560001","longitude":77.59955764,"count":6,"id":"a62vxcoischi","state":"Karnataka","location":"M. Chinnaswamy Stadium"},"type":"Feature","geometry":{"type":"Point","coordinates":[77.59955764,12.9788404]}},{"properties":{"total people":295,"city":"Bengaluru","lattitude":12.9788404,"total checkins":572,"date time":"10/07/11 14:14","postal code":"560001","longitude":77.59955764,"count":12,"id":"a62vxczvc201","state":"Karnataka","location":"M. Chinnaswamy Stadium"},"type":"Feature","geometry":{"type":"Point","coordinates":[77.59955764,12.9788404]}},{"properties":{"total people":297,"city":"Bengaluru","lattitude":12.9788404,"total checkins":576,"date time":"10/07/11 15:14","postal code":"560001","longitude":77.59955764,"count":14,"id":"a62vxd2t0avd","state":"Karnataka","location":"M. Chinnaswamy Stadium"},"type":"Feature","geometry":{"type":"Point","coordinates":[77.59955764,12.9788404]}},{"properties":{"total people":297,"city":"Bengaluru","lattitude":12.9788404,"total checkins":577,"date time":"10/07/11 16:14","postal code":"560001","longitude":77.59955764,"count":15,"id":"a62vxd3zitlq","state":"Karnataka","location":"M. Chinnaswamy Stadium"},"type":"Feature","geometry":{"type":"Point","coordinates":[77.59955764,12.9788404]}},{"properties":{"total people":297,"city":"Bengaluru","lattitude":12.9788404,"total checkins":577,"date time":"10/07/11 17:13","postal code":"560001","longitude":77.59955764,"count":6,"id":"a62vxd3vmbd3","state":"Karnataka","location":"M. Chinnaswamy Stadium"},"type":"Feature","geometry":{"type":"Point","coordinates":[77.59955764,12.9788404]}},{"properties":{"total people":49,"city":null,"lattitude":25.046469,"total checkins":71,"date time":"10/07/11 17:16","postal code":null,"longitude":55.218995,"count":8,"id":"a62vxcw4z7b0","state":null,"location":"Dubai International Cricket Stadium"},"type":"Feature","geometry":{"type":"Point","coordinates":[55.218995,25.046469]}},{"properties":{"total people":50,"city":null,"lattitude":25.046469,"total checkins":72,"date time":"10/07/11 18:16","postal code":null,"longitude":55.218995,"count":8,"id":"a62vxcyydg5z","state":null,"location":"Dubai International Cricket Stadium"},"type":"Feature","geometry":{"type":"Point","coordinates":[55.218995,25.046469]}},{"properties":{"total people":4958,"city":"Melbourne","lattitude":-37.82000569,"total checkins":12908,"date time":"10/08/11 20:03","postal code":"3002","longitude":144.9833965,"count":9,"id":"a62vxcqq1szn","state":"VIC","location":"Melbourne Cricket Ground (MCG)"},"type":"Feature","geometry":{"type":"Point","coordinates":[144.9833965,-37.82000569]}},{"properties":{"total people":4959,"city":"Melbourne","lattitude":-37.82000569,"total checkins":12909,"date time":"10/08/11 20:03","postal code":"3002","longitude":144.9833965,"count":10,"id":"a62vxcs6xse6","state":"VIC","location":"Melbourne Cricket Ground (MCG)"},"type":"Feature","geometry":{"type":"Point","coordinates":[144.9833965,-37.82000569]}},{"properties":{"total people":4962,"city":"Melbourne","lattitude":-37.82000569,"total checkins":12919,"date time":"10/08/11 21:03","postal code":"3002","longitude":144.9833965,"count":20,"id":"a62vxcxppk6t","state":"VIC","location":"Melbourne Cricket Ground (MCG)"},"type":"Feature","geometry":{"type":"Point","coordinates":[144.9833965,-37.82000569]}},{"properties":{"total people":4964,"city":"Melbourne","lattitude":-37.82000569,"total checkins":12924,"date time":"10/08/11 22:02","postal code":"3002","longitude":144.9833965,"count":21,"id":"a62vxcs0wna6","state":"VIC","location":"Melbourne Cricket Ground (MCG)"},"type":"Feature","geometry":{"type":"Point","coordinates":[144.9833965,-37.82000569]}},{"properties":{"total people":4964,"city":"Melbourne","lattitude":-37.82000569,"total checkins":12924,"date time":"10/08/11 22:03","postal code":"3002","longitude":144.9833965,"count":21,"id":"a62vxcvo96t4","state":"VIC","location":"Melbourne Cricket Ground (MCG)"},"type":"Feature","geometry":{"type":"Point","coordinates":[144.9833965,-37.82000569]}},{"properties":{"total people":4966,"city":"Melbourne","lattitude":-37.82000569,"total checkins":12928,"date time":"10/08/11 23:03","postal code":"3002","longitude":144.9833965,"count":17,"id":"a62vxcu6y1e6","state":"VIC","location":"Melbourne Cricket Ground (MCG)"},"type":"Feature","geometry":{"type":"Point","coordinates":[144.9833965,-37.82000569]}},{"properties":{"total people":4970,"city":"Melbourne","lattitude":-37.82000569,"total checkins":12933,"date time":"10/09/11 0:03","postal code":"3002","longitude":144.9833965,"count":9,"id":"a62vxcs4r297","state":"VIC","location":"Melbourne Cricket Ground (MCG)"},"type":"Feature","geometry":{"type":"Point","coordinates":[144.9833965,-37.82000569]}},{"properties":{"total people":4971,"city":"Melbourne","lattitude":-37.82000569,"total checkins":12936,"date time":"10/09/11 1:03","postal code":"3002","longitude":144.9833965,"count":6,"id":"a62vxd49y48g","state":"VIC","location":"Melbourne Cricket Ground (MCG)"},"type":"Feature","geometry":{"type":"Point","coordinates":[144.9833965,-37.82000569]}},{"properties":{"total people":4971,"city":"Melbourne","lattitude":-37.82000569,"total checkins":12936,"date time":"10/09/11 1:04","postal code":"3002","longitude":144.9833965,"count":6,"id":"a62vxcpydigy","state":"VIC","location":"Melbourne Cricket Ground (MCG)"},"type":"Feature","geometry":{"type":"Point","coordinates":[144.9833965,-37.82000569]}},{"properties":{"total people":77,"city":"Hyderabad","lattitude":17.41054066,"total checkins":131,"date time":"10/14/2011 14:14","postal code":null,"longitude":78.55089092,"count":6,"id":"a62vxd3pn2pr","state":"Andhra Pradesh","location":"Rajiv Gandhi Cricket Stadium"},"type":"Feature","geometry":{"type":"Point","coordinates":[78.55089092,17.41054066]}},{"properties":{"total people":78,"city":"Hyderabad","lattitude":17.41054066,"total checkins":132,"date time":"10/14/2011 15:14","postal code":null,"longitude":78.55089092,"count":7,"id":"a62vxcp09e90","state":"Andhra Pradesh","location":"Rajiv Gandhi Cricket Stadium"},"type":"Feature","geometry":{"type":"Point","coordinates":[78.55089092,17.41054066]}},{"properties":{"total people":78,"city":"Hyderabad","lattitude":17.41054066,"total checkins":133,"date time":"10/14/2011 16:14","postal code":null,"longitude":78.55089092,"count":8,"id":"a62vxd2of4xf","state":"Andhra Pradesh","location":"Rajiv Gandhi Cricket Stadium"},"type":"Feature","geometry":{"type":"Point","coordinates":[78.55089092,17.41054066]}},{"properties":{"total people":78,"city":"Hyderabad","lattitude":17.41054066,"total checkins":133,"date time":"10/14/2011 18:16","postal code":null,"longitude":78.55089092,"count":7,"id":"a62vxd21kpxl","state":"Andhra Pradesh","location":"Rajiv Gandhi Cricket Stadium"},"type":"Feature","geometry":{"type":"Point","coordinates":[78.55089092,17.41054066]}},{"properties":{"total people":9,"city":"Illovo","lattitude":-26.130171,"total checkins":9,"date time":"10/16/2011 14:09","postal code":null,"longitude":28.058598,"count":9,"id":"a62vxcqzl6tu","state":null,"location":"Bidvest Wanderers Stadium"},"type":"Feature","geometry":{"type":"Point","coordinates":[28.058598,-26.130171]}},{"properties":{"total people":10,"city":"Illovo","lattitude":-26.130171,"total checkins":10,"date time":"10/16/2011 15:21","postal code":null,"longitude":28.058598,"count":8,"id":"a62vxcym3akr","state":null,"location":"Bidvest Wanderers Stadium"},"type":"Feature","geometry":{"type":"Point","coordinates":[28.058598,-26.130171]}},{"properties":{"total people":1234,"city":"London","lattitude":51.529156,"total checkins":1968,"date time":"10/27/2011 12:38","postal code":"NW8 8QN","longitude":-0.172841,"count":6,"id":"a62vxcsqrsjf","state":"Greater London","location":"Lord's Cricket Ground (MCC)"},"type":"Feature","geometry":{"type":"Point","coordinates":[-0.172841,51.529156]}},{"properties":{"total people":87,"city":"Durban","lattitude":-29.8501359,"total checkins":143,"date time":"10/28/2011 14:07","postal code":"4025","longitude":31.0278368,"count":9,"id":"a62vxcshbdqe","state":"South Africa","location":"Kingsmead Cricket Stadium"},"type":"Feature","geometry":{"type":"Point","coordinates":[31.0278368,-29.8501359]}},{"properties":{"total people":87,"city":"Durban","lattitude":-29.8501359,"total checkins":144,"date time":"10/28/2011 15:08","postal code":"4025","longitude":31.0278368,"count":8,"id":"a62vxcqt0kei","state":"South Africa","location":"Kingsmead Cricket Stadium"},"type":"Feature","geometry":{"type":"Point","coordinates":[31.0278368,-29.8501359]}},{"properties":{"total people":87,"city":"Durban","lattitude":-29.8501359,"total checkins":144,"date time":"10/28/2011 16:09","postal code":"4025","longitude":31.0278368,"count":6,"id":"a62vxd3rtqe2","state":"South Africa","location":"Kingsmead Cricket Stadium"},"type":"Feature","geometry":{"type":"Point","coordinates":[31.0278368,-29.8501359]}},{"properties":{"total people":105,"city":"Port of Spain","lattitude":10.66537365,"total checkins":314,"date time":"10/30/2011 21:15","postal code":null,"longitude":-61.52360916,"count":7,"id":"a62vxcshgm5n","state":"Trinidad and Tobago","location":"Queen's Park Oval"},"type":"Feature","geometry":{"type":"Point","coordinates":[-61.52360916,10.66537365]}},{"properties":{"total people":64,"city":null,"lattitude":25.046635,"total checkins":88,"date time":"11/11/11 12:18","postal code":null,"longitude":55.218893,"count":7,"id":"a62vxd0migf0","state":null,"location":"Dubai International Cricket Stadium"},"type":"Feature","geometry":{"type":"Point","coordinates":[55.218893,25.046635]}},{"properties":{"total people":68,"city":null,"lattitude":25.046635,"total checkins":94,"date time":"11/11/11 13:18","postal code":null,"longitude":55.218893,"count":13,"id":"a62vxd47spxo","state":null,"location":"Dubai International Cricket Stadium"},"type":"Feature","geometry":{"type":"Point","coordinates":[55.218893,25.046635]}},{"properties":{"total people":68,"city":null,"lattitude":25.046635,"total checkins":95,"date time":"11/11/11 14:18","postal code":null,"longitude":55.218893,"count":10,"id":"a62vxcopyy13","state":null,"location":"Dubai International Cricket Stadium"},"type":"Feature","geometry":{"type":"Point","coordinates":[55.218893,25.046635]}},{"properties":{"total people":82,"city":"Kingston","lattitude":17.9775085,"total checkins":181,"date time":"11/12/11 8:16","postal code":null,"longitude":-76.78250313,"count":6,"id":"a62vxd0dmycg","state":"St Andrew Parish","location":"Sabina Park"},"type":"Feature","geometry":{"type":"Point","coordinates":[-76.78250313,17.9775085]}},{"properties":{"total people":76,"city":null,"lattitude":25.046635,"total checkins":107,"date time":"11/14/2011 15:18","postal code":null,"longitude":55.218893,"count":7,"id":"a62vxcsuw5q3","state":null,"location":"Dubai International Cricket Stadium"},"type":"Feature","geometry":{"type":"Point","coordinates":[55.218893,25.046635]}},{"properties":{"total people":77,"city":null,"lattitude":25.046635,"total checkins":112,"date time":"11/14/2011 16:18","postal code":null,"longitude":55.218893,"count":11,"id":"a62vxd3flskd","state":null,"location":"Dubai International Cricket Stadium"},"type":"Feature","geometry":{"type":"Point","coordinates":[55.218893,25.046635]}},{"properties":{"total people":77,"city":null,"lattitude":25.046635,"total checkins":112,"date time":"11/14/2011 17:18","postal code":null,"longitude":55.218893,"count":9,"id":"a62vxcuo8ks1","state":null,"location":"Dubai International Cricket Stadium"},"type":"Feature","geometry":{"type":"Point","coordinates":[55.218893,25.046635]}},{"properties":{"total people":83,"city":null,"lattitude":25.046635,"total checkins":121,"date time":"11/18/2011 12:19","postal code":null,"longitude":55.218893,"count":6,"id":"a62vxcpaakfn","state":null,"location":"Dubai International Cricket Stadium"},"type":"Feature","geometry":{"type":"Point","coordinates":[55.218893,25.046635]}},{"properties":{"total people":85,"city":null,"lattitude":25.046635,"total checkins":125,"date time":"11/18/2011 13:18","postal code":null,"longitude":55.218893,"count":9,"id":"a62vxd3ar0as","state":null,"location":"Dubai International Cricket Stadium"},"type":"Feature","geometry":{"type":"Point","coordinates":[55.218893,25.046635]}},{"properties":{"total people":85,"city":null,"lattitude":25.046635,"total checkins":125,"date time":"11/18/2011 14:18","postal code":null,"longitude":55.218893,"count":7,"id":"a62vxcx2la5z","state":null,"location":"Dubai International Cricket Stadium"},"type":"Feature","geometry":{"type":"Point","coordinates":[55.218893,25.046635]}},{"properties":{"total people":89,"city":null,"lattitude":25.046635,"total checkins":130,"date time":"11/18/2011 15:18","postal code":null,"longitude":55.218893,"count":9,"id":"a62vxcozwhyj","state":null,"location":"Dubai International Cricket Stadium"},"type":"Feature","geometry":{"type":"Point","coordinates":[55.218893,25.046635]}},{"properties":{"total people":90,"city":null,"lattitude":25.046635,"total checkins":131,"date time":"11/18/2011 16:18","postal code":null,"longitude":55.218893,"count":6,"id":"a62vxcwhwo2r","state":null,"location":"Dubai International Cricket Stadium"},"type":"Feature","geometry":{"type":"Point","coordinates":[55.218893,25.046635]}},{"properties":{"total people":90,"city":null,"lattitude":25.046635,"total checkins":131,"date time":"11/18/2011 17:18","postal code":null,"longitude":55.218893,"count":6,"id":"a62vxcqyg1z3","state":null,"location":"Dubai International Cricket Stadium"},"type":"Feature","geometry":{"type":"Point","coordinates":[55.218893,25.046635]}},{"properties":{"total people":41,"city":"Illovo","lattitude":-26.130788,"total checkins":45,"date time":"11/19/2011 09:10","postal code":null,"longitude":28.058072,"count":10,"id":"a62vxd4ozr1a","state":null,"location":"Bidvest Wanderers Stadium"},"type":"Feature","geometry":{"type":"Point","coordinates":[28.058072,-26.130788]}},{"properties":{"total people":49,"city":"Illovo","lattitude":-26.130844,"total checkins":53,"date time":"11/19/2011 10:15","postal code":null,"longitude":28.057866,"count":16,"id":"a62vxd4ovw0k","state":null,"location":"Bidvest Wanderers Stadium"},"type":"Feature","geometry":{"type":"Point","coordinates":[28.057866,-26.130844]}},{"properties":{"total people":59,"city":"Illovo","lattitude":-26.13118,"total checkins":63,"date time":"11/19/2011 11:10","postal code":null,"longitude":28.057382,"count":22,"id":"a62vxcqqu2ty","state":null,"location":"Bidvest Wanderers Stadium"},"type":"Feature","geometry":{"type":"Point","coordinates":[28.057382,-26.13118]}},{"properties":{"total people":73,"city":"Illovo","lattitude":-26.13128533,"total checkins":80,"date time":"11/20/2011 09:10","postal code":null,"longitude":28.057829,"count":7,"id":"a62vxd3zq9ms","state":null,"location":"Bidvest Wanderers Stadium"},"type":"Feature","geometry":{"type":"Point","coordinates":[28.057829,-26.13128533]}},{"properties":{"total people":81,"city":"Illovo","lattitude":-26.13128533,"total checkins":89,"date time":"11/20/2011 10:10","postal code":null,"longitude":28.057829,"count":16,"id":"a62vxcqnr03x","state":null,"location":"Bidvest Wanderers Stadium"},"type":"Feature","geometry":{"type":"Point","coordinates":[28.057829,-26.13128533]}},{"properties":{"total people":88,"city":"Illovo","lattitude":-26.131371,"total checkins":97,"date time":"11/20/2011 11:10","postal code":null,"longitude":28.057502,"count":21,"id":"a62vxcqrwvld","state":null,"location":"Bidvest Wanderers Stadium"},"type":"Feature","geometry":{"type":"Point","coordinates":[28.057502,-26.131371]}},{"properties":{"total people":91,"city":"Illovo","lattitude":-26.131371,"total checkins":100,"date time":"11/20/2011 12:10","postal code":null,"longitude":28.057502,"count":19,"id":"a62vxcr276z8","state":null,"location":"Bidvest Wanderers Stadium"},"type":"Feature","geometry":{"type":"Point","coordinates":[28.057502,-26.131371]}},{"properties":{"total people":92,"city":"Illovo","lattitude":-26.131371,"total checkins":102,"date time":"11/20/2011 13:10","postal code":null,"longitude":28.057502,"count":12,"id":"a62vxcx87aft","state":null,"location":"Bidvest Wanderers Stadium"},"type":"Feature","geometry":{"type":"Point","coordinates":[28.057502,-26.131371]}},{"properties":{"total people":771,"city":"Woolloongabba","lattitude":-27.48599249,"total checkins":1414,"date time":"12/01/11 0:08","postal code":"4102","longitude":153.0380702,"count":13,"id":"a62vxcwqw6uz","state":"QLD","location":"The Gabba"},"type":"Feature","geometry":{"type":"Point","coordinates":[153.0380702,-27.48599249]}},{"properties":{"total people":775,"city":"Woolloongabba","lattitude":-27.48599249,"total checkins":1420,"date time":"12/01/11 1:08","postal code":"4102","longitude":153.0380702,"count":17,"id":"a62vxd3vd60j","state":"QLD","location":"The Gabba"},"type":"Feature","geometry":{"type":"Point","coordinates":[153.0380702,-27.48599249]}},{"properties":{"total people":776,"city":"Woolloongabba","lattitude":-27.48599249,"total checkins":1423,"date time":"12/01/11 2:08","postal code":"4102","longitude":153.0380702,"count":20,"id":"a62vxd3o2xl4","state":"QLD","location":"The Gabba"},"type":"Feature","geometry":{"type":"Point","coordinates":[153.0380702,-27.48599249]}},{"properties":{"total people":777,"city":"Woolloongabba","lattitude":-27.48599249,"total checkins":1424,"date time":"12/01/11 3:08","postal code":"4102","longitude":153.0380702,"count":8,"id":"a62vxcq41cpm","state":"QLD","location":"The Gabba"},"type":"Feature","geometry":{"type":"Point","coordinates":[153.0380702,-27.48599249]}},{"properties":{"total people":778,"city":"Woolloongabba","lattitude":-27.48599249,"total checkins":1426,"date time":"12/01/11 4:08","postal code":"4102","longitude":153.0380702,"count":6,"id":"a62vxcy5rsv1","state":"QLD","location":"The Gabba"},"type":"Feature","geometry":{"type":"Point","coordinates":[153.0380702,-27.48599249]}},{"properties":{"total people":481,"city":"Manchester","lattitude":53.456978,"total checkins":748,"date time":"12/01/11 14:41","postal code":"M16 0PX","longitude":-2.28711,"count":9,"id":"a62vxcwima1k","state":"Gtr. Manchester","location":"Old Trafford Cricket Ground"},"type":"Feature","geometry":{"type":"Point","coordinates":[-2.28711,53.456978]}},{"properties":{"total people":483,"city":"Manchester","lattitude":53.456978,"total checkins":750,"date time":"12/01/11 15:42","postal code":"M16 0PX","longitude":-2.28711,"count":10,"id":"a62vxcyaz6l8","state":"Gtr. Manchester","location":"Old Trafford Cricket Ground"},"type":"Feature","geometry":{"type":"Point","coordinates":[-2.28711,53.456978]}},{"properties":{"total people":784,"city":"Woolloongabba","lattitude":-27.48599249,"total checkins":1444,"date time":"12/02/11 1:08","postal code":"4102","longitude":153.0380702,"count":8,"id":"a62vxcwuzjja","state":"QLD","location":"The Gabba"},"type":"Feature","geometry":{"type":"Point","coordinates":[153.0380702,-27.48599249]}},{"properties":{"total people":784,"city":"Woolloongabba","lattitude":-27.48599249,"total checkins":1444,"date time":"12/02/11 2:08","postal code":"4102","longitude":153.0380702,"count":7,"id":"a62vxd1dx7l1","state":"QLD","location":"The Gabba"},"type":"Feature","geometry":{"type":"Point","coordinates":[153.0380702,-27.48599249]}},{"properties":{"total people":788,"city":"Woolloongabba","lattitude":-27.48599249,"total checkins":1453,"date time":"12/02/11 6:08","postal code":"4102","longitude":153.0380702,"count":6,"id":"a62vxctnvttt","state":"QLD","location":"The Gabba"},"type":"Feature","geometry":{"type":"Point","coordinates":[153.0380702,-27.48599249]}},{"properties":{"total people":789,"city":"Woolloongabba","lattitude":-27.48599249,"total checkins":1454,"date time":"12/02/11 7:08","postal code":"4102","longitude":153.0380702,"count":6,"id":"a62vxcyvbi14","state":"QLD","location":"The Gabba"},"type":"Feature","geometry":{"type":"Point","coordinates":[153.0380702,-27.48599249]}},{"properties":{"total people":793,"city":"Woolloongabba","lattitude":-27.48599249,"total checkins":1463,"date time":"12/03/11 0:08","postal code":"4102","longitude":153.0380702,"count":6,"id":"a62vxcqcfwm2","state":"QLD","location":"The Gabba"},"type":"Feature","geometry":{"type":"Point","coordinates":[153.0380702,-27.48599249]}},{"properties":{"total people":796,"city":"Woolloongabba","lattitude":-27.48599249,"total checkins":1466,"date time":"12/03/11 1:08","postal code":"4102","longitude":153.0380702,"count":8,"id":"a62vxcuf9tbr","state":"QLD","location":"The Gabba"},"type":"Feature","geometry":{"type":"Point","coordinates":[153.0380702,-27.48599249]}},{"properties":{"total people":799,"city":"Woolloongabba","lattitude":-27.48599249,"total checkins":1470,"date time":"12/03/11 2:08","postal code":"4102","longitude":153.0380702,"count":12,"id":"a62vxd3twf82","state":"QLD","location":"The Gabba"},"type":"Feature","geometry":{"type":"Point","coordinates":[153.0380702,-27.48599249]}},{"properties":{"total people":801,"city":"Woolloongabba","lattitude":-27.48599249,"total checkins":1472,"date time":"12/03/11 3:08","postal code":"4102","longitude":153.0380702,"count":10,"id":"a62vxcw438nu","state":"QLD","location":"The Gabba"},"type":"Feature","geometry":{"type":"Point","coordinates":[153.0380702,-27.48599249]}},{"properties":{"total people":802,"city":"Woolloongabba","lattitude":-27.48599249,"total checkins":1475,"date time":"12/03/11 4:08","postal code":"4102","longitude":153.0380702,"count":9,"id":"a62vxcozyca8","state":"QLD","location":"The Gabba"},"type":"Feature","geometry":{"type":"Point","coordinates":[153.0380702,-27.48599249]}},{"properties":{"total people":802,"city":"Woolloongabba","lattitude":-27.48599249,"total checkins":1477,"date time":"12/03/11 5:08","postal code":"4102","longitude":153.0380702,"count":6,"id":"a62vxcucfwwv","state":"QLD","location":"The Gabba"},"type":"Feature","geometry":{"type":"Point","coordinates":[153.0380702,-27.48599249]}},{"properties":{"total people":805,"city":"Woolloongabba","lattitude":-27.48599249,"total checkins":1480,"date time":"12/03/11 6:08","postal code":"4102","longitude":153.0380702,"count":7,"id":"a62vxcuqtxuq","state":"QLD","location":"The Gabba"},"type":"Feature","geometry":{"type":"Point","coordinates":[153.0380702,-27.48599249]}},{"properties":{"total people":448,"city":"North Adelaide","lattitude":-34.91561062,"total checkins":802,"date time":"12/05/11 7:04","postal code":"5006","longitude":138.5959947,"count":14,"id":"a62vxczjkfyo","state":"SA","location":"Adelaide Oval"},"type":"Feature","geometry":{"type":"Point","coordinates":[138.5959947,-34.91561062]}},{"properties":{"total people":468,"city":"North Adelaide","lattitude":-34.91561062,"total checkins":829,"date time":"12/05/11 8:04","postal code":"5006","longitude":138.5959947,"count":39,"id":"a62vxcwxrntp","state":"SA","location":"Adelaide Oval"},"type":"Feature","geometry":{"type":"Point","coordinates":[138.5959947,-34.91561062]}},{"properties":{"total people":485,"city":"North Adelaide","lattitude":-34.91561062,"total checkins":854,"date time":"12/05/11 9:04","postal code":"5006","longitude":138.5959947,"count":61,"id":"a62vxd4be8ql","state":"SA","location":"Adelaide Oval"},"type":"Feature","geometry":{"type":"Point","coordinates":[138.5959947,-34.91561062]}},{"properties":{"total people":497,"city":"North Adelaide","lattitude":-34.91561062,"total checkins":866,"date time":"12/05/11 10:04","postal code":"5006","longitude":138.5959947,"count":63,"id":"a62vxd2n8tqf","state":"SA","location":"Adelaide Oval"},"type":"Feature","geometry":{"type":"Point","coordinates":[138.5959947,-34.91561062]}},{"properties":{"total people":498,"city":"North Adelaide","lattitude":-34.91561062,"total checkins":868,"date time":"12/05/11 11:05","postal code":"5006","longitude":138.5959947,"count":40,"id":"a62vxczn87oe","state":"SA","location":"Adelaide Oval"},"type":"Feature","geometry":{"type":"Point","coordinates":[138.5959947,-34.91561062]}},{"properties":{"total people":506,"city":"North Adelaide","lattitude":-34.91561062,"total checkins":881,"date time":"12/05/11 13:04","postal code":"5006","longitude":138.5959947,"count":12,"id":"a62vxd2rtew5","state":"SA","location":"Adelaide Oval"},"type":"Feature","geometry":{"type":"Point","coordinates":[138.5959947,-34.91561062]}},{"properties":{"total people":507,"city":"North Adelaide","lattitude":-34.91561062,"total checkins":884,"date time":"12/05/11 14:04","postal code":"5006","longitude":138.5959947,"count":11,"id":"a62vxcuwpd47","state":"SA","location":"Adelaide Oval"},"type":"Feature","geometry":{"type":"Point","coordinates":[138.5959947,-34.91561062]}},{"properties":{"total people":507,"city":"North Adelaide","lattitude":-34.91561062,"total checkins":884,"date time":"12/05/11 15:04","postal code":"5006","longitude":138.5959947,"count":7,"id":"a62vxcokq18c","state":"SA","location":"Adelaide Oval"},"type":"Feature","geometry":{"type":"Point","coordinates":[138.5959947,-34.91561062]}},{"properties":{"total people":252,"city":"Cape Town","lattitude":-33.973752,"total checkins":496,"date time":"12/09/11 15:05","postal code":"7700","longitude":18.469188,"count":14,"id":"a62vxcvw2oxd","state":"Western Cape","location":"Sahara Park Newlands Cricket Ground"},"type":"Feature","geometry":{"type":"Point","coordinates":[18.469188,-33.973752]}},{"properties":{"total people":252,"city":"Cape Town","lattitude":-33.973752,"total checkins":496,"date time":"12/09/11 15:06","postal code":"7700","longitude":18.469188,"count":14,"id":"a62vxcxyu88k","state":"Western Cape","location":"Sahara Park Newlands Cricket Ground"},"type":"Feature","geometry":{"type":"Point","coordinates":[18.469188,-33.973752]}},{"properties":{"total people":254,"city":"Cape Town","lattitude":-33.973752,"total checkins":502,"date time":"12/09/11 16:05","postal code":"7700","longitude":18.469188,"count":19,"id":"a62vxcqgl9uk","state":"Western Cape","location":"Sahara Park Newlands Cricket Ground"},"type":"Feature","geometry":{"type":"Point","coordinates":[18.469188,-33.973752]}},{"properties":{"total people":256,"city":"Cape Town","lattitude":-33.9738294,"total checkins":507,"date time":"12/09/11 17:05","postal code":"7700","longitude":18.468808,"count":20,"id":"a62vxcs19lr6","state":"Western Cape","location":"Sahara Park Newlands Cricket Ground"},"type":"Feature","geometry":{"type":"Point","coordinates":[18.468808,-33.9738294]}},{"properties":{"total people":258,"city":"Cape Town","lattitude":-33.9738294,"total checkins":509,"date time":"12/09/11 18:05","postal code":"7700","longitude":18.468808,"count":14,"id":"a62vxcovdjod","state":"Western Cape","location":"Sahara Park Newlands Cricket Ground"},"type":"Feature","geometry":{"type":"Point","coordinates":[18.468808,-33.9738294]}},{"properties":{"total people":258,"city":"Cape Town","lattitude":-33.9738294,"total checkins":510,"date time":"12/09/11 19:05","postal code":"7700","longitude":18.468808,"count":7,"id":"a62vxcplr0q6","state":"Western Cape","location":"Sahara Park Newlands Cricket Ground"},"type":"Feature","geometry":{"type":"Point","coordinates":[18.468808,-33.9738294]}},{"properties":{"total people":126,"city":"Port of Spain","lattitude":10.66537365,"total checkins":400,"date time":"12/11/11 4:14","postal code":null,"longitude":-61.52360916,"count":8,"id":"a62vxd4ytzzc","state":"Trinidad and Tobago","location":"Queen's Park Oval"},"type":"Feature","geometry":{"type":"Point","coordinates":[-61.52360916,10.66537365]}},{"properties":{"total people":126,"city":"Port of Spain","lattitude":10.66537365,"total checkins":400,"date time":"12/11/11 5:14","postal code":null,"longitude":-61.52360916,"count":7,"id":"a62vxd4fvtof","state":"Trinidad and Tobago","location":"Queen's Park Oval"},"type":"Feature","geometry":{"type":"Point","coordinates":[-61.52360916,10.66537365]}},{"properties":{"total people":70,"city":"Bellerive","lattitude":-42.87728497,"total checkins":155,"date time":"12/12/11 1:01","postal code":"7018","longitude":147.3736525,"count":6,"id":"a62vxd1jfsal","state":"Tasmania","location":"Bellerive Oval"},"type":"Feature","geometry":{"type":"Point","coordinates":[147.3736525,-42.87728497]}},{"properties":{"total people":70,"city":"Bellerive","lattitude":-42.87728497,"total checkins":155,"date time":"12/12/11 2:03","postal code":"7018","longitude":147.3736525,"count":6,"id":"a62vxcs8f4cc","state":"TAS","location":"Bellerive Oval"},"type":"Feature","geometry":{"type":"Point","coordinates":[147.3736525,-42.87728497]}},{"properties":{"total people":1175,"city":"Moore Park","lattitude":-33.89166776,"total checkins":2010,"date time":"12/16/2011 08:06","postal code":"2021","longitude":151.2248111,"count":11,"id":"a62vxctswpon","state":"NSW","location":"Sydney Cricket Ground"},"type":"Feature","geometry":{"type":"Point","coordinates":[151.2248111,-33.89166776]}},{"properties":{"total people":1176,"city":"Moore Park","lattitude":-33.89166776,"total checkins":2013,"date time":"12/16/2011 09:06","postal code":"2021","longitude":151.2248111,"count":12,"id":"a62vxcydrjab","state":"NSW","location":"Sydney Cricket Ground"},"type":"Feature","geometry":{"type":"Point","coordinates":[151.2248111,-33.89166776]}},{"properties":{"total people":1179,"city":"Moore Park","lattitude":-33.89166776,"total checkins":2016,"date time":"12/16/2011 10:06","postal code":"2021","longitude":151.2248111,"count":13,"id":"a62vxcpq47su","state":"NSW","location":"Sydney Cricket Ground"},"type":"Feature","geometry":{"type":"Point","coordinates":[151.2248111,-33.89166776]}},{"properties":{"total people":1181,"city":"Moore Park","lattitude":-33.89166776,"total checkins":2018,"date time":"12/16/2011 11:06","postal code":"2021","longitude":151.2248111,"count":7,"id":"a62vxczevft6","state":"NSW","location":"Sydney Cricket Ground"},"type":"Feature","geometry":{"type":"Point","coordinates":[151.2248111,-33.89166776]}},{"properties":{"total people":5062,"city":"Melbourne","lattitude":-37.82000569,"total checkins":13300,"date time":"12/17/2011 07:23","postal code":"3002","longitude":144.9833965,"count":17,"id":"a62vxcqi7cws","state":"VIC","location":"Melbourne Cricket Ground (MCG)"},"type":"Feature","geometry":{"type":"Point","coordinates":[144.9833965,-37.82000569]}},{"properties":{"total people":5063,"city":"Melbourne","lattitude":-37.82000569,"total checkins":13301,"date time":"12/17/2011 07:23","postal code":"3002","longitude":144.9833965,"count":18,"id":"a62vxcq32skv","state":"VIC","location":"Melbourne Cricket Ground (MCG)"},"type":"Feature","geometry":{"type":"Point","coordinates":[144.9833965,-37.82000569]}},{"properties":{"total people":5063,"city":"Melbourne","lattitude":-37.82000569,"total checkins":13301,"date time":"12/17/2011 07:24","postal code":"3002","longitude":144.9833965,"count":18,"id":"a62vxczcm9x2","state":"VIC","location":"Melbourne Cricket Ground (MCG)"},"type":"Feature","geometry":{"type":"Point","coordinates":[144.9833965,-37.82000569]}},{"properties":{"total people":5063,"city":"Melbourne","lattitude":-37.82000569,"total checkins":13302,"date time":"12/17/2011 07:24","postal code":"3002","longitude":144.9833965,"count":19,"id":"a62vxctotdrm","state":"VIC","location":"Melbourne Cricket Ground (MCG)"},"type":"Feature","geometry":{"type":"Point","coordinates":[144.9833965,-37.82000569]}},{"properties":{"total people":5064,"city":"Melbourne","lattitude":-37.82000569,"total checkins":13304,"date time":"12/17/2011 07:24","postal code":"3002","longitude":144.9833965,"count":21,"id":"a62vxd0rqbxp","state":"VIC","location":"Melbourne Cricket Ground (MCG)"},"type":"Feature","geometry":{"type":"Point","coordinates":[144.9833965,-37.82000569]}},{"properties":{"total people":5086,"city":"Melbourne","lattitude":-37.82000569,"total checkins":13365,"date time":"12/17/2011 11:14","postal code":"3002","longitude":144.9833965,"count":30,"id":"a62vxd2x6gog","state":"VIC","location":"Melbourne Cricket Ground (MCG)"},"type":"Feature","geometry":{"type":"Point","coordinates":[144.9833965,-37.82000569]}},{"properties":{"total people":5086,"city":"Melbourne","lattitude":-37.82000569,"total checkins":13365,"date time":"12/17/2011 11:15","postal code":"3002","longitude":144.9833965,"count":30,"id":"a62vxct10s1l","state":"VIC","location":"Melbourne Cricket Ground (MCG)"},"type":"Feature","geometry":{"type":"Point","coordinates":[144.9833965,-37.82000569]}},{"properties":{"total people":519,"city":"North Adelaide","lattitude":-34.91561062,"total checkins":921,"date time":"12/18/2011 07:04","postal code":"5006","longitude":138.5959947,"count":16,"id":"a62vxcprswrh","state":"SA","location":"Adelaide Oval"},"type":"Feature","geometry":{"type":"Point","coordinates":[138.5959947,-34.91561062]}},{"properties":{"total people":522,"city":"North Adelaide","lattitude":-34.91561062,"total checkins":926,"date time":"12/18/2011 08:04","postal code":"5006","longitude":138.5959947,"count":21,"id":"a62vxd2vc27s","state":"SA","location":"Adelaide Oval"},"type":"Feature","geometry":{"type":"Point","coordinates":[138.5959947,-34.91561062]}},{"properties":{"total people":523,"city":"North Adelaide","lattitude":-34.91561062,"total checkins":930,"date time":"12/18/2011 10:04","postal code":"5006","longitude":138.5959947,"count":9,"id":"a62vxd1wxe7a","state":"SA","location":"Adelaide Oval"},"type":"Feature","geometry":{"type":"Point","coordinates":[138.5959947,-34.91561062]}},{"properties":{"total people":215,"city":"East Perth","lattitude":-31.95986332,"total checkins":320,"date time":"12/18/2011 10:07","postal code":"6004","longitude":115.8796048,"count":12,"id":"a62vxcqktxzh","state":"WA","location":"WACA"},"type":"Feature","geometry":{"type":"Point","coordinates":[115.8796048,-31.95986332]}},{"properties":{"total people":219,"city":"East Perth","lattitude":-31.95986332,"total checkins":325,"date time":"12/18/2011 11:07","postal code":"6004","longitude":115.8796048,"count":17,"id":"a62vxcq4xktq","state":"WA","location":"WACA"},"type":"Feature","geometry":{"type":"Point","coordinates":[115.8796048,-31.95986332]}},{"properties":{"total people":221,"city":"East Perth","lattitude":-31.95986332,"total checkins":327,"date time":"12/18/2011 12:07","postal code":"6004","longitude":115.8796048,"count":16,"id":"a62vxcrycg6i","state":"WA","location":"WACA"},"type":"Feature","geometry":{"type":"Point","coordinates":[115.8796048,-31.95986332]}},{"properties":{"total people":223,"city":"East Perth","lattitude":-31.95986332,"total checkins":330,"date time":"12/18/2011 13:07","postal code":"6004","longitude":115.8796048,"count":10,"id":"a62vxcu83wh6","state":"WA","location":"WACA"},"type":"Feature","geometry":{"type":"Point","coordinates":[115.8796048,-31.95986332]}},{"properties":{"total people":829,"city":"Woolloongabba","lattitude":-27.48599249,"total checkins":1543,"date time":"12/20/2011 08:08","postal code":"4102","longitude":153.0380702,"count":19,"id":"a62vxcznax36","state":"QLD","location":"The Gabba"},"type":"Feature","geometry":{"type":"Point","coordinates":[153.0380702,-27.48599249]}},{"properties":{"total people":843,"city":"Woolloongabba","lattitude":-27.48599249,"total checkins":1563,"date time":"12/20/2011 09:08","postal code":"4102","longitude":153.0380702,"count":37,"id":"a62vxcprp027","state":"QLD","location":"The Gabba"},"type":"Feature","geometry":{"type":"Point","coordinates":[153.0380702,-27.48599249]}},{"properties":{"total people":847,"city":"Woolloongabba","lattitude":-27.48599249,"total checkins":1569,"date time":"12/20/2011 10:08","postal code":"4102","longitude":153.0380702,"count":41,"id":"a62vxcx2q5te","state":"QLD","location":"The Gabba"},"type":"Feature","geometry":{"type":"Point","coordinates":[153.0380702,-27.48599249]}},{"properties":{"total people":850,"city":"Woolloongabba","lattitude":-27.48599249,"total checkins":1575,"date time":"12/20/2011 11:09","postal code":"4102","longitude":153.0380702,"count":32,"id":"a62vxcti464h","state":"QLD","location":"The Gabba"},"type":"Feature","geometry":{"type":"Point","coordinates":[153.0380702,-27.48599249]}},{"properties":{"total people":850,"city":"Woolloongabba","lattitude":-27.48599249,"total checkins":1575,"date time":"12/20/2011 12:08","postal code":"4102","longitude":153.0380702,"count":10,"id":"a62vxcrtnhrz","state":"QLD","location":"The Gabba"},"type":"Feature","geometry":{"type":"Point","coordinates":[153.0380702,-27.48599249]}},{"properties":{"total people":5112,"city":"Melbourne","lattitude":-37.82000569,"total checkins":13441,"date time":"12/25/2011 23:03","postal code":"3002","longitude":144.9833965,"count":25,"id":"a62vxcxcutzf","state":"VIC","location":"Melbourne Cricket Ground (MCG)"},"type":"Feature","geometry":{"type":"Point","coordinates":[144.9833965,-37.82000569]}},{"properties":{"total people":5131,"city":"Melbourne","lattitude":-37.82000569,"total checkins":13480,"date time":"12/26/2011 00:02","postal code":"3002","longitude":144.9833965,"count":56,"id":"a62vxcq5trn4","state":"VIC","location":"Melbourne Cricket Ground (MCG)"},"type":"Feature","geometry":{"type":"Point","coordinates":[144.9833965,-37.82000569]}},{"properties":{"total people":5131,"city":"Melbourne","lattitude":-37.82000569,"total checkins":13480,"date time":"12/26/2011 00:03","postal code":"3002","longitude":144.9833965,"count":56,"id":"a62vxcqev5j6","state":"VIC","location":"Melbourne Cricket Ground (MCG)"},"type":"Feature","geometry":{"type":"Point","coordinates":[144.9833965,-37.82000569]}},{"properties":{"total people":5136,"city":"Melbourne","lattitude":-37.82000569,"total checkins":13491,"date time":"12/26/2011 01:03","postal code":"3002","longitude":144.9833965,"count":66,"id":"a62vxczpdq7z","state":"VIC","location":"Melbourne Cricket Ground (MCG)"},"type":"Feature","geometry":{"type":"Point","coordinates":[144.9833965,-37.82000569]}},{"properties":{"total people":54,"city":"East Melbourne","lattitude":-37.81878309,"total checkins":86,"date time":"12/26/2011 01:03","postal code":"3002","longitude":144.9826029,"count":6,"id":"a62vxcxg3ao7","state":"VIC","location":"MCC Members Reserve"},"type":"Feature","geometry":{"type":"Point","coordinates":[144.9826029,-37.81878309]}},{"properties":{"total people":5146,"city":"Melbourne","lattitude":-37.82000569,"total checkins":13509,"date time":"12/26/2011 02:03","postal code":"3002","longitude":144.9833965,"count":61,"id":"a62vxd05tn7q","state":"VIC","location":"Melbourne Cricket Ground (MCG)"},"type":"Feature","geometry":{"type":"Point","coordinates":[144.9833965,-37.82000569]}},{"properties":{"total people":110,"city":"East Melbourne","lattitude":-37.819988,"total checkins":187,"date time":"12/26/2011 02:03","postal code":null,"longitude":144.983466,"count":6,"id":"a62vxd0f4716","state":"VIC","location":"Great Southern Stand, MCG"},"type":"Feature","geometry":{"type":"Point","coordinates":[144.983466,-37.819988]}},{"properties":{"total people":5150,"city":"Melbourne","lattitude":-37.82000569,"total checkins":13518,"date time":"12/26/2011 03:03","postal code":"3002","longitude":144.9833965,"count":36,"id":"a62vxctaw4j0","state":"VIC","location":"Melbourne Cricket Ground (MCG)"},"type":"Feature","geometry":{"type":"Point","coordinates":[144.9833965,-37.82000569]}},{"properties":{"total people":5150,"city":"Melbourne","lattitude":-37.82000569,"total checkins":13521,"date time":"12/26/2011 04:03","postal code":"3002","longitude":144.9833965,"count":25,"id":"a62vxczc6zz4","state":"VIC","location":"Melbourne Cricket Ground (MCG)"},"type":"Feature","geometry":{"type":"Point","coordinates":[144.9833965,-37.82000569]}},{"properties":{"total people":5154,"city":"Melbourne","lattitude":-37.82000569,"total checkins":13529,"date time":"12/26/2011 05:03","postal code":"3002","longitude":144.9833965,"count":20,"id":"a62vxcttfwgy","state":"VIC","location":"Melbourne Cricket Ground (MCG)"},"type":"Feature","geometry":{"type":"Point","coordinates":[144.9833965,-37.82000569]}},{"properties":{"total people":5154,"city":"Melbourne","lattitude":-37.82000569,"total checkins":13530,"date time":"12/26/2011 05:03","postal code":"3002","longitude":144.9833965,"count":21,"id":"a62vxcvi3280","state":"VIC","location":"Melbourne Cricket Ground (MCG)"},"type":"Feature","geometry":{"type":"Point","coordinates":[144.9833965,-37.82000569]}},{"properties":{"total people":5160,"city":"Melbourne","lattitude":-37.82000569,"total checkins":13537,"date time":"12/26/2011 06:03","postal code":"3002","longitude":144.9833965,"count":14,"id":"a62vxcwc6lqo","state":"VIC","location":"Melbourne Cricket Ground (MCG)"},"type":"Feature","geometry":{"type":"Point","coordinates":[144.9833965,-37.82000569]}},{"properties":{"total people":5162,"city":"Melbourne","lattitude":-37.82000569,"total checkins":13540,"date time":"12/26/2011 07:03","postal code":"3002","longitude":144.9833965,"count":13,"id":"a62vxd0p5vzp","state":"VIC","location":"Melbourne Cricket Ground (MCG)"},"type":"Feature","geometry":{"type":"Point","coordinates":[144.9833965,-37.82000569]}},{"properties":{"total people":5162,"city":"Melbourne","lattitude":-37.82000569,"total checkins":13542,"date time":"12/26/2011 08:03","postal code":"3002","longitude":144.9833965,"count":10,"id":"a62vxd1h6qav","state":"VIC","location":"Melbourne Cricket Ground (MCG)"},"type":"Feature","geometry":{"type":"Point","coordinates":[144.9833965,-37.82000569]}},{"properties":{"total people":102,"city":"Durban","lattitude":-29.8501359,"total checkins":203,"date time":"12/26/2011 08:08","postal code":"4025","longitude":31.0278368,"count":11,"id":"a62vxcrn6c3x","state":"South Africa","location":"Kingsmead Cricket Stadium"},"type":"Feature","geometry":{"type":"Point","coordinates":[31.0278368,-29.8501359]}},{"properties":{"total people":5162,"city":"Melbourne","lattitude":-37.82000569,"total checkins":13543,"date time":"12/26/2011 09:03","postal code":"3002","longitude":144.9833965,"count":6,"id":"a62vxcolp02g","state":"VIC","location":"Melbourne Cricket Ground (MCG)"},"type":"Feature","geometry":{"type":"Point","coordinates":[144.9833965,-37.82000569]}},{"properties":{"total people":106,"city":"Durban","lattitude":-29.8501359,"total checkins":207,"date time":"12/26/2011 09:08","postal code":"4025","longitude":31.0278368,"count":15,"id":"a62vxcphq58b","state":"South Africa","location":"Kingsmead Cricket Stadium"},"type":"Feature","geometry":{"type":"Point","coordinates":[31.0278368,-29.8501359]}},{"properties":{"total people":107,"city":"Durban","lattitude":-29.8501359,"total checkins":208,"date time":"12/26/2011 10:08","postal code":"4025","longitude":31.0278368,"count":13,"id":"a62vxcp5havo","state":"South Africa","location":"Kingsmead Cricket Stadium"},"type":"Feature","geometry":{"type":"Point","coordinates":[31.0278368,-29.8501359]}},{"properties":{"total people":110,"city":"Durban","lattitude":-29.8501359,"total checkins":213,"date time":"12/26/2011 12:08","postal code":"4025","longitude":31.0278368,"count":6,"id":"a62vxd24bfuj","state":"South Africa","location":"Kingsmead Cricket Stadium"},"type":"Feature","geometry":{"type":"Point","coordinates":[31.0278368,-29.8501359]}},{"properties":{"total people":5164,"city":"Melbourne","lattitude":-37.82000569,"total checkins":13560,"date time":"12/26/2011 23:03","postal code":"3002","longitude":144.9833965,"count":11,"id":"a62vxcufnaki","state":"VIC","location":"Melbourne Cricket Ground (MCG)"},"type":"Feature","geometry":{"type":"Point","coordinates":[144.9833965,-37.82000569]}},{"properties":{"total people":5171,"city":"Melbourne","lattitude":-37.82000569,"total checkins":13583,"date time":"12/27/2011 00:03","postal code":"3002","longitude":144.9833965,"count":31,"id":"a62vxcrre0dw","state":"VIC","location":"Melbourne Cricket Ground (MCG)"},"type":"Feature","geometry":{"type":"Point","coordinates":[144.9833965,-37.82000569]}},{"properties":{"total people":5177,"city":"Melbourne","lattitude":-37.82000569,"total checkins":13599,"date time":"12/27/2011 01:03","postal code":"3002","longitude":144.9833965,"count":44,"id":"a62vxcv7qmtc","state":"VIC","location":"Melbourne Cricket Ground (MCG)"},"type":"Feature","geometry":{"type":"Point","coordinates":[144.9833965,-37.82000569]}},{"properties":{"total people":5183,"city":"Melbourne","lattitude":-37.82000569,"total checkins":13613,"date time":"12/27/2011 02:03","postal code":"3002","longitude":144.9833965,"count":47,"id":"a62vxcu8ozwd","state":"VIC","location":"Melbourne Cricket Ground (MCG)"},"type":"Feature","geometry":{"type":"Point","coordinates":[144.9833965,-37.82000569]}},{"properties":{"total people":162,"city":"Wellington","lattitude":-41.30034653,"total checkins":296,"date time":"12/27/2011 03:12","postal code":"6001","longitude":174.7801638,"count":6,"id":"a62vxd41slfv","state":"New Zealand","location":"Basin Reserve"},"type":"Feature","geometry":{"type":"Point","coordinates":[174.7801638,-41.30034653]}},{"properties":{"total people":5187,"city":"Melbourne","lattitude":-37.82000569,"total checkins":13625,"date time":"12/27/2011 03:24","postal code":"3002","longitude":144.9833965,"count":29,"id":"a62vxct18oku","state":"VIC","location":"Melbourne Cricket Ground (MCG)"},"type":"Feature","geometry":{"type":"Point","coordinates":[144.9833965,-37.82000569]}},{"properties":{"total people":5187,"city":"Melbourne","lattitude":-37.82000569,"total checkins":13625,"date time":"12/27/2011 03:24","postal code":"3002","longitude":144.9833965,"count":28,"id":"a62vxcsuxkhw","state":"VIC","location":"Melbourne Cricket Ground (MCG)"},"type":"Feature","geometry":{"type":"Point","coordinates":[144.9833965,-37.82000569]}},{"properties":{"total people":5187,"city":"Melbourne","lattitude":-37.82000569,"total checkins":13625,"date time":"12/27/2011 03:25","postal code":"3002","longitude":144.9833965,"count":24,"id":"a62vxcsp0wal","state":"VIC","location":"Melbourne Cricket Ground (MCG)"},"type":"Feature","geometry":{"type":"Point","coordinates":[144.9833965,-37.82000569]}},{"properties":{"total people":5188,"city":"Melbourne","lattitude":-37.82000569,"total checkins":13626,"date time":"12/27/2011 03:26","postal code":"3002","longitude":144.9833965,"count":25,"id":"a62vxcy1gp4n","state":"VIC","location":"Melbourne Cricket Ground (MCG)"},"type":"Feature","geometry":{"type":"Point","coordinates":[144.9833965,-37.82000569]}},{"properties":{"total people":5192,"city":"Melbourne","lattitude":-37.82000569,"total checkins":13640,"date time":"12/27/2011 05:07","postal code":"3002","longitude":144.9833965,"count":20,"id":"a62vxcq1j758","state":"VIC","location":"Melbourne Cricket Ground (MCG)"},"type":"Feature","geometry":{"type":"Point","coordinates":[144.9833965,-37.82000569]}},{"properties":{"total people":5192,"city":"Melbourne","lattitude":-37.82000569,"total checkins":13640,"date time":"12/27/2011 05:08","postal code":"3002","longitude":144.9833965,"count":20,"id":"a62vxcsvxlvp","state":"VIC","location":"Melbourne Cricket Ground (MCG)"},"type":"Feature","geometry":{"type":"Point","coordinates":[144.9833965,-37.82000569]}},{"properties":{"total people":5192,"city":"Melbourne","lattitude":-37.82000569,"total checkins":13640,"date time":"12/27/2011 05:09","postal code":"3002","longitude":144.9833965,"count":20,"id":"a62vxd31lze8","state":"VIC","location":"Melbourne Cricket Ground (MCG)"},"type":"Feature","geometry":{"type":"Point","coordinates":[144.9833965,-37.82000569]}},{"properties":{"total people":5192,"city":"Melbourne","lattitude":-37.82000569,"total checkins":13643,"date time":"12/27/2011 06:03","postal code":"3002","longitude":144.9833965,"count":16,"id":"a62vxd4s1u82","state":"VIC","location":"Melbourne Cricket Ground (MCG)"},"type":"Feature","geometry":{"type":"Point","coordinates":[144.9833965,-37.82000569]}},{"properties":{"total people":5195,"city":"Melbourne","lattitude":-37.82000569,"total checkins":13647,"date time":"12/27/2011 07:05","postal code":"3002","longitude":144.9833965,"count":11,"id":"a62vxctuq73o","state":"VIC","location":"Melbourne Cricket Ground (MCG)"},"type":"Feature","geometry":{"type":"Point","coordinates":[144.9833965,-37.82000569]}},{"properties":{"total people":5195,"city":"Melbourne","lattitude":-37.82000569,"total checkins":13647,"date time":"12/27/2011 07:06","postal code":"3002","longitude":144.9833965,"count":11,"id":"a62vxd1m82t8","state":"VIC","location":"Melbourne Cricket Ground (MCG)"},"type":"Feature","geometry":{"type":"Point","coordinates":[144.9833965,-37.82000569]}},{"properties":{"total people":1185,"city":"Moore Park","lattitude":-33.89166776,"total checkins":2027,"date time":"12/27/2011 07:10","postal code":"2021","longitude":151.2248111,"count":6,"id":"a62vxcyju8d6","state":"NSW","location":"Sydney Cricket Ground"},"type":"Feature","geometry":{"type":"Point","coordinates":[151.2248111,-33.89166776]}},{"properties":{"total people":1216,"city":"Moore Park","lattitude":-33.89166776,"total checkins":2071,"date time":"12/27/2011 09:06","postal code":"2021","longitude":151.2248111,"count":50,"id":"a62vxcxubbva","state":"NSW","location":"Sydney Cricket Ground"},"type":"Feature","geometry":{"type":"Point","coordinates":[151.2248111,-33.89166776]}},{"properties":{"total people":118,"city":"Durban","lattitude":-29.8501359,"total checkins":226,"date time":"12/27/2011 09:08","postal code":"4025","longitude":31.0278368,"count":6,"id":"a62vxczt1r1c","state":"South Africa","location":"Kingsmead Cricket Stadium"},"type":"Feature","geometry":{"type":"Point","coordinates":[31.0278368,-29.8501359]}},{"properties":{"total people":1217,"city":"Moore Park","lattitude":-33.89166776,"total checkins":2073,"date time":"12/27/2011 10:10","postal code":"2021","longitude":151.2248111,"count":46,"id":"a62vxcr17u21","state":"NSW","location":"Sydney Cricket Ground"},"type":"Feature","geometry":{"type":"Point","coordinates":[151.2248111,-33.89166776]}},{"properties":{"total people":122,"city":"Durban","lattitude":-29.8501359,"total checkins":232,"date time":"12/27/2011 10:12","postal code":"4025","longitude":31.0278368,"count":10,"id":"a62vxcoo0tgl","state":"South Africa","location":"Kingsmead Cricket Stadium"},"type":"Feature","geometry":{"type":"Point","coordinates":[31.0278368,-29.8501359]}},{"properties":{"total people":1221,"city":"Moore Park","lattitude":-33.89166776,"total checkins":2078,"date time":"12/27/2011 11:06","postal code":"2021","longitude":151.2248111,"count":20,"id":"a62vxcqr4k0a","state":"NSW","location":"Sydney Cricket Ground"},"type":"Feature","geometry":{"type":"Point","coordinates":[151.2248111,-33.89166776]}},{"properties":{"total people":122,"city":"Durban","lattitude":-29.8501359,"total checkins":232,"date time":"12/27/2011 11:08","postal code":"4025","longitude":31.0278368,"count":7,"id":"a62vxcyhpecm","state":"South Africa","location":"Kingsmead Cricket Stadium"},"type":"Feature","geometry":{"type":"Point","coordinates":[31.0278368,-29.8501359]}},{"properties":{"total people":1227,"city":"Moore Park","lattitude":-33.89166776,"total checkins":2085,"date time":"12/27/2011 12:06","postal code":"2021","longitude":151.2248111,"count":13,"id":"a62vxd31n9wi","state":"NSW","location":"Sydney Cricket Ground"},"type":"Feature","geometry":{"type":"Point","coordinates":[151.2248111,-33.89166776]}},{"properties":{"total people":122,"city":"Durban","lattitude":-29.8501359,"total checkins":232,"date time":"12/27/2011 12:08","postal code":"4025","longitude":31.0278368,"count":6,"id":"a62vxcyck2m8","state":"South Africa","location":"Kingsmead Cricket Stadium"},"type":"Feature","geometry":{"type":"Point","coordinates":[31.0278368,-29.8501359]}},{"properties":{"total people":1227,"city":"Moore Park","lattitude":-33.89166776,"total checkins":2085,"date time":"12/27/2011 13:06","postal code":"2021","longitude":151.2248111,"count":10,"id":"a62vxcp0ocm5","state":"NSW","location":"Sydney Cricket Ground"},"type":"Feature","geometry":{"type":"Point","coordinates":[151.2248111,-33.89166776]}},{"properties":{"total people":5198,"city":"Melbourne","lattitude":-37.82000569,"total checkins":13656,"date time":"12/27/2011 22:03","postal code":"3002","longitude":144.9833965,"count":7,"id":"a62vxd0g44uq","state":"VIC","location":"Melbourne Cricket Ground (MCG)"},"type":"Feature","geometry":{"type":"Point","coordinates":[144.9833965,-37.82000569]}},{"properties":{"total people":5199,"city":"Melbourne","lattitude":-37.82000569,"total checkins":13662,"date time":"12/27/2011 23:03","postal code":"3002","longitude":144.9833965,"count":10,"id":"a62vxd1qwqug","state":"VIC","location":"Melbourne Cricket Ground (MCG)"},"type":"Feature","geometry":{"type":"Point","coordinates":[144.9833965,-37.82000569]}},{"properties":{"total people":5205,"city":"Melbourne","lattitude":-37.82000569,"total checkins":13680,"date time":"12/28/2011 00:03","postal code":"3002","longitude":144.9833965,"count":24,"id":"a62vxcujkyib","state":"VIC","location":"Melbourne Cricket Ground (MCG)"},"type":"Feature","geometry":{"type":"Point","coordinates":[144.9833965,-37.82000569]}},{"properties":{"total people":5210,"city":"Melbourne","lattitude":-37.82000569,"total checkins":13690,"date time":"12/28/2011 01:03","postal code":"3002","longitude":144.9833965,"count":30,"id":"a62vxcuwp7z6","state":"VIC","location":"Melbourne Cricket Ground (MCG)"},"type":"Feature","geometry":{"type":"Point","coordinates":[144.9833965,-37.82000569]}},{"properties":{"total people":5210,"city":"Melbourne","lattitude":-37.82000569,"total checkins":13690,"date time":"12/28/2011 01:03","postal code":"3002","longitude":144.9833965,"count":29,"id":"a62vxcwi6bm9","state":"VIC","location":"Melbourne Cricket Ground (MCG)"},"type":"Feature","geometry":{"type":"Point","coordinates":[144.9833965,-37.82000569]}},{"properties":{"total people":5214,"city":"Melbourne","lattitude":-37.82000569,"total checkins":13701,"date time":"12/28/2011 02:03","postal code":"3002","longitude":144.9833965,"count":33,"id":"a62vxcw520tm","state":"VIC","location":"Melbourne Cricket Ground (MCG)"},"type":"Feature","geometry":{"type":"Point","coordinates":[144.9833965,-37.82000569]}},{"properties":{"total people":5217,"city":"Melbourne","lattitude":-37.82000569,"total checkins":13713,"date time":"12/28/2011 03:03","postal code":"3002","longitude":144.9833965,"count":24,"id":"a62vxcrdt0ig","state":"VIC","location":"Melbourne Cricket Ground (MCG)"},"type":"Feature","geometry":{"type":"Point","coordinates":[144.9833965,-37.82000569]}},{"properties":{"total people":5217,"city":"Melbourne","lattitude":-37.82000569,"total checkins":13714,"date time":"12/28/2011 03:03","postal code":"3002","longitude":144.9833965,"count":25,"id":"a62vxcosqm55","state":"VIC","location":"Melbourne Cricket Ground (MCG)"},"type":"Feature","geometry":{"type":"Point","coordinates":[144.9833965,-37.82000569]}},{"properties":{"total people":5217,"city":"Melbourne","lattitude":-37.82000569,"total checkins":13719,"date time":"12/28/2011 04:02","postal code":"3002","longitude":144.9833965,"count":21,"id":"a62vxcy27jtk","state":"VIC","location":"Melbourne Cricket Ground (MCG)"},"type":"Feature","geometry":{"type":"Point","coordinates":[144.9833965,-37.82000569]}},{"properties":{"total people":5217,"city":"Melbourne","lattitude":-37.82000569,"total checkins":13719,"date time":"12/28/2011 04:03","postal code":"3002","longitude":144.9833965,"count":21,"id":"a62vxcv8j9r6","state":"VIC","location":"Melbourne Cricket Ground (MCG)"},"type":"Feature","geometry":{"type":"Point","coordinates":[144.9833965,-37.82000569]}},{"properties":{"total people":5217,"city":"Melbourne","lattitude":-37.82000569,"total checkins":13720,"date time":"12/28/2011 05:03","postal code":"3002","longitude":144.9833965,"count":13,"id":"a62vxcok2ytv","state":"VIC","location":"Melbourne Cricket Ground (MCG)"},"type":"Feature","geometry":{"type":"Point","coordinates":[144.9833965,-37.82000569]}},{"properties":{"total people":5218,"city":"Melbourne","lattitude":-37.82000569,"total checkins":13722,"date time":"12/28/2011 06:03","postal code":"3002","longitude":144.9833965,"count":7,"id":"a62vxd2towiv","state":"VIC","location":"Melbourne Cricket Ground (MCG)"},"type":"Feature","geometry":{"type":"Point","coordinates":[144.9833965,-37.82000569]}},{"properties":{"total people":527,"city":"North Adelaide","lattitude":-34.91561062,"total checkins":954,"date time":"12/28/2011 08:04","postal code":"5006","longitude":138.5959947,"count":7,"id":"a62vxd140hon","state":"SA","location":"Adelaide Oval"},"type":"Feature","geometry":{"type":"Point","coordinates":[138.5959947,-34.91561062]}},{"properties":{"total people":539,"city":"North Adelaide","lattitude":-34.91561062,"total checkins":973,"date time":"12/28/2011 09:04","postal code":"5006","longitude":138.5959947,"count":24,"id":"a62vxcvugola","state":"SA","location":"Adelaide Oval"},"type":"Feature","geometry":{"type":"Point","coordinates":[138.5959947,-34.91561062]}},{"properties":{"total people":539,"city":"North Adelaide","lattitude":-34.91561062,"total checkins":975,"date time":"12/28/2011 10:04","postal code":"5006","longitude":138.5959947,"count":23,"id":"a62vxd28dr8h","state":"SA","location":"Adelaide Oval"},"type":"Feature","geometry":{"type":"Point","coordinates":[138.5959947,-34.91561062]}},{"properties":{"total people":541,"city":"North Adelaide","lattitude":-34.91561062,"total checkins":978,"date time":"12/28/2011 11:04","postal code":"5006","longitude":138.5959947,"count":22,"id":"a62vxd1ijx7n","state":"SA","location":"Adelaide Oval"},"type":"Feature","geometry":{"type":"Point","coordinates":[138.5959947,-34.91561062]}},{"properties":{"total people":5225,"city":"Melbourne","lattitude":-37.82000569,"total checkins":13745,"date time":"12/29/2011 00:03","postal code":"3002","longitude":144.9833965,"count":18,"id":"a62vxcpifjgp","state":"VIC","location":"Melbourne Cricket Ground (MCG)"},"type":"Feature","geometry":{"type":"Point","coordinates":[144.9833965,-37.82000569]}},{"properties":{"total people":5229,"city":"Melbourne","lattitude":-37.82000569,"total checkins":13755,"date time":"12/29/2011 01:03","postal code":"3002","longitude":144.9833965,"count":25,"id":"a62vxd4agmby","state":"VIC","location":"Melbourne Cricket Ground (MCG)"},"type":"Feature","geometry":{"type":"Point","coordinates":[144.9833965,-37.82000569]}},{"properties":{"total people":5231,"city":"Melbourne","lattitude":-37.82000569,"total checkins":13764,"date time":"12/29/2011 02:03","postal code":"3002","longitude":144.9833965,"count":27,"id":"a62vxcy8yz1t","state":"VIC","location":"Melbourne Cricket Ground (MCG)"},"type":"Feature","geometry":{"type":"Point","coordinates":[144.9833965,-37.82000569]}},{"properties":{"total people":5233,"city":"Melbourne","lattitude":-37.82000569,"total checkins":13767,"date time":"12/29/2011 03:03","postal code":"3002","longitude":144.9833965,"count":20,"id":"a62vxct1hkvj","state":"VIC","location":"Melbourne Cricket Ground (MCG)"},"type":"Feature","geometry":{"type":"Point","coordinates":[144.9833965,-37.82000569]}},{"properties":{"total people":5235,"city":"Melbourne","lattitude":-37.82000569,"total checkins":13771,"date time":"12/29/2011 04:03","postal code":"3002","longitude":144.9833965,"count":11,"id":"a62vxd0nnitx","state":"VIC","location":"Melbourne Cricket Ground (MCG)"},"type":"Feature","geometry":{"type":"Point","coordinates":[144.9833965,-37.82000569]}},{"properties":{"total people":5240,"city":"Melbourne","lattitude":-37.82000569,"total checkins":13779,"date time":"12/29/2011 05:03","postal code":"3002","longitude":144.9833965,"count":13,"id":"a62vxcyjwawi","state":"VIC","location":"Melbourne Cricket Ground (MCG)"},"type":"Feature","geometry":{"type":"Point","coordinates":[144.9833965,-37.82000569]}},{"properties":{"total people":5240,"city":"Melbourne","lattitude":-37.82000569,"total checkins":13779,"date time":"12/29/2011 06:03","postal code":"3002","longitude":144.9833965,"count":10,"id":"a62vxczfmzm8","state":"VIC","location":"Melbourne Cricket Ground (MCG)"},"type":"Feature","geometry":{"type":"Point","coordinates":[144.9833965,-37.82000569]}},{"properties":{"total people":228,"city":"East Perth","lattitude":-31.95986332,"total checkins":341,"date time":"12/29/2011 10:07","postal code":"6004","longitude":115.8796048,"count":11,"id":"a62vxd46m96r","state":"WA","location":"WACA"},"type":"Feature","geometry":{"type":"Point","coordinates":[115.8796048,-31.95986332]}},{"properties":{"total people":229,"city":"East Perth","lattitude":-31.95986332,"total checkins":344,"date time":"12/29/2011 11:07","postal code":"6004","longitude":115.8796048,"count":14,"id":"a62vxd0ckuti","state":"WA","location":"WACA"},"type":"Feature","geometry":{"type":"Point","coordinates":[115.8796048,-31.95986332]}},{"properties":{"total people":229,"city":"East Perth","lattitude":-31.95986332,"total checkins":344,"date time":"12/29/2011 12:07","postal code":"6004","longitude":115.8796048,"count":12,"id":"a62vxcq6o2fl","state":"WA","location":"WACA"},"type":"Feature","geometry":{"type":"Point","coordinates":[115.8796048,-31.95986332]}},{"properties":{"total people":77,"city":"Bellerive","lattitude":-42.87728497,"total checkins":183,"date time":"1/01/12 8:01","postal code":"7018","longitude":147.3736525,"count":10,"id":"a62vxcunz77t","state":"TAS","location":"Bellerive Oval"},"type":"Feature","geometry":{"type":"Point","coordinates":[147.3736525,-42.87728497]}},{"properties":{"total people":79,"city":"Bellerive","lattitude":-42.87728497,"total checkins":186,"date time":"1/01/12 9:01","postal code":"7018","longitude":147.3736525,"count":13,"id":"a62vxcoqexff","state":"TAS","location":"Bellerive Oval"},"type":"Feature","geometry":{"type":"Point","coordinates":[147.3736525,-42.87728497]}},{"properties":{"total people":79,"city":"Bellerive","lattitude":-42.87728497,"total checkins":186,"date time":"1/01/12 10:01","postal code":"7018","longitude":147.3736525,"count":11,"id":"a62vxcvczluc","state":"TAS","location":"Bellerive Oval"},"type":"Feature","geometry":{"type":"Point","coordinates":[147.3736525,-42.87728497]}},{"properties":{"total people":1231,"city":"Moore Park","lattitude":-33.89166776,"total checkins":2097,"date time":"1/02/12 21:06","postal code":"2021","longitude":151.2248111,"count":6,"id":"a62vxcvpy3yi","state":"NSW","location":"Sydney Cricket Ground"},"type":"Feature","geometry":{"type":"Point","coordinates":[151.2248111,-33.89166776]}},{"properties":{"total people":1238,"city":"Moore Park","lattitude":-33.89166776,"total checkins":2109,"date time":"1/02/12 22:06","postal code":"2021","longitude":151.2248111,"count":16,"id":"a62vxd3r08cg","state":"NSW","location":"Sydney Cricket Ground"},"type":"Feature","geometry":{"type":"Point","coordinates":[151.2248111,-33.89166776]}},{"properties":{"total people":1246,"city":"Moore Park","lattitude":-33.89166776,"total checkins":2127,"date time":"1/02/12 23:06","postal code":"2021","longitude":151.2248111,"count":30,"id":"a62vxcwb710l","state":"NSW","location":"Sydney Cricket Ground"},"type":"Feature","geometry":{"type":"Point","coordinates":[151.2248111,-33.89166776]}},{"properties":{"total people":1268,"city":"Moore Park","lattitude":-33.89166776,"total checkins":2157,"date time":"1/03/12 0:06","postal code":"2021","longitude":151.2248111,"count":55,"id":"a62vxd4t8o8n","state":"NSW","location":"Sydney Cricket Ground"},"type":"Feature","geometry":{"type":"Point","coordinates":[151.2248111,-33.89166776]}},{"properties":{"total people":1272,"city":"Moore Park","lattitude":-33.89166776,"total checkins":2164,"date time":"1/03/12 1:06","postal code":"2021","longitude":151.2248111,"count":50,"id":"a62vxd3hxdnx","state":"NSW","location":"Sydney Cricket Ground"},"type":"Feature","geometry":{"type":"Point","coordinates":[151.2248111,-33.89166776]}},{"properties":{"total people":1275,"city":"Moore Park","lattitude":-33.89166776,"total checkins":2168,"date time":"1/03/12 2:06","postal code":"2021","longitude":151.2248111,"count":39,"id":"a62vxcrtx5hm","state":"NSW","location":"Sydney Cricket Ground"},"type":"Feature","geometry":{"type":"Point","coordinates":[151.2248111,-33.89166776]}},{"properties":{"total people":1280,"city":"Moore Park","lattitude":-33.89166776,"total checkins":2175,"date time":"1/03/12 3:06","postal code":"2021","longitude":151.2248111,"count":16,"id":"a62vxcxorudj","state":"NSW","location":"Sydney Cricket Ground"},"type":"Feature","geometry":{"type":"Point","coordinates":[151.2248111,-33.89166776]}},{"properties":{"total people":1282,"city":"Moore Park","lattitude":-33.89166776,"total checkins":2179,"date time":"1/03/12 4:06","postal code":"2021","longitude":151.2248111,"count":12,"id":"a62vxcz0b117","state":"NSW","location":"Sydney Cricket Ground"},"type":"Feature","geometry":{"type":"Point","coordinates":[151.2248111,-33.89166776]}},{"properties":{"total people":1283,"city":"Moore Park","lattitude":-33.89166776,"total checkins":2182,"date time":"1/03/12 5:06","postal code":"2021","longitude":151.2248111,"count":12,"id":"a62vxcuv8vpj","state":"NSW","location":"Sydney Cricket Ground"},"type":"Feature","geometry":{"type":"Point","coordinates":[151.2248111,-33.89166776]}},{"properties":{"total people":1286,"city":"Moore Park","lattitude":-33.89166776,"total checkins":2185,"date time":"1/03/12 6:06","postal code":"2021","longitude":151.2248111,"count":9,"id":"a62vxcu27zmi","state":"NSW","location":"Sydney Cricket Ground"},"type":"Feature","geometry":{"type":"Point","coordinates":[151.2248111,-33.89166776]}},{"properties":{"total people":1288,"city":"Moore Park","lattitude":-33.89166776,"total checkins":2189,"date time":"1/03/12 7:07","postal code":"2021","longitude":151.2248111,"count":10,"id":"a62vxd3ez9op","state":"NSW","location":"Sydney Cricket Ground"},"type":"Feature","geometry":{"type":"Point","coordinates":[151.2248111,-33.89166776]}},{"properties":{"total people":264,"city":"Cape Town","lattitude":-33.9738294,"total checkins":522,"date time":"1/03/12 8:06","postal code":"7700","longitude":18.468808,"count":6,"id":"a62vxcogvhyg","state":"Western Cape","location":"Sahara Park Newlands Cricket Ground"},"type":"Feature","geometry":{"type":"Point","coordinates":[18.468808,-33.9738294]}},{"properties":{"total people":1292,"city":"Moore Park","lattitude":-33.89166776,"total checkins":2194,"date time":"1/03/12 8:06","postal code":"2021","longitude":151.2248111,"count":9,"id":"a62vxcyy0d3n","state":"NSW","location":"Sydney Cricket Ground"},"type":"Feature","geometry":{"type":"Point","coordinates":[151.2248111,-33.89166776]}},{"properties":{"total people":863,"city":"Woolloongabba","lattitude":-27.48599249,"total checkins":1597,"date time":"1/03/12 8:08","postal code":"4102","longitude":153.0380702,"count":11,"id":"a62vxd3e85xy","state":"QLD","location":"The Gabba"},"type":"Feature","geometry":{"type":"Point","coordinates":[153.0380702,-27.48599249]}},{"properties":{"total people":271,"city":"Cape Town","lattitude":-33.9738294,"total checkins":534,"date time":"1/03/12 9:05","postal code":"7700","longitude":18.468808,"count":18,"id":"a62vxcx15ozs","state":"Western Cape","location":"Sahara Park Newlands Cricket Ground"},"type":"Feature","geometry":{"type":"Point","coordinates":[18.468808,-33.9738294]}},{"properties":{"total people":869,"city":"Woolloongabba","lattitude":-27.48599249,"total checkins":1613,"date time":"1/03/12 9:08","postal code":"4102","longitude":153.0380702,"count":26,"id":"a62vxd4o7my7","state":"QLD","location":"The Gabba"},"type":"Feature","geometry":{"type":"Point","coordinates":[153.0380702,-27.48599249]}},{"properties":{"total people":277,"city":"Cape Town","lattitude":-33.9738294,"total checkins":540,"date time":"1/03/12 10:05","postal code":"7700","longitude":18.468808,"count":20,"id":"a62vxcpzmz0c","state":"Western Cape","location":"Sahara Park Newlands Cricket Ground"},"type":"Feature","geometry":{"type":"Point","coordinates":[18.468808,-33.9738294]}},{"properties":{"total people":277,"city":"Cape Town","lattitude":-33.9738294,"total checkins":540,"date time":"1/03/12 10:06","postal code":"7700","longitude":18.468808,"count":20,"id":"a62vxcymr6g9","state":"Western Cape","location":"Sahara Park Newlands Cricket Ground"},"type":"Feature","geometry":{"type":"Point","coordinates":[18.468808,-33.9738294]}},{"properties":{"total people":871,"city":"Woolloongabba","lattitude":-27.48599249,"total checkins":1616,"date time":"1/03/12 10:09","postal code":"4102","longitude":153.0380702,"count":26,"id":"a62vxd2kh8h6","state":"QLD","location":"The Gabba"},"type":"Feature","geometry":{"type":"Point","coordinates":[153.0380702,-27.48599249]}},{"properties":{"total people":280,"city":"Cape Town","lattitude":-33.97378313,"total checkins":544,"date time":"1/03/12 11:07","postal code":"7700","longitude":18.46916371,"count":22,"id":"a62vxcz7e07k","state":"Western Cape","location":"Sahara Park Newlands Cricket Ground"},"type":"Feature","geometry":{"type":"Point","coordinates":[18.46916371,-33.97378313]}},{"properties":{"total people":873,"city":"Woolloongabba","lattitude":-27.48599249,"total checkins":1618,"date time":"1/03/12 11:11","postal code":"4102","longitude":153.0380702,"count":19,"id":"a62vxd4a8sr9","state":"QLD","location":"The Gabba"},"type":"Feature","geometry":{"type":"Point","coordinates":[153.0380702,-27.48599249]}},{"properties":{"total people":280,"city":"Cape Town","lattitude":-33.97378313,"total checkins":545,"date time":"1/03/12 12:05","postal code":"7700","longitude":18.46916371,"count":11,"id":"a62vxcssegtk","state":"Western Cape","location":"Sahara Park Newlands Cricket Ground"},"type":"Feature","geometry":{"type":"Point","coordinates":[18.46916371,-33.97378313]}},{"properties":{"total people":281,"city":"Cape Town","lattitude":-33.97378313,"total checkins":546,"date time":"1/03/12 13:05","postal code":"7700","longitude":18.46916371,"count":6,"id":"a62vxd3v6af7","state":"Western Cape","location":"Sahara Park Newlands Cricket Ground"},"type":"Feature","geometry":{"type":"Point","coordinates":[18.46916371,-33.97378313]}},{"properties":{"total people":1292,"city":"Moore Park","lattitude":-33.89166776,"total checkins":2203,"date time":"1/03/12 21:06","postal code":"2021","longitude":151.2248111,"count":7,"id":"a62vxcykyrtr","state":"NSW","location":"Sydney Cricket Ground"},"type":"Feature","geometry":{"type":"Point","coordinates":[151.2248111,-33.89166776]}},{"properties":{"total people":1294,"city":"Moore Park","lattitude":-33.89166776,"total checkins":2206,"date time":"1/03/12 22:06","postal code":"2021","longitude":151.2248111,"count":10,"id":"a62vxd1bbnbr","state":"NSW","location":"Sydney Cricket Ground"},"type":"Feature","geometry":{"type":"Point","coordinates":[151.2248111,-33.89166776]}},{"properties":{"total people":1299,"city":"Moore Park","lattitude":-33.89166776,"total checkins":2216,"date time":"1/03/12 23:06","postal code":"2021","longitude":151.2248111,"count":16,"id":"a62vxcv9zx87","state":"NSW","location":"Sydney Cricket Ground"},"type":"Feature","geometry":{"type":"Point","coordinates":[151.2248111,-33.89166776]}},{"properties":{"total people":1310,"city":"Moore Park","lattitude":-33.89166776,"total checkins":2230,"date time":"1/04/12 0:06","postal code":"2021","longitude":151.2248111,"count":24,"id":"a62vxcv5hfqp","state":"NSW","location":"Sydney Cricket Ground"},"type":"Feature","geometry":{"type":"Point","coordinates":[151.2248111,-33.89166776]}},{"properties":{"total people":1312,"city":"Moore Park","lattitude":-33.89166776,"total checkins":2236,"date time":"1/04/12 1:06","postal code":"2021","longitude":151.2248111,"count":26,"id":"a62vxcu75uo6","state":"NSW","location":"Sydney Cricket Ground"},"type":"Feature","geometry":{"type":"Point","coordinates":[151.2248111,-33.89166776]}},{"properties":{"total people":1314,"city":"Moore Park","lattitude":-33.89166776,"total checkins":2239,"date time":"1/04/12 2:06","postal code":"2021","longitude":151.2248111,"count":22,"id":"a62vxd31lx7a","state":"NSW","location":"Sydney Cricket Ground"},"type":"Feature","geometry":{"type":"Point","coordinates":[151.2248111,-33.89166776]}},{"properties":{"total people":1316,"city":"Moore Park","lattitude":-33.89166776,"total checkins":2245,"date time":"1/04/12 3:06","postal code":"2021","longitude":151.2248111,"count":14,"id":"a62vxcrjmsdv","state":"NSW","location":"Sydney Cricket Ground"},"type":"Feature","geometry":{"type":"Point","coordinates":[151.2248111,-33.89166776]}},{"properties":{"total people":1319,"city":"Moore Park","lattitude":-33.89166776,"total checkins":2250,"date time":"1/04/12 4:06","postal code":"2021","longitude":151.2248111,"count":14,"id":"a62vxcqzlpd7","state":"NSW","location":"Sydney Cricket Ground"},"type":"Feature","geometry":{"type":"Point","coordinates":[151.2248111,-33.89166776]}},{"properties":{"total people":1321,"city":"Moore Park","lattitude":-33.89166776,"total checkins":2253,"date time":"1/04/12 5:06","postal code":"2021","longitude":151.2248111,"count":13,"id":"a62vxcwjulvu","state":"NSW","location":"Sydney Cricket Ground"},"type":"Feature","geometry":{"type":"Point","coordinates":[151.2248111,-33.89166776]}},{"properties":{"total people":1322,"city":"Moore Park","lattitude":-33.89166776,"total checkins":2257,"date time":"1/04/12 6:06","postal code":"2021","longitude":151.2248111,"count":11,"id":"a62vxd053bv1","state":"NSW","location":"Sydney Cricket Ground"},"type":"Feature","geometry":{"type":"Point","coordinates":[151.2248111,-33.89166776]}},{"properties":{"total people":1322,"city":"Moore Park","lattitude":-33.89166776,"total checkins":2259,"date time":"1/04/12 7:06","postal code":"2021","longitude":151.2248111,"count":8,"id":"a62vxcxwtdvz","state":"NSW","location":"Sydney Cricket Ground"},"type":"Feature","geometry":{"type":"Point","coordinates":[151.2248111,-33.89166776]}},{"properties":{"total people":5254,"city":"Melbourne","lattitude":-37.82000569,"total checkins":13825,"date time":"1/04/12 8:03","postal code":"3002","longitude":144.9833965,"count":20,"id":"a62vxcr7ml2z","state":"VIC","location":"Melbourne Cricket Ground (MCG)"},"type":"Feature","geometry":{"type":"Point","coordinates":[144.9833965,-37.82000569]}},{"properties":{"total people":5259,"city":"Melbourne","lattitude":-37.82000569,"total checkins":13835,"date time":"1/04/12 9:03","postal code":"3002","longitude":144.9833965,"count":26,"id":"a62vxd47f2go","state":"VIC","location":"Melbourne Cricket Ground (MCG)"},"type":"Feature","geometry":{"type":"Point","coordinates":[144.9833965,-37.82000569]}},{"properties":{"total people":287,"city":"Cape Town","lattitude":-33.97378313,"total checkins":556,"date time":"1/04/12 9:05","postal code":"7700","longitude":18.46916371,"count":7,"id":"a62vxd17u38m","state":"Western Cape","location":"Sahara Park Newlands Cricket Ground"},"type":"Feature","geometry":{"type":"Point","coordinates":[18.46916371,-33.97378313]}},{"properties":{"total people":5260,"city":"Melbourne","lattitude":-37.82000569,"total checkins":13841,"date time":"1/04/12 10:03","postal code":"3002","longitude":144.9833965,"count":31,"id":"a62vxczfi3r5","state":"VIC","location":"Melbourne Cricket Ground (MCG)"},"type":"Feature","geometry":{"type":"Point","coordinates":[144.9833965,-37.82000569]}},{"properties":{"total people":288,"city":"Cape Town","lattitude":-33.97378313,"total checkins":557,"date time":"1/04/12 10:06","postal code":"7700","longitude":18.46916371,"count":8,"id":"a62vxd2ej0ps","state":"Western Cape","location":"Sahara Park Newlands Cricket Ground"},"type":"Feature","geometry":{"type":"Point","coordinates":[18.46916371,-33.97378313]}},{"properties":{"total people":5260,"city":"Melbourne","lattitude":-37.82000569,"total checkins":13841,"date time":"1/04/12 11:03","postal code":"3002","longitude":144.9833965,"count":16,"id":"a62vxd3ok7vp","state":"VIC","location":"Melbourne Cricket Ground (MCG)"},"type":"Feature","geometry":{"type":"Point","coordinates":[144.9833965,-37.82000569]}},{"properties":{"total people":290,"city":"Cape Town","lattitude":-33.97378313,"total checkins":559,"date time":"1/04/12 11:05","postal code":"7700","longitude":18.46916371,"count":6,"id":"a62vxcypms51","state":"Western Cape","location":"Sahara Park Newlands Cricket Ground"},"type":"Feature","geometry":{"type":"Point","coordinates":[18.46916371,-33.97378313]}},{"properties":{"total people":5261,"city":"Melbourne","lattitude":-37.82000569,"total checkins":13843,"date time":"1/04/12 12:11","postal code":"3002","longitude":144.9833965,"count":7,"id":"a62vxcxw4ozq","state":"VIC","location":"Melbourne Cricket Ground (MCG)"},"type":"Feature","geometry":{"type":"Point","coordinates":[144.9833965,-37.82000569]}},{"properties":{"total people":293,"city":"Cape Town","lattitude":-33.97375498,"total checkins":565,"date time":"1/04/12 14:05","postal code":"7700","longitude":18.46881594,"count":6,"id":"a62vxd0h6hl2","state":"Western Cape","location":"Sahara Park Newlands Cricket Ground"},"type":"Feature","geometry":{"type":"Point","coordinates":[18.46881594,-33.97375498]}},{"properties":{"total people":293,"city":"Cape Town","lattitude":-33.97375498,"total checkins":567,"date time":"1/04/12 15:05","postal code":"7700","longitude":18.46881594,"count":6,"id":"a62vxctb1wus","state":"Western Cape","location":"Sahara Park Newlands Cricket Ground"},"type":"Feature","geometry":{"type":"Point","coordinates":[18.46881594,-33.97375498]}},{"properties":{"total people":1322,"city":"Moore Park","lattitude":-33.89166776,"total checkins":2266,"date time":"1/04/12 20:06","postal code":"2021","longitude":151.2248111,"count":7,"id":"a62vxd0p0tvi","state":"NSW","location":"Sydney Cricket Ground"},"type":"Feature","geometry":{"type":"Point","coordinates":[151.2248111,-33.89166776]}},{"properties":{"total people":1322,"city":"Moore Park","lattitude":-33.89166776,"total checkins":2268,"date time":"1/04/12 21:06","postal code":"2021","longitude":151.2248111,"count":9,"id":"a62vxcrn8p6g","state":"NSW","location":"Sydney Cricket Ground"},"type":"Feature","geometry":{"type":"Point","coordinates":[151.2248111,-33.89166776]}},{"properties":{"total people":1322,"city":"Moore Park","lattitude":-33.89166776,"total checkins":2269,"date time":"1/04/12 22:06","postal code":"2021","longitude":151.2248111,"count":9,"id":"a62vxd0v8agm","state":"NSW","location":"Sydney Cricket Ground"},"type":"Feature","geometry":{"type":"Point","coordinates":[151.2248111,-33.89166776]}},{"properties":{"total people":1333,"city":"Moore Park","lattitude":-33.89166776,"total checkins":2285,"date time":"1/04/12 23:06","postal code":"2021","longitude":151.2248111,"count":18,"id":"a62vxd2cr0tb","state":"NSW","location":"Sydney Cricket Ground"},"type":"Feature","geometry":{"type":"Point","coordinates":[151.2248111,-33.89166776]}},{"properties":{"total people":1337,"city":"Moore Park","lattitude":-33.89166776,"total checkins":2293,"date time":"1/05/12 0:06","postal code":"2021","longitude":151.2248111,"count":23,"id":"a62vxctmyqmn","state":"NSW","location":"Sydney Cricket Ground"},"type":"Feature","geometry":{"type":"Point","coordinates":[151.2248111,-33.89166776]}},{"properties":{"total people":1342,"city":"Moore Park","lattitude":-33.89166776,"total checkins":2299,"date time":"1/05/12 1:06","postal code":"2021","longitude":151.2248111,"count":26,"id":"a62vxcy4wo6p","state":"NSW","location":"Sydney Cricket Ground"},"type":"Feature","geometry":{"type":"Point","coordinates":[151.2248111,-33.89166776]}},{"properties":{"total people":1344,"city":"Moore Park","lattitude":-33.89166776,"total checkins":2304,"date time":"1/05/12 2:06","postal code":"2021","longitude":151.2248111,"count":15,"id":"a62vxd09fpf3","state":"NSW","location":"Sydney Cricket Ground"},"type":"Feature","geometry":{"type":"Point","coordinates":[151.2248111,-33.89166776]}},{"properties":{"total people":1346,"city":"Moore Park","lattitude":-33.89166776,"total checkins":2307,"date time":"1/05/12 3:06","postal code":"2021","longitude":151.2248111,"count":11,"id":"a62vxcrtowkt","state":"NSW","location":"Sydney Cricket Ground"},"type":"Feature","geometry":{"type":"Point","coordinates":[151.2248111,-33.89166776]}},{"properties":{"total people":1348,"city":"Moore Park","lattitude":-33.89166776,"total checkins":2310,"date time":"1/05/12 4:06","postal code":"2021","longitude":151.2248111,"count":9,"id":"a62vxcq09qqm","state":"NSW","location":"Sydney Cricket Ground"},"type":"Feature","geometry":{"type":"Point","coordinates":[151.2248111,-33.89166776]}},{"properties":{"total people":1349,"city":"Moore Park","lattitude":-33.89166776,"total checkins":2311,"date time":"1/05/12 5:06","postal code":"2021","longitude":151.2248111,"count":7,"id":"a62vxcqndqbm","state":"NSW","location":"Sydney Cricket Ground"},"type":"Feature","geometry":{"type":"Point","coordinates":[151.2248111,-33.89166776]}},{"properties":{"total people":298,"city":"Cape Town","lattitude":-33.97358769,"total checkins":580,"date time":"1/05/12 9:05","postal code":"7700","longitude":18.46853773,"count":11,"id":"a62vxcon525f","state":"Western Cape","location":"Sahara Park Newlands Cricket Ground"},"type":"Feature","geometry":{"type":"Point","coordinates":[18.46853773,-33.97358769]}},{"properties":{"total people":298,"city":"Cape Town","lattitude":-33.97358769,"total checkins":580,"date time":"1/05/12 9:06","postal code":"7700","longitude":18.46853773,"count":11,"id":"a62vxcwto3w8","state":"Western Cape","location":"Sahara Park Newlands Cricket Ground"},"type":"Feature","geometry":{"type":"Point","coordinates":[18.46853773,-33.97358769]}},{"properties":{"total people":301,"city":"Cape Town","lattitude":-33.97358769,"total checkins":584,"date time":"1/05/12 10:05","postal code":"7700","longitude":18.46853773,"count":13,"id":"a62vxcrc593g","state":"Western Cape","location":"Sahara Park Newlands Cricket Ground"},"type":"Feature","geometry":{"type":"Point","coordinates":[18.46853773,-33.97358769]}},{"properties":{"total people":305,"city":"Cape Town","lattitude":-33.97358769,"total checkins":590,"date time":"1/05/12 12:05","postal code":"7700","longitude":18.46853773,"count":10,"id":"a62vxcskfbac","state":"Western Cape","location":"Sahara Park Newlands Cricket Ground"},"type":"Feature","geometry":{"type":"Point","coordinates":[18.46853773,-33.97358769]}},{"properties":{"total people":305,"city":"Cape Town","lattitude":-33.97358769,"total checkins":590,"date time":"1/05/12 13:05","postal code":"7700","longitude":18.46853773,"count":6,"id":"a62vxd05e9zd","state":"Western Cape","location":"Sahara Park Newlands Cricket Ground"},"type":"Feature","geometry":{"type":"Point","coordinates":[18.46853773,-33.97358769]}},{"properties":{"total people":1357,"city":"Moore Park","lattitude":-33.89166776,"total checkins":2332,"date time":"1/06/12 1:06","postal code":"2021","longitude":151.2248111,"count":10,"id":"a62vxcwteap5","state":"NSW","location":"Sydney Cricket Ground"},"type":"Feature","geometry":{"type":"Point","coordinates":[151.2248111,-33.89166776]}},{"properties":{"total people":1359,"city":"Moore Park","lattitude":-33.89166776,"total checkins":2336,"date time":"1/06/12 2:06","postal code":"2021","longitude":151.2248111,"count":13,"id":"a62vxcqyake2","state":"NSW","location":"Sydney Cricket Ground"},"type":"Feature","geometry":{"type":"Point","coordinates":[151.2248111,-33.89166776]}},{"properties":{"total people":1361,"city":"Moore Park","lattitude":-33.89166776,"total checkins":2344,"date time":"1/06/12 3:06","postal code":"2021","longitude":151.2248111,"count":14,"id":"a62vxcs2h9vd","state":"NSW","location":"Sydney Cricket Ground"},"type":"Feature","geometry":{"type":"Point","coordinates":[151.2248111,-33.89166776]}},{"properties":{"total people":1361,"city":"Moore Park","lattitude":-33.89166776,"total checkins":2344,"date time":"1/06/12 4:06","postal code":"2021","longitude":151.2248111,"count":9,"id":"a62vxcyxzvwm","state":"NSW","location":"Sydney Cricket Ground"},"type":"Feature","geometry":{"type":"Point","coordinates":[151.2248111,-33.89166776]}},{"properties":{"total people":1361,"city":"Moore Park","lattitude":-33.89166776,"total checkins":2345,"date time":"1/06/12 5:06","postal code":"2021","longitude":151.2248111,"count":7,"id":"a62vxcqcdqgr","state":"NSW","location":"Sydney Cricket Ground"},"type":"Feature","geometry":{"type":"Point","coordinates":[151.2248111,-33.89166776]}},{"properties":{"total people":878,"city":"Woolloongabba","lattitude":-27.48599249,"total checkins":1635,"date time":"1/06/12 8:08","postal code":"4102","longitude":153.0380702,"count":11,"id":"a62vxcwgs6dg","state":"QLD","location":"The Gabba"},"type":"Feature","geometry":{"type":"Point","coordinates":[153.0380702,-27.48599249]}},{"properties":{"total people":311,"city":"Cape Town","lattitude":-33.97358769,"total checkins":605,"date time":"1/06/12 10:05","postal code":"7700","longitude":18.46915792,"count":11,"id":"a62vxcwlwv8j","state":"Western Cape","location":"Sahara Park Newlands Cricket Ground"},"type":"Feature","geometry":{"type":"Point","coordinates":[18.46915792,-33.97358769]}},{"properties":{"total people":884,"city":"Woolloongabba","lattitude":-27.48599249,"total checkins":1651,"date time":"1/06/12 10:08","postal code":"4102","longitude":153.0380702,"count":25,"id":"a62vxcqgxsn1","state":"QLD","location":"The Gabba"},"type":"Feature","geometry":{"type":"Point","coordinates":[153.0380702,-27.48599249]}},{"properties":{"total people":313,"city":"Cape Town","lattitude":-33.97358769,"total checkins":608,"date time":"1/06/12 12:05","postal code":"7700","longitude":18.46915792,"count":8,"id":"a62vxcxjfrej","state":"Western Cape","location":"Sahara Park Newlands Cricket Ground"},"type":"Feature","geometry":{"type":"Point","coordinates":[18.46915792,-33.97358769]}},{"properties":{"total people":316,"city":"Cape Town","lattitude":-33.97358769,"total checkins":611,"date time":"1/06/12 13:05","postal code":"7700","longitude":18.46915792,"count":6,"id":"a62vxcs4m0bx","state":"Western Cape","location":"Sahara Park Newlands Cricket Ground"},"type":"Feature","geometry":{"type":"Point","coordinates":[18.46915792,-33.97358769]}},{"properties":{"total people":5264,"city":"Melbourne","lattitude":-37.82000569,"total checkins":13860,"date time":"1/07/12 6:03","postal code":"3002","longitude":144.9833965,"count":6,"id":"a62vxctxmtze","state":"VIC","location":"Melbourne Cricket Ground (MCG)"},"type":"Feature","geometry":{"type":"Point","coordinates":[144.9833965,-37.82000569]}},{"properties":{"total people":5265,"city":"Melbourne","lattitude":-37.82000569,"total checkins":13867,"date time":"1/07/12 7:03","postal code":"3002","longitude":144.9833965,"count":12,"id":"a62vxcyg2dp3","state":"VIC","location":"Melbourne Cricket Ground (MCG)"},"type":"Feature","geometry":{"type":"Point","coordinates":[144.9833965,-37.82000569]}},{"properties":{"total people":5272,"city":"Melbourne","lattitude":-37.82000569,"total checkins":13898,"date time":"1/07/12 8:02","postal code":"3002","longitude":144.9833965,"count":39,"id":"a62vxcz3nwty","state":"VIC","location":"Melbourne Cricket Ground (MCG)"},"type":"Feature","geometry":{"type":"Point","coordinates":[144.9833965,-37.82000569]}},{"properties":{"total people":5272,"city":"Melbourne","lattitude":-37.82000569,"total checkins":13898,"date time":"1/07/12 8:03","postal code":"3002","longitude":144.9833965,"count":39,"id":"a62vxcvkrsvm","state":"VIC","location":"Melbourne Cricket Ground (MCG)"},"type":"Feature","geometry":{"type":"Point","coordinates":[144.9833965,-37.82000569]}},{"properties":{"total people":5282,"city":"Melbourne","lattitude":-37.82000569,"total checkins":13926,"date time":"1/07/12 9:02","postal code":"3002","longitude":144.9833965,"count":60,"id":"a62vxcqmio5d","state":"VIC","location":"Melbourne Cricket Ground (MCG)"},"type":"Feature","geometry":{"type":"Point","coordinates":[144.9833965,-37.82000569]}},{"properties":{"total people":5282,"city":"Melbourne","lattitude":-37.82000569,"total checkins":13926,"date time":"1/07/12 9:03","postal code":"3002","longitude":144.9833965,"count":60,"id":"a62vxctuvia9","state":"VIC","location":"Melbourne Cricket Ground (MCG)"},"type":"Feature","geometry":{"type":"Point","coordinates":[144.9833965,-37.82000569]}},{"properties":{"total people":5285,"city":"Melbourne","lattitude":-37.82000569,"total checkins":13937,"date time":"1/07/12 10:02","postal code":"3002","longitude":144.9833965,"count":64,"id":"a62vxcwoddq2","state":"VIC","location":"Melbourne Cricket Ground (MCG)"},"type":"Feature","geometry":{"type":"Point","coordinates":[144.9833965,-37.82000569]}},{"properties":{"total people":5285,"city":"Melbourne","lattitude":-37.82000569,"total checkins":13937,"date time":"1/07/12 10:03","postal code":"3002","longitude":144.9833965,"count":64,"id":"a62vxcqnqk0a","state":"VIC","location":"Melbourne Cricket Ground (MCG)"},"type":"Feature","geometry":{"type":"Point","coordinates":[144.9833965,-37.82000569]}},{"properties":{"total people":5286,"city":"Melbourne","lattitude":-37.82000569,"total checkins":13939,"date time":"1/07/12 11:03","postal code":"3002","longitude":144.9833965,"count":35,"id":"a62vxczh3u3l","state":"VIC","location":"Melbourne Cricket Ground (MCG)"},"type":"Feature","geometry":{"type":"Point","coordinates":[144.9833965,-37.82000569]}},{"properties":{"total people":5286,"city":"Melbourne","lattitude":-37.82000569,"total checkins":13940,"date time":"1/07/12 12:03","postal code":"3002","longitude":144.9833965,"count":13,"id":"a62vxcvi8snj","state":"VIC","location":"Melbourne Cricket Ground (MCG)"},"type":"Feature","geometry":{"type":"Point","coordinates":[144.9833965,-37.82000569]}},{"properties":{"total people":232,"city":"East Perth","lattitude":-31.95986332,"total checkins":352,"date time":"1/08/12 9:07","postal code":"6004","longitude":115.8796048,"count":6,"id":"a62vxcztyo1j","state":"WA","location":"WACA"},"type":"Feature","geometry":{"type":"Point","coordinates":[115.8796048,-31.95986332]}},{"properties":{"total people":238,"city":"East Perth","lattitude":-31.95986332,"total checkins":362,"date time":"1/08/12 10:07","postal code":"6004","longitude":115.8796048,"count":15,"id":"a62vxd3bdgpv","state":"WA","location":"WACA"},"type":"Feature","geometry":{"type":"Point","coordinates":[115.8796048,-31.95986332]}},{"properties":{"total people":242,"city":"East Perth","lattitude":-31.95986332,"total checkins":367,"date time":"1/08/12 11:08","postal code":"6004","longitude":115.8796048,"count":20,"id":"a62vxcs7066m","state":"WA","location":"WACA"},"type":"Feature","geometry":{"type":"Point","coordinates":[115.8796048,-31.95986332]}},{"properties":{"total people":242,"city":"East Perth","lattitude":-31.95986332,"total checkins":367,"date time":"1/08/12 12:07","postal code":"6004","longitude":115.8796048,"count":15,"id":"a62vxd3tm1p4","state":"WA","location":"WACA"},"type":"Feature","geometry":{"type":"Point","coordinates":[115.8796048,-31.95986332]}},{"properties":{"total people":243,"city":"East Perth","lattitude":-31.95986332,"total checkins":369,"date time":"1/08/12 13:07","postal code":"6004","longitude":115.8796048,"count":7,"id":"a62vxcrx045u","state":"WA","location":"WACA"},"type":"Feature","geometry":{"type":"Point","coordinates":[115.8796048,-31.95986332]}},{"properties":{"total people":79,"city":"Bellerive","lattitude":-42.87728497,"total checkins":197,"date time":"1/09/12 8:01","postal code":"7018","longitude":147.3736525,"count":7,"id":"a62vxctrtuln","state":"TAS","location":"Bellerive Oval"},"type":"Feature","geometry":{"type":"Point","coordinates":[147.3736525,-42.87728497]}},{"properties":{"total people":79,"city":"Bellerive","lattitude":-42.87728497,"total checkins":198,"date time":"1/09/12 9:01","postal code":"7018","longitude":147.3736525,"count":8,"id":"a62vxcop9l79","state":"TAS","location":"Bellerive Oval"},"type":"Feature","geometry":{"type":"Point","coordinates":[147.3736525,-42.87728497]}},{"properties":{"total people":556,"city":"North Adelaide","lattitude":-34.91561062,"total checkins":1012,"date time":"1/10/12 8:07","postal code":"5006","longitude":138.5959947,"count":16,"id":"a62vxcyoq02b","state":"SA","location":"Adelaide Oval"},"type":"Feature","geometry":{"type":"Point","coordinates":[138.5959947,-34.91561062]}},{"properties":{"total people":571,"city":"North Adelaide","lattitude":-34.91561062,"total checkins":1038,"date time":"1/10/12 9:04","postal code":"5006","longitude":138.5959947,"count":39,"id":"a62vxd4rlfwt","state":"SA","location":"Adelaide Oval"},"type":"Feature","geometry":{"type":"Point","coordinates":[138.5959947,-34.91561062]}},{"properties":{"total people":38,"city":"North Adelaide","lattitude":-34.91554024,"total checkins":70,"date time":"1/10/12 9:04","postal code":"5006","longitude":138.5953724,"count":12,"id":"a62vxd1vf2kd","state":"SA","location":"Members Grandstand"},"type":"Feature","geometry":{"type":"Point","coordinates":[138.5953724,-34.91554024]}},{"properties":{"total people":571,"city":"North Adelaide","lattitude":-34.91561062,"total checkins":1043,"date time":"1/10/12 10:04","postal code":"5006","longitude":138.5959947,"count":40,"id":"a62vxcvdff3k","state":"SA","location":"Adelaide Oval"},"type":"Feature","geometry":{"type":"Point","coordinates":[138.5959947,-34.91561062]}},{"properties":{"total people":40,"city":"North Adelaide","lattitude":-34.91554024,"total checkins":73,"date time":"1/10/12 10:04","postal code":"5006","longitude":138.5953724,"count":14,"id":"a62vxcw5ibc2","state":"SA","location":"Members Grandstand"},"type":"Feature","geometry":{"type":"Point","coordinates":[138.5953724,-34.91554024]}},{"properties":{"total people":574,"city":"North Adelaide","lattitude":-34.91561062,"total checkins":1047,"date time":"1/10/12 11:05","postal code":"5006","longitude":138.5959947,"count":30,"id":"a62vxd1b6u36","state":"SA","location":"Adelaide Oval"},"type":"Feature","geometry":{"type":"Point","coordinates":[138.5959947,-34.91561062]}},{"properties":{"total people":40,"city":"North Adelaide","lattitude":-34.91554024,"total checkins":75,"date time":"1/10/12 11:05","postal code":"5006","longitude":138.5953724,"count":12,"id":"a62vxctuwgjb","state":"SA","location":"Members Grandstand"},"type":"Feature","geometry":{"type":"Point","coordinates":[138.5953724,-34.91554024]}},{"properties":{"total people":574,"city":"North Adelaide","lattitude":-34.91561062,"total checkins":1047,"date time":"1/10/12 12:04","postal code":"5006","longitude":138.5959947,"count":8,"id":"a62vxd4jo9yy","state":"SA","location":"Adelaide Oval"},"type":"Feature","geometry":{"type":"Point","coordinates":[138.5959947,-34.91561062]}},{"properties":{"total people":178,"city":"Wellington","lattitude":-41.30034653,"total checkins":322,"date time":"1/11/12 6:01","postal code":"6001","longitude":174.7801638,"count":6,"id":"a62vxcqj6x1m","state":"New Zealand","location":"Basin Reserve"},"type":"Feature","geometry":{"type":"Point","coordinates":[174.7801638,-41.30034653]}},{"properties":{"total people":15,"city":"Paar","lattitude":-33.74054296,"total checkins":22,"date time":"1/11/12 13:06","postal code":null,"longitude":18.99755707,"count":11,"id":"a62vxcu9c5g1","state":null,"location":"Boland Park Cricket Stadium"},"type":"Feature","geometry":{"type":"Point","coordinates":[18.99755707,-33.74054296]}},{"properties":{"total people":19,"city":"Paar","lattitude":-33.74054296,"total checkins":26,"date time":"1/11/12 14:06","postal code":null,"longitude":18.99809687,"count":14,"id":"a62vxd2cml81","state":null,"location":"Boland Park Cricket Stadium"},"type":"Feature","geometry":{"type":"Point","coordinates":[18.99809687,-33.74054296]}},{"properties":{"total people":19,"city":"Paar","lattitude":-33.74054296,"total checkins":26,"date time":"1/11/12 15:06","postal code":null,"longitude":18.99809687,"count":11,"id":"a62vxcuwvoav","state":null,"location":"Boland Park Cricket Stadium"},"type":"Feature","geometry":{"type":"Point","coordinates":[18.99809687,-33.74054296]}},{"properties":{"total people":250,"city":"East Perth","lattitude":-31.95986332,"total checkins":384,"date time":"01/13/2012 03:07","postal code":"6004","longitude":115.8796048,"count":10,"id":"a62vxcr6kl7a","state":"WA","location":"WACA"},"type":"Feature","geometry":{"type":"Point","coordinates":[115.8796048,-31.95986332]}},{"properties":{"total people":257,"city":"East Perth","lattitude":-31.95986332,"total checkins":392,"date time":"01/13/2012 04:19","postal code":"6004","longitude":115.8796048,"count":18,"id":"a62vxczeculw","state":"WA","location":"WACA"},"type":"Feature","geometry":{"type":"Point","coordinates":[115.8796048,-31.95986332]}},{"properties":{"total people":260,"city":"East Perth","lattitude":-31.95986332,"total checkins":396,"date time":"01/13/2012 06:07","postal code":"6004","longitude":115.8796048,"count":12,"id":"a62vxd2o9n8z","state":"WA","location":"WACA"},"type":"Feature","geometry":{"type":"Point","coordinates":[115.8796048,-31.95986332]}},{"properties":{"total people":269,"city":"East Perth","lattitude":-31.95986332,"total checkins":416,"date time":"01/14/2012 03:07","postal code":"6004","longitude":115.8796048,"count":14,"id":"a62vxcqbbwgu","state":"WA","location":"WACA"},"type":"Feature","geometry":{"type":"Point","coordinates":[115.8796048,-31.95986332]}},{"properties":{"total people":275,"city":"East Perth","lattitude":-31.95986332,"total checkins":424,"date time":"01/14/2012 05:07","postal code":"6004","longitude":115.8796048,"count":18,"id":"a62vxcu5c3yl","state":"WA","location":"WACA"},"type":"Feature","geometry":{"type":"Point","coordinates":[115.8796048,-31.95986332]}},{"properties":{"total people":275,"city":"East Perth","lattitude":-31.95986332,"total checkins":425,"date time":"01/14/2012 06:07","postal code":"6004","longitude":115.8796048,"count":8,"id":"a62vxcqaatok","state":"WA","location":"WACA"},"type":"Feature","geometry":{"type":"Point","coordinates":[115.8796048,-31.95986332]}},{"properties":{"total people":275,"city":"East Perth","lattitude":-31.95986332,"total checkins":427,"date time":"01/14/2012 07:07","postal code":"6004","longitude":115.8796048,"count":7,"id":"a62vxd1glsw7","state":"WA","location":"WACA"},"type":"Feature","geometry":{"type":"Point","coordinates":[115.8796048,-31.95986332]}},{"properties":{"total people":283,"city":"East Perth","lattitude":-31.95986332,"total checkins":452,"date time":"01/15/2012 02:07","postal code":"6004","longitude":115.8796048,"count":6,"id":"a62vxcut7an8","state":"WA","location":"WACA"},"type":"Feature","geometry":{"type":"Point","coordinates":[115.8796048,-31.95986332]}},{"properties":{"total people":288,"city":"East Perth","lattitude":-31.95986332,"total checkins":460,"date time":"01/15/2012 03:07","postal code":"6004","longitude":115.8796048,"count":13,"id":"a62vxcwzqkmg","state":"WA","location":"WACA"},"type":"Feature","geometry":{"type":"Point","coordinates":[115.8796048,-31.95986332]}},{"properties":{"total people":290,"city":"East Perth","lattitude":-31.95986332,"total checkins":465,"date time":"01/15/2012 04:07","postal code":"6004","longitude":115.8796048,"count":18,"id":"a62vxd35snvq","state":"WA","location":"WACA"},"type":"Feature","geometry":{"type":"Point","coordinates":[115.8796048,-31.95986332]}},{"properties":{"total people":290,"city":"East Perth","lattitude":-31.95986332,"total checkins":467,"date time":"01/15/2012 05:07","postal code":"6004","longitude":115.8796048,"count":15,"id":"a62vxcsq9r50","state":"WA","location":"WACA"},"type":"Feature","geometry":{"type":"Point","coordinates":[115.8796048,-31.95986332]}},{"properties":{"total people":290,"city":"East Perth","lattitude":-31.95986332,"total checkins":468,"date time":"01/15/2012 06:07","postal code":"6004","longitude":115.8796048,"count":9,"id":"a62vxd49pjln","state":"WA","location":"WACA"},"type":"Feature","geometry":{"type":"Point","coordinates":[115.8796048,-31.95986332]}},{"properties":{"total people":896,"city":"Woolloongabba","lattitude":-27.48599249,"total checkins":1678,"date time":"01/17/2012 08:16","postal code":"4102","longitude":153.0380702,"count":6,"id":"a62vxcpodkly","state":"QLD","location":"The Gabba"},"type":"Feature","geometry":{"type":"Point","coordinates":[153.0380702,-27.48599249]}},{"properties":{"total people":902,"city":"Woolloongabba","lattitude":-27.48599249,"total checkins":1689,"date time":"01/17/2012 09:16","postal code":"4102","longitude":153.0380702,"count":17,"id":"a62vxczgc8ze","state":"QLD","location":"The Gabba"},"type":"Feature","geometry":{"type":"Point","coordinates":[153.0380702,-27.48599249]}},{"properties":{"total people":904,"city":"Woolloongabba","lattitude":-27.48599249,"total checkins":1691,"date time":"01/17/2012 11:17","postal code":"4102","longitude":153.0380702,"count":13,"id":"a62vxcv1ey9y","state":"QLD","location":"The Gabba"},"type":"Feature","geometry":{"type":"Point","coordinates":[153.0380702,-27.48599249]}},{"properties":{"total people":83,"city":"Bellerive","lattitude":-42.87728497,"total checkins":209,"date time":"01/18/2012 05:01","postal code":"7018","longitude":147.3736525,"count":6,"id":"a62vxcwyj2kk","state":"TAS","location":"Bellerive Oval"},"type":"Feature","geometry":{"type":"Point","coordinates":[147.3736525,-42.87728497]}},{"properties":{"total people":83,"city":"Bellerive","lattitude":-42.87728497,"total checkins":211,"date time":"01/18/2012 06:01","postal code":"7018","longitude":147.3736525,"count":8,"id":"a62vxd4ix419","state":"TAS","location":"Bellerive Oval"},"type":"Feature","geometry":{"type":"Point","coordinates":[147.3736525,-42.87728497]}},{"properties":{"total people":83,"city":"Bellerive","lattitude":-42.87728497,"total checkins":211,"date time":"01/18/2012 07:01","postal code":"7018","longitude":147.3736525,"count":8,"id":"a62vxcugsx7e","state":"TAS","location":"Bellerive Oval"},"type":"Feature","geometry":{"type":"Point","coordinates":[147.3736525,-42.87728497]}},{"properties":{"total people":1371,"city":"Moore Park","lattitude":-33.89166776,"total checkins":2364,"date time":"01/18/2012 08:06","postal code":"2021","longitude":151.2248111,"count":11,"id":"a62vxcv49erg","state":"NSW","location":"Sydney Cricket Ground"},"type":"Feature","geometry":{"type":"Point","coordinates":[151.2248111,-33.89166776]}},{"properties":{"total people":1382,"city":"Moore Park","lattitude":-33.89166776,"total checkins":2379,"date time":"01/18/2012 09:06","postal code":"2021","longitude":151.2248111,"count":24,"id":"a62vxd0sfe9n","state":"NSW","location":"Sydney Cricket Ground"},"type":"Feature","geometry":{"type":"Point","coordinates":[151.2248111,-33.89166776]}},{"properties":{"total people":1388,"city":"Moore Park","lattitude":-33.89166776,"total checkins":2385,"date time":"01/18/2012 11:07","postal code":"2021","longitude":151.2248111,"count":21,"id":"a62vxctr3yej","state":"NSW","location":"Sydney Cricket Ground"},"type":"Feature","geometry":{"type":"Point","coordinates":[151.2248111,-33.89166776]}},{"properties":{"total people":1389,"city":"Moore Park","lattitude":-33.89166776,"total checkins":2387,"date time":"01/18/2012 12:06","postal code":"2021","longitude":151.2248111,"count":8,"id":"a62vxd17ipz2","state":"NSW","location":"Sydney Cricket Ground"},"type":"Feature","geometry":{"type":"Point","coordinates":[151.2248111,-33.89166776]}},{"properties":{"total people":5314,"city":"Melbourne","lattitude":-37.82000569,"total checkins":14014,"date time":"01/19/2012 07:02","postal code":"3002","longitude":144.9833965,"count":18,"id":"a62vxcw1b6ka","state":"VIC","location":"Melbourne Cricket Ground (MCG)"},"type":"Feature","geometry":{"type":"Point","coordinates":[144.9833965,-37.82000569]}},{"properties":{"total people":5314,"city":"Melbourne","lattitude":-37.82000569,"total checkins":14014,"date time":"01/19/2012 07:03","postal code":"3002","longitude":144.9833965,"count":18,"id":"a62vxcuj8etr","state":"VIC","location":"Melbourne Cricket Ground (MCG)"},"type":"Feature","geometry":{"type":"Point","coordinates":[144.9833965,-37.82000569]}},{"properties":{"total people":5346,"city":"Melbourne","lattitude":-37.82000569,"total checkins":14074,"date time":"01/19/2012 08:02","postal code":"3002","longitude":144.9833965,"count":70,"id":"a62vxd20qh60","state":"VIC","location":"Melbourne Cricket Ground (MCG)"},"type":"Feature","geometry":{"type":"Point","coordinates":[144.9833965,-37.82000569]}},{"properties":{"total people":5346,"city":"Melbourne","lattitude":-37.82000569,"total checkins":14074,"date time":"01/19/2012 08:03","postal code":"3002","longitude":144.9833965,"count":70,"id":"a62vxcyqq0bu","state":"VIC","location":"Melbourne Cricket Ground (MCG)"},"type":"Feature","geometry":{"type":"Point","coordinates":[144.9833965,-37.82000569]}},{"properties":{"total people":5415,"city":"Melbourne","lattitude":-37.82000569,"total checkins":14174,"date time":"01/19/2012 09:02","postal code":"3002","longitude":144.9833965,"count":161,"id":"a62vxcwujcwc","state":"VIC","location":"Melbourne Cricket Ground (MCG)"},"type":"Feature","geometry":{"type":"Point","coordinates":[144.9833965,-37.82000569]}},{"properties":{"total people":5415,"city":"Melbourne","lattitude":-37.82000569,"total checkins":14174,"date time":"01/19/2012 09:03","postal code":"3002","longitude":144.9833965,"count":161,"id":"a62vxd09itap","state":"VIC","location":"Melbourne Cricket Ground (MCG)"},"type":"Feature","geometry":{"type":"Point","coordinates":[144.9833965,-37.82000569]}},{"properties":{"total people":5435,"city":"Melbourne","lattitude":-37.82000569,"total checkins":14205,"date time":"01/19/2012 10:02","postal code":"3002","longitude":144.9833965,"count":181,"id":"a62vxcvirvky","state":"VIC","location":"Melbourne Cricket Ground (MCG)"},"type":"Feature","geometry":{"type":"Point","coordinates":[144.9833965,-37.82000569]}},{"properties":{"total people":5435,"city":"Melbourne","lattitude":-37.82000569,"total checkins":14205,"date time":"01/19/2012 10:03","postal code":"3002","longitude":144.9833965,"count":181,"id":"a62vxd3v74tn","state":"VIC","location":"Melbourne Cricket Ground (MCG)"},"type":"Feature","geometry":{"type":"Point","coordinates":[144.9833965,-37.82000569]}},{"properties":{"total people":5442,"city":"Melbourne","lattitude":-37.82000569,"total checkins":14218,"date time":"01/19/2012 11:02","postal code":"3002","longitude":144.9833965,"count":144,"id":"a62vxcwzznbj","state":"VIC","location":"Melbourne Cricket Ground (MCG)"},"type":"Feature","geometry":{"type":"Point","coordinates":[144.9833965,-37.82000569]}},{"properties":{"total people":5442,"city":"Melbourne","lattitude":-37.82000569,"total checkins":14218,"date time":"01/19/2012 11:03","postal code":"3002","longitude":144.9833965,"count":144,"id":"a62vxd3kswwl","state":"VIC","location":"Melbourne Cricket Ground (MCG)"},"type":"Feature","geometry":{"type":"Point","coordinates":[144.9833965,-37.82000569]}},{"properties":{"total people":5442,"city":"Melbourne","lattitude":-37.82000569,"total checkins":14219,"date time":"01/19/2012 12:02","postal code":"3002","longitude":144.9833965,"count":43,"id":"a62vxcr0ef90","state":"VIC","location":"Melbourne Cricket Ground (MCG)"},"type":"Feature","geometry":{"type":"Point","coordinates":[144.9833965,-37.82000569]}},{"properties":{"total people":5442,"city":"Melbourne","lattitude":-37.82000569,"total checkins":14219,"date time":"01/19/2012 12:03","postal code":"3002","longitude":144.9833965,"count":43,"id":"a62vxd2htzet","state":"VIC","location":"Melbourne Cricket Ground (MCG)"},"type":"Feature","geometry":{"type":"Point","coordinates":[144.9833965,-37.82000569]}},{"properties":{"total people":5442,"city":"Melbourne","lattitude":-37.82000569,"total checkins":14219,"date time":"01/19/2012 13:02","postal code":"3002","longitude":144.9833965,"count":14,"id":"a62vxcskwj7e","state":"VIC","location":"Melbourne Cricket Ground (MCG)"},"type":"Feature","geometry":{"type":"Point","coordinates":[144.9833965,-37.82000569]}},{"properties":{"total people":5442,"city":"Melbourne","lattitude":-37.82000569,"total checkins":14219,"date time":"01/19/2012 13:03","postal code":"3002","longitude":144.9833965,"count":14,"id":"a62vxcrw9wle","state":"VIC","location":"Melbourne Cricket Ground (MCG)"},"type":"Feature","geometry":{"type":"Point","coordinates":[144.9833965,-37.82000569]}},{"properties":{"total people":294,"city":"East Perth","lattitude":-31.95986332,"total checkins":481,"date time":"01/21/2012 09:07","postal code":"6004","longitude":115.8796048,"count":12,"id":"a62vxd3qg0gx","state":"WA","location":"WACA"},"type":"Feature","geometry":{"type":"Point","coordinates":[115.8796048,-31.95986332]}},{"properties":{"total people":295,"city":"East Perth","lattitude":-31.95986332,"total checkins":482,"date time":"01/21/2012 11:07","postal code":"6004","longitude":115.8796048,"count":11,"id":"a62vxcqum57j","state":"WA","location":"WACA"},"type":"Feature","geometry":{"type":"Point","coordinates":[115.8796048,-31.95986332]}},{"properties":{"total people":86,"city":"Bellerive","lattitude":-42.87728497,"total checkins":227,"date time":"01/22/2012 07:01","postal code":"7018","longitude":147.3736525,"count":13,"id":"a62vxcshimuu","state":"TAS","location":"Bellerive Oval"},"type":"Feature","geometry":{"type":"Point","coordinates":[147.3736525,-42.87728497]}},{"properties":{"total people":87,"city":"Bellerive","lattitude":-42.87728497,"total checkins":229,"date time":"01/22/2012 08:01","postal code":"7018","longitude":147.3736525,"count":15,"id":"a62vxcv21ijy","state":"TAS","location":"Bellerive Oval"},"type":"Feature","geometry":{"type":"Point","coordinates":[147.3736525,-42.87728497]}},{"properties":{"total people":396,"city":"Illovo","lattitude":-26.13125371,"total checkins":670,"date time":"01/22/2012 08:09","postal code":"2196","longitude":28.05742804,"count":26,"id":"a62vxcwty3ne","state":"South Africa","location":"Bidvest Wanderers Cricket Stadium"},"type":"Feature","geometry":{"type":"Point","coordinates":[28.05742804,-26.13125371]}},{"properties":{"total people":88,"city":"Bellerive","lattitude":-42.87728497,"total checkins":231,"date time":"01/22/2012 09:01","postal code":"7018","longitude":147.3736525,"count":15,"id":"a62vxcv0uobv","state":"TAS","location":"Bellerive Oval"},"type":"Feature","geometry":{"type":"Point","coordinates":[147.3736525,-42.87728497]}},{"properties":{"total people":132,"city":"Durban","lattitude":-29.8501359,"total checkins":264,"date time":"01/22/2012 09:07","postal code":"4025","longitude":31.0278368,"count":7,"id":"a62vxcpdrd1p","state":"South Africa","location":"Kingsmead Cricket Stadium"},"type":"Feature","geometry":{"type":"Point","coordinates":[31.0278368,-29.8501359]}},{"properties":{"total people":403,"city":"Illovo","lattitude":-26.13125371,"total checkins":681,"date time":"01/22/2012 09:08","postal code":"2196","longitude":28.05742804,"count":37,"id":"a62vxcqgif9t","state":"South Africa","location":"Bidvest Wanderers Cricket Stadium"},"type":"Feature","geometry":{"type":"Point","coordinates":[28.05742804,-26.13125371]}},{"properties":{"total people":133,"city":"Durban","lattitude":-29.8501359,"total checkins":267,"date time":"01/22/2012 10:08","postal code":"4025","longitude":31.0278368,"count":9,"id":"a62vxcqpco5p","state":"South Africa","location":"Kingsmead Cricket Stadium"},"type":"Feature","geometry":{"type":"Point","coordinates":[31.0278368,-29.8501359]}},{"properties":{"total people":408,"city":"Illovo","lattitude":-26.13125371,"total checkins":690,"date time":"01/22/2012 10:09","postal code":"2196","longitude":28.05742804,"count":42,"id":"a62vxcs82ykc","state":"South Africa","location":"Bidvest Wanderers Cricket Stadium"},"type":"Feature","geometry":{"type":"Point","coordinates":[28.05742804,-26.13125371]}},{"properties":{"total people":135,"city":"Durban","lattitude":-29.8501359,"total checkins":270,"date time":"01/22/2012 11:08","postal code":"4025","longitude":31.0278368,"count":10,"id":"a62vxct45ksm","state":"South Africa","location":"Kingsmead Cricket Stadium"},"type":"Feature","geometry":{"type":"Point","coordinates":[31.0278368,-29.8501359]}},{"properties":{"total people":412,"city":"Illovo","lattitude":-26.13125371,"total checkins":698,"date time":"01/22/2012 11:09","postal code":"2196","longitude":28.05742804,"count":30,"id":"a62vxcq5x42u","state":"South Africa","location":"Bidvest Wanderers Cricket Stadium"},"type":"Feature","geometry":{"type":"Point","coordinates":[28.05742804,-26.13125371]}},{"properties":{"total people":415,"city":"Illovo","lattitude":-26.13125371,"total checkins":702,"date time":"01/22/2012 12:09","postal code":"2196","longitude":28.05742804,"count":22,"id":"a62vxd1crf34","state":"South Africa","location":"Bidvest Wanderers Cricket Stadium"},"type":"Feature","geometry":{"type":"Point","coordinates":[28.05742804,-26.13125371]}},{"properties":{"total people":417,"city":"Illovo","lattitude":-26.13125371,"total checkins":705,"date time":"01/22/2012 13:09","postal code":"2196","longitude":28.05742804,"count":14,"id":"a62vxcpjz51g","state":"South Africa","location":"Bidvest Wanderers Cricket Stadium"},"type":"Feature","geometry":{"type":"Point","coordinates":[28.05742804,-26.13125371]}},{"properties":{"total people":419,"city":"Illovo","lattitude":-26.13125371,"total checkins":707,"date time":"01/22/2012 14:09","postal code":"2196","longitude":28.05742804,"count":9,"id":"a62vxcqj6ejh","state":"South Africa","location":"Bidvest Wanderers Cricket Stadium"},"type":"Feature","geometry":{"type":"Point","coordinates":[28.05742804,-26.13125371]}},{"properties":{"total people":425,"city":"Illovo","lattitude":-26.13125371,"total checkins":715,"date time":"01/22/2012 19:08","postal code":"2196","longitude":28.05742804,"count":6,"id":"a62vxcu5lx6g","state":"South Africa","location":"Bidvest Wanderers Cricket Stadium"},"type":"Feature","geometry":{"type":"Point","coordinates":[28.05742804,-26.13125371]}},{"properties":{"total people":586,"city":"North Adelaide","lattitude":-34.91561062,"total checkins":1086,"date time":"01/24/2012 00:04","postal code":"5006","longitude":138.5959947,"count":15,"id":"a62vxd3x3e7e","state":"SA","location":"Adelaide Oval"},"type":"Feature","geometry":{"type":"Point","coordinates":[138.5959947,-34.91561062]}},{"properties":{"total people":42,"city":"North Adelaide","lattitude":-34.91554024,"total checkins":86,"date time":"01/24/2012 00:04","postal code":"5006","longitude":138.5953724,"count":8,"id":"a62vxd0i06mr","state":"SA","location":"Members Grandstand"},"type":"Feature","geometry":{"type":"Point","coordinates":[138.5953724,-34.91554024]}},{"properties":{"total people":594,"city":"North Adelaide","lattitude":-34.91561062,"total checkins":1097,"date time":"01/24/2012 01:04","postal code":"5006","longitude":138.5959947,"count":24,"id":"a62vxcvliacq","state":"SA","location":"Adelaide Oval"},"type":"Feature","geometry":{"type":"Point","coordinates":[138.5959947,-34.91561062]}},{"properties":{"total people":42,"city":"North Adelaide","lattitude":-34.91554024,"total checkins":87,"date time":"01/24/2012 01:04","postal code":"5006","longitude":138.5953724,"count":8,"id":"a62vxcy5fynr","state":"SA","location":"Members Grandstand"},"type":"Feature","geometry":{"type":"Point","coordinates":[138.5953724,-34.91554024]}},{"properties":{"total people":600,"city":"North Adelaide","lattitude":-34.91561062,"total checkins":1105,"date time":"01/24/2012 03:04","postal code":"5006","longitude":138.5959947,"count":18,"id":"a62vxcoz1zab","state":"SA","location":"Adelaide Oval"},"type":"Feature","geometry":{"type":"Point","coordinates":[138.5959947,-34.91561062]}},{"properties":{"total people":600,"city":"North Adelaide","lattitude":-34.91561062,"total checkins":1106,"date time":"01/24/2012 04:04","postal code":"5006","longitude":138.5959947,"count":9,"id":"a62vxd1jvjnr","state":"SA","location":"Adelaide Oval"},"type":"Feature","geometry":{"type":"Point","coordinates":[138.5959947,-34.91561062]}},{"properties":{"total people":1323,"city":"London","lattitude":51.52866367,"total checkins":2199,"date time":"01/24/2012 14:38","postal code":"NW8 8QN","longitude":-0.172580773,"count":6,"id":"a62vxd00n6c2","state":"Greater London","location":"Lord's Cricket Ground (MCC)"},"type":"Feature","geometry":{"type":"Point","coordinates":[-0.172580773,51.52866367]}},{"properties":{"total people":606,"city":"North Adelaide","lattitude":-34.91561062,"total checkins":1131,"date time":"01/25/2012 01:04","postal code":"5006","longitude":138.5959947,"count":16,"id":"a62vxcxp7vwu","state":"SA","location":"Adelaide Oval"},"type":"Feature","geometry":{"type":"Point","coordinates":[138.5959947,-34.91561062]}},{"properties":{"total people":608,"city":"North Adelaide","lattitude":-34.91561062,"total checkins":1133,"date time":"01/25/2012 02:04","postal code":"5006","longitude":138.5959947,"count":18,"id":"a62vxctksqf2","state":"SA","location":"Adelaide Oval"},"type":"Feature","geometry":{"type":"Point","coordinates":[138.5959947,-34.91561062]}},{"properties":{"total people":608,"city":"North Adelaide","lattitude":-34.91561062,"total checkins":1138,"date time":"01/25/2012 03:04","postal code":"5006","longitude":138.5959947,"count":17,"id":"a62vxd07epyu","state":"SA","location":"Adelaide Oval"},"type":"Feature","geometry":{"type":"Point","coordinates":[138.5959947,-34.91561062]}},{"properties":{"total people":610,"city":"North Adelaide","lattitude":-34.91561062,"total checkins":1143,"date time":"01/25/2012 04:04","postal code":"5006","longitude":138.5959947,"count":13,"id":"a62vxd4owqa2","state":"SA","location":"Adelaide Oval"},"type":"Feature","geometry":{"type":"Point","coordinates":[138.5959947,-34.91561062]}},{"properties":{"total people":610,"city":"North Adelaide","lattitude":-34.91561062,"total checkins":1144,"date time":"01/25/2012 05:04","postal code":"5006","longitude":138.5959947,"count":9,"id":"a62vxcw2y4oa","state":"SA","location":"Adelaide Oval"},"type":"Feature","geometry":{"type":"Point","coordinates":[138.5959947,-34.91561062]}},{"properties":{"total people":611,"city":"North Adelaide","lattitude":-34.91561062,"total checkins":1145,"date time":"01/25/2012 06:04","postal code":"5006","longitude":138.5959947,"count":6,"id":"a62vxcqrzj1y","state":"SA","location":"Adelaide Oval"},"type":"Feature","geometry":{"type":"Point","coordinates":[138.5959947,-34.91561062]}},{"properties":{"total people":614,"city":"North Adelaide","lattitude":-34.91561062,"total checkins":1159,"date time":"01/25/2012 23:04","postal code":"5006","longitude":138.5959947,"count":10,"id":"a62vxcrbmm4m","state":"SA","location":"Adelaide Oval"},"type":"Feature","geometry":{"type":"Point","coordinates":[138.5959947,-34.91561062]}},{"properties":{"total people":618,"city":"North Adelaide","lattitude":-34.91561062,"total checkins":1171,"date time":"01/26/2012 00:04","postal code":"5006","longitude":138.5959947,"count":21,"id":"a62vxcpwyvvm","state":"SA","location":"Adelaide Oval"},"type":"Feature","geometry":{"type":"Point","coordinates":[138.5959947,-34.91561062]}},{"properties":{"total people":51,"city":"North Adelaide","lattitude":-34.91554024,"total checkins":111,"date time":"01/26/2012 00:04","postal code":"5006","longitude":138.5953724,"count":8,"id":"a62vxd1877b4","state":"SA","location":"Members Grandstand"},"type":"Feature","geometry":{"type":"Point","coordinates":[138.5953724,-34.91554024]}},{"properties":{"total people":623,"city":"North Adelaide","lattitude":-34.91561062,"total checkins":1186,"date time":"01/26/2012 01:04","postal code":"5006","longitude":138.5959947,"count":29,"id":"a62vxcr9ee62","state":"SA","location":"Adelaide Oval"},"type":"Feature","geometry":{"type":"Point","coordinates":[138.5959947,-34.91561062]}},{"properties":{"total people":51,"city":"North Adelaide","lattitude":-34.91554024,"total checkins":117,"date time":"01/26/2012 01:04","postal code":"5006","longitude":138.5953724,"count":13,"id":"a62vxcons0bq","state":"SA","location":"Members Grandstand"},"type":"Feature","geometry":{"type":"Point","coordinates":[138.5953724,-34.91554024]}},{"properties":{"total people":624,"city":"North Adelaide","lattitude":-34.91561062,"total checkins":1189,"date time":"01/26/2012 02:04","postal code":"5006","longitude":138.5959947,"count":25,"id":"a62vxcvu1gl0","state":"SA","location":"Adelaide Oval"},"type":"Feature","geometry":{"type":"Point","coordinates":[138.5959947,-34.91561062]}},{"properties":{"total people":52,"city":"North Adelaide","lattitude":-34.91554024,"total checkins":118,"date time":"01/26/2012 02:04","postal code":"5006","longitude":138.5953724,"count":11,"id":"a62vxcw6a2rw","state":"SA","location":"Members Grandstand"},"type":"Feature","geometry":{"type":"Point","coordinates":[138.5953724,-34.91554024]}},{"properties":{"total people":625,"city":"North Adelaide","lattitude":-34.91561062,"total checkins":1191,"date time":"01/26/2012 03:05","postal code":"5006","longitude":138.5959947,"count":16,"id":"a62vxcwqt454","state":"SA","location":"Adelaide Oval"},"type":"Feature","geometry":{"type":"Point","coordinates":[138.5959947,-34.91561062]}},{"properties":{"total people":52,"city":"North Adelaide","lattitude":-34.91554024,"total checkins":119,"date time":"01/26/2012 03:05","postal code":"5006","longitude":138.5953724,"count":7,"id":"a62vxcygje1h","state":"SA","location":"Members Grandstand"},"type":"Feature","geometry":{"type":"Point","coordinates":[138.5953724,-34.91554024]}},{"properties":{"total people":626,"city":"North Adelaide","lattitude":-34.91561062,"total checkins":1194,"date time":"01/26/2012 04:04","postal code":"5006","longitude":138.5959947,"count":8,"id":"a62vxctyjs74","state":"SA","location":"Adelaide Oval"},"type":"Feature","geometry":{"type":"Point","coordinates":[138.5959947,-34.91561062]}},{"properties":{"total people":628,"city":"North Adelaide","lattitude":-34.91561062,"total checkins":1201,"date time":"01/26/2012 05:04","postal code":"5006","longitude":138.5959947,"count":10,"id":"a62vxcx7fx4l","state":"SA","location":"Adelaide Oval"},"type":"Feature","geometry":{"type":"Point","coordinates":[138.5959947,-34.91561062]}},{"properties":{"total people":628,"city":"North Adelaide","lattitude":-34.91561062,"total checkins":1201,"date time":"01/26/2012 05:05","postal code":"5006","longitude":138.5959947,"count":10,"id":"a62vxcy96hcx","state":"SA","location":"Adelaide Oval"},"type":"Feature","geometry":{"type":"Point","coordinates":[138.5959947,-34.91561062]}},{"properties":{"total people":629,"city":"North Adelaide","lattitude":-34.91561062,"total checkins":1203,"date time":"01/26/2012 06:04","postal code":"5006","longitude":138.5959947,"count":10,"id":"a62vxd0wwhp1","state":"SA","location":"Adelaide Oval"},"type":"Feature","geometry":{"type":"Point","coordinates":[138.5959947,-34.91561062]}},{"properties":{"total people":630,"city":"North Adelaide","lattitude":-34.91561062,"total checkins":1204,"date time":"01/26/2012 07:04","postal code":"5006","longitude":138.5959947,"count":6,"id":"a62vxcwlbtxs","state":"SA","location":"Adelaide Oval"},"type":"Feature","geometry":{"type":"Point","coordinates":[138.5959947,-34.91561062]}},{"properties":{"total people":631,"city":"North Adelaide","lattitude":-34.91561062,"total checkins":1215,"date time":"01/27/2012 00:04","postal code":"5006","longitude":138.5959947,"count":7,"id":"a62vxcxqicsk","state":"SA","location":"Adelaide Oval"},"type":"Feature","geometry":{"type":"Point","coordinates":[138.5959947,-34.91561062]}},{"properties":{"total people":633,"city":"North Adelaide","lattitude":-34.91561062,"total checkins":1223,"date time":"01/27/2012 01:04","postal code":"5006","longitude":138.5959947,"count":11,"id":"a62vxcy6jqu5","state":"SA","location":"Adelaide Oval"},"type":"Feature","geometry":{"type":"Point","coordinates":[138.5959947,-34.91561062]}},{"properties":{"total people":55,"city":"North Adelaide","lattitude":-34.91554024,"total checkins":131,"date time":"01/27/2012 01:04","postal code":"5006","longitude":138.5953724,"count":7,"id":"a62vxd2oj3mb","state":"SA","location":"Members Grandstand"},"type":"Feature","geometry":{"type":"Point","coordinates":[138.5953724,-34.91554024]}},{"properties":{"total people":634,"city":"North Adelaide","lattitude":-34.91561062,"total checkins":1227,"date time":"01/27/2012 02:04","postal code":"5006","longitude":138.5959947,"count":15,"id":"a62vxcpwqy2n","state":"SA","location":"Adelaide Oval"},"type":"Feature","geometry":{"type":"Point","coordinates":[138.5959947,-34.91561062]}},{"properties":{"total people":56,"city":"North Adelaide","lattitude":-34.91554024,"total checkins":133,"date time":"01/27/2012 02:04","postal code":"5006","longitude":138.5953724,"count":7,"id":"a62vxcvegoqw","state":"SA","location":"Members Grandstand"},"type":"Feature","geometry":{"type":"Point","coordinates":[138.5953724,-34.91554024]}},{"properties":{"total people":636,"city":"North Adelaide","lattitude":-34.91561062,"total checkins":1231,"date time":"01/27/2012 03:04","postal code":"5006","longitude":138.5959947,"count":13,"id":"a62vxd1s4orl","state":"SA","location":"Adelaide Oval"},"type":"Feature","geometry":{"type":"Point","coordinates":[138.5959947,-34.91561062]}},{"properties":{"total people":56,"city":"North Adelaide","lattitude":-34.91554024,"total checkins":134,"date time":"01/27/2012 03:04","postal code":"5006","longitude":138.5953724,"count":7,"id":"a62vxd46mzi9","state":"SA","location":"Members Grandstand"},"type":"Feature","geometry":{"type":"Point","coordinates":[138.5953724,-34.91554024]}},{"properties":{"total people":636,"city":"North Adelaide","lattitude":-34.91561062,"total checkins":1232,"date time":"01/27/2012 04:04","postal code":"5006","longitude":138.5959947,"count":8,"id":"a62vxcuwx0pc","state":"SA","location":"Adelaide Oval"},"type":"Feature","geometry":{"type":"Point","coordinates":[138.5959947,-34.91561062]}},{"properties":{"total people":636,"city":"North Adelaide","lattitude":-34.91561062,"total checkins":1236,"date time":"01/27/2012 05:04","postal code":"5006","longitude":138.5959947,"count":8,"id":"a62vxcvmwo4n","state":"SA","location":"Adelaide Oval"},"type":"Feature","geometry":{"type":"Point","coordinates":[138.5959947,-34.91561062]}},{"properties":{"total people":638,"city":"North Adelaide","lattitude":-34.91561062,"total checkins":1241,"date time":"01/27/2012 06:04","postal code":"5006","longitude":138.5959947,"count":8,"id":"a62vxd1z3cz8","state":"SA","location":"Adelaide Oval"},"type":"Feature","geometry":{"type":"Point","coordinates":[138.5959947,-34.91561062]}},{"properties":{"total people":639,"city":"North Adelaide","lattitude":-34.91561062,"total checkins":1245,"date time":"01/27/2012 07:04","postal code":"5006","longitude":138.5959947,"count":8,"id":"a62vxd1o3dxw","state":"SA","location":"Adelaide Oval"},"type":"Feature","geometry":{"type":"Point","coordinates":[138.5959947,-34.91561062]}},{"properties":{"total people":641,"city":"North Adelaide","lattitude":-34.91561062,"total checkins":1254,"date time":"01/28/2012 00:04","postal code":"5006","longitude":138.5959947,"count":7,"id":"a62vxct610ru","state":"SA","location":"Adelaide Oval"},"type":"Feature","geometry":{"type":"Point","coordinates":[138.5959947,-34.91561062]}},{"properties":{"total people":641,"city":"North Adelaide","lattitude":-34.91561062,"total checkins":1260,"date time":"01/28/2012 01:14","postal code":"5006","longitude":138.5959947,"count":12,"id":"a62vxcq8ceog","state":"SA","location":"Adelaide Oval"},"type":"Feature","geometry":{"type":"Point","coordinates":[138.5959947,-34.91561062]}},{"properties":{"total people":62,"city":"North Adelaide","lattitude":-34.91554024,"total checkins":149,"date time":"01/28/2012 01:14","postal code":"5006","longitude":138.5953724,"count":6,"id":"a62vxcrsmy4c","state":"SA","location":"Members Grandstand"},"type":"Feature","geometry":{"type":"Point","coordinates":[138.5953724,-34.91554024]}}],"is_temporal":false,"author":{"url":"","metadata":"","contact_name":"","contact_address":"","source":"","contact_phone":""},"source":"","pagination":{"sort":null,"start":0,"total":449,"limit":1000000},"state":"complete","tags":"","published":"2014-08-14T14:55:42-04:00","id":200117}