{"type":"FeatureCollection","data_type":"Dataset","url_type":null,"permissions":[{"permissions":{"download":true,"view":true},"group_id":"everyone"}],"classification":null,"title":"RealTravel.com's Top 40 Value Hotels, Chinatown, San Francisco, USA","count":40,"stream_id":20066,"contributor":{"url":"http://geocommons.com/users/2101","name":"plarkin"},"data_attributes":null,"calculation_params":null,"icon_link":null,"link":"http://geocommons.com/overlays/20066.json","extent":[-122.434,37.775,-122.392,37.8069],"geometry_types":["point"],"unique_name":null,"name":"RealTravel.com's Top 40 Value Hotels, Chinatown, San Francisco, USA","feature_count":40,"description":"","next_feature":null,"is_raster":false,"short_classification":"Y","stats":{"lat":{"max":37.806921,"mean":37.789541885,"variance":4.53820545074719e-05,"stdev":0.00673662040696015,"min":37.775,"median":37.788922},"long":{"max":-122.391982,"mean":-122.411099925,"variance":7.6162359481912e-05,"stdev":0.00872710487400673,"min":-122.433924,"median":-122.409531}},"features":[{"properties":{"city":"San Francisco, CA 94102","name":"Abri (formerly Monticello Inn)","url":"www.realtravel.com/h-198136-san_francisco_hotel-abri_formerly_monticello_inn\\","id":"a64le7ih4u6l","lat":37.7854017,"address":"127 Ellis St","long":-122.4085825},"type":"Feature","geometry":{"type":"Point","coordinates":[-122.4085825,37.7854017]}},{"properties":{"city":"San Francisco, CA 94115","name":"Best Western Hotel Tomo","url":"www.realtravel.com/h-241560-san_francisco_hotel-best_western_hotel_tomo\\","id":"a64le7mfy3bx","lat":37.786809,"address":"1800 Sutter St","long":-122.430326},"type":"Feature","geometry":{"type":"Point","coordinates":[-122.430326,37.786809]}},{"properties":{"city":"San Francisco, CA 94133","name":"Best Western Tuscan Inn at Fisherman's Wharf","url":"www.realtravel.com/h-233413-san_francisco_hotel-best_western_tuscan_inn_at_fishermans_wharf\\","id":"a64le7dplisx","lat":37.806538,"address":"425 North Point St","long":-122.414208},"type":"Feature","geometry":{"type":"Point","coordinates":[-122.414208,37.806538]}},{"properties":{"city":"San Francisco, CA 94109","name":"Castle Inn","url":"www.realtravel.com/h-222407-san_francisco_hotel-castle_inn\\","id":"a64le7neyqru","lat":37.795785,"address":"1565 Broadway","long":-122.422835},"type":"Feature","geometry":{"type":"Point","coordinates":[-122.422835,37.795785]}},{"properties":{"city":"San Francisco, CA 94105","name":"Courtyard San Francisco Downtown","url":"www.realtravel.com/h-264502-san_francisco_hotel-courtyard_san_francisco_downtown\\","id":"a64le7c3ur2p","lat":37.7855772,"address":"299 2nd St","long":-122.3967166},"type":"Feature","geometry":{"type":"Point","coordinates":[-122.3967166,37.7855772]}},{"properties":{"city":"San Francisco, CA 94133","name":"Courtyard by Marriott Fishermans Wharf","url":"www.realtravel.com/h-23745-san_francisco_hotel-courtyard_by_marriott_fishermans_wharf\\","id":"a64le7dsommx","lat":37.806921,"address":"580 Beach St","long":-122.4186593},"type":"Feature","geometry":{"type":"Point","coordinates":[-122.4186593,37.806921]}},{"properties":{"city":"San Francisco, CA 94108","name":"Fairmont San Francisco","url":"www.realtravel.com/h-260997-san_francisco_hotel-fairmont_san_francisco\\","id":"a64le78yvog2","lat":37.79213,"address":"950 Mason St","long":-122.410454},"type":"Feature","geometry":{"type":"Point","coordinates":[-122.410454,37.79213]}},{"properties":{"city":"San Francisco, CA 94108","name":"Four Sisters Petite Auberge Inn","url":"www.realtravel.com/h-232194-san_francisco_hotel-four_sisters_petite_auberge_inn\\","id":"a64le7iueo24","lat":37.789541,"address":"863 Bush St","long":-122.411411},"type":"Feature","geometry":{"type":"Point","coordinates":[-122.411411,37.789541]}},{"properties":{"city":"San Francisco, CA 94104","name":"Galleria Park Hotel","url":"www.realtravel.com/h-101971-san_francisco_hotel-galleria_park_hotel\\","id":"a64le7h2ypyy","lat":37.7898207,"address":"191 Sutter St","long":-122.403725},"type":"Feature","geometry":{"type":"Point","coordinates":[-122.403725,37.7898207]}},{"properties":{"city":"San Francisco, CA 94108","name":"Grand Hyatt San Francisco Union Square","url":"www.realtravel.com/h-133948-san_francisco_hotel-grand_hyatt_san_francisco_union_square\\","id":"a64le781c0hd","lat":37.788922,"address":"345 Stockton St","long":-122.407182},"type":"Feature","geometry":{"type":"Point","coordinates":[-122.407182,37.788922]}},{"properties":{"city":"San Francisco, CA 94115","name":"HOTEL KABUKI SAN FRANCISCO","url":"www.realtravel.com/h-223518-san_francisco_hotel-hotel_kabuki_san_francisco\\","id":"a64le7fi2u6q","lat":37.785453,"address":"1625 Post St","long":-122.428722},"type":"Feature","geometry":{"type":"Point","coordinates":[-122.428722,37.785453]}},{"properties":{"city":"San Francisco, CA 94105","name":"Harbor Court Hotel - a Kimpton Hotel","url":"www.realtravel.com/h-77436-san_francisco_hotel-harbor_court_hotel_a_kimpton_hotel\\","id":"a64le7neacrr","lat":37.792699,"address":"165 Steuart St","long":-122.391982},"type":"Feature","geometry":{"type":"Point","coordinates":[-122.391982,37.792699]}},{"properties":{"city":"San Francisco, CA 94102","name":"Hotel Adagio","url":"www.realtravel.com/h-218538-san_francisco_hotel-hotel_adagio\\","id":"a64le7jlaq8n","lat":37.787098,"address":"550 Geary St","long":-122.412538},"type":"Feature","geometry":{"type":"Point","coordinates":[-122.412538,37.787098]}},{"properties":{"city":"San Francisco, CA 94109","name":"Hotel Beresford Arms","url":"www.realtravel.com/h-262236-san_francisco_hotel-hotel_beresford_arms\\","id":"a64le7ksvtll","lat":37.787353,"address":"701 Post St","long":-122.413547},"type":"Feature","geometry":{"type":"Point","coordinates":[-122.413547,37.787353]}},{"properties":{"city":"San Francisco, CA 94109","name":"Hotel Carlton","url":"www.realtravel.com/h-152841-san_francisco_hotel-hotel_carlton\\","id":"a64le7kroloz","lat":37.787751,"address":"1075 Sutter St","long":-122.417932},"type":"Feature","geometry":{"type":"Point","coordinates":[-122.417932,37.787751]}},{"properties":{"city":"San Francisco, CA 94108","name":"Hotel Rex - A Joie de Vivre Hotel","url":"www.realtravel.com/h-67415-san_francisco_hotel-hotel_rex_a_joie_de_vivre_hotel\\","id":"a64le7kkfntz","lat":37.78936,"address":"562 Sutter St","long":-122.409792},"type":"Feature","geometry":{"type":"Point","coordinates":[-122.409792,37.78936]}},{"properties":{"city":"San Francisco, CA 94108","name":"Hotel Triton - a Kimpton Hotel","url":"www.realtravel.com/h-369056-san_francisco_hotel-hotel_triton_a_kimpton_hotel\\","id":"a64le7glpqna","lat":37.7903462,"address":"342 Grant Ave","long":-122.4055027},"type":"Feature","geometry":{"type":"Point","coordinates":[-122.4055027,37.7903462]}},{"properties":{"city":"San Francisco, CA 94102","name":"Hotel Union Square","url":"www.realtravel.com/h-152836-san_francisco_hotel-hotel_union_square\\","id":"a64le7j89b9k","lat":37.788664,"address":"433 Powell St","long":-122.408742},"type":"Feature","geometry":{"type":"Point","coordinates":[-122.408742,37.788664]}},{"properties":{"city":"San Francisco, CA 94123","name":"Hotel del Sol","url":"www.realtravel.com/h-172843-san_francisco_hotel-hotel_del_sol\\","id":"a64le7d62oyv","lat":37.799463,"address":"3100 Webster St","long":-122.433924},"type":"Feature","geometry":{"type":"Point","coordinates":[-122.433924,37.799463]}},{"properties":{"city":"San Francisco, CA 94111","name":"Hyatt Regency San Francisco","url":"www.realtravel.com/h-15156-san_francisco_hotel-hyatt_regency_san_francisco\\","id":"a64le7h73nh5","lat":37.793965,"address":"5 Embarcadero Center","long":-122.396128},"type":"Feature","geometry":{"type":"Point","coordinates":[-122.396128,37.793965]}},{"properties":{"city":"San Francisco, CA 94102","name":"Inn At The Opera","url":"www.realtravel.com/h-295877-san_francisco_hotel-inn_at_the_opera\\","id":"a64le7m8qzsk","lat":37.778863,"address":"333 Fulton St","long":-122.4223175},"type":"Feature","geometry":{"type":"Point","coordinates":[-122.4223175,37.778863]}},{"properties":{"city":"San Francisco, CA 94108","name":"InterContinental MARK HOPKINS SAN FRANCISCO","url":"www.realtravel.com/h-299147-san_francisco_hotel-intercontinental_mark_hopkins_san_francisco\\","id":"a64le7fjge5x","lat":37.775,"address":"One Nob Hill","long":-122.4183},"type":"Feature","geometry":{"type":"Point","coordinates":[-122.4183,37.775]}},{"properties":{"city":"San Francisco, CA 94108","name":"JW Marriott Hotel San Francisco","url":"www.realtravel.com/h-90412-san_francisco_hotel-jw_marriott_hotel_san_francisco\\","id":"a64le7lrx4y9","lat":37.775,"address":"One Nob Hill","long":-122.4183},"type":"Feature","geometry":{"type":"Point","coordinates":[-122.4183,37.775]}},{"properties":{"city":"San Francisco, CA 94104","name":"JW Marriott San Francisco","url":"www.realtravel.com/h-29183-san_francisco_hotel-jw_marriott_san_francisco\\","id":"a64le7j6niz5","lat":37.793104,"address":"500 California St","long":-122.403174},"type":"Feature","geometry":{"type":"Point","coordinates":[-122.403174,37.793104]}},{"properties":{"city":"San Francisco, CA 94102","name":"Kensington Park Hotel","url":"www.realtravel.com/h-340983-san_francisco_hotel-kensington_park_hotel\\","id":"a64le7eycjsr","lat":37.788457,"address":"450 Post St","long":-122.409368},"type":"Feature","geometry":{"type":"Point","coordinates":[-122.409368,37.788457]}},{"properties":{"city":"San Francisco, CA 94108","name":"Larkspur Hotel Union Square","url":"www.realtravel.com/h-341699-san_francisco_hotel-larkspur_hotel_union_square\\","id":"a64le7e5qhgp","lat":37.789438,"address":"524 Sutter St","long":-122.409173},"type":"Feature","geometry":{"type":"Point","coordinates":[-122.409173,37.789438]}},{"properties":{"city":"San Francisco, CA 94111","name":"Le Meridien San Francisco","url":"www.realtravel.com/h-289375-san_francisco_hotel-le_meridien_san_francisco\\","id":"a64le7ih6252","lat":37.794701,"address":"333 Battery St","long":-122.400674},"type":"Feature","geometry":{"type":"Point","coordinates":[-122.400674,37.794701]}},{"properties":{"city":"San Francisco, CA 94133","name":"Marriott San Francisco Fisherman's Wharf","url":"www.realtravel.com/h-303354-san_francisco_hotel-marriott_san_francisco_fishermans_wharf\\","id":"a64le7bv9xog","lat":37.805653,"address":"1250 Columbus Ave","long":-122.417554},"type":"Feature","geometry":{"type":"Point","coordinates":[-122.417554,37.805653]}},{"properties":{"city":"San Francisco, CA 94108","name":"Orchard Hotel","url":"www.realtravel.com/h-302611-san_francisco_hotel-orchard_hotel\\","id":"a64le7iye3u6","lat":37.79001,"address":"665 Bush St","long":-122.40844},"type":"Feature","geometry":{"type":"Point","coordinates":[-122.40844,37.79001]}},{"properties":{"city":"San Francisco, CA 94102","name":"Parc 55","url":"www.realtravel.com/h-276692-san_francisco_hotel-parc_55\\","id":"a64le7l9n0cr","lat":37.784876,"address":"55 Cyril Magnin St","long":-122.40867},"type":"Feature","geometry":{"type":"Point","coordinates":[-122.40867,37.784876]}},{"properties":{"city":"San Francisco, CA 94102","name":"Park Hotel, San Francisco","url":"www.realtravel.com/h-165152-san_francisco_hotel-park_hotel_san_francisco\\","id":"a64le7fncyni","lat":37.785727,"address":"222 Mason St","long":-122.409531},"type":"Feature","geometry":{"type":"Point","coordinates":[-122.409531,37.785727]}},{"properties":{"city":"San Francisco, CA 94102","name":"Prescott Hotel - a Kimpton Hotel","url":"www.realtravel.com/h-210938-san_francisco_hotel-prescott_hotel_a_kimpton_hotel\\","id":"a64le7ec3gtb","lat":37.787713,"address":"545 Post St","long":-122.410708},"type":"Feature","geometry":{"type":"Point","coordinates":[-122.410708,37.787713]}},{"properties":{"city":"San Francisco, CA 94108","name":"Renaissance Stanford Court","url":"www.realtravel.com/h-252531-san_francisco_hotel-renaissance_stanford_court\\","id":"a64le7ao3cz0","lat":37.7919712,"address":"905 California St","long":-122.409694},"type":"Feature","geometry":{"type":"Point","coordinates":[-122.409694,37.7919712]}},{"properties":{"city":"San Francisco, CA 94103","name":"San Francisco Marriott","url":"www.realtravel.com/h-155975-san_francisco_hotel-san_francisco_marriott\\","id":"a64le7bfhqwp","lat":37.7850618,"address":"55 4th St","long":-122.4049045},"type":"Feature","geometry":{"type":"Point","coordinates":[-122.4049045,37.7850618]}},{"properties":{"city":"San Francisco, CA 94108","name":"San Francisco Marriott Union Square","url":"www.realtravel.com/h-72782-san_francisco_hotel-san_francisco_marriott_union_square\\","id":"a64le7j1rhw7","lat":37.7892919,"address":"480 Sutter St","long":-122.4082656},"type":"Feature","geometry":{"type":"Point","coordinates":[-122.4082656,37.7892919]}},{"properties":{"city":"San Francisco, CA 94102","name":"Serrano Hotel, A Kimpton Hotel","url":"www.realtravel.com/h-44419-san_francisco_hotel-serrano_hotel_a_kimpton_hotel\\","id":"a64le7bawrkc","lat":37.786131,"address":"405 Taylor St","long":-122.411449},"type":"Feature","geometry":{"type":"Point","coordinates":[-122.411449,37.786131]}},{"properties":{"city":"San Francisco, CA 94103","name":"The Westin San Francisco Market Street","url":"www.realtravel.com/h-54122-san_francisco_hotel-the_westin_san_francisco_market_street\\","id":"a64le7g1spxx","lat":37.786695,"address":"50 3rd St","long":-122.402812},"type":"Feature","geometry":{"type":"Point","coordinates":[-122.402812,37.786695]}},{"properties":{"city":"San Francisco, CA 94102","name":"The Westin St. Francis","url":"www.realtravel.com/h-280901-san_francisco_hotel-the_westin_st_francis\\","id":"a64le7ma8nai","lat":37.7879761,"address":"335 Powell St","long":-122.4083859},"type":"Feature","geometry":{"type":"Point","coordinates":[-122.4083859,37.7879761]}},{"properties":{"city":"San Francisco, CA 94102","name":"Villa Florence","url":"www.realtravel.com/h-223384-san_francisco_hotel-villa_florence\\","id":"a64le7gt59y0","lat":37.7868426,"address":"225 Powell St","long":-122.4081574},"type":"Feature","geometry":{"type":"Point","coordinates":[-122.4081574,37.7868426]}},{"properties":{"city":"San Francisco, CA 94108","name":"White Swan Inn","url":"www.realtravel.com/h-194776-san_francisco_hotel-white_swan_inn\\","id":"a64le79ulp9y","lat":37.789566,"address":"845 Bush St","long":-122.41121},"type":"Feature","geometry":{"type":"Point","coordinates":[-122.41121,37.789566]}}],"is_temporal":false,"author":{"url":"","metadata":"","contact_name":"","contact_address":"","source":"www.realtravel.com","contact_phone":""},"source":"","pagination":{"sort":null,"start":0,"total":40,"limit":1000000},"state":"complete","tags":"realtravel.com","published":"2010-01-12T02:47:50Z","id":20066}