{"type":"FeatureCollection","data_type":"Dataset","url_type":null,"permissions":[{"permissions":{"download":true,"view":true},"group_id":"everyone"}],"classification":null,"title":"Map_locations","count":32,"stream_id":200678,"contributor":{"url":"http://geocommons.com/users/39095","name":"synergy_maps"},"data_attributes":null,"calculation_params":null,"icon_link":null,"link":"http://geocommons.com/overlays/200678.json","extent":[-54.126,11.5833,92.6333,46.8152],"geometry_types":["point"],"unique_name":null,"name":"Map_locations","feature_count":32,"description":"","next_feature":null,"is_raster":false,"short_classification":"Y","stats":{},"features":[{"properties":{"city":"Sioux Falls","geo_score":0.871,"id":"a6vdo676cz74","geo_precision":"zip","state":"SD"},"type":"Feature","geometry":{"type":"Point","coordinates":[36.0833333,20.2833333]}},{"properties":{"city":"Madison","geo_score":0.0,"id":"a6vdo69rccmu","geo_precision":"unmatched","state":"SD"},"type":"Feature","geometry":null},{"properties":{"city":"Brandon","geo_score":0.0,"id":"a6vdo6918q5z","geo_precision":"unmatched","state":"SD"},"type":"Feature","geometry":null},{"properties":{"city":"Rochester","geo_score":0.0,"id":"a6vdo670y6zx","geo_precision":"unmatched","state":"MN"},"type":"Feature","geometry":null},{"properties":{"city":"Alsip","geo_score":0.0,"id":"a6vdo6990qrr","geo_precision":"unmatched","state":"IL"},"type":"Feature","geometry":null},{"properties":{"city":"Springfield","geo_score":0.0,"id":"a6vdo6d1pce3","geo_precision":"unmatched","state":"MO"},"type":"Feature","geometry":null},{"properties":{"city":"Redlands","geo_score":0.982,"id":"a6vdo6270vsl","geo_precision":"zip","state":"CA"},"type":"Feature","geometry":{"type":"Point","coordinates":[-54.125958822,46.815204135]}},{"properties":{"city":"Dallas","geo_score":0.0,"id":"a6vdo693ja4p","geo_precision":"unmatched","state":"TX"},"type":"Feature","geometry":null},{"properties":{"city":"Watertown","geo_score":0.0,"id":"a6vdo6b1h97v","geo_precision":"unmatched","state":"SD"},"type":"Feature","geometry":null},{"properties":{"city":"Fostoria","geo_score":0.0,"id":"a6vdo6an2kx1","geo_precision":"unmatched","state":"OH"},"type":"Feature","geometry":null},{"properties":{"city":"Marion","geo_score":0.0,"id":"a6vdo69jah6z","geo_precision":"unmatched","state":"OH"},"type":"Feature","geometry":null},{"properties":{"city":"North Manchester","geo_score":0.0,"id":"a6vdo66srmmc","geo_precision":"unmatched","state":"IN"},"type":"Feature","geometry":null},{"properties":{"city":"Alexandria","geo_score":0.952,"id":"a6vdo68l1cso","geo_precision":"zip","state":"IN"},"type":"Feature","geometry":{"type":"Point","coordinates":[92.6333333,11.5833333]}},{"properties":{"city":"Emmetsburg","geo_score":0.0,"id":"a6vdo6ahzmvz","geo_precision":"unmatched","state":"IA"},"type":"Feature","geometry":null},{"properties":{"city":"Littleton","geo_score":0.0,"id":"a6vdo67puwxp","geo_precision":"unmatched","state":"CO"},"type":"Feature","geometry":null},{"properties":{"city":"League City","geo_score":0.0,"id":"a6vdo698n46b","geo_precision":"unmatched","state":"TX"},"type":"Feature","geometry":null},{"properties":{"city":"Louisville","geo_score":0.0,"id":"a6vdo6606zdj","geo_precision":"unmatched","state":"KY"},"type":"Feature","geometry":null},{"properties":{"city":"Indianapolis","geo_score":0.0,"id":"a6vdo6e0b0tc","geo_precision":"unmatched","state":"IN"},"type":"Feature","geometry":null},{"properties":{"city":"Grand Praire","geo_score":0.0,"id":"a6vdo6834lv2","geo_precision":"unmatched","state":"TX"},"type":"Feature","geometry":null},{"properties":{"city":"Lees Summit","geo_score":0.0,"id":"a6vdo6dj5bfb","geo_precision":"unmatched","state":"MO"},"type":"Feature","geometry":null},{"properties":{"city":"Kansas City","geo_score":0.0,"id":"a6vdo6bvz48v","geo_precision":"unmatched","state":"MO"},"type":"Feature","geometry":null},{"properties":{"city":"Houston","geo_score":0.0,"id":"a6vdo6c7kvax","geo_precision":"unmatched","state":"TX"},"type":"Feature","geometry":null},{"properties":{"city":"Stuart","geo_score":0.0,"id":"a6vdo6g39x9t","geo_precision":"unmatched","state":"NE"},"type":"Feature","geometry":null},{"properties":{"city":"Valentine","geo_score":0.0,"id":"a6vdo6bumm7p","geo_precision":"unmatched","state":"NE"},"type":"Feature","geometry":null},{"properties":{"city":"Lebanon","geo_score":0.0,"id":"a6vdo6h5j2a7","geo_precision":"unmatched","state":"NH"},"type":"Feature","geometry":null},{"properties":{"city":"Rome","geo_score":0.0,"id":"a6vdo661ai6z","geo_precision":"unmatched","state":"NY"},"type":"Feature","geometry":null},{"properties":{"city":"Ames","geo_score":0.0,"id":"a6vdo64pm77p","geo_precision":"unmatched","state":"LA"},"type":"Feature","geometry":null},{"properties":{"city":"Los Altos","geo_score":0.732,"id":"a6vdo6gd4wc0","geo_precision":"zip","state":"CAL"},"type":"Feature","geometry":{"type":"Point","coordinates":[18.172023,40.357027]}},{"properties":{"city":"Hollywood","geo_score":0.0,"id":"a6vdo60w30bv","geo_precision":"unmatched","state":"CA"},"type":"Feature","geometry":null},{"properties":{"city":"Caroll","geo_score":0.0,"id":"a6vdo60wubo7","geo_precision":"unmatched","state":"IA"},"type":"Feature","geometry":null},{"properties":{"city":"Lincoln","geo_score":0.891,"id":"a6vdo6h94tbp","geo_precision":"zip","state":"NE"},"type":"Feature","geometry":{"type":"Point","coordinates":[1.2033,13.6944]}},{"properties":{"city":"Denver","geo_score":0.0,"id":"a6vdo6ef8jju","geo_precision":"unmatched","state":"CO"},"type":"Feature","geometry":null}],"is_temporal":false,"author":{"url":"","metadata":null,"contact_name":null,"contact_address":null,"source":null,"contact_phone":null},"source":"","pagination":{"sort":null,"start":0,"total":32,"limit":1000000},"state":"complete","tags":"","published":"2014-08-14T15:36:20-04:00","id":200678}