{"type":"FeatureCollection","data_type":"Dataset","url_type":null,"permissions":[{"permissions":{"download":true,"view":true},"group_id":"everyone"}],"classification":null,"title":"Kenya Airports","count":45,"stream_id":201336,"contributor":{"url":"http://geocommons.com/users/36594","name":"mfain19"},"data_attributes":null,"calculation_params":null,"icon_link":null,"link":"http://geocommons.com/overlays/201336.json","extent":[34.1288,-4.29448,41.8447,4.31932],"geometry_types":["point"],"unique_name":null,"name":"Kenya Airports","feature_count":45,"description":"This data presents airports in Kenya, Africa. ","next_feature":null,"is_raster":false,"short_classification":"Y","stats":{"lon":{"max":41.844746,"mean":37.4121454,"variance":4.74775373007697,"stdev":2.17893408116835,"min":34.128782,"median":37.252761},"lat":{"max":4.319324,"mean":-0.237208755555556,"variance":5.04561730713392,"stdev":2.24624515739799,"min":-4.294476,"median":-0.297531}},"features":[{"properties":{"lon":36.925135,"airport name":"Jomo Kenyatta International Airport","city":"Nairobi","surface":"Paved","code":"NBO","international":"Yes","country":"Kenya","id":"a62tsxpz05zv","lat":-1.321203,"state":"Nairobi"},"type":"Feature","geometry":{"type":"Point","coordinates":[36.925135,-1.321203]}},{"properties":{"lon":37.252761,"airport name":"Amboseli Airport","city":"Amboseli","surface":"Paved","code":"ASV","international":"No","country":"Kenya","id":"a62tsxrkcpd7","lat":-2.644834,"state":"Rift Valley"},"type":"Feature","geometry":{"type":"Point","coordinates":[37.252761,-2.644834]}},{"properties":{"lon":35.223724,"airport name":"Eldoret International Airport","city":"Eldoret","surface":"Paved","code":"EDL","international":"Yes","country":"Kenya","id":"a62tsxly9wg7","lat":0.404184,"state":"Rift Valley"},"type":"Feature","geometry":{"type":"Point","coordinates":[35.223724,0.404184]}},{"properties":{"lon":34.730369,"airport name":"Kisumu International Airport","city":"Kisumu","surface":"Paved","code":"KIS","international":"Yes","country":"Kenya","id":"a62tsxesk6h0","lat":-0.084919,"state":"Nyanza"},"type":"Feature","geometry":{"type":"Point","coordinates":[34.730369,-0.084919]}},{"properties":{"lon":34.959521,"airport name":"Kitale Airport","city":"Kitale","surface":"Paved","code":"KTL","international":"No","country":"Kenya","id":"a62tsxeewnsg","lat":0.973209,"state":"Rift Valley"},"type":"Feature","geometry":{"type":"Point","coordinates":[34.959521,0.973209]}},{"properties":{"lon":40.912914,"airport name":"Lamu Airport","city":"Lamu","surface":"Paved","code":"LAU","international":"No","country":"Kenya","id":"a62tsxtpbbut","lat":-2.252078,"state":"Coast"},"type":"Feature","geometry":{"type":"Point","coordinates":[40.912914,-2.252078]}},{"properties":{"lon":35.606958,"airport name":"Lodwar Airport","city":"Lodwar","surface":"Paved","code":"LOK","international":"No","country":"Kenya","id":"a62tsxf1l6po","lat":3.121726,"state":"Rift Valley"},"type":"Feature","geometry":{"type":"Point","coordinates":[35.606958,3.121726]}},{"properties":{"lon":34.351995,"airport name":"Lokichoggio Airport","city":"Lokichoggio","surface":"Paved","code":"KLG","international":"No","country":"Kenya","id":"a62tsxjpqhvl","lat":4.203708,"state":"Rift Valley"},"type":"Feature","geometry":{"type":"Point","coordinates":[34.351995,4.203708]}},{"properties":{"lon":40.100505,"airport name":"Malindi Airport","city":"Malindi","surface":"Paved","code":"MYD","international":"No","country":"Kenya","id":"a62tsxjs3nn5","lat":-3.223033,"state":"Coast"},"type":"Feature","geometry":{"type":"Point","coordinates":[40.100505,-3.223033]}},{"properties":{"lon":41.844746,"airport name":"Mandera Airport","city":"Mandera","surface":"Paved","code":"NDE","international":"No","country":"Kenya","id":"a62tsxewvuie","lat":3.934296,"state":"North Eastern"},"type":"Feature","geometry":{"type":"Point","coordinates":[41.844746,3.934296]}},{"properties":{"lon":35.059036,"airport name":"Mara Lodges","city":"Mara Lodges","surface":"Unpaved","code":"MRE","international":"No","country":"Kenya","id":"a62tsxm5k065","lat":-1.299698,"state":"Rift Valley"},"type":"Feature","geometry":{"type":"Point","coordinates":[35.059036,-1.299698]}},{"properties":{"lon":39.599662,"airport name":"Moi International Airport","city":"Mombasa","surface":"Paved","code":"MBA","international":"Yes","country":"Kenya","id":"a62tsxla3lmg","lat":-4.031056,"state":"Coast"},"type":"Feature","geometry":{"type":"Point","coordinates":[39.599662,-4.031056]}},{"properties":{"lon":36.814821,"airport name":"Wilson Airport","city":"Nairobi","surface":"Paved","code":"WIL","international":"No","country":"Kenya","id":"a62tsxfy2ex6","lat":-1.322008,"state":"Nairobi"},"type":"Feature","geometry":{"type":"Point","coordinates":[36.814821,-1.322008]}},{"properties":{"lon":37.0259,"airport name":"Nanyuki Airport","city":"Nanyuki","surface":"Paved","code":"NYK","international":"No","country":"Kenya","id":"a62tsxdcuwq1","lat":0.03253,"state":"Rift Valley"},"type":"Feature","geometry":{"type":"Point","coordinates":[37.0259,0.03253]}},{"properties":{"lon":37.533299,"airport name":"Samburu Airport","city":"Samburu","surface":"Paved","code":"UAS","international":"No","country":"Kenya","id":"a62tsxsos4co","lat":0.533173,"state":"Coast"},"type":"Feature","geometry":{"type":"Point","coordinates":[37.533299,0.533173]}},{"properties":{"lon":39.571273,"airport name":"Ukunda Airport","city":"Ukunda","surface":"Paved","code":"UKA","international":"No","country":"Kenya","id":"a62tsxfbr7xl","lat":-4.294476,"state":"Coast"},"type":"Feature","geometry":{"type":"Point","coordinates":[39.571273,-4.294476]}},{"properties":{"lon":40.090613,"airport name":"Wajir Airport","city":"Wajir","surface":"Paved","code":"WJR","international":"No","country":"Kenya","id":"a62tsxshkw9x","lat":1.733944,"state":"North Eastern"},"type":"Feature","geometry":{"type":"Point","coordinates":[40.090613,1.733944]}},{"properties":{"lon":39.731283,"airport name":"Bamburi Airport","city":"Mombasa","surface":"Paved","code":"BMQ","international":"No","country":"Kenya","id":"a62tsxtn7jeb","lat":-3.979095,"state":"Coast"},"type":"Feature","geometry":{"type":"Point","coordinates":[39.731283,-3.979095]}},{"properties":{"lon":34.557731,"airport name":"Bungoma Airstrip","city":"Bungoma","surface":"Paved","code":"N/A","international":"No","country":"Kenya","id":"a62tsxeaj9mq","lat":0.57814,"state":"Western"},"type":"Feature","geometry":{"type":"Point","coordinates":[34.557731,0.57814]}},{"properties":{"lon":39.949272,"airport name":"Bura East","city":"Bura East","surface":"Unpaved","code":"N/A","international":"No","country":"Kenya","id":"a62tsxgxnt4h","lat":-1.097729,"state":"Coast"},"type":"Feature","geometry":{"type":"Point","coordinates":[39.949272,-1.097729]}},{"properties":{"lon":34.128782,"airport name":"Busia","city":"Busia","surface":"Unpaved","code":"N/A","international":"No","country":"Kenya","id":"a62tsxflzvbt","lat":0.456368,"state":"Western"},"type":"Feature","geometry":{"type":"Point","coordinates":[34.128782,0.456368]}},{"properties":{"lon":37.492776,"airport name":"Embu Airport","city":"Embu","surface":"Paved","code":"N/A","international":"No","country":"Kenya","id":"a62tsxgeczbw","lat":-0.569686,"state":"Eastern"},"type":"Feature","geometry":{"type":"Point","coordinates":[37.492776,-0.569686]}},{"properties":{"lon":38.517058,"airport name":"Garba Tula","city":"Garba Tula","surface":"Unpaved","code":"N/A","international":"No","country":"Kenya","id":"a62tsxpamrnx","lat":0.523968,"state":"Eastern"},"type":"Feature","geometry":{"type":"Point","coordinates":[38.517058,0.523968]}},{"properties":{"lon":39.648022,"airport name":"Garissa","city":"Garissa","surface":"Paved","code":"GAS","international":"No","country":"Kenya","id":"a62tsxsxusx6","lat":-0.462263,"state":"North Eastern"},"type":"Feature","geometry":{"type":"Point","coordinates":[39.648022,-0.462263]}},{"properties":{"lon":40.003667,"airport name":"Hola Airport","city":"Bura","surface":"Unpaved","code":"HOA","international":"No","country":"Kenya","id":"a62tsxqlx5sm","lat":-1.520259,"state":"Coast"},"type":"Feature","geometry":{"type":"Point","coordinates":[40.003667,-1.520259]}},{"properties":{"lon":34.476836,"airport name":"Homa Bay Airport","city":"Homa Bay","surface":"Paved","code":"N/A","international":"No","country":"Kenya","id":"a62tsxrtldsm","lat":-0.587694,"state":"Nyanza"},"type":"Feature","geometry":{"type":"Point","coordinates":[34.476836,-0.587694]}},{"properties":{"lon":37.590741,"airport name":"Isiolo Airport","city":"Isiolo","surface":"Unpaved","code":"N/A","international":"No","country":"Kenya","id":"a62tsxqmqfhc","lat":0.339179,"state":"Eastern"},"type":"Feature","geometry":{"type":"Point","coordinates":[37.590741,0.339179]}},{"properties":{"lon":34.786921,"airport name":"Kakamega Airport","city":"Kakamega","surface":"Paved","code":"N/A","international":"No","country":"Kenya","id":"a62tsxj63vxm","lat":0.271181,"state":"Western"},"type":"Feature","geometry":{"type":"Point","coordinates":[34.786921,0.271181]}},{"properties":{"lon":35.837756,"airport name":"Kalokol Airport","city":"Kalokol","surface":"Paved","code":"KLK","international":"No","country":"Kenya","id":"a62tsxf2pazk","lat":3.491029,"state":"Rift Valley"},"type":"Feature","geometry":{"type":"Point","coordinates":[35.837756,3.491029]}},{"properties":{"lon":35.25929,"airport name":"Keekorok Airport","city":"Keekorok","surface":"Paved","code":"N/A","international":"No","country":"Kenya","id":"a62tsxiptyuu","lat":-1.586399,"state":"Rift Valley"},"type":"Feature","geometry":{"type":"Point","coordinates":[35.25929,-1.586399]}},{"properties":{"lon":35.6647,"airport name":"Kerio Valley Airport","city":"Kerio Valley","surface":"Unpaved","code":"KRV","international":"No","country":"Kenya","id":"a62tsxmvj5gv","lat":0.319289,"state":"Rift Valley"},"type":"Feature","geometry":{"type":"Point","coordinates":[35.6647,0.319289]}},{"properties":{"lon":38.070245,"airport name":"Kilaguni Airport","city":"Kilaguni","surface":"Paved","code":"ILU","international":"No","country":"Kenya","id":"a62tsxlva6vi","lat":-2.913468,"state":"Coast"},"type":"Feature","geometry":{"type":"Point","coordinates":[38.070245,-2.913468]}},{"properties":{"lon":34.688494,"airport name":"Kisii Airport","city":"Kisii","surface":"Paved","code":"N/A","international":"No","country":"Kenya","id":"a62tsxsl9vx0","lat":-0.672243,"state":"Nyanza"},"type":"Feature","geometry":{"type":"Point","coordinates":[34.688494,-0.672243]}},{"properties":{"lon":41.296599,"airport name":"Kiwayu Airport","city":"Kiwayu","surface":"Unpaved","code":"KWY","international":"No","country":"Kenya","id":"a62tsxrvxyfi","lat":-1.96132,"state":"Coast"},"type":"Feature","geometry":{"type":"Point","coordinates":[41.296599,-1.96132]}},{"properties":{"lon":40.880599,"airport name":"Liboi Airstrip","city":"Liboi","surface":"Unpaved","code":"LBK","international":"No","country":"Kenya","id":"a62tsxihpyez","lat":0.350123,"state":"North Eastern"},"type":"Feature","geometry":{"type":"Point","coordinates":[40.880599,0.350123]}},{"properties":{"lon":35.687284,"airport name":"Lokitaung Airstrip","city":"Lokitaung","surface":"Unpaved","code":"N/A","international":"No","country":"Kenya","id":"a62tsxglfaot","lat":4.319324,"state":"Rift Valley"},"type":"Feature","geometry":{"type":"Point","coordinates":[35.687284,4.319324]}},{"properties":{"lon":36.718562,"airport name":"Loyangalani Airport","city":"Loyangalani","surface":"Paved","code":"LOY","international":"No","country":"Kenya","id":"a62tsxdh8b4l","lat":2.763063,"state":"Rift Valley"},"type":"Feature","geometry":{"type":"Point","coordinates":[36.718562,2.763063]}},{"properties":{"lon":36.28046,"airport name":"Magadi Airstrip","city":"Magadi","surface":"Paved","code":"N/A","international":"No","country":"Kenya","id":"a62tsxozop1i","lat":-1.946673,"state":"Rift Valley"},"type":"Feature","geometry":{"type":"Point","coordinates":[36.28046,-1.946673]}},{"properties":{"lon":37.824522,"airport name":"Makindu Airport","city":"Makindu","surface":"Unpaved","code":"N/A","international":"No","country":"Kenya","id":"a62tsxri2x91","lat":-2.290307,"state":"Eastern"},"type":"Feature","geometry":{"type":"Point","coordinates":[37.824522,-2.290307]}},{"properties":{"lon":37.99908,"airport name":"Marsabit","city":"Marsabit","surface":"Paved","code":"N/A","international":"No","country":"Kenya","id":"a62tsxpgu9d0","lat":2.345103,"state":"Eastern"},"type":"Feature","geometry":{"type":"Point","coordinates":[37.99908,2.345103]}},{"properties":{"lon":38.194946,"airport name":"Mulika Lodge Airport","city":"Meru","surface":"Paved","code":"N/A","international":"No","country":"Kenya","id":"a62tsxocmxtw","lat":0.164666,"state":"Eastern"},"type":"Feature","geometry":{"type":"Point","coordinates":[38.194946,0.164666]}},{"properties":{"lon":39.101758,"airport name":"Moyale Airport","city":"Moyale","surface":"Paved","code":"OYL","international":"No","country":"Kenya","id":"a62tsxqo08dq","lat":3.469322,"state":"Eastern"},"type":"Feature","geometry":{"type":"Point","coordinates":[39.101758,3.469322]}},{"properties":{"lon":36.864817,"airport name":"Moi Airforce Base (Eastleigh Airport)","city":"Nairobi","surface":"Paved","code":"N/A","international":"No","country":"Kenya","id":"a62tsxmbgujy","lat":-1.275425,"state":"Nairobi"},"type":"Feature","geometry":{"type":"Point","coordinates":[36.864817,-1.275425]}},{"properties":{"lon":36.158452,"airport name":"Nakuru Airport","city":"Nakuru","surface":"Paved","code":"N/A","international":"No","country":"Kenya","id":"a62tsxevhsfm","lat":-0.297531,"state":"Rift Valley"},"type":"Feature","geometry":{"type":"Point","coordinates":[36.158452,-0.297531]}},{"properties":{"lon":38.532658,"airport name":"Voi Airport","city":"Voi","surface":"Unpaved","code":"N/A","international":"No","country":"Kenya","id":"a62tsxphkaha","lat":-3.368522,"state":"Coast"},"type":"Feature","geometry":{"type":"Point","coordinates":[38.532658,-3.368522]}}],"is_temporal":false,"author":{"url":"","metadata":"","contact_name":"","contact_address":"","source":"","contact_phone":""},"source":"","pagination":{"sort":null,"start":0,"total":45,"limit":1000000},"state":"complete","tags":"","published":"2012-02-01T16:38:49Z","id":201336}