{"type":"FeatureCollection","data_type":"Dataset","url_type":null,"permissions":[{"permissions":{"download":true,"view":true},"group_id":"everyone"}],"classification":null,"title":"sprinfield agricultural access","count":5,"stream_id":20147,"contributor":{"url":"http://geocommons.com/users/229","name":"jcaris"},"data_attributes":null,"calculation_params":null,"icon_link":null,"link":"http://geocommons.com/overlays/20147.json","extent":[-72.5971,42.105,-72.5675,42.1103],"geometry_types":["point"],"unique_name":null,"name":"sprinfield agricultural access","feature_count":5,"description":"","next_feature":null,"is_raster":false,"short_classification":"Y","stats":{"Ref_ID":{"max":15341740,"mean":15341036.8,"variance":986491.7,"stdev":993.222885358568,"min":15339587,"median":15341712},"X":{"max":-72.5675426184,"mean":-72.5795721279,"variance":0.000121889795699969,"stdev":0.0110403711758242,"min":-72.5971396874,"median":-72.5757257944},"Pct_along":{"max":87.5,"mean":54.2328742981,"variance":609.901454692229,"stdev":24.6961829984358,"min":19.047618866,"median":58.8235282898},"Y":{"max":42.1103097183,"mean":42.1066055736,"variance":4.56066079116688e-06,"stdev":0.0021355703667093,"min":42.104963864,"median":42.1061791397},"Score":{"max":82,"mean":69.4,"variance":132.3,"stdev":11.5021737076085,"min":61,"median":61}},"features":[{"properties":{"City":null,"Match_addr":"95 LIBERTY ST, SPRINGFIELD, MA, 01103","Ref_ID":15340405,"Status":"M","Zip":"01103-1013","Category":"WIC Farmer's Market Nutrition Program Distribution Sites","Side":"R","ARC_Zip":"01103-1013","ARC_City":null,"Pct_along":46.9696960449,"Stan_addr":"95 |  |  | LIBERTY | ST |  |  | MA | 01103-1013","X":-72.5971396874,"Match_type":"M","Phone":"413-858-1000","Y":42.104963864,"ARC_State":"MA","Days":null,"State":"MA","Street":"95 Liberty St","Score":61,"Hours":"07:30-17:00","id":"a65tt8hllwg2","Organizati":"WIC Office","ARC_Street":"95 LIBERTY ST"},"type":"Feature","geometry":{"type":"Point","coordinates":[-72.5971396874072,42.1049638640192]}},{"properties":{"City":null,"Match_addr":"310 STATE ST, SPRINGFIELD, MA, 01105","Ref_ID":15341712,"Status":"M","Zip":"01105-1322","Category":"WIC Farmer's Market Nutrition Program Distribution Sites","Side":"L","ARC_Zip":"01105-1322","ARC_City":null,"Pct_along":87.5,"Stan_addr":"310 |  |  | STATE | ST |  |  | MA | 01105-1322","X":-72.5817267449,"Match_type":"M","Phone":"413-858-1300","Y":42.1053960063,"ARC_State":"MA","Days":null,"State":"MA","Street":"310 State St","Score":61,"Hours":"08:00-17:00","id":"a65tt8oo4kse","Organizati":"WIC Office","ARC_Street":"310 STATE ST"},"type":"Feature","geometry":{"type":"Point","coordinates":[-72.5817267449334,42.1053960063109]}},{"properties":{"City":null,"Match_addr":"439 UNION ST, SPRINGFIELD, MA, 01105","Ref_ID":15341740,"Status":"M","Zip":"01105","Category":"Senior Farmer's Market Coupon Distribution Sites","Side":"R","ARC_Zip":"01105","ARC_City":null,"Pct_along":58.8235282898,"Stan_addr":"439 | | | UNION | ST | | | MA | 01105","X":-72.5757257944,"Match_type":"A","Phone":"413-733-3917","Y":42.1061791397,"ARC_State":"MA","Days":null,"State":"MA","Street":"439 Union St","Score":82,"Hours":"08:00-16:00","id":"a65tt8uclju3","Organizati":"Mason Square Senior Center","ARC_Street":"439 Union St"},"type":"Feature","geometry":{"type":"Point","coordinates":[-72.5757257944035,42.1061791396563]}},{"properties":{"City":null,"Match_addr":"439 UNION ST, SPRINGFIELD, MA, 01105","Ref_ID":15341740,"Status":"M","Zip":"01105","Category":"Senior Farm Share Programs","Side":"R","ARC_Zip":"01105","ARC_City":null,"Pct_along":58.8235282898,"Stan_addr":"439 | | | UNION | ST | | | MA | 01105","X":-72.5757257944,"Match_type":"A","Phone":"413-733-3917","Y":42.1061791397,"ARC_State":"MA","Days":null,"State":"MA","Street":"439 Union St","Score":82,"Hours":"12:00","id":"a65tt8ql4jih","Organizati":"Mason Square Senior Center","ARC_Street":"439 Union St"},"type":"Feature","geometry":{"type":"Point","coordinates":[-72.5757257944035,42.1061791396563]}},{"properties":{"City":null,"Match_addr":"765 STATE ST, SPRINGFIELD, MA, 01109","Ref_ID":15339587,"Status":"M","Zip":"01109-4109","Category":"Senior Farm Share Programs","Side":"R","ARC_Zip":"01109-4109","ARC_City":null,"Pct_along":19.047618866,"Stan_addr":"765 |  |  | STATE | ST |  |  | MA | 01109-4109","X":-72.5675426184,"Match_type":"M","Phone":"413-739-7211","Y":42.1103097183,"ARC_State":"MA","Days":null,"State":"MA","Street":"765 State St","Score":61,"Hours":null,"id":"a65tt8v5a0m0","Organizati":"Urban League","ARC_Street":"765 STATE ST"},"type":"Feature","geometry":{"type":"Point","coordinates":[-72.5675426183502,42.1103097182761]}}],"is_temporal":false,"author":{"url":"","metadata":"","contact_name":"","contact_address":"","source":"","contact_phone":""},"source":"","pagination":{"sort":null,"start":0,"total":5,"limit":1000000},"state":"complete","tags":"access,springfield","published":"2014-08-10T11:07:19-04:00","id":20147}