{"type":"FeatureCollection","data_type":"Dataset","url_type":null,"permissions":[{"permissions":{"download":true,"view":true},"group_id":"everyone"}],"classification":null,"title":"Airports in Rift Valley, Kenya","count":13,"stream_id":201568,"contributor":{"url":"http://geocommons.com/users/36594","name":"mfain19"},"data_attributes":null,"calculation_params":[{"input":{"atr":"international","equals":"No"},"calculation":"filter"}],"icon_link":null,"link":"http://geocommons.com/overlays/201568.json","extent":[34.352,-2.64483,37.2528,4.31932],"geometry_types":["point"],"unique_name":null,"name":"Airports in Rift Valley, Kenya","feature_count":13,"description":"This data provides airports in Rift Valley, Kenya.","next_feature":null,"is_raster":false,"short_classification":"Y","stats":{"lon":{"max":37.252761,"mean":35.8355903846154,"variance":0.709515370540422,"stdev":0.842327353551113,"min":34.351995,"median":35.687284},"lat":{"max":4.319324,"mean":0.880672538461538,"variance":5.9951103750896,"stdev":2.4484914488496,"min":-2.644834,"median":0.319289}},"features":[{"properties":{"lon":37.252761,"airport name":"Amboseli Airport","city":"Amboseli","surface":"Paved","code":"ASV","international":"No","country":"Kenya","id":"0","lat":-2.644834,"state":"Rift Valley"},"type":"Feature","geometry":{"type":"Point","coordinates":[37.252761,-2.644834]}},{"properties":{"lon":34.959521,"airport name":"Kitale Airport","city":"Kitale","surface":"Paved","code":"KTL","international":"No","country":"Kenya","id":"2","lat":0.973209,"state":"Rift Valley"},"type":"Feature","geometry":{"type":"Point","coordinates":[34.959521,0.973209]}},{"properties":{"lon":35.606958,"airport name":"Lodwar Airport","city":"Lodwar","surface":"Paved","code":"LOK","international":"No","country":"Kenya","id":"3","lat":3.121726,"state":"Rift Valley"},"type":"Feature","geometry":{"type":"Point","coordinates":[35.606958,3.121726]}},{"properties":{"lon":34.351995,"airport name":"Lokichoggio Airport","city":"Lokichoggio","surface":"Paved","code":"KLG","international":"No","country":"Kenya","id":"4","lat":4.203708,"state":"Rift Valley"},"type":"Feature","geometry":{"type":"Point","coordinates":[34.351995,4.203708]}},{"properties":{"lon":35.059036,"airport name":"Mara Lodges","city":"Mara Lodges","surface":"Unpaved","code":"MRE","international":"No","country":"Kenya","id":"5","lat":-1.299698,"state":"Rift Valley"},"type":"Feature","geometry":{"type":"Point","coordinates":[35.059036,-1.299698]}},{"properties":{"lon":37.0259,"airport name":"Nanyuki Airport","city":"Nanyuki","surface":"Paved","code":"NYK","international":"No","country":"Kenya","id":"6","lat":0.03253,"state":"Rift Valley"},"type":"Feature","geometry":{"type":"Point","coordinates":[37.0259,0.03253]}},{"properties":{"lon":35.837756,"airport name":"Kalokol Airport","city":"Kalokol","surface":"Paved","code":"KLK","international":"No","country":"Kenya","id":"7","lat":3.491029,"state":"Rift Valley"},"type":"Feature","geometry":{"type":"Point","coordinates":[35.837756,3.491029]}},{"properties":{"lon":35.25929,"airport name":"Keekorok Airport","city":"Keekorok","surface":"Paved","code":"N/A","international":"No","country":"Kenya","id":"8","lat":-1.586399,"state":"Rift Valley"},"type":"Feature","geometry":{"type":"Point","coordinates":[35.25929,-1.586399]}},{"properties":{"lon":35.6647,"airport name":"Kerio Valley Airport","city":"Kerio Valley","surface":"Unpaved","code":"KRV","international":"No","country":"Kenya","id":"9","lat":0.319289,"state":"Rift Valley"},"type":"Feature","geometry":{"type":"Point","coordinates":[35.6647,0.319289]}},{"properties":{"lon":36.718562,"airport name":"Loyangalani Airport","city":"Loyangalani","surface":"Paved","code":"LOY","international":"No","country":"Kenya","id":"10","lat":2.763063,"state":"Rift Valley"},"type":"Feature","geometry":{"type":"Point","coordinates":[36.718562,2.763063]}},{"properties":{"lon":36.28046,"airport name":"Magadi Airstrip","city":"Magadi","surface":"Paved","code":"N/A","international":"No","country":"Kenya","id":"11","lat":-1.946673,"state":"Rift Valley"},"type":"Feature","geometry":{"type":"Point","coordinates":[36.28046,-1.946673]}},{"properties":{"lon":36.158452,"airport name":"Nakuru Airport","city":"Nakuru","surface":"Paved","code":"N/A","international":"No","country":"Kenya","id":"12","lat":-0.297531,"state":"Rift Valley"},"type":"Feature","geometry":{"type":"Point","coordinates":[36.158452,-0.297531]}},{"properties":{"lon":35.687284,"airport name":"Lokitaung Airstrip","city":"Lokitaung","surface":"Unpaved","code":"N/A","international":"No","country":"Kenya","id":"13","lat":4.319324,"state":"Rift Valley"},"type":"Feature","geometry":{"type":"Point","coordinates":[35.687284,4.319324]}}],"is_temporal":false,"author":{"url":"","metadata":"","contact_name":"","contact_address":"","source":"","contact_phone":""},"source":"","pagination":{"sort":null,"start":0,"total":13,"limit":1000000},"state":"complete","tags":"","published":"2012-02-02T17:00:00Z","id":201568}