{"type":"FeatureCollection","data_type":"Dataset","url_type":null,"permissions":[{"permissions":{"download":true,"view":true},"group_id":"everyone"}],"classification":null,"title":"PauldingCAIonly","count":287,"stream_id":201689,"contributor":{"url":"http://geocommons.com/users/12008","name":"pantheon"},"data_attributes":null,"calculation_params":null,"icon_link":null,"link":"http://geocommons.com/overlays/201689.json","extent":[-84.798,40.9897,-84.3524,41.252],"geometry_types":["point"],"unique_name":null,"name":"PauldingCAIonly","feature_count":287,"description":"","next_feature":null,"is_raster":false,"short_classification":"Y","stats":{"latitude":{"max":41.251958,"mean":41.1293895818815,"variance":0.00234383100790847,"stdev":0.0484131284664447,"min":40.989693,"median":41.137465},"returned latitude":{"max":41.251958,"mean":41.1293954864111,"variance":0.00234212745215341,"stdev":0.0483955313242185,"min":40.9896955,"median":41.137485},"returned longitude":{"max":-84.3527189,"mean":-84.5855868581882,"variance":0.0134627310156763,"stdev":0.116029009371262,"min":-84.798037,"median":-84.5808251},"longitude":{"max":-84.352425,"mean":-84.5855810522648,"variance":0.013462695909658,"stdev":0.116028858089951,"min":-84.798037,"median":-84.580819},"infousa_id":{"max":996616371,"mean":549644649.95122,"variance":7.480497915356e+16,"stdev":273504989.266302,"min":1258466,"median":553789397}},"features":[{"properties":{"city":"Paulding","zip":"45879","latitude":41.13846,"column_6":null,"ai type w bus size":"1-49 emp bus loc","primary_sic_description":"ASSOCIATIONS","returned address":"200-220 N Main St","country":"USA","returned latitude":41.1384602,"returned longitude":-84.5795577,"longitude":-84.579546,"id":"a64dbjxpl96k","infousa_id":140599200,"state":"OH"},"type":"Feature","geometry":{"type":"Point","coordinates":[-84.579546,41.13846]}},{"properties":{"city":"Antwerp","zip":"45813","latitude":41.181116,"column_6":null,"ai type w bus size":"1-49 emp bus loc","primary_sic_description":"ATTORNEYS","returned address":"108 S Main St","country":"USA","returned latitude":41.181175,"returned longitude":-84.740308,"longitude":-84.740439,"id":"a64dbjpqjg07","infousa_id":835219387,"state":"OH"},"type":"Feature","geometry":{"type":"Point","coordinates":[-84.740439,41.181116]}},{"properties":{"city":"Antwerp","zip":"45813","latitude":41.181362,"column_6":null,"ai type w bus size":"1-49 emp bus loc","primary_sic_description":"ATTORNEYS","returned address":"101 W River St","country":"USA","returned latitude":41.18113,"returned longitude":-84.740913,"longitude":-84.740698,"id":"a64dbjyo3u6m","infousa_id":587647215,"state":"OH"},"type":"Feature","geometry":{"type":"Point","coordinates":[-84.740698,41.181362]}},{"properties":{"city":"Paulding","zip":"45879","latitude":41.138265,"column_6":null,"ai type w bus size":"1-49 emp bus loc","primary_sic_description":"ATTORNEYS","returned address":"102 E Jackson St","country":"USA","returned latitude":41.138415,"returned longitude":-84.580566,"longitude":-84.580547,"id":"a64dbjpdtdir","infousa_id":140597741,"state":"OH"},"type":"Feature","geometry":{"type":"Point","coordinates":[-84.580547,41.138265]}},{"properties":{"city":"Paulding","zip":"45879","latitude":41.137509,"column_6":null,"ai type w bus size":"1-49 emp bus loc","primary_sic_description":"ATTORNEYS","returned address":"100-112 N Water St","country":"USA","returned latitude":41.137509,"returned longitude":-84.5785598,"longitude":-84.578574,"id":"a64dbjpmcc7z","infousa_id":140598269,"state":"OH"},"type":"Feature","geometry":{"type":"Point","coordinates":[-84.578574,41.137509]}},{"properties":{"city":"Paulding","zip":"45879","latitude":41.138265,"column_6":null,"ai type w bus size":"1-49 emp bus loc","primary_sic_description":"ATTORNEYS","returned address":"102 E Jackson St","country":"USA","returned latitude":41.138415,"returned longitude":-84.580566,"longitude":-84.580567,"id":"a64dbjttwc9j","infousa_id":218468338,"state":"OH"},"type":"Feature","geometry":{"type":"Point","coordinates":[-84.580567,41.138265]}},{"properties":{"city":"Paulding","zip":"45879","latitude":41.137583,"column_6":null,"ai type w bus size":"1-49 emp bus loc","primary_sic_description":"ATTORNEYS","returned address":"109 N Main St","country":"USA","returned latitude":41.137632,"returned longitude":-84.579296,"longitude":-84.579519,"id":"a64dbjt0skqb","infousa_id":468712633,"state":"OH"},"type":"Feature","geometry":{"type":"Point","coordinates":[-84.579519,41.137583]}},{"properties":{"city":"Paulding","zip":"45879","latitude":41.145139,"column_6":null,"ai type w bus size":"1-49 emp bus loc","primary_sic_description":"ATTORNEYS","returned address":"748-762 N Williams St","country":"USA","returned latitude":41.1451391,"returned longitude":-84.5808016,"longitude":-84.580817,"id":"a64dbjrg5qou","infousa_id":140597840,"state":"OH"},"type":"Feature","geometry":{"type":"Point","coordinates":[-84.580817,41.145139]}},{"properties":{"city":"Paulding","zip":"45879","latitude":41.137509,"column_6":null,"ai type w bus size":"1-49 emp bus loc","primary_sic_description":"ATTORNEYS","returned address":"100-112 N Water St","country":"USA","returned latitude":41.137509,"returned longitude":-84.5785598,"longitude":-84.578574,"id":"a64dbjn0tkol","infousa_id":691562698,"state":"OH"},"type":"Feature","geometry":{"type":"Point","coordinates":[-84.578574,41.137509]}},{"properties":{"city":"Paulding","zip":"45879","latitude":41.138298,"column_6":null,"ai type w bus size":"1-49 emp bus loc","primary_sic_description":"ATTORNEYS","returned address":"200 N Williams St","country":"USA","returned latitude":41.138436,"returned longitude":-84.581009,"longitude":-84.580769,"id":"a64dbjphwpq8","infousa_id":140597725,"state":"OH"},"type":"Feature","geometry":{"type":"Point","coordinates":[-84.580769,41.138298]}},{"properties":{"city":"Paulding","zip":"45879","latitude":41.139373,"column_6":null,"ai type w bus size":"1-49 emp bus loc","primary_sic_description":"ATTORNEYS","returned address":"300-308 N Main St","country":"USA","returned latitude":41.139373,"returned longitude":-84.5795313,"longitude":-84.57953,"id":"a64dbjrhlymz","infousa_id":627014889,"state":"OH"},"type":"Feature","geometry":{"type":"Point","coordinates":[-84.57953,41.139373]}},{"properties":{"city":"Paulding","zip":"45879","latitude":41.138265,"column_6":null,"ai type w bus size":"1-49 emp bus loc","primary_sic_description":"ATTORNEYS","returned address":"102 E Jackson St","country":"USA","returned latitude":41.138415,"returned longitude":-84.580566,"longitude":-84.580527,"id":"a64dbjv8opiq","infousa_id":689170769,"state":"OH"},"type":"Feature","geometry":{"type":"Point","coordinates":[-84.580527,41.138265]}},{"properties":{"city":"Antwerp","zip":"45813","latitude":41.189296,"column_6":null,"ai type w bus size":"1-49 emp bus loc","primary_sic_description":"AUCTIONEERS","returned address":"14398-14998 Township Highway T-31","country":"USA","returned latitude":41.1892961,"returned longitude":-84.7610512,"longitude":-84.761027,"id":"a64dbjyfcklm","infousa_id":257633628,"state":"OH"},"type":"Feature","geometry":{"type":"Point","coordinates":[-84.761027,41.189296]}},{"properties":{"city":"Grover Hill","zip":"45849","latitude":41.048397,"column_6":null,"ai type w bus size":"1-49 emp bus loc","primary_sic_description":"AUCTIONEERS","returned address":"19000-19998 County Road 60","country":"USA","returned latitude":41.0484128,"returned longitude":-84.4512321,"longitude":-84.451232,"id":"a64dbjo5swqp","infousa_id":488303645,"state":"OH"},"type":"Feature","geometry":{"type":"Point","coordinates":[-84.451232,41.048397]}},{"properties":{"city":"Oakwood","zip":"45873","latitude":41.107207,"column_6":null,"ai type w bus size":"1-49 emp bus loc","primary_sic_description":"AUCTIONEERS","returned address":"8969-8999 State Highway 66","country":"USA","returned latitude":41.1072069,"returned longitude":-84.3805404,"longitude":-84.380557,"id":"a64dbk1nhv9u","infousa_id":983499377,"state":"OH"},"type":"Feature","geometry":{"type":"Point","coordinates":[-84.380557,41.107207]}},{"properties":{"city":"Paulding","zip":"45879","latitude":41.137465,"column_6":null,"ai type w bus size":"1-49 emp bus loc","primary_sic_description":"AUCTIONEERS","returned address":"101-115 N Williams St","country":"USA","returned latitude":41.1374648,"returned longitude":-84.5807593,"longitude":-84.580777,"id":"a64dbjtfdwzi","infousa_id":434409116,"state":"OH"},"type":"Feature","geometry":{"type":"Point","coordinates":[-84.580777,41.137465]}},{"properties":{"city":"Antwerp","zip":"45813","latitude":41.179328,"column_6":null,"ai type w bus size":"1-49 emp bus loc","primary_sic_description":"AUTOMOBILE BODY-MANUFACTURERS","returned address":"107 Victory Ln","country":"USA","returned latitude":41.179281,"returned longitude":-84.724126,"longitude":-84.723912,"id":"a64dbjzb809y","infousa_id":835307760,"state":"OH"},"type":"Feature","geometry":{"type":"Point","coordinates":[-84.723912,41.179328]}},{"properties":{"city":"Antwerp","zip":"45813","latitude":41.137813,"column_6":null,"ai type w bus size":"1-49 emp bus loc","primary_sic_description":"AUTOMOBILE BODY-REPAIRING &amp; PAINTING","returned address":"11000-11998 State Highway 49","country":"USA","returned latitude":41.1378128,"returned longitude":-84.727124,"longitude":-84.727076,"id":"a64dbjr3jqve","infousa_id":300803095,"state":"OH"},"type":"Feature","geometry":{"type":"Point","coordinates":[-84.727076,41.137813]}},{"properties":{"city":"Paulding","zip":"45879","latitude":41.13731,"column_6":null,"ai type w bus size":"1-49 emp bus loc","primary_sic_description":"AUTOMOBILE DEALERS-NEW CARS","returned address":"201-299 E Perry St","country":"USA","returned latitude":41.137333,"returned longitude":-84.5793624,"longitude":-84.579362,"id":"a64dbjul7uyw","infousa_id":218468346,"state":"OH"},"type":"Feature","geometry":{"type":"Point","coordinates":[-84.579362,41.13731]}},{"properties":{"city":"Defiance","zip":"43512","latitude":41.196777,"column_6":null,"ai type w bus size":"1-49 emp bus loc","primary_sic_description":"AUTOMOBILE DEALERS-USED CARS","returned address":"15000-15162 Township Road 169","country":"USA","returned latitude":41.196777,"returned longitude":-84.4188276,"longitude":-84.418813,"id":"a64dbjwnmj8x","infousa_id":234187359,"state":"OH"},"type":"Feature","geometry":{"type":"Point","coordinates":[-84.418813,41.196777]}},{"properties":{"city":"Antwerp","zip":"45813","latitude":41.18021,"column_6":null,"ai type w bus size":"1-49 emp bus loc","primary_sic_description":"AUTOMOBILE DEALERS-USED CARS","returned address":"204-208 S Main St","country":"USA","returned latitude":41.1802052,"returned longitude":-84.7400198,"longitude":-84.740003,"id":"a64dbk1917cd","infousa_id":140548769,"state":"OH"},"type":"Feature","geometry":{"type":"Point","coordinates":[-84.740003,41.18021]}},{"properties":{"city":"Antwerp","zip":"45813","latitude":41.172447,"column_6":null,"ai type w bus size":"1-49 emp bus loc","primary_sic_description":"AUTOMOBILE DEALERS-USED CARS","returned address":"13461-13743 Township Highway T-43","country":"USA","returned latitude":41.172447,"returned longitude":-84.7272397,"longitude":-84.727235,"id":"a64dbk21jzt7","infousa_id":209941731,"state":"OH"},"type":"Feature","geometry":{"type":"Point","coordinates":[-84.727235,41.172447]}},{"properties":{"city":"Antwerp","zip":"45813","latitude":41.206776,"column_6":null,"ai type w bus size":"1-49 emp bus loc","primary_sic_description":"AUTOMOBILE DEALERS-USED CARS","returned address":"15806 Road 69","country":"USA","returned latitude":41.206178,"returned longitude":-84.674593,"longitude":-84.674779,"id":"a64dbjzzkees","infousa_id":306262650,"state":"OH"},"type":"Feature","geometry":{"type":"Point","coordinates":[-84.674779,41.206776]}},{"properties":{"city":"Antwerp","zip":"45813","latitude":41.13587,"column_6":null,"ai type w bus size":"1-49 emp bus loc","primary_sic_description":"AUTOMOBILE DEALERS-USED CARS","returned address":"1000-1910 State Highway 111","country":"USA","returned latitude":41.1358682,"returned longitude":-84.798037,"longitude":-84.798037,"id":"a64dbjrexrg8","infousa_id":524524295,"state":"OH"},"type":"Feature","geometry":{"type":"Point","coordinates":[-84.798037,41.13587]}},{"properties":{"city":"Cloverdale","zip":"45827","latitude":41.015034,"column_6":null,"ai type w bus size":"1-49 emp bus loc","primary_sic_description":"AUTOMOBILE DEALERS-USED CARS","returned address":"2546-2736 State Highway 66","country":"USA","returned latitude":41.0150343,"returned longitude":-84.3612319,"longitude":-84.361246,"id":"a64dbjuo91ri","infousa_id":539091728,"state":"OH"},"type":"Feature","geometry":{"type":"Point","coordinates":[-84.361246,41.015034]}},{"properties":{"city":"Paulding","zip":"45879","latitude":41.091549,"column_6":null,"ai type w bus size":"1-49 emp bus loc","primary_sic_description":"AUTOMOBILE ELECTRIC SERVICE","returned address":"10000-10374 State Highway 613","country":"USA","returned latitude":41.0915576,"returned longitude":-84.627672,"longitude":-84.627672,"id":"a64dbk00j0sy","infousa_id":835309071,"state":"OH"},"type":"Feature","geometry":{"type":"Point","coordinates":[-84.627672,41.091549]}},{"properties":{"city":"Paulding","zip":"45879","latitude":41.130643,"column_6":null,"ai type w bus size":"1-49 emp bus loc","primary_sic_description":"AUTOMOBILE LEASING","returned address":"860 E Perry St","country":"USA","returned latitude":41.130536,"returned longitude":-84.573464,"longitude":-84.573684,"id":"a64dbjo91h68","infousa_id":140599499,"state":"OH"},"type":"Feature","geometry":{"type":"Point","coordinates":[-84.573684,41.130643]}},{"properties":{"city":"Cecil","zip":"45821","latitude":41.217833,"column_6":null,"ai type w bus size":"1-49 emp bus loc","primary_sic_description":"AUTOMOBILE MACHINE SHOP SERVICE","returned address":"101-111 County Highway 105","country":"USA","returned latitude":41.2178328,"returned longitude":-84.6022622,"longitude":-84.602297,"id":"a64dbjqoti2e","infousa_id":140551516,"state":"OH"},"type":"Feature","geometry":{"type":"Point","coordinates":[-84.602297,41.217833]}},{"properties":{"city":"Cecil","zip":"45821","latitude":41.22296,"column_6":null,"ai type w bus size":"1-49 emp bus loc","primary_sic_description":"AUTOMOBILE MACHINE SHOP SERVICE","returned address":"11800-12014 Township Highway T-224","country":"USA","returned latitude":41.2229678,"returned longitude":-84.5941319,"longitude":-84.594132,"id":"a64dbjtw5z1m","infousa_id":451564694,"state":"OH"},"type":"Feature","geometry":{"type":"Point","coordinates":[-84.594132,41.22296]}},{"properties":{"city":"Antwerp","zip":"45813","latitude":41.188144,"column_6":null,"ai type w bus size":"100-499 emp bus loc","primary_sic_description":"AUTOMOBILE PARTS &amp; SUPPLIES-MFRS","returned address":"5001-5303 County Road 424","country":"USA","returned latitude":41.1881588,"returned longitude":-84.7221234,"longitude":-84.722071,"id":"a64dbjmfjjki","infousa_id":9312307,"state":"OH"},"type":"Feature","geometry":{"type":"Point","coordinates":[-84.722071,41.188144]}},{"properties":{"city":"Antwerp","zip":"45813","latitude":41.179528,"column_6":null,"ai type w bus size":"1-49 emp bus loc","primary_sic_description":"AUTOMOBILE PARTS &amp; SUPPLIES-RETAIL-NEW","returned address":"Daggett St","country":"USA","returned latitude":41.1794209,"returned longitude":-84.7413149,"longitude":-84.740945,"id":"a64dbk0h6bq5","infousa_id":140548504,"state":"OH"},"type":"Feature","geometry":{"type":"Point","coordinates":[-84.740945,41.179528]}},{"properties":{"city":"Paulding","zip":"45879","latitude":41.151121,"column_6":null,"ai type w bus size":"1-49 emp bus loc","primary_sic_description":"AUTOMOBILE PARTS &amp; SUPPLIES-RETAIL-NEW","returned address":"1015-1019 N Williams St","country":"USA","returned latitude":41.151121,"returned longitude":-84.5808251,"longitude":-84.580833,"id":"a64dbk1e2b4u","infousa_id":983500893,"state":"OH"},"type":"Feature","geometry":{"type":"Point","coordinates":[-84.580833,41.151121]}},{"properties":{"city":"Paulding","zip":"45879","latitude":41.137299,"column_6":null,"ai type w bus size":"1-49 emp bus loc","primary_sic_description":"AUTOMOBILE PARTS &amp; SUPPLIES-RETAIL-NEW","returned address":"311 W Perry St","country":"USA","returned latitude":41.137205,"returned longitude":-84.583584,"longitude":-84.583557,"id":"a64dbjzad21p","infousa_id":563900364,"state":"OH"},"type":"Feature","geometry":{"type":"Point","coordinates":[-84.583557,41.137299]}},{"properties":{"city":"Payne","zip":"45880","latitude":41.073466,"column_6":null,"ai type w bus size":"1-49 emp bus loc","primary_sic_description":"AUTOMOBILE PARTS &amp; SUPPLIES-RETAIL-NEW","returned address":"500 Main St","country":"USA","returned latitude":41.0734683,"returned longitude":-84.7267605,"longitude":-84.726678,"id":"a64dbjow8x39","infousa_id":140600388,"state":"OH"},"type":"Feature","geometry":{"type":"Point","coordinates":[-84.726678,41.073466]}},{"properties":{"city":"Paulding","zip":"45879","latitude":41.14989,"column_6":null,"ai type w bus size":"500+ emp bus loc","primary_sic_description":"AUTOMOBILE PARTS &amp; SUPPLIES-WHOLESALE","returned address":"401-599 County Highway 144","country":"USA","returned latitude":41.1498974,"returned longitude":-84.5870441,"longitude":-84.587044,"id":"a64dbjw9eo6d","infousa_id":591450689,"state":"OH"},"type":"Feature","geometry":{"type":"Point","coordinates":[-84.587044,41.14989]}},{"properties":{"city":"Defiance","zip":"43512","latitude":41.194687,"column_6":null,"ai type w bus size":"1-49 emp bus loc","primary_sic_description":"AUTOMOBILE REPAIRING &amp; SERVICE","returned address":"18894 County Highway C-180","country":"USA","returned latitude":41.1946832,"returned longitude":-84.4586992,"longitude":-84.458699,"id":"a64dbjxl76ln","infousa_id":690811575,"state":"OH"},"type":"Feature","geometry":{"type":"Point","coordinates":[-84.458699,41.194687]}},{"properties":{"city":"Antwerp","zip":"45813","latitude":41.181574,"column_6":null,"ai type w bus size":"1-49 emp bus loc","primary_sic_description":"AUTOMOBILE REPAIRING &amp; SERVICE","returned address":"104-106 N Main St","country":"USA","returned latitude":41.1815686,"returned longitude":-84.7406803,"longitude":-84.74066,"id":"a64dbjyzbehz","infousa_id":609994777,"state":"OH"},"type":"Feature","geometry":{"type":"Point","coordinates":[-84.74066,41.181574]}},{"properties":{"city":"Cecil","zip":"45821","latitude":41.251958,"column_6":null,"ai type w bus size":"1-49 emp bus loc","primary_sic_description":"AUTOMOBILE REPAIRING &amp; SERVICE","returned address":"18998 County Road 115","country":"USA","returned latitude":41.251958,"returned longitude":-84.5537497,"longitude":-84.553752,"id":"a64dbjvv5x9h","infousa_id":371611146,"state":"OH"},"type":"Feature","geometry":{"type":"Point","coordinates":[-84.553752,41.251958]}},{"properties":{"city":"Oakwood","zip":"45873","latitude":41.109993,"column_6":null,"ai type w bus size":"1-49 emp bus loc","primary_sic_description":"AUTOMOBILE REPAIRING &amp; SERVICE","returned address":"9622-9652 County Road 171","country":"USA","returned latitude":41.1099874,"returned longitude":-84.4035549,"longitude":-84.403553,"id":"a64dbk1a4i6d","infousa_id":679996686,"state":"OH"},"type":"Feature","geometry":{"type":"Point","coordinates":[-84.403553,41.109993]}},{"properties":{"city":"Oakwood","zip":"45873","latitude":41.092503,"column_6":null,"ai type w bus size":"1-49 emp bus loc","primary_sic_description":"AUTOMOBILE REPAIRING &amp; SERVICE","returned address":"24000-24494 State Highway 613","country":"USA","returned latitude":41.0925013,"returned longitude":-84.35834,"longitude":-84.35834,"id":"a64dbk00kw70","infousa_id":417337169,"state":"OH"},"type":"Feature","geometry":{"type":"Point","coordinates":[-84.35834,41.092503]}},{"properties":{"city":"Paulding","zip":"45879","latitude":41.138534,"column_6":null,"ai type w bus size":"1-49 emp bus loc","primary_sic_description":"AUTOMOBILE REPAIRING &amp; SERVICE","returned address":"601-757 County Highway 111","country":"USA","returned latitude":41.1385303,"returned longitude":-84.5735027,"longitude":-84.573493,"id":"a64dbjnpg115","infousa_id":983500919,"state":"OH"},"type":"Feature","geometry":{"type":"Point","coordinates":[-84.573493,41.138534]}},{"properties":{"city":"Paulding","zip":"45879","latitude":41.137317,"column_6":null,"ai type w bus size":"1-49 emp bus loc","primary_sic_description":"AUTOMOBILE REPAIRING &amp; SERVICE","returned address":"206 W Perry St","country":"USA","returned latitude":41.137395,"returned longitude":-84.582443,"longitude":-84.582372,"id":"a64dbjyblsfg","infousa_id":692163280,"state":"OH"},"type":"Feature","geometry":{"type":"Point","coordinates":[-84.582372,41.137317]}},{"properties":{"city":"Paulding","zip":"45879","latitude":41.137086,"column_6":null,"ai type w bus size":"1-49 emp bus loc","primary_sic_description":"AUTOMOBILE REPAIRING &amp; SERVICE","returned address":"101-113 S Williams St","country":"USA","returned latitude":41.1370858,"returned longitude":-84.5807701,"longitude":-84.580795,"id":"a64dbjx5vmuo","infousa_id":962592556,"state":"OH"},"type":"Feature","geometry":{"type":"Point","coordinates":[-84.580795,41.137086]}},{"properties":{"city":"Paulding","zip":"45879","latitude":41.149917,"column_6":null,"ai type w bus size":"1-49 emp bus loc","primary_sic_description":"AUTOMOBILE REPAIRING &amp; SERVICE","returned address":"County Highway 144","country":"USA","returned latitude":41.1499499,"returned longitude":-84.5814918,"longitude":-84.582024,"id":"a64dbjwg1zsd","infousa_id":659076889,"state":"OH"},"type":"Feature","geometry":{"type":"Point","coordinates":[-84.582024,41.149917]}},{"properties":{"city":"Payne","zip":"45880","latitude":41.09886,"column_6":null,"ai type w bus size":"1-49 emp bus loc","primary_sic_description":"AUTOMOBILE REPAIRING &amp; SERVICE","returned address":"8362-8998 Township Road 51","country":"USA","returned latitude":41.0988599,"returned longitude":-84.7075342,"longitude":-84.707518,"id":"a64dbjzgv83h","infousa_id":996616322,"state":"OH"},"type":"Feature","geometry":{"type":"Point","coordinates":[-84.707518,41.09886]}},{"properties":{"city":"Antwerp","zip":"45813","latitude":41.179726,"column_6":null,"ai type w bus size":"1-49 emp bus loc","primary_sic_description":"BANKS","returned address":"253-303 S Main St","country":"USA","returned latitude":41.1797202,"returned longitude":-84.7398284,"longitude":-84.739808,"id":"a64dbjqkxf7x","infousa_id":140548256,"state":"OH"},"type":"Feature","geometry":{"type":"Point","coordinates":[-84.739808,41.179726]}},{"properties":{"city":"Oakwood","zip":"45873","latitude":41.09493,"column_6":null,"ai type w bus size":"1-49 emp bus loc","primary_sic_description":"BANKS","returned address":"218 1st St","country":"USA","returned latitude":41.0951419,"returned longitude":-84.380595,"longitude":-84.380453,"id":"a64dbjxwdtbk","infousa_id":394152946,"state":"OH"},"type":"Feature","geometry":{"type":"Point","coordinates":[-84.380453,41.09493]}},{"properties":{"city":"Paulding","zip":"45879","latitude":41.148919,"column_6":null,"ai type w bus size":"1-49 emp bus loc","primary_sic_description":"BANKS","returned address":"900-998 N Williams St","country":"USA","returned latitude":41.1489191,"returned longitude":-84.5808062,"longitude":-84.580819,"id":"a64dbk050s5x","infousa_id":902088749,"state":"OH"},"type":"Feature","geometry":{"type":"Point","coordinates":[-84.580819,41.148919]}},{"properties":{"city":"Paulding","zip":"45879","latitude":41.138301,"column_6":null,"ai type w bus size":"1-49 emp bus loc","primary_sic_description":"BANKS","returned address":"200-298 E Jackson St","country":"USA","returned latitude":41.138292,"returned longitude":-84.5795102,"longitude":-84.57951,"id":"a64dbjppmfi0","infousa_id":1258466,"state":"OH"},"type":"Feature","geometry":{"type":"Point","coordinates":[-84.57951,41.138301]}},{"properties":{"city":"Paulding","zip":"45879","latitude":41.137556,"column_6":null,"ai type w bus size":"1-49 emp bus loc","primary_sic_description":"BANKS","returned address":"120 N Cherry St","country":"USA","returned latitude":41.138039,"returned longitude":-84.582161,"longitude":-84.582071,"id":"a64dbjz7lyvo","infousa_id":512947466,"state":"OH"},"type":"Feature","geometry":{"type":"Point","coordinates":[-84.582071,41.137556]}},{"properties":{"city":"Paulding","zip":"45879","latitude":41.13846,"column_6":null,"ai type w bus size":"1-49 emp bus loc","primary_sic_description":"BANKS","returned address":"200-220 N Main St","country":"USA","returned latitude":41.1384602,"returned longitude":-84.5795577,"longitude":-84.579546,"id":"a64dbjwx12ye","infousa_id":140599846,"state":"OH"},"type":"Feature","geometry":{"type":"Point","coordinates":[-84.579546,41.13846]}},{"properties":{"city":"Payne","zip":"45880","latitude":41.079474,"column_6":null,"ai type w bus size":"1-49 emp bus loc","primary_sic_description":"BANKS","returned address":"102-104 N Main St","country":"USA","returned latitude":41.079474,"returned longitude":-84.7266636,"longitude":-84.726665,"id":"a64dbjraqrir","infousa_id":697221364,"state":"OH"},"type":"Feature","geometry":{"type":"Point","coordinates":[-84.726665,41.079474]}},{"properties":{"city":"Payne","zip":"45880","latitude":41.079235,"column_6":null,"ai type w bus size":"1-49 emp bus loc","primary_sic_description":"BANKS","returned address":"Merrin St","country":"USA","returned latitude":41.0792537,"returned longitude":-84.726091,"longitude":-84.726562,"id":"a64dbjov43oq","infousa_id":140600529,"state":"OH"},"type":"Feature","geometry":{"type":"Point","coordinates":[-84.726562,41.079235]}},{"properties":{"city":"Paulding","zip":"45879","latitude":41.137312,"column_6":null,"ai type w bus size":"1-49 emp bus loc","primary_sic_description":"BARBERS","returned address":"103-105 E Perry St","country":"USA","returned latitude":41.1373189,"returned longitude":-84.5805781,"longitude":-84.580578,"id":"a64dbjm0ttxt","infousa_id":140600024,"state":"OH"},"type":"Feature","geometry":{"type":"Point","coordinates":[-84.580578,41.137312]}},{"properties":{"city":"Payne","zip":"45880","latitude":41.079262,"column_6":null,"ai type w bus size":"1-49 emp bus loc","primary_sic_description":"BARBERS","returned address":"102 W Merrin St","country":"USA","returned latitude":41.079341,"returned longitude":-84.7272799,"longitude":-84.726912,"id":"a64dbjsp5uiy","infousa_id":835221185,"state":"OH"},"type":"Feature","geometry":{"type":"Point","coordinates":[-84.726912,41.079262]}},{"properties":{"city":"Antwerp","zip":"45813","latitude":41.181208,"column_6":null,"ai type w bus size":"1-49 emp bus loc","primary_sic_description":"BARS","returned address":"159-161 S Main St","country":"USA","returned latitude":41.1812001,"returned longitude":-84.7405543,"longitude":-84.740525,"id":"a64dbju1zozs","infousa_id":977408665,"state":"OH"},"type":"Feature","geometry":{"type":"Point","coordinates":[-84.740525,41.181208]}},{"properties":{"city":"Oakwood","zip":"45873","latitude":41.094735,"column_6":null,"ai type w bus size":"1-49 emp bus loc","primary_sic_description":"BARS","returned address":"218 1st St","country":"USA","returned latitude":41.0951419,"returned longitude":-84.380595,"longitude":-84.380454,"id":"a64dbjslj5b0","infousa_id":451565071,"state":"OH"},"type":"Feature","geometry":{"type":"Point","coordinates":[-84.380454,41.094735]}},{"properties":{"city":"Paulding","zip":"45879","latitude":41.137308,"column_6":null,"ai type w bus size":"1-49 emp bus loc","primary_sic_description":"BARS","returned address":"107 W Perry St","country":"USA","returned latitude":41.137218,"returned longitude":-84.581193,"longitude":-84.581173,"id":"a64dbk1kvzpr","infousa_id":657098091,"state":"OH"},"type":"Feature","geometry":{"type":"Point","coordinates":[-84.581173,41.137308]}},{"properties":{"city":"Payne","zip":"45880","latitude":41.079533,"column_6":null,"ai type w bus size":"1-49 emp bus loc","primary_sic_description":"BARS","returned address":"106-108 N Main St","country":"USA","returned latitude":41.079533,"returned longitude":-84.7266643,"longitude":-84.726666,"id":"a64dbjns2wdl","infousa_id":306263567,"state":"OH"},"type":"Feature","geometry":{"type":"Point","coordinates":[-84.726666,41.079533]}},{"properties":{"city":"Antwerp","zip":"45813","latitude":41.181848,"column_6":null,"ai type w bus size":"1-49 emp bus loc","primary_sic_description":"BEAUTY SALONS","returned address":"105-111 N Main St","country":"USA","returned latitude":41.1818344,"returned longitude":-84.7408288,"longitude":-84.740839,"id":"a64dbjvdtjex","infousa_id":402188296,"state":"OH"},"type":"Feature","geometry":{"type":"Point","coordinates":[-84.740839,41.181848]}},{"properties":{"city":"Antwerp","zip":"45813","latitude":41.181097,"column_6":null,"ai type w bus size":"1-49 emp bus loc","primary_sic_description":"BEAUTY SALONS","returned address":"Cleveland St","country":"USA","returned latitude":41.1807109,"returned longitude":-84.7412871,"longitude":-84.741525,"id":"a64dbk0s21pm","infousa_id":140548462,"state":"OH"},"type":"Feature","geometry":{"type":"Point","coordinates":[-84.741525,41.181097]}},{"properties":{"city":"Antwerp","zip":"45813","latitude":41.179545,"column_6":null,"ai type w bus size":"1-49 emp bus loc","primary_sic_description":"BEAUTY SALONS","returned address":"253-303 S Main St","country":"USA","returned latitude":41.1795393,"returned longitude":-84.7397381,"longitude":-84.739718,"id":"a64dbk0v7y7j","infousa_id":315928366,"state":"OH"},"type":"Feature","geometry":{"type":"Point","coordinates":[-84.739718,41.179545]}},{"properties":{"city":"Antwerp","zip":"45813","latitude":41.18124,"column_6":null,"ai type w bus size":"1-49 emp bus loc","primary_sic_description":"BEAUTY SALONS","returned address":"104 S Main St","country":"USA","returned latitude":41.1812588,"returned longitude":-84.740388,"longitude":-84.740498,"id":"a64dbjoy8a0b","infousa_id":140548850,"state":"OH"},"type":"Feature","geometry":{"type":"Point","coordinates":[-84.740498,41.18124]}},{"properties":{"city":"Cecil","zip":"45821","latitude":41.202058,"column_6":null,"ai type w bus size":"1-49 emp bus loc","primary_sic_description":"BEAUTY SALONS","returned address":"15515 Road 133","country":"USA","returned latitude":41.201994,"returned longitude":-84.515319,"longitude":-84.515178,"id":"a64dbjw6d327","infousa_id":140551482,"state":"OH"},"type":"Feature","geometry":{"type":"Point","coordinates":[-84.515178,41.202058]}},{"properties":{"city":"Oakwood","zip":"45873","latitude":41.094635,"column_6":null,"ai type w bus size":"1-49 emp bus loc","primary_sic_description":"BEAUTY SALONS","returned address":"501-599 Main St","country":"USA","returned latitude":41.0946334,"returned longitude":-84.374801,"longitude":-84.374801,"id":"a64dbjsfhjkf","infousa_id":904504867,"state":"OH"},"type":"Feature","geometry":{"type":"Point","coordinates":[-84.374801,41.094635]}},{"properties":{"city":"Oakwood","zip":"45873","latitude":41.135957,"column_6":null,"ai type w bus size":"1-49 emp bus loc","primary_sic_description":"BEAUTY SALONS","returned address":"20919-20999 County Highway C-140","country":"USA","returned latitude":41.1359648,"returned longitude":-84.4193049,"longitude":-84.419305,"id":"a64dbjskta7o","infousa_id":378826945,"state":"OH"},"type":"Feature","geometry":{"type":"Point","coordinates":[-84.419305,41.135957]}},{"properties":{"city":"Oakwood","zip":"45873","latitude":41.106974,"column_6":null,"ai type w bus size":"1-49 emp bus loc","primary_sic_description":"BEAUTY SALONS","returned address":"23216 Road 110","country":"USA","returned latitude":41.106838,"returned longitude":-84.376502,"longitude":-84.377589,"id":"a64dbjv17gvv","infousa_id":835469677,"state":"OH"},"type":"Feature","geometry":{"type":"Point","coordinates":[-84.377589,41.106974]}},{"properties":{"city":"Paulding","zip":"45879","latitude":41.142482,"column_6":null,"ai type w bus size":"1-49 emp bus loc","primary_sic_description":"BEAUTY SALONS","returned address":"615 N Dix St","country":"USA","returned latitude":41.142686,"returned longitude":-84.587211,"longitude":-84.587356,"id":"a64dbjxjyc5a","infousa_id":140598004,"state":"OH"},"type":"Feature","geometry":{"type":"Point","coordinates":[-84.587356,41.142482]}},{"properties":{"city":"Paulding","zip":"45879","latitude":41.138265,"column_6":null,"ai type w bus size":"1-49 emp bus loc","primary_sic_description":"BEAUTY SALONS","returned address":"100 E Jackson St","country":"USA","returned latitude":41.138415,"returned longitude":-84.580571,"longitude":-84.580587,"id":"a64dbjp84ebh","infousa_id":262628910,"state":"OH"},"type":"Feature","geometry":{"type":"Point","coordinates":[-84.580587,41.138265]}},{"properties":{"city":"Paulding","zip":"45879","latitude":41.141243,"column_6":null,"ai type w bus size":"1-49 emp bus loc","primary_sic_description":"BEAUTY SALONS","returned address":"501-503 N Williams St","country":"USA","returned latitude":41.141243,"returned longitude":-84.5807401,"longitude":-84.580752,"id":"a64dbjr82t0d","infousa_id":399522309,"state":"OH"},"type":"Feature","geometry":{"type":"Point","coordinates":[-84.580752,41.141243]}},{"properties":{"city":"Paulding","zip":"45879","latitude":41.138212,"column_6":null,"ai type w bus size":"1-49 emp bus loc","primary_sic_description":"BEAUTY SALONS","returned address":"608 W Jackson St","country":"USA","returned latitude":41.138302,"returned longitude":-84.587785,"longitude":-84.587692,"id":"a64dbjy8yfog","infousa_id":140599705,"state":"OH"},"type":"Feature","geometry":{"type":"Point","coordinates":[-84.587692,41.138212]}},{"properties":{"city":"Paulding","zip":"45879","latitude":41.135406,"column_6":null,"ai type w bus size":"1-49 emp bus loc","primary_sic_description":"BEAUTY SALONS","returned address":"200-214 W Wayne St","country":"USA","returned latitude":41.1354022,"returned longitude":-84.582355,"longitude":-84.582355,"id":"a64dbk27bqfv","infousa_id":140599903,"state":"OH"},"type":"Feature","geometry":{"type":"Point","coordinates":[-84.582355,41.135406]}},{"properties":{"city":"Payne","zip":"45880","latitude":41.07937,"column_6":null,"ai type w bus size":"1-49 emp bus loc","primary_sic_description":"BEAUTY SALONS","returned address":"100-102 N Main St","country":"USA","returned latitude":41.07937,"returned longitude":-84.7266624,"longitude":-84.726664,"id":"a64dbjym9yea","infousa_id":253175236,"state":"OH"},"type":"Feature","geometry":{"type":"Point","coordinates":[-84.726664,41.07937]}},{"properties":{"city":"Scott","zip":"45886","latitude":40.989879,"column_6":null,"ai type w bus size":"1-49 emp bus loc","primary_sic_description":"BEAUTY SALONS","returned address":"12423-12435 Van Wert Paulding County Line Rd","country":"USA","returned latitude":40.9898879,"returned longitude":-84.5837194,"longitude":-84.583719,"id":"a64dbjs4jup7","infousa_id":971611611,"state":"OH"},"type":"Feature","geometry":{"type":"Point","coordinates":[-84.583719,40.989879]}},{"properties":{"city":"Paulding","zip":"45879","latitude":41.134479,"column_6":null,"ai type w bus size":"1-49 emp bus loc","primary_sic_description":"BEER &amp; ALE-RETAIL","returned address":"632-634 E Perry St","country":"USA","returned latitude":41.1344829,"returned longitude":-84.5743279,"longitude":-84.574339,"id":"a64dbjt7tkog","infousa_id":140598079,"state":"OH"},"type":"Feature","geometry":{"type":"Point","coordinates":[-84.574339,41.134479]}},{"properties":{"city":"Antwerp","zip":"45813","latitude":41.179528,"column_6":null,"ai type w bus size":"1-49 emp bus loc","primary_sic_description":"BOWLING CENTERS","returned address":"Daggett St","country":"USA","returned latitude":41.1794209,"returned longitude":-84.7413149,"longitude":-84.740945,"id":"a64dbjm4qpgu","infousa_id":233115815,"state":"OH"},"type":"Feature","geometry":{"type":"Point","coordinates":[-84.740945,41.179528]}},{"properties":{"city":"Paulding","zip":"45879","latitude":41.138236,"column_6":null,"ai type w bus size":"1-49 emp bus loc","primary_sic_description":"BOWLING CENTERS","returned address":"101-121 W Jackson St","country":"USA","returned latitude":41.1382547,"returned longitude":-84.581088,"longitude":-84.581088,"id":"a64dbjlw00sd","infousa_id":140598749,"state":"OH"},"type":"Feature","geometry":{"type":"Point","coordinates":[-84.581088,41.138236]}},{"properties":{"city":"Defiance","zip":"43512","latitude":41.194705,"column_6":null,"ai type w bus size":"1-49 emp bus loc","primary_sic_description":"BUILDING CONTRACTORS","returned address":"24427 County Road 196","country":"USA","returned latitude":41.194822,"returned longitude":-84.3527189,"longitude":-84.352425,"id":"a64dbjpz8ly3","infousa_id":641859947,"state":"OH"},"type":"Feature","geometry":{"type":"Point","coordinates":[-84.352425,41.194705]}},{"properties":{"city":"Antwerp","zip":"45813","latitude":41.188144,"column_6":null,"ai type w bus size":"1-49 emp bus loc","primary_sic_description":"BUILDING CONTRACTORS","returned address":"5001-5303 County Road 424","country":"USA","returned latitude":41.1881588,"returned longitude":-84.7221234,"longitude":-84.722071,"id":"a64dbjn4co4n","infousa_id":697473791,"state":"OH"},"type":"Feature","geometry":{"type":"Point","coordinates":[-84.722071,41.188144]}},{"properties":{"city":"Payne","zip":"45880","latitude":41.080922,"column_6":null,"ai type w bus size":"1-49 emp bus loc","primary_sic_description":"BUILDING CONTRACTORS","returned address":"201-229 Maple St","country":"USA","returned latitude":41.0809223,"returned longitude":-84.7232372,"longitude":-84.723217,"id":"a64dbjo63hxf","infousa_id":209942887,"state":"OH"},"type":"Feature","geometry":{"type":"Point","coordinates":[-84.723217,41.080922]}},{"properties":{"city":"Payne","zip":"45880","latitude":41.055797,"column_6":null,"ai type w bus size":"1-49 emp bus loc","primary_sic_description":"BUILDING MAINTENANCE","returned address":"3354-3998 State Highway 500","country":"USA","returned latitude":41.055808,"returned longitude":-84.756076,"longitude":-84.756063,"id":"a64dbk076fgv","infousa_id":553789553,"state":"OH"},"type":"Feature","geometry":{"type":"Point","coordinates":[-84.756063,41.055797]}},{"properties":{"city":"Melrose","zip":"45861","latitude":41.090321,"column_6":null,"ai type w bus size":"1-49 emp bus loc","primary_sic_description":"BUILDING MATERIALS","returned address":"651-699 Superior St","country":"USA","returned latitude":41.0903367,"returned longitude":-84.4188058,"longitude":-84.418806,"id":"a64dbjubaqz0","infousa_id":591454251,"state":"OH"},"type":"Feature","geometry":{"type":"Point","coordinates":[-84.418806,41.090321]}},{"properties":{"city":"Antwerp","zip":"45813","latitude":41.228337,"column_6":null,"ai type w bus size":"1-49 emp bus loc","primary_sic_description":"BUILDINGS-METAL","returned address":"17354-17494 Township Highway 19","country":"USA","returned latitude":41.228337,"returned longitude":-84.775756,"longitude":-84.775752,"id":"a64dbk0kj3cq","infousa_id":617497342,"state":"OH"},"type":"Feature","geometry":{"type":"Point","coordinates":[-84.775752,41.228337]}},{"properties":{"city":"Paulding","zip":"45879","latitude":41.152234,"column_6":null,"ai type w bus size":"1-49 emp bus loc","primary_sic_description":"BUILDINGS-METAL","returned address":"1045-1055 N Williams St","country":"USA","returned latitude":41.152234,"returned longitude":-84.5808318,"longitude":-84.580841,"id":"a64dbju3rvnp","infousa_id":140599085,"state":"OH"},"type":"Feature","geometry":{"type":"Point","coordinates":[-84.580841,41.152234]}},{"properties":{"city":"Paulding","zip":"45879","latitude":41.113931,"column_6":null,"ai type w bus size":"1-49 emp bus loc","primary_sic_description":"BURGLAR ALARM SYSTEMS (WHLS)","returned address":"17364-17368 Township Road 118","country":"USA","returned latitude":41.1139344,"returned longitude":-84.488396,"longitude":-84.488396,"id":"a64dbjsb92no","infousa_id":835309972,"state":"OH"},"type":"Feature","geometry":{"type":"Point","coordinates":[-84.488396,41.113931]}},{"properties":{"city":"Oakwood","zip":"45873","latitude":41.109993,"column_6":null,"ai type w bus size":"1-49 emp bus loc","primary_sic_description":"BUSES-SCHOOL TRANSPORTATION SERVICE","returned address":"9622-9652 County Road 171","country":"USA","returned latitude":41.1099874,"returned longitude":-84.4035549,"longitude":-84.403553,"id":"a64dbjts3lh9","infousa_id":591454376,"state":"OH"},"type":"Feature","geometry":{"type":"Point","coordinates":[-84.403553,41.109993]}},{"properties":{"city":"Cecil","zip":"45821","latitude":41.23148,"column_6":null,"ai type w bus size":"1-49 emp bus loc","primary_sic_description":"CAMPGROUNDS","returned address":"11530-11998 County Road 424","country":"USA","returned latitude":41.2314704,"returned longitude":-84.5964313,"longitude":-84.596434,"id":"a64dbjvzjyae","infousa_id":630737138,"state":"OH"},"type":"Feature","geometry":{"type":"Point","coordinates":[-84.596434,41.23148]}},{"properties":{"city":"Grover Hill","zip":"45849","latitude":41.015709,"column_6":null,"ai type w bus size":"1-49 emp bus loc","primary_sic_description":"CAMPGROUNDS","returned address":"2261-2859 County Road C-173","country":"USA","returned latitude":41.015709,"returned longitude":-84.4285204,"longitude":-84.428525,"id":"a64dbjtqg88w","infousa_id":512946732,"state":"OH"},"type":"Feature","geometry":{"type":"Point","coordinates":[-84.428525,41.015709]}},{"properties":{"city":"Paulding","zip":"45879","latitude":41.100283,"column_6":null,"ai type w bus size":"1-49 emp bus loc","primary_sic_description":"CAMPGROUNDS","returned address":"8612-8614 Township Road 137","country":"USA","returned latitude":41.1002829,"returned longitude":-84.4959642,"longitude":-84.495952,"id":"a64dbjmys0zk","infousa_id":835307752,"state":"OH"},"type":"Feature","geometry":{"type":"Point","coordinates":[-84.495952,41.100283]}},{"properties":{"city":"Payne","zip":"45880","latitude":41.047794,"column_6":null,"ai type w bus size":"1-49 emp bus loc","primary_sic_description":"CAMPGROUNDS","returned address":"2782-2818 State Highway 500","country":"USA","returned latitude":41.047811,"returned longitude":-84.7682186,"longitude":-84.768199,"id":"a64dbjs1ckj3","infousa_id":587043282,"state":"OH"},"type":"Feature","geometry":{"type":"Point","coordinates":[-84.768199,41.047794]}},{"properties":{"city":"Grover Hill","zip":"45849","latitude":41.033897,"column_6":null,"ai type w bus size":"1-49 emp bus loc","primary_sic_description":"CAMPS","returned address":"20001-20929 Township Highway T-48","country":"USA","returned latitude":41.0339317,"returned longitude":-84.4255853,"longitude":-84.425585,"id":"a64dbk18ana4","infousa_id":962591996,"state":"OH"},"type":"Feature","geometry":{"type":"Point","coordinates":[-84.425585,41.033897]}},{"properties":{"city":"Defiance","zip":"43512","latitude":41.188484,"column_6":null,"ai type w bus size":"1-49 emp bus loc","primary_sic_description":"CARPET &amp; RUG CLEANERS","returned address":"14540 County Highway 171","country":"USA","returned latitude":41.1884844,"returned longitude":-84.4476596,"longitude":-84.447681,"id":"a64dbjw30jpi","infousa_id":365401892,"state":"OH"},"type":"Feature","geometry":{"type":"Point","coordinates":[-84.447681,41.188484]}},{"properties":{"city":"Oakwood","zip":"45873","latitude":41.109993,"column_6":null,"ai type w bus size":"1-49 emp bus loc","primary_sic_description":"CARPET &amp; RUG DEALERS-NEW","returned address":"9622-9652 County Road 171","country":"USA","returned latitude":41.1099874,"returned longitude":-84.4035549,"longitude":-84.403553,"id":"a64dbjos8uqn","infousa_id":417336831,"state":"OH"},"type":"Feature","geometry":{"type":"Point","coordinates":[-84.403553,41.109993]}},{"properties":{"city":"Paulding","zip":"45879","latitude":41.152085,"column_6":null,"ai type w bus size":"1-49 emp bus loc","primary_sic_description":"CARPET &amp; RUG DEALERS-NEW","returned address":"1048-1052 N Williams St","country":"USA","returned latitude":41.152085,"returned longitude":-84.5808765,"longitude":-84.580879,"id":"a64dbjw3g3d5","infousa_id":835308727,"state":"OH"},"type":"Feature","geometry":{"type":"Point","coordinates":[-84.580879,41.152085]}},{"properties":{"city":"Paulding","zip":"45879","latitude":41.121132,"column_6":null,"ai type w bus size":"1-49 emp bus loc","primary_sic_description":"CARPET LAYERS","returned address":"16266 Road 126","country":"USA","returned latitude":41.121012,"returned longitude":-84.50975,"longitude":-84.50952,"id":"a64dbjq4afcb","infousa_id":539096024,"state":"OH"},"type":"Feature","geometry":{"type":"Point","coordinates":[-84.50952,41.121132]}},{"properties":{"city":"Oakwood","zip":"45873","latitude":41.113922,"column_6":null,"ai type w bus size":"1-49 emp bus loc","primary_sic_description":"CARTS-MOTORIZED","returned address":"9939 County Road 171","country":"USA","returned latitude":41.1139427,"returned longitude":-84.4243775,"longitude":-84.424391,"id":"a64dbjpige3m","infousa_id":539095083,"state":"OH"},"type":"Feature","geometry":{"type":"Point","coordinates":[-84.424391,41.113922]}},{"properties":{"city":"Defiance","zip":"43512","latitude":41.206099,"column_6":null,"ai type w bus size":"1-49 emp bus loc","primary_sic_description":"CATERERS","returned address":"19902-19912 State Highway 111 Scenic","country":"USA","returned latitude":41.2060845,"returned longitude":-84.4425564,"longitude":-84.442596,"id":"a64dbjpwftfv","infousa_id":966818312,"state":"OH"},"type":"Feature","geometry":{"type":"Point","coordinates":[-84.442596,41.206099]}},{"properties":{"city":"Antwerp","zip":"45813","latitude":41.17976,"column_6":null,"ai type w bus size":"1-49 emp bus loc","primary_sic_description":"CATERERS","returned address":"407-411 Canal St","country":"USA","returned latitude":41.1797889,"returned longitude":-84.7309406,"longitude":-84.730928,"id":"a64dbjwp46hp","infousa_id":553789496,"state":"OH"},"type":"Feature","geometry":{"type":"Point","coordinates":[-84.730928,41.17976]}},{"properties":{"city":"Paulding","zip":"45879","latitude":41.138364,"column_6":null,"ai type w bus size":"1-49 emp bus loc","primary_sic_description":"CATERERS","returned address":"201-209 N Williams St","country":"USA","returned latitude":41.138364,"returned longitude":-84.5807448,"longitude":-84.580731,"id":"a64dbjm14wuj","infousa_id":407756279,"state":"OH"},"type":"Feature","geometry":{"type":"Point","coordinates":[-84.580731,41.138364]}},{"properties":{"city":"Payne","zip":"45880","latitude":41.055797,"column_6":null,"ai type w bus size":"1-49 emp bus loc","primary_sic_description":"CATERERS","returned address":"3354-3998 State Highway 500","country":"USA","returned latitude":41.055808,"returned longitude":-84.756076,"longitude":-84.756063,"id":"a64dbjra60vk","infousa_id":524524527,"state":"OH"},"type":"Feature","geometry":{"type":"Point","coordinates":[-84.756063,41.055797]}},{"properties":{"city":"Oakwood","zip":"45873","latitude":41.197176,"column_6":null,"ai type w bus size":"1-49 emp bus loc","primary_sic_description":"CELLULAR TELEPHONES-EQUIPMENT &amp; SUPLS","returned address":"19000-19998 Town Highway 1038","country":"USA","returned latitude":41.1971811,"returned longitude":-84.441095,"longitude":-84.441095,"id":"a64dbjttb0hp","infousa_id":572431666,"state":"OH"},"type":"Feature","geometry":{"type":"Point","coordinates":[-84.441095,41.197176]}},{"properties":{"city":"Antwerp","zip":"45813","latitude":41.181655,"column_6":null,"ai type w bus size":"1-49 emp bus loc","primary_sic_description":"CHAMBERS OF COMMERCE","returned address":"104 N Main St","country":"USA","returned latitude":41.1817629,"returned longitude":-84.7405969,"longitude":-84.740701,"id":"a64dbk226ydg","infousa_id":553792474,"state":"OH"},"type":"Feature","geometry":{"type":"Point","coordinates":[-84.740701,41.181655]}},{"properties":{"city":"Paulding","zip":"45879","latitude":41.144888,"column_6":null,"ai type w bus size":"1-49 emp bus loc","primary_sic_description":"CHILD CARE SERVICE","returned address":"742 Emerald Rd","country":"USA","returned latitude":41.144905,"returned longitude":-84.5751049,"longitude":-84.574949,"id":"a64dbk19w1hm","infousa_id":691562573,"state":"OH"},"type":"Feature","geometry":{"type":"Point","coordinates":[-84.574949,41.144888]}},{"properties":{"city":"Paulding","zip":"45879","latitude":41.135261,"column_6":null,"ai type w bus size":"Other Health","primary_sic_description":"CHIROPRACTORS DC","returned address":"11804 W Wayne St","country":"USA","returned latitude":41.1352781,"returned longitude":-84.594807,"longitude":-84.594807,"id":"a64dbk1tu2rv","infousa_id":630737146,"state":"OH"},"type":"Feature","geometry":{"type":"Point","coordinates":[-84.594807,41.135261]}},{"properties":{"city":"Payne","zip":"45880","latitude":41.078364,"column_6":null,"ai type w bus size":"Other Health","primary_sic_description":"CHIROPRACTORS DC","returned address":"112-154 Oak St","country":"USA","returned latitude":41.0783441,"returned longitude":-84.7265103,"longitude":-84.726511,"id":"a64dbjv50fki","infousa_id":629894387,"state":"OH"},"type":"Feature","geometry":{"type":"Point","coordinates":[-84.726511,41.078364]}},{"properties":{"city":"Defiance","zip":"43512","latitude":41.203621,"column_6":null,"ai type w bus size":"1-49 emp bus loc","primary_sic_description":"CHURCHES","returned address":"State Highway 111 Scenic","country":"USA","returned latitude":41.2030133,"returned longitude":-84.4448475,"longitude":-84.444106,"id":"a64dbjog4f0q","infousa_id":375406386,"state":"OH"},"type":"Feature","geometry":{"type":"Point","coordinates":[-84.444106,41.203621]}},{"properties":{"city":"Defiance","zip":"43512","latitude":41.19473,"column_6":null,"ai type w bus size":"1-49 emp bus loc","primary_sic_description":"CHURCHES","returned address":"18700-18892 County Highway C-180","country":"USA","returned latitude":41.1947229,"returned longitude":-84.459235,"longitude":-84.459235,"id":"a64dbk28h3p5","infousa_id":384441457,"state":"OH"},"type":"Feature","geometry":{"type":"Point","coordinates":[-84.459235,41.19473]}},{"properties":{"city":"Antwerp","zip":"45813","latitude":41.171657,"column_6":null,"ai type w bus size":"1-49 emp bus loc","primary_sic_description":"CHURCHES","returned address":"13362-13398 Erie St","country":"USA","returned latitude":41.1716563,"returned longitude":-84.7363231,"longitude":-84.736302,"id":"a64dbjx3rg4o","infousa_id":617497375,"state":"OH"},"type":"Feature","geometry":{"type":"Point","coordinates":[-84.736302,41.171657]}},{"properties":{"city":"Antwerp","zip":"45813","latitude":41.181924,"column_6":null,"ai type w bus size":"1-49 emp bus loc","primary_sic_description":"CHURCHES","returned address":"201 E River St","country":"USA","returned latitude":41.181738,"returned longitude":-84.738815,"longitude":-84.738851,"id":"a64dbjmtlcqv","infousa_id":835219734,"state":"OH"},"type":"Feature","geometry":{"type":"Point","coordinates":[-84.738851,41.181924]}},{"properties":{"city":"Antwerp","zip":"45813","latitude":41.172447,"column_6":null,"ai type w bus size":"1-49 emp bus loc","primary_sic_description":"CHURCHES","returned address":"13461-13743 Township Highway T-43","country":"USA","returned latitude":41.172447,"returned longitude":-84.7272397,"longitude":-84.727235,"id":"a64dbjzh8ez2","infousa_id":402188254,"state":"OH"},"type":"Feature","geometry":{"type":"Point","coordinates":[-84.727235,41.172447]}},{"properties":{"city":"Antwerp","zip":"45813","latitude":41.203157,"column_6":null,"ai type w bus size":"1-49 emp bus loc","primary_sic_description":"CHURCHES","returned address":"15401-15999 State Highway 49","country":"USA","returned latitude":41.203154,"returned longitude":-84.7476794,"longitude":-84.747655,"id":"a64dbjo18wh8","infousa_id":835219668,"state":"OH"},"type":"Feature","geometry":{"type":"Point","coordinates":[-84.747655,41.203157]}},{"properties":{"city":"Antwerp","zip":"45813","latitude":41.191766,"column_6":null,"ai type w bus size":"1-49 emp bus loc","primary_sic_description":"CHURCHES","returned address":"5464-5496 County Road 424","country":"USA","returned latitude":41.1917879,"returned longitude":-84.7189442,"longitude":-84.718924,"id":"a64dbjzmhfan","infousa_id":835219296,"state":"OH"},"type":"Feature","geometry":{"type":"Point","coordinates":[-84.718924,41.191766]}},{"properties":{"city":"Antwerp","zip":"45813","latitude":41.181279,"column_6":null,"ai type w bus size":"1-49 emp bus loc","primary_sic_description":"CHURCHES","returned address":"101 W River St","country":"USA","returned latitude":41.18113,"returned longitude":-84.740913,"longitude":-84.740858,"id":"a64dbk0jyppn","infousa_id":835219627,"state":"OH"},"type":"Feature","geometry":{"type":"Point","coordinates":[-84.740858,41.181279]}},{"properties":{"city":"Antwerp","zip":"45813","latitude":41.173726,"column_6":null,"ai type w bus size":"1-49 emp bus loc","primary_sic_description":"CHURCHES","returned address":"2712-2998 County Road 424","country":"USA","returned latitude":41.1737113,"returned longitude":-84.767427,"longitude":-84.767434,"id":"a64dbjzn63p1","infousa_id":835219510,"state":"OH"},"type":"Feature","geometry":{"type":"Point","coordinates":[-84.767434,41.173726]}},{"properties":{"city":"Antwerp","zip":"45813","latitude":41.176878,"column_6":null,"ai type w bus size":"1-49 emp bus loc","primary_sic_description":"CHURCHES","returned address":"3554-3898 County Road 424","country":"USA","returned latitude":41.1768744,"returned longitude":-84.7556713,"longitude":-84.755673,"id":"a64dbjwkpiji","infousa_id":140548751,"state":"OH"},"type":"Feature","geometry":{"type":"Point","coordinates":[-84.755673,41.176878]}},{"properties":{"city":"Antwerp","zip":"45813","latitude":41.179176,"column_6":null,"ai type w bus size":"1-49 emp bus loc","primary_sic_description":"CHURCHES","returned address":"303 Monroe St","country":"USA","returned latitude":41.178737,"returned longitude":-84.74178,"longitude":-84.741884,"id":"a64dbjzdw74z","infousa_id":835220062,"state":"OH"},"type":"Feature","geometry":{"type":"Point","coordinates":[-84.741884,41.179176]}},{"properties":{"city":"Cloverdale","zip":"45827","latitude":41.016712,"column_6":null,"ai type w bus size":"1-49 emp bus loc","primary_sic_description":"CHURCHES","returned address":"2745-2827 State Highway 66","country":"USA","returned latitude":41.016725,"returned longitude":-84.3602501,"longitude":-84.36025,"id":"a64dbjvlu2hf","infousa_id":690016639,"state":"OH"},"type":"Feature","geometry":{"type":"Point","coordinates":[-84.36025,41.016712]}},{"properties":{"city":"Grover Hill","zip":"45849","latitude":41.019243,"column_6":null,"ai type w bus size":"1-49 emp bus loc","primary_sic_description":"CHURCHES","returned address":"301-303 E Jackson St","country":"USA","returned latitude":41.0192338,"returned longitude":-84.4739093,"longitude":-84.473909,"id":"a64dbjqr9g22","infousa_id":535616395,"state":"OH"},"type":"Feature","geometry":{"type":"Point","coordinates":[-84.473909,41.019243]}},{"properties":{"city":"Grover Hill","zip":"45849","latitude":41.018161,"column_6":null,"ai type w bus size":"1-49 emp bus loc","primary_sic_description":"CHURCHES","returned address":"201-251 Harrison St","country":"USA","returned latitude":41.0181607,"returned longitude":-84.4778162,"longitude":-84.477786,"id":"a64dbjnq9j71","infousa_id":835461773,"state":"OH"},"type":"Feature","geometry":{"type":"Point","coordinates":[-84.477786,41.018161]}},{"properties":{"city":"Grover Hill","zip":"45849","latitude":41.004683,"column_6":null,"ai type w bus size":"1-49 emp bus loc","primary_sic_description":"CHURCHES","returned address":"19307 Road 24","country":"USA","returned latitude":41.0048419,"returned longitude":-84.452122,"longitude":-84.451134,"id":"a64dbjys1rsj","infousa_id":417294600,"state":"OH"},"type":"Feature","geometry":{"type":"Point","coordinates":[-84.451134,41.004683]}},{"properties":{"city":"Haviland","zip":"45851","latitude":41.033544,"column_6":null,"ai type w bus size":"1-49 emp bus loc","primary_sic_description":"CHURCHES","returned address":"11494 Township Highway T-48","country":"USA","returned latitude":41.0335648,"returned longitude":-84.6018065,"longitude":-84.601806,"id":"a64dbjpq17tr","infousa_id":551614761,"state":"OH"},"type":"Feature","geometry":{"type":"Point","coordinates":[-84.601806,41.033544]}},{"properties":{"city":"Melrose","zip":"45861","latitude":41.090321,"column_6":null,"ai type w bus size":"1-49 emp bus loc","primary_sic_description":"CHURCHES","returned address":"651-699 Superior St","country":"USA","returned latitude":41.0903367,"returned longitude":-84.4188058,"longitude":-84.418806,"id":"a64dbjqh5zyn","infousa_id":835469396,"state":"OH"},"type":"Feature","geometry":{"type":"Point","coordinates":[-84.418806,41.090321]}},{"properties":{"city":"Oakwood","zip":"45873","latitude":41.048425,"column_6":null,"ai type w bus size":"1-49 emp bus loc","primary_sic_description":"CHURCHES","returned address":"22728-22932 County Road 60","country":"USA","returned latitude":41.0484617,"returned longitude":-84.3869607,"longitude":-84.386962,"id":"a64dbjqi1mu2","infousa_id":243012184,"state":"OH"},"type":"Feature","geometry":{"type":"Point","coordinates":[-84.386962,41.048425]}},{"properties":{"city":"Oakwood","zip":"45873","latitude":41.167996,"column_6":null,"ai type w bus size":"1-49 emp bus loc","primary_sic_description":"CHURCHES","returned address":"13071-13509 County Road 191","country":"USA","returned latitude":41.167996,"returned longitude":-84.3994764,"longitude":-84.39947,"id":"a64dbju94x13","infousa_id":242123040,"state":"OH"},"type":"Feature","geometry":{"type":"Point","coordinates":[-84.39947,41.167996]}},{"properties":{"city":"Oakwood","zip":"45873","latitude":41.099181,"column_6":null,"ai type w bus size":"1-49 emp bus loc","primary_sic_description":"CHURCHES","returned address":"8437-8505 County Road 209","country":"USA","returned latitude":41.0991811,"returned longitude":-84.361288,"longitude":-84.361294,"id":"a64dbjyqt3ku","infousa_id":835469388,"state":"OH"},"type":"Feature","geometry":{"type":"Point","coordinates":[-84.361294,41.099181]}},{"properties":{"city":"Defiance","zip":"43512","latitude":41.194682,"column_6":null,"ai type w bus size":"1-49 emp bus loc","primary_sic_description":"CHURCHES","returned address":"20494-20794 County Highway 196","country":"USA","returned latitude":41.1946667,"returned longitude":-84.4236281,"longitude":-84.423628,"id":"a64dbjy07mla","infousa_id":928004266,"state":"OH"},"type":"Feature","geometry":{"type":"Point","coordinates":[-84.423628,41.194682]}},{"properties":{"city":"Oakwood","zip":"45873","latitude":41.096513,"column_6":null,"ai type w bus size":"1-49 emp bus loc","primary_sic_description":"CHURCHES","returned address":"301 N 3rd St","country":"USA","returned latitude":41.096632,"returned longitude":-84.377358,"longitude":-84.377453,"id":"a64dbjy0gk5v","infousa_id":591454822,"state":"OH"},"type":"Feature","geometry":{"type":"Point","coordinates":[-84.377453,41.096513]}},{"properties":{"city":"Oakwood","zip":"45873","latitude":41.094645,"column_6":null,"ai type w bus size":"50-99 emp bus loc","primary_sic_description":"CHURCHES","returned address":"201-203 Main St","country":"USA","returned latitude":41.0946373,"returned longitude":-84.378503,"longitude":-84.378503,"id":"a64dbju77iwn","infousa_id":451565022,"state":"OH"},"type":"Feature","geometry":{"type":"Point","coordinates":[-84.378503,41.094645]}},{"properties":{"city":"Oakwood","zip":"45873","latitude":41.095546,"column_6":null,"ai type w bus size":"1-49 emp bus loc","primary_sic_description":"CHURCHES","returned address":"201 E Harmon St","country":"USA","returned latitude":41.0954819,"returned longitude":-84.378421,"longitude":-84.378497,"id":"a64dbjqsm53w","infousa_id":835469669,"state":"OH"},"type":"Feature","geometry":{"type":"Point","coordinates":[-84.378497,41.095546]}},{"properties":{"city":"Paulding","zip":"45879","latitude":41.135301,"column_6":null,"ai type w bus size":"1-49 emp bus loc","primary_sic_description":"CHURCHES","returned address":"1022 W Wayne St","country":"USA","returned latitude":41.1354169,"returned longitude":-84.600119,"longitude":-84.600243,"id":"a64dbjq773vz","infousa_id":539095745,"state":"OH"},"type":"Feature","geometry":{"type":"Point","coordinates":[-84.600243,41.135301]}},{"properties":{"city":"Paulding","zip":"45879","latitude":41.137274,"column_6":null,"ai type w bus size":"1-49 emp bus loc","primary_sic_description":"CHURCHES","returned address":"501 W Perry St","country":"USA","returned latitude":41.1371759,"returned longitude":-84.586339,"longitude":-84.586323,"id":"a64dbjyx5p40","infousa_id":535627889,"state":"OH"},"type":"Feature","geometry":{"type":"Point","coordinates":[-84.586323,41.137274]}},{"properties":{"city":"Paulding","zip":"45879","latitude":41.135838,"column_6":null,"ai type w bus size":"1-49 emp bus loc","primary_sic_description":"CHURCHES","returned address":"17001-17999 County Highway 138","country":"USA","returned latitude":41.135838,"returned longitude":-84.479282,"longitude":-84.479282,"id":"a64dbjojci87","infousa_id":140598202,"state":"OH"},"type":"Feature","geometry":{"type":"Point","coordinates":[-84.479282,41.135838]}},{"properties":{"city":"Paulding","zip":"45879","latitude":41.149917,"column_6":null,"ai type w bus size":"1-49 emp bus loc","primary_sic_description":"CHURCHES","returned address":"County Highway 144","country":"USA","returned latitude":41.1499499,"returned longitude":-84.5814918,"longitude":-84.581917,"id":"a64dbjzw1i50","infousa_id":140598210,"state":"OH"},"type":"Feature","geometry":{"type":"Point","coordinates":[-84.581917,41.149917]}},{"properties":{"city":"Paulding","zip":"45879","latitude":41.162004,"column_6":null,"ai type w bus size":"1-49 emp bus loc","primary_sic_description":"CHURCHES","returned address":"1232-10152 Emerald Rd","country":"USA","returned latitude":41.1620063,"returned longitude":-84.5700898,"longitude":-84.570075,"id":"a64dbjtxndli","infousa_id":140598434,"state":"OH"},"type":"Feature","geometry":{"type":"Point","coordinates":[-84.570075,41.162004]}},{"properties":{"city":"Paulding","zip":"45879","latitude":41.159321,"column_6":null,"ai type w bus size":"1-49 emp bus loc","primary_sic_description":"CHURCHES","returned address":"1242 Emerald Rd","country":"USA","returned latitude":41.1592709,"returned longitude":-84.571062,"longitude":-84.570823,"id":"a64dbjpqnz2s","infousa_id":835309154,"state":"OH"},"type":"Feature","geometry":{"type":"Point","coordinates":[-84.570823,41.159321]}},{"properties":{"city":"Paulding","zip":"45879","latitude":41.139206,"column_6":null,"ai type w bus size":"1-49 emp bus loc","primary_sic_description":"CHURCHES","returned address":"101-117 W Caroline St","country":"USA","returned latitude":41.1392276,"returned longitude":-84.58104,"longitude":-84.58104,"id":"a64dbjryf1wi","infousa_id":140599515,"state":"OH"},"type":"Feature","geometry":{"type":"Point","coordinates":[-84.58104,41.139206]}},{"properties":{"city":"Paulding","zip":"45879","latitude":41.141545,"column_6":null,"ai type w bus size":"1-49 emp bus loc","primary_sic_description":"CHURCHES","returned address":"510-516 N Williams St","country":"USA","returned latitude":41.141545,"returned longitude":-84.5807845,"longitude":-84.580776,"id":"a64dbjo3xirp","infousa_id":835307976,"state":"OH"},"type":"Feature","geometry":{"type":"Point","coordinates":[-84.580776,41.141545]}},{"properties":{"city":"Paulding","zip":"45879","latitude":41.157718,"column_6":null,"ai type w bus size":"1-49 emp bus loc","primary_sic_description":"CHURCHES","returned address":"17000-17264 Township Road 156","country":"USA","returned latitude":41.1577065,"returned longitude":-84.494178,"longitude":-84.494178,"id":"a64dbk0rxkpr","infousa_id":535627905,"state":"OH"},"type":"Feature","geometry":{"type":"Point","coordinates":[-84.494178,41.157718]}},{"properties":{"city":"Paulding","zip":"45879","latitude":41.136054,"column_6":null,"ai type w bus size":"1-49 emp bus loc","primary_sic_description":"CHURCHES","returned address":"210 County Highway 127","country":"USA","returned latitude":41.136073,"returned longitude":-84.573911,"longitude":-84.573746,"id":"a64dbjnffw7a","infousa_id":140599218,"state":"OH"},"type":"Feature","geometry":{"type":"Point","coordinates":[-84.573746,41.136054]}},{"properties":{"city":"Paulding","zip":"45879","latitude":41.13947,"column_6":null,"ai type w bus size":"1-49 emp bus loc","primary_sic_description":"CHURCHES","returned address":"303 N Williams St","country":"USA","returned latitude":41.1393879,"returned longitude":-84.580532,"longitude":-84.580751,"id":"a64dbjv1ae1j","infousa_id":140599432,"state":"OH"},"type":"Feature","geometry":{"type":"Point","coordinates":[-84.580751,41.13947]}},{"properties":{"city":"Paulding","zip":"45879","latitude":41.085857,"column_6":null,"ai type w bus size":"1-49 emp bus loc","primary_sic_description":"CHURCHES","returned address":"7611 County Road 87","country":"USA","returned latitude":41.085955,"returned longitude":-84.631344,"longitude":-84.631172,"id":"a64dbjnp62kc","infousa_id":262628944,"state":"OH"},"type":"Feature","geometry":{"type":"Point","coordinates":[-84.631172,41.085857]}},{"properties":{"city":"Paulding","zip":"45879","latitude":41.138354,"column_6":null,"ai type w bus size":"1-49 emp bus loc","primary_sic_description":"CHURCHES","returned address":"601-757 County Highway 111","country":"USA","returned latitude":41.1383528,"returned longitude":-84.573382,"longitude":-84.573379,"id":"a64dbjzjnxcv","infousa_id":835307786,"state":"OH"},"type":"Feature","geometry":{"type":"Point","coordinates":[-84.573379,41.138354]}},{"properties":{"city":"Paulding","zip":"45879","latitude":41.077003,"column_6":null,"ai type w bus size":"1-49 emp bus loc","primary_sic_description":"CHURCHES","returned address":"12867 Road 82","country":"USA","returned latitude":41.077136,"returned longitude":-84.576145,"longitude":-84.576869,"id":"a64dbjwiqwui","infousa_id":835309683,"state":"OH"},"type":"Feature","geometry":{"type":"Point","coordinates":[-84.576869,41.077003]}},{"properties":{"city":"Paulding","zip":"45879","latitude":41.141545,"column_6":null,"ai type w bus size":"1-49 emp bus loc","primary_sic_description":"CHURCHES","returned address":"510-516 N Williams St","country":"USA","returned latitude":41.141545,"returned longitude":-84.5807845,"longitude":-84.580776,"id":"a64dbjw49hmz","infousa_id":691562565,"state":"OH"},"type":"Feature","geometry":{"type":"Point","coordinates":[-84.580776,41.141545]}},{"properties":{"city":"Payne","zip":"45880","latitude":41.079198,"column_6":null,"ai type w bus size":"1-49 emp bus loc","primary_sic_description":"CHURCHES","returned address":"101-113 S Main St","country":"USA","returned latitude":41.079198,"returned longitude":-84.7266618,"longitude":-84.726662,"id":"a64dbjss4ztt","infousa_id":391738572,"state":"OH"},"type":"Feature","geometry":{"type":"Point","coordinates":[-84.726662,41.079198]}},{"properties":{"city":"Payne","zip":"45880","latitude":41.07923,"column_6":null,"ai type w bus size":"1-49 emp bus loc","primary_sic_description":"CHURCHES","returned address":"102 W Merrin St","country":"USA","returned latitude":41.079341,"returned longitude":-84.7272799,"longitude":-84.727391,"id":"a64dbjs7r777","infousa_id":683036180,"state":"OH"},"type":"Feature","geometry":{"type":"Point","coordinates":[-84.727391,41.07923]}},{"properties":{"city":"Payne","zip":"45880","latitude":41.078969,"column_6":null,"ai type w bus size":"1-49 emp bus loc","primary_sic_description":"CHURCHES","returned address":"300-312 Orchard St","country":"USA","returned latitude":41.0789825,"returned longitude":-84.71859,"longitude":-84.718594,"id":"a64dbjs8sw1a","infousa_id":835221318,"state":"OH"},"type":"Feature","geometry":{"type":"Point","coordinates":[-84.718594,41.078969]}},{"properties":{"city":"Payne","zip":"45880","latitude":41.078361,"column_6":null,"ai type w bus size":"1-49 emp bus loc","primary_sic_description":"CHURCHES","returned address":"Oak St","country":"USA","returned latitude":41.0783487,"returned longitude":-84.7269811,"longitude":-84.726792,"id":"a64dbk27gqy6","infousa_id":535627921,"state":"OH"},"type":"Feature","geometry":{"type":"Point","coordinates":[-84.726792,41.078361]}},{"properties":{"city":"Payne","zip":"45880","latitude":41.077472,"column_6":null,"ai type w bus size":"1-49 emp bus loc","primary_sic_description":"CHURCHES","returned address":"500-598 W Townline St","country":"USA","returned latitude":41.0774675,"returned longitude":-84.732473,"longitude":-84.732473,"id":"a64dbjp8uzjj","infousa_id":835221169,"state":"OH"},"type":"Feature","geometry":{"type":"Point","coordinates":[-84.732473,41.077472]}},{"properties":{"city":"Payne","zip":"45880","latitude":41.077448,"column_6":null,"ai type w bus size":"1-49 emp bus loc","primary_sic_description":"CHURCHES","returned address":"200-208 W Townline St","country":"USA","returned latitude":41.0774531,"returned longitude":-84.727956,"longitude":-84.727956,"id":"a64dbjqxkw17","infousa_id":391738556,"state":"OH"},"type":"Feature","geometry":{"type":"Point","coordinates":[-84.727956,41.077448]}},{"properties":{"city":"Scott","zip":"45886","latitude":40.989693,"column_6":null,"ai type w bus size":"1-49 emp bus loc","primary_sic_description":"CHURCHES","returned address":"11004 Van Wert Paulding County Line Rd","country":"USA","returned latitude":40.9896955,"returned longitude":-84.610878,"longitude":-84.610878,"id":"a64dbjrur2qv","infousa_id":535631006,"state":"OH"},"type":"Feature","geometry":{"type":"Point","coordinates":[-84.610878,40.989693]}},{"properties":{"city":"Antwerp","zip":"45813","latitude":41.181655,"column_6":null,"ai type w bus size":"Other Government Facilities","primary_sic_description":"CITY GOVERNMENT-EXECUTIVE OFFICES","returned address":"104 N Main St","country":"USA","returned latitude":41.1817629,"returned longitude":-84.7405969,"longitude":-84.740701,"id":"a64dbjm6qvnk","infousa_id":683036503,"state":"OH"},"type":"Feature","geometry":{"type":"Point","coordinates":[-84.740701,41.181655]}},{"properties":{"city":"Melrose","zip":"45861","latitude":41.090321,"column_6":null,"ai type w bus size":"Other Government Facilities","primary_sic_description":"CITY GOVERNMENT-EXECUTIVE OFFICES","returned address":"651-699 Superior St","country":"USA","returned latitude":41.0903367,"returned longitude":-84.4188058,"longitude":-84.418806,"id":"a64dbjuk4yz1","infousa_id":602079733,"state":"OH"},"type":"Feature","geometry":{"type":"Point","coordinates":[-84.418806,41.090321]}},{"properties":{"city":"Oakwood","zip":"45873","latitude":41.095069,"column_6":null,"ai type w bus size":"Other Government Facilities","primary_sic_description":"CITY GOVERNMENT-EXECUTIVE OFFICES","returned address":"218 1st St","country":"USA","returned latitude":41.0951419,"returned longitude":-84.380595,"longitude":-84.380452,"id":"a64dbjvqbcj1","infousa_id":835469917,"state":"OH"},"type":"Feature","geometry":{"type":"Point","coordinates":[-84.380452,41.095069]}},{"properties":{"city":"Paulding","zip":"45879","latitude":41.1371,"column_6":null,"ai type w bus size":"Other Government Facilities","primary_sic_description":"CITY GOVERNMENT-EXECUTIVE OFFICES","returned address":"101-149 S Main St","country":"USA","returned latitude":41.1371,"returned longitude":-84.5795236,"longitude":-84.579522,"id":"a64dbjtl2w9q","infousa_id":262629108,"state":"OH"},"type":"Feature","geometry":{"type":"Point","coordinates":[-84.579522,41.1371]}},{"properties":{"city":"Defiance","zip":"43512","latitude":41.194668,"column_6":null,"ai type w bus size":"Other Government Facilities","primary_sic_description":"CITY GOVERNMENT-GENERAL OFFICES","returned address":"21650-21998 County Highway 196","country":"USA","returned latitude":41.1946683,"returned longitude":-84.400448,"longitude":-84.400448,"id":"a64dbjmadw99","infousa_id":638454900,"state":"OH"},"type":"Feature","geometry":{"type":"Point","coordinates":[-84.400448,41.194668]}},{"properties":{"city":"Grover Hill","zip":"45849","latitude":41.019236,"column_6":null,"ai type w bus size":"Other Government Facilities","primary_sic_description":"CITY GOVERNMENT-LEGAL COUNSEL","returned address":"201-203 E Jackson St","country":"USA","returned latitude":41.0192365,"returned longitude":-84.475109,"longitude":-84.475109,"id":"a64dbjz684aa","infousa_id":663960466,"state":"OH"},"type":"Feature","geometry":{"type":"Point","coordinates":[-84.475109,41.019236]}},{"properties":{"city":"Latty","zip":"45855","latitude":41.087744,"column_6":null,"ai type w bus size":"Other Government Facilities","primary_sic_description":"CITY GOVERNMENT-LEGAL COUNSEL","returned address":"355 2nd St","country":"USA","returned latitude":41.087777,"returned longitude":-84.581358,"longitude":-84.581535,"id":"a64dbjtt1bbe","infousa_id":243541182,"state":"OH"},"type":"Feature","geometry":{"type":"Point","coordinates":[-84.581535,41.087744]}},{"properties":{"city":"Antwerp","zip":"45813","latitude":41.172447,"column_6":null,"ai type w bus size":"Other Government Facilities","primary_sic_description":"CITY GOVT-REGULATION/ADM-COMMS/UTILITIES","returned address":"13461-13743 Township Highway T-43","country":"USA","returned latitude":41.172447,"returned longitude":-84.7272397,"longitude":-84.727235,"id":"a64dbjz0maq0","infousa_id":444322267,"state":"OH"},"type":"Feature","geometry":{"type":"Point","coordinates":[-84.727235,41.172447]}},{"properties":{"city":"Cecil","zip":"45821","latitude":41.226641,"column_6":null,"ai type w bus size":"Other Government Facilities","primary_sic_description":"CITY GOVT-REGULATION/ADM-COMMS/UTILITIES","returned address":"17228 Road 105","country":"USA","returned latitude":41.226616,"returned longitude":-84.601982,"longitude":-84.602083,"id":"a64dbk09ocpy","infousa_id":243541166,"state":"OH"},"type":"Feature","geometry":{"type":"Point","coordinates":[-84.602083,41.226641]}},{"properties":{"city":"Paulding","zip":"45879","latitude":41.1371,"column_6":null,"ai type w bus size":"Other Government Facilities","primary_sic_description":"CITY GOVT-REGULATION/ADM-COMMS/UTILITIES","returned address":"101-149 S Main St","country":"USA","returned latitude":41.1371,"returned longitude":-84.5795236,"longitude":-84.579522,"id":"a64dbjtiimdu","infousa_id":140599465,"state":"OH"},"type":"Feature","geometry":{"type":"Point","coordinates":[-84.579522,41.1371]}},{"properties":{"city":"Paulding","zip":"45879","latitude":41.127183,"column_6":null,"ai type w bus size":"Other Government Facilities","primary_sic_description":"CITY GOVT-REGULATION/ADM-COMMS/UTILITIES","returned address":"10335-10537 McDonald Park","country":"USA","returned latitude":41.127183,"returned longitude":-84.592974,"longitude":-84.592977,"id":"a64dbk0pceo2","infousa_id":310283296,"state":"OH"},"type":"Feature","geometry":{"type":"Point","coordinates":[-84.592977,41.127183]}},{"properties":{"city":"Oakwood","zip":"45873","latitude":41.095574,"column_6":null,"ai type w bus size":"1-49 emp bus loc","primary_sic_description":"CLERGY","returned address":"201 E Harmon St","country":"USA","returned latitude":41.0954819,"returned longitude":-84.378421,"longitude":-84.378458,"id":"a64dbjs5gohw","infousa_id":591454848,"state":"OH"},"type":"Feature","geometry":{"type":"Point","coordinates":[-84.378458,41.095574]}},{"properties":{"city":"Oakwood","zip":"45873","latitude":41.085046,"column_6":null,"ai type w bus size":"1-49 emp bus loc","primary_sic_description":"CLERGY","returned address":"7468-7998 State Highway 66","country":"USA","returned latitude":41.0850549,"returned longitude":-84.382412,"longitude":-84.382441,"id":"a64dbk0o8j5x","infousa_id":140593948,"state":"OH"},"type":"Feature","geometry":{"type":"Point","coordinates":[-84.382441,41.085046]}},{"properties":{"city":"Paulding","zip":"45879","latitude":41.140385,"column_6":null,"ai type w bus size":"1-49 emp bus loc","primary_sic_description":"CLERGY","returned address":"402 N Main St","country":"USA","returned latitude":41.140346,"returned longitude":-84.579632,"longitude":-84.579499,"id":"a64dbjzyecrv","infousa_id":835307869,"state":"OH"},"type":"Feature","geometry":{"type":"Point","coordinates":[-84.579499,41.140385]}},{"properties":{"city":"Paulding","zip":"45879","latitude":41.077644,"column_6":null,"ai type w bus size":"1-49 emp bus loc","primary_sic_description":"CLERGY","returned address":"20619-20665 Township Road 82","country":"USA","returned latitude":41.0776409,"returned longitude":-84.426884,"longitude":-84.426884,"id":"a64dbjrh1jce","infousa_id":490026481,"state":"OH"},"type":"Feature","geometry":{"type":"Point","coordinates":[-84.426884,41.077644]}},{"properties":{"city":"Payne","zip":"45880","latitude":41.07812,"column_6":null,"ai type w bus size":"1-49 emp bus loc","primary_sic_description":"CLERGY","returned address":"201-213 S Main St","country":"USA","returned latitude":41.07812,"returned longitude":-84.7266781,"longitude":-84.726689,"id":"a64dbjwm6rbd","infousa_id":977415660,"state":"OH"},"type":"Feature","geometry":{"type":"Point","coordinates":[-84.726689,41.07812]}},{"properties":{"city":"Payne","zip":"45880","latitude":41.077243,"column_6":null,"ai type w bus size":"1-49 emp bus loc","primary_sic_description":"CLERGY","returned address":"301-307 S Main St","country":"USA","returned latitude":41.077243,"returned longitude":-84.7266801,"longitude":-84.726645,"id":"a64dbjm2nu8y","infousa_id":835221300,"state":"OH"},"type":"Feature","geometry":{"type":"Point","coordinates":[-84.726645,41.077243]}},{"properties":{"city":"Oakwood","zip":"45873","latitude":41.092181,"column_6":null,"ai type w bus size":"Medial and Healthcare Providers","primary_sic_description":"CLINICS","returned address":"100-108 County Highway 205","country":"USA","returned latitude":41.0921711,"returned longitude":-84.3802484,"longitude":-84.380212,"id":"a64dbjp44m6p","infousa_id":904505112,"state":"OH"},"type":"Feature","geometry":{"type":"Point","coordinates":[-84.380212,41.092181]}},{"properties":{"city":"Oakwood","zip":"45873","latitude":41.097992,"column_6":null,"ai type w bus size":"Medial and Healthcare Providers","primary_sic_description":"CLINICS","returned address":"411 Hakes St","country":"USA","returned latitude":41.09857,"returned longitude":-84.381617,"longitude":-84.381316,"id":"a64dbjujbahz","infousa_id":468712500,"state":"OH"},"type":"Feature","geometry":{"type":"Point","coordinates":[-84.381316,41.097992]}},{"properties":{"city":"Paulding","zip":"45879","latitude":41.131783,"column_6":null,"ai type w bus size":"Medial and Healthcare Providers","primary_sic_description":"CLINICS","returned address":"11402-11764 State Highway 500","country":"USA","returned latitude":41.1317804,"returned longitude":-84.6044139,"longitude":-84.604416,"id":"a64dbjmn2z7g","infousa_id":243540747,"state":"OH"},"type":"Feature","geometry":{"type":"Point","coordinates":[-84.604416,41.131783]}},{"properties":{"city":"Paulding","zip":"45879","latitude":41.137524,"column_6":null,"ai type w bus size":"Other Government Facilities","primary_sic_description":"COUNTY GOVERNMENT-COURTS","returned address":"101-115 N Williams St","country":"USA","returned latitude":41.1375242,"returned longitude":-84.5807582,"longitude":-84.580737,"id":"a64dbjt85hwr","infousa_id":835310038,"state":"OH"},"type":"Feature","geometry":{"type":"Point","coordinates":[-84.580737,41.137524]}},{"properties":{"city":"Paulding","zip":"45879","latitude":41.139203,"column_6":null,"ai type w bus size":"Other Government Facilities","primary_sic_description":"COUNTY GOVERNMENT-COURTS","returned address":"201 E Caroline St","country":"USA","returned latitude":41.138987,"returned longitude":-84.579396,"longitude":-84.579415,"id":"a64dbjpo97ok","infousa_id":835310095,"state":"OH"},"type":"Feature","geometry":{"type":"Point","coordinates":[-84.579415,41.139203]}},{"properties":{"city":"Paulding","zip":"45879","latitude":41.137524,"column_6":null,"ai type w bus size":"Other Government Facilities","primary_sic_description":"COUNTY GOVERNMENT-COURTS","returned address":"101-115 N Williams St","country":"USA","returned latitude":41.1375242,"returned longitude":-84.5807582,"longitude":-84.580737,"id":"a64dbjpitfsp","infousa_id":468712708,"state":"OH"},"type":"Feature","geometry":{"type":"Point","coordinates":[-84.580737,41.137524]}},{"properties":{"city":"Paulding","zip":"45879","latitude":41.137524,"column_6":null,"ai type w bus size":"Other Government Facilities","primary_sic_description":"COUNTY GOVERNMENT-COURTS","returned address":"101-115 N Williams St","country":"USA","returned latitude":41.1375242,"returned longitude":-84.5807582,"longitude":-84.580737,"id":"a64dbjs1x0j0","infousa_id":835310129,"state":"OH"},"type":"Feature","geometry":{"type":"Point","coordinates":[-84.580737,41.137524]}},{"properties":{"city":"Paulding","zip":"45879","latitude":41.137524,"column_6":null,"ai type w bus size":"Other Government Facilities","primary_sic_description":"COUNTY GOVERNMENT-COURTS","returned address":"101-115 N Williams St","country":"USA","returned latitude":41.1375242,"returned longitude":-84.5807582,"longitude":-84.580737,"id":"a64dbjo3uldy","infousa_id":835310137,"state":"OH"},"type":"Feature","geometry":{"type":"Point","coordinates":[-84.580737,41.137524]}},{"properties":{"city":"Paulding","zip":"45879","latitude":41.137312,"column_6":null,"ai type w bus size":"Other Government Facilities","primary_sic_description":"COUNTY GOVERNMENT-ECONOMIC PROGRAM ADM","returned address":"101-103 E Perry St","country":"USA","returned latitude":41.1373182,"returned longitude":-84.5806371,"longitude":-84.580637,"id":"a64dbjw4964g","infousa_id":904496197,"state":"OH"},"type":"Feature","geometry":{"type":"Point","coordinates":[-84.580637,41.137312]}},{"properties":{"city":"Paulding","zip":"45879","latitude":41.137524,"column_6":null,"ai type w bus size":"Other Government Facilities","primary_sic_description":"COUNTY GOVERNMENT-FINANCE &amp; TAXATION","returned address":"101-115 N Williams St","country":"USA","returned latitude":41.1375242,"returned longitude":-84.5807582,"longitude":-84.580737,"id":"a64dbjm3h1yx","infousa_id":835310020,"state":"OH"},"type":"Feature","geometry":{"type":"Point","coordinates":[-84.580737,41.137524]}},{"properties":{"city":"Paulding","zip":"45879","latitude":41.137524,"column_6":null,"ai type w bus size":"Other Government Facilities","primary_sic_description":"COUNTY GOVERNMENT-FINANCE &amp; TAXATION","returned address":"101-115 N Williams St","country":"USA","returned latitude":41.1375242,"returned longitude":-84.5807582,"longitude":-84.580737,"id":"a64dbjuxi12s","infousa_id":835310178,"state":"OH"},"type":"Feature","geometry":{"type":"Point","coordinates":[-84.580737,41.137524]}},{"properties":{"city":"Paulding","zip":"45879","latitude":41.142109,"column_6":null,"ai type w bus size":"Public Safety Entities","primary_sic_description":"COUNTY GOVERNMENT-FIRE PROTECTION","returned address":"320 W Wall St","country":"USA","returned latitude":41.142181,"returned longitude":-84.58382,"longitude":-84.583863,"id":"a64dbjve4h8g","infousa_id":835309980,"state":"OH"},"type":"Feature","geometry":{"type":"Point","coordinates":[-84.583863,41.142109]}},{"properties":{"city":"Paulding","zip":"45879","latitude":41.169652,"column_6":null,"ai type w bus size":"Other Government Facilities","primary_sic_description":"COUNTY GOVERNMENT-GENERAL OFFICES","returned address":"13505-13509 State Highway 111","country":"USA","returned latitude":41.169652,"returned longitude":-84.5834347,"longitude":-84.583435,"id":"a64dbjrp4v17","infousa_id":368365177,"state":"OH"},"type":"Feature","geometry":{"type":"Point","coordinates":[-84.583435,41.169652]}},{"properties":{"city":"Paulding","zip":"45879","latitude":41.131489,"column_6":null,"ai type w bus size":"Other Government Facilities","primary_sic_description":"COUNTY GOVERNMENT-PUBLIC HEALTH PROGRAMS","returned address":"840 E Perry St","country":"USA","returned latitude":41.131364,"returned longitude":-84.573469,"longitude":-84.573685,"id":"a64dbjtt8vm4","infousa_id":140598368,"state":"OH"},"type":"Feature","geometry":{"type":"Point","coordinates":[-84.573685,41.131489]}},{"properties":{"city":"Paulding","zip":"45879","latitude":41.1321,"column_6":null,"ai type w bus size":"Public Safety Entities","primary_sic_description":"COUNTY GOVERNMENT-PUBLIC ORDER &amp; SAFETY","returned address":"346-564 County Highway 132","country":"USA","returned latitude":41.1320994,"returned longitude":-84.5859216,"longitude":-84.585922,"id":"a64dbjz252d8","infousa_id":451565386,"state":"OH"},"type":"Feature","geometry":{"type":"Point","coordinates":[-84.585922,41.1321]}},{"properties":{"city":"Paulding","zip":"45879","latitude":41.137341,"column_6":null,"ai type w bus size":"Other Government Facilities","primary_sic_description":"COUNTY GOVERNMENT-SOCIAL/HUMAN RESOURCES","returned address":"100-110 W Perry St","country":"USA","returned latitude":41.1373451,"returned longitude":-84.5808275,"longitude":-84.580827,"id":"a64dbk0v9hp4","infousa_id":691562706,"state":"OH"},"type":"Feature","geometry":{"type":"Point","coordinates":[-84.580827,41.137341]}},{"properties":{"city":"Paulding","zip":"45879","latitude":41.136346,"column_6":null,"ai type w bus size":"Other Government Facilities","primary_sic_description":"COUNTY GOVERNMENT-SOCIAL/HUMAN RESOURCES","returned address":"300-314 W Harrison St","country":"USA","returned latitude":41.136358,"returned longitude":-84.5833134,"longitude":-84.583313,"id":"a64dbjyto0vu","infousa_id":835308602,"state":"OH"},"type":"Feature","geometry":{"type":"Point","coordinates":[-84.583313,41.136346]}},{"properties":{"city":"Antwerp","zip":"45813","latitude":41.179484,"column_6":null,"ai type w bus size":"Other Health","primary_sic_description":"DENTISTS","returned address":"301-399 Cleveland St","country":"USA","returned latitude":41.1794833,"returned longitude":-84.740713,"longitude":-84.74071,"id":"a64dbjoo8pkc","infousa_id":444322341,"state":"OH"},"type":"Feature","geometry":{"type":"Point","coordinates":[-84.74071,41.179484]}},{"properties":{"city":"Oakwood","zip":"45873","latitude":41.09869,"column_6":null,"ai type w bus size":"Other Health","primary_sic_description":"DENTISTS","returned address":"112-114 N High St","country":"USA","returned latitude":41.0986967,"returned longitude":-84.3806857,"longitude":-84.380686,"id":"a64dbk1azx5d","infousa_id":835469883,"state":"OH"},"type":"Feature","geometry":{"type":"Point","coordinates":[-84.380686,41.09869]}},{"properties":{"city":"Paulding","zip":"45879","latitude":41.14323,"column_6":null,"ai type w bus size":"Other Health","primary_sic_description":"DENTISTS","returned address":"400-410 E Baldwin St","country":"USA","returned latitude":41.1432359,"returned longitude":-84.5771498,"longitude":-84.57715,"id":"a64dbjrdkuii","infousa_id":451565238,"state":"OH"},"type":"Feature","geometry":{"type":"Point","coordinates":[-84.57715,41.14323]}},{"properties":{"city":"Paulding","zip":"45879","latitude":41.144154,"column_6":null,"ai type w bus size":"Other Health","primary_sic_description":"DENTISTS","returned address":"701-733 Tom Tim Dr","country":"USA","returned latitude":41.1441653,"returned longitude":-84.5744718,"longitude":-84.574472,"id":"a64dbjpuo0u5","infousa_id":591451109,"state":"OH"},"type":"Feature","geometry":{"type":"Point","coordinates":[-84.574472,41.144154]}},{"properties":{"city":"Paulding","zip":"45879","latitude":41.149917,"column_6":null,"ai type w bus size":"1-49 emp bus loc","primary_sic_description":"EMPLOYMENT AGENCIES &amp; OPPORTUNITIES","returned address":"County Highway 144","country":"USA","returned latitude":41.1499499,"returned longitude":-84.5814918,"longitude":-84.581492,"id":"a64dbjojzqpj","infousa_id":591450820,"state":"OH"},"type":"Feature","geometry":{"type":"Point","coordinates":[-84.581492,41.149917]}},{"properties":{"city":"Oakwood","zip":"45873","latitude":41.092357,"column_6":null,"ai type w bus size":"1-49 emp bus loc","primary_sic_description":"EROSION CONTROL","returned address":"22536-22886 State Highway 613","country":"USA","returned latitude":41.0923539,"returned longitude":-84.38745,"longitude":-84.38745,"id":"a64dbjvoqu2v","infousa_id":243012259,"state":"OH"},"type":"Feature","geometry":{"type":"Point","coordinates":[-84.38745,41.092357]}},{"properties":{"city":"Paulding","zip":"45879","latitude":41.149917,"column_6":null,"ai type w bus size":"Other Government Facilities","primary_sic_description":"FEDERAL GOVERNMENT-CONSERVATION DEPTS","returned address":"County Highway 144","country":"USA","returned latitude":41.1499499,"returned longitude":-84.5814918,"longitude":-84.581385,"id":"a64dbjpr8q3v","infousa_id":630737294,"state":"OH"},"type":"Feature","geometry":{"type":"Point","coordinates":[-84.581385,41.149917]}},{"properties":{"city":"Paulding","zip":"45879","latitude":41.139415,"column_6":null,"ai type w bus size":"Other Government Facilities","primary_sic_description":"FEDERAL GOVERNMENT-CONSERVATION DEPTS","returned address":"315 N Walnut St","country":"USA","returned latitude":41.139767,"returned longitude":-84.583127,"longitude":-84.583232,"id":"a64dbjwyoslt","infousa_id":417333598,"state":"OH"},"type":"Feature","geometry":{"type":"Point","coordinates":[-84.583232,41.139415]}},{"properties":{"city":"Paulding","zip":"45879","latitude":41.131489,"column_6":null,"ai type w bus size":"Other Government Facilities","primary_sic_description":"FEDERAL GOVERNMENT-CONSERVATION DEPTS","returned address":"840 E Perry St","country":"USA","returned latitude":41.131364,"returned longitude":-84.573469,"longitude":-84.573685,"id":"a64dbjyyo294","infousa_id":243541109,"state":"OH"},"type":"Feature","geometry":{"type":"Point","coordinates":[-84.573685,41.131489]}},{"properties":{"city":"Defiance","zip":"43512","latitude":41.194656,"column_6":null,"ai type w bus size":"Public Safety Entities","primary_sic_description":"FIRE DEPARTMENTS","returned address":"21000-21150 County Highway 196","country":"USA","returned latitude":41.1946639,"returned longitude":-84.417463,"longitude":-84.417463,"id":"a64dbjwdem5o","infousa_id":835300864,"state":"OH"},"type":"Feature","geometry":{"type":"Point","coordinates":[-84.417463,41.194656]}},{"properties":{"city":"Antwerp","zip":"45813","latitude":41.179559,"column_6":null,"ai type w bus size":"Public Safety Entities","primary_sic_description":"FIRE DEPARTMENTS","returned address":"Daggett St","country":"USA","returned latitude":41.1794209,"returned longitude":-84.7413149,"longitude":-84.74077,"id":"a64dbjrv2s2x","infousa_id":835219924,"state":"OH"},"type":"Feature","geometry":{"type":"Point","coordinates":[-84.74077,41.179559]}},{"properties":{"city":"Oakwood","zip":"45873","latitude":41.094711,"column_6":null,"ai type w bus size":"Public Safety Entities","primary_sic_description":"FIRE DEPARTMENTS","returned address":"200 N 6th St","country":"USA","returned latitude":41.09478,"returned longitude":-84.373797,"longitude":-84.373672,"id":"a64dbjvylvda","infousa_id":663960458,"state":"OH"},"type":"Feature","geometry":{"type":"Point","coordinates":[-84.373672,41.094711]}},{"properties":{"city":"Payne","zip":"45880","latitude":41.081929,"column_6":null,"ai type w bus size":"Public Safety Entities","primary_sic_description":"FIRE DEPARTMENTS","returned address":"301-321 Laura St","country":"USA","returned latitude":41.0819288,"returned longitude":-84.7255429,"longitude":-84.725527,"id":"a64dbjrfsp2w","infousa_id":977415488,"state":"OH"},"type":"Feature","geometry":{"type":"Point","coordinates":[-84.725527,41.081929]}},{"properties":{"city":"Antwerp","zip":"45813","latitude":41.172447,"column_6":null,"ai type w bus size":"Other Government Facilities","primary_sic_description":"GOVERNMENT OFFICES-CITY, VILLAGE &amp; TWP","returned address":"13461-13743 Township Highway T-43","country":"USA","returned latitude":41.172447,"returned longitude":-84.7272397,"longitude":-84.727235,"id":"a64dbk296as8","infousa_id":952389179,"state":"OH"},"type":"Feature","geometry":{"type":"Point","coordinates":[-84.727235,41.172447]}},{"properties":{"city":"Antwerp","zip":"45813","latitude":41.181655,"column_6":null,"ai type w bus size":"Other Government Facilities","primary_sic_description":"GOVERNMENT OFFICES-CITY, VILLAGE &amp; TWP","returned address":"104 N Main St","country":"USA","returned latitude":41.1817629,"returned longitude":-84.7405969,"longitude":-84.740701,"id":"a64dbjyt5pv4","infousa_id":835219965,"state":"OH"},"type":"Feature","geometry":{"type":"Point","coordinates":[-84.740701,41.181655]}},{"properties":{"city":"Antwerp","zip":"45813","latitude":41.181655,"column_6":null,"ai type w bus size":"Other Government Facilities","primary_sic_description":"GOVERNMENT OFFICES-CITY, VILLAGE &amp; TWP","returned address":"104 N Main St","country":"USA","returned latitude":41.1817629,"returned longitude":-84.7405969,"longitude":-84.740701,"id":"a64dbjq19zkz","infousa_id":835219437,"state":"OH"},"type":"Feature","geometry":{"type":"Point","coordinates":[-84.740701,41.181655]}},{"properties":{"city":"Cecil","zip":"45821","latitude":41.223102,"column_6":null,"ai type w bus size":"Other Government Facilities","primary_sic_description":"GOVERNMENT OFFICES-CITY, VILLAGE &amp; TWP","returned address":"13414-13972 County Highway C-224","country":"USA","returned latitude":41.2231058,"returned longitude":-84.563391,"longitude":-84.563391,"id":"a64dbk1kqkfc","infousa_id":243541141,"state":"OH"},"type":"Feature","geometry":{"type":"Point","coordinates":[-84.563391,41.223102]}},{"properties":{"city":"Grover Hill","zip":"45849","latitude":41.019088,"column_6":null,"ai type w bus size":"Other Government Facilities","primary_sic_description":"GOVERNMENT OFFICES-CITY, VILLAGE &amp; TWP","returned address":"100-102 S Main St","country":"USA","returned latitude":41.0190882,"returned longitude":-84.4765969,"longitude":-84.476523,"id":"a64dbjvm7tgc","infousa_id":539092023,"state":"OH"},"type":"Feature","geometry":{"type":"Point","coordinates":[-84.476523,41.019088]}},{"properties":{"city":"Haviland","zip":"45851","latitude":41.033544,"column_6":null,"ai type w bus size":"Other Government Facilities","primary_sic_description":"GOVERNMENT OFFICES-CITY, VILLAGE &amp; TWP","returned address":"11494 Township Highway T-48","country":"USA","returned latitude":41.0335648,"returned longitude":-84.6018065,"longitude":-84.601806,"id":"a64dbjxn4ha2","infousa_id":835473356,"state":"OH"},"type":"Feature","geometry":{"type":"Point","coordinates":[-84.601806,41.033544]}},{"properties":{"city":"Oakwood","zip":"45873","latitude":41.192435,"column_6":null,"ai type w bus size":"Other Government Facilities","primary_sic_description":"GOVERNMENT OFFICES-CITY, VILLAGE &amp; TWP","returned address":"14850 Township Road 169","country":"USA","returned latitude":41.192465,"returned longitude":-84.418645,"longitude":-84.418802,"id":"a64dbk1pd4ko","infousa_id":543615777,"state":"OH"},"type":"Feature","geometry":{"type":"Point","coordinates":[-84.418802,41.192435]}},{"properties":{"city":"Oakwood","zip":"45873","latitude":41.088745,"column_6":null,"ai type w bus size":"Other Government Facilities","primary_sic_description":"GOVERNMENT OFFICES-CITY, VILLAGE &amp; TWP","returned address":"200 County Highway 205","country":"USA","returned latitude":41.0887437,"returned longitude":-84.3787051,"longitude":-84.378699,"id":"a64dbjmbcnx0","infousa_id":407755875,"state":"OH"},"type":"Feature","geometry":{"type":"Point","coordinates":[-84.378699,41.088745]}},{"properties":{"city":"Melrose","zip":"45873","latitude":41.090218,"column_6":null,"ai type w bus size":"Other Government Facilities","primary_sic_description":"GOVERNMENT OFFICES-CITY, VILLAGE &amp; TWP","returned address":"402-498 Park St","country":"USA","returned latitude":41.090218,"returned longitude":-84.4216937,"longitude":-84.421709,"id":"a64dbjsmqhzz","infousa_id":353831670,"state":"OH"},"type":"Feature","geometry":{"type":"Point","coordinates":[-84.421709,41.090218]}},{"properties":{"city":"Melrose","zip":"45873","latitude":41.09022,"column_6":null,"ai type w bus size":"Other Government Facilities","primary_sic_description":"GOVERNMENT OFFICES-CITY, VILLAGE &amp; TWP","returned address":"700-712 County Highway 177","country":"USA","returned latitude":41.09022,"returned longitude":-84.4188373,"longitude":-84.418856,"id":"a64dbjpd0tey","infousa_id":356226209,"state":"OH"},"type":"Feature","geometry":{"type":"Point","coordinates":[-84.418856,41.09022]}},{"properties":{"city":"Paulding","zip":"45879","latitude":41.130501,"column_6":null,"ai type w bus size":"Other Government Facilities","primary_sic_description":"GOVERNMENT OFFICES-CITY, VILLAGE &amp; TWP","returned address":"11761-11773 County Highway 132","country":"USA","returned latitude":41.1305052,"returned longitude":-84.5987471,"longitude":-84.59876,"id":"a64dbjvxp6lv","infousa_id":835308909,"state":"OH"},"type":"Feature","geometry":{"type":"Point","coordinates":[-84.59876,41.130501]}},{"properties":{"city":"Paulding","zip":"45879","latitude":41.1371,"column_6":null,"ai type w bus size":"Other Government Facilities","primary_sic_description":"GOVERNMENT OFFICES-CITY, VILLAGE &amp; TWP","returned address":"101-149 S Main St","country":"USA","returned latitude":41.1371,"returned longitude":-84.5795236,"longitude":-84.579522,"id":"a64dbjm3d4od","infousa_id":835308016,"state":"OH"},"type":"Feature","geometry":{"type":"Point","coordinates":[-84.579522,41.1371]}},{"properties":{"city":"Payne","zip":"45880","latitude":41.064526,"column_6":null,"ai type w bus size":"Other Government Facilities","primary_sic_description":"GOVERNMENT OFFICES-CITY, VILLAGE &amp; TWP","returned address":"6000-6578 Township Road 33","country":"USA","returned latitude":41.0645263,"returned longitude":-84.7461386,"longitude":-84.7461,"id":"a64dbjrorgqr","infousa_id":482723004,"state":"OH"},"type":"Feature","geometry":{"type":"Point","coordinates":[-84.7461,41.064526]}},{"properties":{"city":"Payne","zip":"45880","latitude":41.079563,"column_6":null,"ai type w bus size":"Other Government Facilities","primary_sic_description":"GOVERNMENT OFFICES-CITY, VILLAGE &amp; TWP","returned address":"108 N Main St","country":"USA","returned latitude":41.079576,"returned longitude":-84.726512,"longitude":-84.726666,"id":"a64dbjxrzecw","infousa_id":977415470,"state":"OH"},"type":"Feature","geometry":{"type":"Point","coordinates":[-84.726666,41.079563]}},{"properties":{"city":"Payne","zip":"45880","latitude":41.055797,"column_6":null,"ai type w bus size":"Other Government Facilities","primary_sic_description":"GOVERNMENT OFFICES-CITY, VILLAGE &amp; TWP","returned address":"3354-3998 State Highway 500","country":"USA","returned latitude":41.055808,"returned longitude":-84.756076,"longitude":-84.756063,"id":"a64dbjwcvy2s","infousa_id":683036586,"state":"OH"},"type":"Feature","geometry":{"type":"Point","coordinates":[-84.756063,41.055797]}},{"properties":{"city":"Paulding","zip":"45879","latitude":41.139203,"column_6":null,"ai type w bus size":"Other Government Facilities","primary_sic_description":"GOVERNMENT OFFICES-COUNTY","returned address":"201 E Caroline St","country":"USA","returned latitude":41.138987,"returned longitude":-84.579396,"longitude":-84.579415,"id":"a64dbk074j2z","infousa_id":490072329,"state":"OH"},"type":"Feature","geometry":{"type":"Point","coordinates":[-84.579415,41.139203]}},{"properties":{"city":"Paulding","zip":"45879","latitude":41.141545,"column_6":null,"ai type w bus size":"Other Government Facilities","primary_sic_description":"GOVERNMENT OFFICES-COUNTY","returned address":"510-516 N Williams St","country":"USA","returned latitude":41.141545,"returned longitude":-84.5807845,"longitude":-84.580776,"id":"a64dbjsa5o0j","infousa_id":835308636,"state":"OH"},"type":"Feature","geometry":{"type":"Point","coordinates":[-84.580776,41.141545]}},{"properties":{"city":"Paulding","zip":"45879","latitude":41.1321,"column_6":null,"ai type w bus size":"Other Government Facilities","primary_sic_description":"GOVERNMENT OFFICES-COUNTY","returned address":"346-564 County Highway 132","country":"USA","returned latitude":41.1320994,"returned longitude":-84.5859216,"longitude":-84.585922,"id":"a64dbjmi0pl0","infousa_id":835308990,"state":"OH"},"type":"Feature","geometry":{"type":"Point","coordinates":[-84.585922,41.1321]}},{"properties":{"city":"Paulding","zip":"45879","latitude":41.169652,"column_6":null,"ai type w bus size":"Other Government Facilities","primary_sic_description":"GOVERNMENT OFFICES-COUNTY","returned address":"13505-13509 State Highway 111","country":"USA","returned latitude":41.169652,"returned longitude":-84.5834347,"longitude":-84.583435,"id":"a64dbjndp89z","infousa_id":262629066,"state":"OH"},"type":"Feature","geometry":{"type":"Point","coordinates":[-84.583435,41.169652]}},{"properties":{"city":"Paulding","zip":"45879","latitude":41.137524,"column_6":null,"ai type w bus size":"Other Government Facilities","primary_sic_description":"GOVERNMENT OFFICES-COUNTY","returned address":"101-115 N Williams St","country":"USA","returned latitude":41.1375242,"returned longitude":-84.5807582,"longitude":-84.580737,"id":"a64dbjsi9a2a","infousa_id":835310053,"state":"OH"},"type":"Feature","geometry":{"type":"Point","coordinates":[-84.580737,41.137524]}},{"properties":{"city":"Paulding","zip":"45879","latitude":41.172072,"column_6":null,"ai type w bus size":"Other Government Facilities","primary_sic_description":"GOVERNMENT OFFICES-COUNTY","returned address":"13509-13553 State Highway 111","country":"USA","returned latitude":41.172072,"returned longitude":-84.5834218,"longitude":-84.583418,"id":"a64dbjw3wy77","infousa_id":468712716,"state":"OH"},"type":"Feature","geometry":{"type":"Point","coordinates":[-84.583418,41.172072]}},{"properties":{"city":"Paulding","zip":"45879","latitude":41.137312,"column_6":null,"ai type w bus size":"Other Government Facilities","primary_sic_description":"GOVERNMENT OFFICES-COUNTY","returned address":"103-105 E Perry St","country":"USA","returned latitude":41.1373186,"returned longitude":-84.5805971,"longitude":-84.580597,"id":"a64dbjtf2us9","infousa_id":451565329,"state":"OH"},"type":"Feature","geometry":{"type":"Point","coordinates":[-84.580597,41.137312]}},{"properties":{"city":"Paulding","zip":"45879","latitude":41.13526,"column_6":null,"ai type w bus size":"Other Government Facilities","primary_sic_description":"GOVERNMENT OFFICES-COUNTY","returned address":"801 W Wayne St","country":"USA","returned latitude":41.135142,"returned longitude":-84.590118,"longitude":-84.590066,"id":"a64dbjm7gir8","infousa_id":451565261,"state":"OH"},"type":"Feature","geometry":{"type":"Point","coordinates":[-84.590066,41.13526]}},{"properties":{"city":"Paulding","zip":"45879","latitude":41.137524,"column_6":null,"ai type w bus size":"Other Government Facilities","primary_sic_description":"GOVERNMENT OFFICES-COUNTY","returned address":"101-115 N Williams St","country":"USA","returned latitude":41.1375242,"returned longitude":-84.5807582,"longitude":-84.580737,"id":"a64dbk0catjv","infousa_id":904496270,"state":"OH"},"type":"Feature","geometry":{"type":"Point","coordinates":[-84.580737,41.137524]}},{"properties":{"city":"Paulding","zip":"45879","latitude":41.134479,"column_6":null,"ai type w bus size":"Other Government Facilities","primary_sic_description":"GOVERNMENT OFFICES-COUNTY","returned address":"632-634 E Perry St","country":"USA","returned latitude":41.1344829,"returned longitude":-84.5743279,"longitude":-84.574339,"id":"a64dbjmsxxr4","infousa_id":602370538,"state":"OH"},"type":"Feature","geometry":{"type":"Point","coordinates":[-84.574339,41.134479]}},{"properties":{"city":"Paulding","zip":"45879","latitude":41.138249,"column_6":null,"ai type w bus size":"Other Government Facilities","primary_sic_description":"GOVERNMENT OFFICES-COUNTY","returned address":"401 E Jackson St","country":"USA","returned latitude":41.138131,"returned longitude":-84.577358,"longitude":-84.577329,"id":"a64dbjsqr2ox","infousa_id":468712757,"state":"OH"},"type":"Feature","geometry":{"type":"Point","coordinates":[-84.577329,41.138249]}},{"properties":{"city":"Paulding","zip":"45879","latitude":41.137524,"column_6":null,"ai type w bus size":"Other Government Facilities","primary_sic_description":"GOVERNMENT OFFICES-COUNTY","returned address":"101-115 N Williams St","country":"USA","returned latitude":41.1375242,"returned longitude":-84.5807582,"longitude":-84.580737,"id":"a64dbjurdtnl","infousa_id":835310160,"state":"OH"},"type":"Feature","geometry":{"type":"Point","coordinates":[-84.580737,41.137524]}},{"properties":{"city":"Paulding","zip":"45879","latitude":41.131357,"column_6":null,"ai type w bus size":"Other Government Facilities","primary_sic_description":"GOVERNMENT OFFICES-COUNTY","returned address":"840 E Perry St","country":"USA","returned latitude":41.131364,"returned longitude":-84.573469,"longitude":-84.573681,"id":"a64dbk1vzbz8","infousa_id":835310186,"state":"OH"},"type":"Feature","geometry":{"type":"Point","coordinates":[-84.573681,41.131357]}},{"properties":{"city":"Paulding","zip":"45879","latitude":41.149917,"column_6":null,"ai type w bus size":"Other Government Facilities","primary_sic_description":"GOVERNMENT OFFICES-US","returned address":"County Highway 144","country":"USA","returned latitude":41.1499499,"returned longitude":-84.5814918,"longitude":-84.581385,"id":"a64dbk0pfvb5","infousa_id":602370553,"state":"OH"},"type":"Feature","geometry":{"type":"Point","coordinates":[-84.581385,41.149917]}},{"properties":{"city":"Paulding","zip":"45879","latitude":41.139415,"column_6":null,"ai type w bus size":"Other Government Facilities","primary_sic_description":"GOVERNMENT OFFICES-US","returned address":"315 N Walnut St","country":"USA","returned latitude":41.139767,"returned longitude":-84.583127,"longitude":-84.583232,"id":"a64dbjm5tfvq","infousa_id":539095927,"state":"OH"},"type":"Feature","geometry":{"type":"Point","coordinates":[-84.583232,41.139415]}},{"properties":{"city":"Paulding","zip":"45879","latitude":41.149917,"column_6":null,"ai type w bus size":"1-49 emp bus loc","primary_sic_description":"HOME HEALTH SERVICE","returned address":"County Highway 144","country":"USA","returned latitude":41.1499499,"returned longitude":-84.5814918,"longitude":-84.581492,"id":"a64dbjx6wdnm","infousa_id":140600016,"state":"OH"},"type":"Feature","geometry":{"type":"Point","coordinates":[-84.581492,41.149917]}},{"properties":{"city":"Paulding","zip":"45879","latitude":41.135271,"column_6":null,"ai type w bus size":"Medial and Healthcare Providers","primary_sic_description":"HOSPITALS","returned address":"11000-11004 W Wayne St","country":"USA","returned latitude":41.1352825,"returned longitude":-84.599943,"longitude":-84.599943,"id":"a64dbjytk10q","infousa_id":983501073,"state":"OH"},"type":"Feature","geometry":{"type":"Point","coordinates":[-84.599943,41.135271]}},{"properties":{"city":"Paulding","zip":"45879","latitude":41.141785,"column_6":null,"ai type w bus size":"Other Health","primary_sic_description":"LABORATORIES-MEDICAL","returned address":"354-598 Emerald Rd","country":"USA","returned latitude":41.1417866,"returned longitude":-84.5758393,"longitude":-84.575829,"id":"a64dbjt8ys6c","infousa_id":356134999,"state":"OH"},"type":"Feature","geometry":{"type":"Point","coordinates":[-84.575829,41.141785]}},{"properties":{"city":"Antwerp","zip":"45813","latitude":41.181209,"column_6":null,"ai type w bus size":"Libraries","primary_sic_description":"LIBRARIES-PUBLIC","returned address":"Madison St","country":"USA","returned latitude":41.1817255,"returned longitude":-84.7443068,"longitude":-84.744071,"id":"a64dbjuv8njx","infousa_id":402188304,"state":"OH"},"type":"Feature","geometry":{"type":"Point","coordinates":[-84.744071,41.181209]}},{"properties":{"city":"Oakwood","zip":"45873","latitude":41.094763,"column_6":null,"ai type w bus size":"Libraries","primary_sic_description":"LIBRARIES-PUBLIC","returned address":"218 1st St","country":"USA","returned latitude":41.0951419,"returned longitude":-84.380595,"longitude":-84.380454,"id":"a64dbjwrcysl","infousa_id":835469834,"state":"OH"},"type":"Feature","geometry":{"type":"Point","coordinates":[-84.380454,41.094763]}},{"properties":{"city":"Paulding","zip":"45879","latitude":41.136227,"column_6":null,"ai type w bus size":"Libraries","primary_sic_description":"LIBRARIES-PUBLIC","returned address":"200-208 S Main St","country":"USA","returned latitude":41.1362271,"returned longitude":-84.5795451,"longitude":-84.579548,"id":"a64dbjpix7e1","infousa_id":140599234,"state":"OH"},"type":"Feature","geometry":{"type":"Point","coordinates":[-84.579548,41.136227]}},{"properties":{"city":"Payne","zip":"45880","latitude":41.07934,"column_6":null,"ai type w bus size":"Libraries","primary_sic_description":"LIBRARIES-PUBLIC","returned address":"100-102 N Main St","country":"USA","returned latitude":41.07934,"returned longitude":-84.7266621,"longitude":-84.726664,"id":"a64dbjmd1xo4","infousa_id":952389377,"state":"OH"},"type":"Feature","geometry":{"type":"Point","coordinates":[-84.726664,41.07934]}},{"properties":{"city":"Paulding","zip":"45879","latitude":41.133443,"column_6":null,"ai type w bus size":"1-49 emp bus loc","primary_sic_description":"MARRIAGE &amp; FAMILY COUNSELORS","returned address":"10539-10771 County Highway 107","country":"USA","returned latitude":41.1334429,"returned longitude":-84.5928998,"longitude":-84.592913,"id":"a64dbjtwnin7","infousa_id":691562623,"state":"OH"},"type":"Feature","geometry":{"type":"Point","coordinates":[-84.592913,41.133443]}},{"properties":{"city":"Paulding","zip":"45879","latitude":41.134488,"column_6":null,"ai type w bus size":"Other Health","primary_sic_description":"MENTAL HEALTH SERVICES","returned address":"401-499 County Highway 107","country":"USA","returned latitude":41.134488,"returned longitude":-84.5928856,"longitude":-84.59289,"id":"a64dbjyxja90","infousa_id":962592614,"state":"OH"},"type":"Feature","geometry":{"type":"Point","coordinates":[-84.59289,41.134488]}},{"properties":{"city":"Paulding","zip":"45879","latitude":41.131477,"column_6":null,"ai type w bus size":"1-49 emp bus loc","primary_sic_description":"MUSEUMS","returned address":"567-625 County Highway 132","country":"USA","returned latitude":41.1314864,"returned longitude":-84.5875827,"longitude":-84.587576,"id":"a64dbjltfncx","infousa_id":490072345,"state":"OH"},"type":"Feature","geometry":{"type":"Point","coordinates":[-84.587576,41.131477]}},{"properties":{"city":"Paulding","zip":"45879","latitude":41.151196,"column_6":null,"ai type w bus size":"Other Govt","primary_sic_description":"NONCLASSIFIED ESTABLISHMENTS","returned address":"1015-1019 N Williams St","country":"USA","returned latitude":41.151196,"returned longitude":-84.5808255,"longitude":-84.580833,"id":"a64dbjmn7wba","infousa_id":539095869,"state":"OH"},"type":"Feature","geometry":{"type":"Point","coordinates":[-84.580833,41.151196]}},{"properties":{"city":"Payne","zip":"45880","latitude":41.079234,"column_6":null,"ai type w bus size":"Other Govt","primary_sic_description":"NONCLASSIFIED ESTABLISHMENTS","returned address":"102 W Merrin St","country":"USA","returned latitude":41.079341,"returned longitude":-84.7272799,"longitude":-84.726813,"id":"a64dbjysbrxg","infousa_id":587043274,"state":"OH"},"type":"Feature","geometry":{"type":"Point","coordinates":[-84.726813,41.079234]}},{"properties":{"city":"Paulding","zip":"45879","latitude":41.137308,"column_6":null,"ai type w bus size":"1-49 emp bus loc","primary_sic_description":"NON-PROFIT ORGANIZATIONS","returned address":"105 W Perry St","country":"USA","returned latitude":41.137218,"returned longitude":-84.581119,"longitude":-84.58111,"id":"a64dbjtua97r","infousa_id":591450713,"state":"OH"},"type":"Feature","geometry":{"type":"Point","coordinates":[-84.58111,41.137308]}},{"properties":{"city":"Paulding","zip":"45879","latitude":41.137431,"column_6":null,"ai type w bus size":"1-49 emp bus loc","primary_sic_description":"NON-PROFIT ORGANIZATIONS","returned address":"105 N Main St","country":"USA","returned latitude":41.137485,"returned longitude":-84.579298,"longitude":-84.57952,"id":"a64dbjyhlyad","infousa_id":242400570,"state":"OH"},"type":"Feature","geometry":{"type":"Point","coordinates":[-84.57952,41.137431]}},{"properties":{"city":"Oakwood","zip":"45873","latitude":41.092823,"column_6":null,"ai type w bus size":"Other Health","primary_sic_description":"OPTOMETRISTS OD","returned address":"100-198 1st St","country":"USA","returned latitude":41.0928228,"returned longitude":-84.3803965,"longitude":-84.380386,"id":"a64dbjt2l3dc","infousa_id":468712492,"state":"OH"},"type":"Feature","geometry":{"type":"Point","coordinates":[-84.380386,41.092823]}},{"properties":{"city":"Paulding","zip":"45879","latitude":41.135302,"column_6":null,"ai type w bus size":"Other Health","primary_sic_description":"OPTOMETRISTS OD","returned address":"700-704 W Wayne St","country":"USA","returned latitude":41.1352992,"returned longitude":-84.588596,"longitude":-84.588596,"id":"a64dbjqgceo9","infousa_id":434258133,"state":"OH"},"type":"Feature","geometry":{"type":"Point","coordinates":[-84.588596,41.135302]}},{"properties":{"city":"Paulding","zip":"45879","latitude":41.147565,"column_6":null,"ai type w bus size":"Other Health","primary_sic_description":"PHYSICAL THERAPISTS","returned address":"833-835 N Williams St","country":"USA","returned latitude":41.1475651,"returned longitude":-84.580795,"longitude":-84.580807,"id":"a64dbjvr5ypo","infousa_id":218468478,"state":"OH"},"type":"Feature","geometry":{"type":"Point","coordinates":[-84.580807,41.147565]}},{"properties":{"city":"Antwerp","zip":"45813","latitude":41.180285,"column_6":null,"ai type w bus size":"Medial and Healthcare Providers","primary_sic_description":"PHYSICIANS &amp; SURGEONS","returned address":"401-403 W River St","country":"USA","returned latitude":41.1803159,"returned longitude":-84.7439879,"longitude":-84.74397,"id":"a64dbjvmpm4z","infousa_id":835219767,"state":"OH"},"type":"Feature","geometry":{"type":"Point","coordinates":[-84.74397,41.180285]}},{"properties":{"city":"Antwerp","zip":"45813","latitude":41.177367,"column_6":null,"ai type w bus size":"Medial and Healthcare Providers","primary_sic_description":"PHYSICIANS &amp; SURGEONS","returned address":"101-103 Buffalo St","country":"USA","returned latitude":41.1773715,"returned longitude":-84.737606,"longitude":-84.737604,"id":"a64dbjtbnu4j","infousa_id":835219841,"state":"OH"},"type":"Feature","geometry":{"type":"Point","coordinates":[-84.737604,41.177367]}},{"properties":{"city":"Paulding","zip":"45879","latitude":41.141785,"column_6":null,"ai type w bus size":"Medial and Healthcare Providers","primary_sic_description":"PHYSICIANS &amp; SURGEONS","returned address":"354-598 Emerald Rd","country":"USA","returned latitude":41.1417866,"returned longitude":-84.5758393,"longitude":-84.575829,"id":"a64dbjqe4nvp","infousa_id":140597717,"state":"OH"},"type":"Feature","geometry":{"type":"Point","coordinates":[-84.575829,41.141785]}},{"properties":{"city":"Paulding","zip":"45879","latitude":41.135299,"column_6":null,"ai type w bus size":"Medial and Healthcare Providers","primary_sic_description":"PHYSICIANS &amp; SURGEONS","returned address":"11000-11004 W Wayne St","country":"USA","returned latitude":41.1352826,"returned longitude":-84.599841,"longitude":-84.599841,"id":"a64dbjpvhcfc","infousa_id":663681252,"state":"OH"},"type":"Feature","geometry":{"type":"Point","coordinates":[-84.599841,41.135299]}},{"properties":{"city":"Paulding","zip":"45879","latitude":41.135299,"column_6":null,"ai type w bus size":"Medial and Healthcare Providers","primary_sic_description":"PHYSICIANS &amp; SURGEONS","returned address":"11000-11004 W Wayne St","country":"USA","returned latitude":41.1352826,"returned longitude":-84.599841,"longitude":-84.599841,"id":"a64dbjoq8bk1","infousa_id":676594807,"state":"OH"},"type":"Feature","geometry":{"type":"Point","coordinates":[-84.599841,41.135299]}},{"properties":{"city":"Payne","zip":"45880","latitude":41.077343,"column_6":null,"ai type w bus size":"Medial and Healthcare Providers","primary_sic_description":"PHYSICIANS &amp; SURGEONS","returned address":"301-307 S Main St","country":"USA","returned latitude":41.077343,"returned longitude":-84.7266799,"longitude":-84.726685,"id":"a64dbjsl4g3u","infousa_id":444322135,"state":"OH"},"type":"Feature","geometry":{"type":"Point","coordinates":[-84.726685,41.077343]}},{"properties":{"city":"Paulding","zip":"45879","latitude":41.1376,"column_6":null,"ai type w bus size":"Other Health","primary_sic_description":"PODIATRISTS","returned address":"101-125 N Water St","country":"USA","returned latitude":41.1376,"returned longitude":-84.5785224,"longitude":-84.578535,"id":"a64dbjxny1z0","infousa_id":451565212,"state":"OH"},"type":"Feature","geometry":{"type":"Point","coordinates":[-84.578535,41.1376]}},{"properties":{"city":"Antwerp","zip":"45813","latitude":41.181655,"column_6":null,"ai type w bus size":"Public Safety Entities","primary_sic_description":"POLICE DEPARTMENTS","returned address":"104 N Main St","country":"USA","returned latitude":41.1817629,"returned longitude":-84.7405969,"longitude":-84.740701,"id":"a64dbjp5bags","infousa_id":899670137,"state":"OH"},"type":"Feature","geometry":{"type":"Point","coordinates":[-84.740701,41.181655]}},{"properties":{"city":"Antwerp","zip":"45813","latitude":41.179737,"column_6":null,"ai type w bus size":"Other Government Facilities","primary_sic_description":"POST OFFICES","returned address":"253-303 S Main St","country":"USA","returned latitude":41.1797311,"returned longitude":-84.7398339,"longitude":-84.739813,"id":"a64dbjzxhi9u","infousa_id":835219650,"state":"OH"},"type":"Feature","geometry":{"type":"Point","coordinates":[-84.739813,41.179737]}},{"properties":{"city":"Cecil","zip":"45821","latitude":41.217834,"column_6":null,"ai type w bus size":"Other Government Facilities","primary_sic_description":"POST OFFICES","returned address":"101-111 County Highway 105","country":"USA","returned latitude":41.217834,"returned longitude":-84.6022622,"longitude":-84.602258,"id":"a64dbjxxvhtg","infousa_id":835508946,"state":"OH"},"type":"Feature","geometry":{"type":"Point","coordinates":[-84.602258,41.217834]}},{"properties":{"city":"Grover Hill","zip":"45849","latitude":41.019119,"column_6":null,"ai type w bus size":"Other Government Facilities","primary_sic_description":"POST OFFICES","returned address":"100-102 S Main St","country":"USA","returned latitude":41.0191192,"returned longitude":-84.4765967,"longitude":-84.476523,"id":"a64dbjwom01w","infousa_id":835461609,"state":"OH"},"type":"Feature","geometry":{"type":"Point","coordinates":[-84.476523,41.019119]}},{"properties":{"city":"Haviland","zip":"45851","latitude":41.018682,"column_6":null,"ai type w bus size":"Other Government Facilities","primary_sic_description":"POST OFFICES","returned address":"7934-7998 State Highway 114","country":"USA","returned latitude":41.0186725,"returned longitude":-84.6699107,"longitude":-84.66991,"id":"a64dbjn2dgir","infousa_id":835473315,"state":"OH"},"type":"Feature","geometry":{"type":"Point","coordinates":[-84.66991,41.018682]}},{"properties":{"city":"Latty","zip":"45855","latitude":41.087744,"column_6":null,"ai type w bus size":"Other Government Facilities","primary_sic_description":"POST OFFICES","returned address":"355 2nd St","country":"USA","returned latitude":41.087777,"returned longitude":-84.581358,"longitude":-84.581535,"id":"a64dbjlsf6io","infousa_id":835309618,"state":"OH"},"type":"Feature","geometry":{"type":"Point","coordinates":[-84.581535,41.087744]}},{"properties":{"city":"Melrose","zip":"45861","latitude":41.090321,"column_6":null,"ai type w bus size":"Other Government Facilities","primary_sic_description":"POST OFFICES","returned address":"651-699 Superior St","country":"USA","returned latitude":41.0903367,"returned longitude":-84.4188058,"longitude":-84.418806,"id":"a64dbjthwh35","infousa_id":835469727,"state":"OH"},"type":"Feature","geometry":{"type":"Point","coordinates":[-84.418806,41.090321]}},{"properties":{"city":"Oakwood","zip":"45873","latitude":41.095124,"column_6":null,"ai type w bus size":"Other Government Facilities","primary_sic_description":"POST OFFICES","returned address":"218 1st St","country":"USA","returned latitude":41.0951419,"returned longitude":-84.380595,"longitude":-84.380412,"id":"a64dbju6yu30","infousa_id":835470014,"state":"OH"},"type":"Feature","geometry":{"type":"Point","coordinates":[-84.380412,41.095124]}},{"properties":{"city":"Paulding","zip":"45879","latitude":41.138266,"column_6":null,"ai type w bus size":"Other Government Facilities","primary_sic_description":"POST OFFICES","returned address":"101-121 W Jackson St","country":"USA","returned latitude":41.1382547,"returned longitude":-84.581088,"longitude":-84.581088,"id":"a64dbjxpamu6","infousa_id":835307992,"state":"OH"},"type":"Feature","geometry":{"type":"Point","coordinates":[-84.581088,41.138266]}},{"properties":{"city":"Payne","zip":"45880","latitude":41.079208,"column_6":null,"ai type w bus size":"Other Government Facilities","primary_sic_description":"POST OFFICES","returned address":"110 S Laura St","country":"USA","returned latitude":41.0792079,"returned longitude":-84.725516,"longitude":-84.725505,"id":"a64dbjtz1neq","infousa_id":835221284,"state":"OH"},"type":"Feature","geometry":{"type":"Point","coordinates":[-84.725505,41.079208]}},{"properties":{"city":"Paulding","zip":"45879","latitude":41.149917,"column_6":null,"ai type w bus size":"Other Edu","primary_sic_description":"REHABILITATION SERVICES","returned address":"County Highway 144","country":"USA","returned latitude":41.1499499,"returned longitude":-84.5814918,"longitude":-84.581492,"id":"a64dbjnuegfa","infousa_id":962592648,"state":"OH"},"type":"Feature","geometry":{"type":"Point","coordinates":[-84.581492,41.149917]}},{"properties":{"city":"Payne","zip":"45880","latitude":41.076335,"column_6":null,"ai type w bus size":"Other Edu","primary_sic_description":"RELIGIOUS SCHOOLS","returned address":"101-177 Arturus St","country":"USA","returned latitude":41.0763735,"returned longitude":-84.7273791,"longitude":-84.72738,"id":"a64dbjweie1l","infousa_id":450308721,"state":"OH"},"type":"Feature","geometry":{"type":"Point","coordinates":[-84.72738,41.076335]}},{"properties":{"city":"Antwerp","zip":"45813","latitude":41.185985,"column_6":null,"ai type w bus size":"Schools (K-12)","primary_sic_description":"SCHOOLS","returned address":"14300-14528 County Highway C-43","country":"USA","returned latitude":41.1859848,"returned longitude":-84.7273311,"longitude":-84.727307,"id":"a64dbjsq6yni","infousa_id":140548280,"state":"OH"},"type":"Feature","geometry":{"type":"Point","coordinates":[-84.727307,41.185985]}},{"properties":{"city":"Grover Hill","zip":"45849","latitude":41.019309,"column_6":null,"ai type w bus size":"Schools (K-12)","primary_sic_description":"SCHOOLS","returned address":"Monroe St","country":"USA","returned latitude":41.0196789,"returned longitude":-84.4791207,"longitude":-84.479039,"id":"a64dbk04vok5","infousa_id":835461641,"state":"OH"},"type":"Feature","geometry":{"type":"Point","coordinates":[-84.479039,41.019309]}},{"properties":{"city":"Haviland","zip":"45851","latitude":41.04702,"column_6":null,"ai type w bus size":"Schools (K-12)","primary_sic_description":"SCHOOLS","returned address":"4915 U.S. 127","country":"USA","returned latitude":41.046844,"returned longitude":-84.573128,"longitude":-84.572949,"id":"a64dbjxfssmm","infousa_id":140586538,"state":"OH"},"type":"Feature","geometry":{"type":"Point","coordinates":[-84.572949,41.04702]}},{"properties":{"city":"Haviland","zip":"45851","latitude":41.04702,"column_6":null,"ai type w bus size":"Schools (K-12)","primary_sic_description":"SCHOOLS","returned address":"4915 U.S. 127","country":"USA","returned latitude":41.046844,"returned longitude":-84.573128,"longitude":-84.572949,"id":"a64dbjua8iht","infousa_id":413408709,"state":"OH"},"type":"Feature","geometry":{"type":"Point","coordinates":[-84.572949,41.04702]}},{"properties":{"city":"Oakwood","zip":"45873","latitude":41.096485,"column_6":null,"ai type w bus size":"Schools (K-12)","primary_sic_description":"SCHOOLS","returned address":"300-312 1st St","country":"USA","returned latitude":41.096485,"returned longitude":-84.3804396,"longitude":-84.38042,"id":"a64dbju56soc","infousa_id":140594169,"state":"OH"},"type":"Feature","geometry":{"type":"Point","coordinates":[-84.38042,41.096485]}},{"properties":{"city":"Paulding","zip":"45879","latitude":41.129709,"column_6":null,"ai type w bus size":"Schools (K-12)","primary_sic_description":"SCHOOLS","returned address":"709-753 County Highway 132","country":"USA","returned latitude":41.1297107,"returned longitude":-84.5909057,"longitude":-84.590904,"id":"a64dbjvsezhg","infousa_id":835309329,"state":"OH"},"type":"Feature","geometry":{"type":"Point","coordinates":[-84.590904,41.129709]}},{"properties":{"city":"Paulding","zip":"45879","latitude":41.140274,"column_6":null,"ai type w bus size":"Schools (K-12)","primary_sic_description":"SCHOOLS","returned address":"405 N Water St","country":"USA","returned latitude":41.140043,"returned longitude":-84.57843,"longitude":-84.57853,"id":"a64dbjxziuyw","infousa_id":450299193,"state":"OH"},"type":"Feature","geometry":{"type":"Point","coordinates":[-84.57853,41.140274]}},{"properties":{"city":"Paulding","zip":"45879","latitude":41.140274,"column_6":null,"ai type w bus size":"Schools (K-12)","primary_sic_description":"SCHOOLS","returned address":"405 N Water St","country":"USA","returned latitude":41.140043,"returned longitude":-84.57843,"longitude":-84.57853,"id":"a64dbjp38uim","infousa_id":140599341,"state":"OH"},"type":"Feature","geometry":{"type":"Point","coordinates":[-84.57853,41.140274]}},{"properties":{"city":"Paulding","zip":"45879","latitude":41.138312,"column_6":null,"ai type w bus size":"Schools (K-12)","primary_sic_description":"SCHOOLS","returned address":"202 N Cherry St","country":"USA","returned latitude":41.138482,"returned longitude":-84.58216,"longitude":-84.582056,"id":"a64dbjqytclq","infousa_id":835309204,"state":"OH"},"type":"Feature","geometry":{"type":"Point","coordinates":[-84.582056,41.138312]}},{"properties":{"city":"Payne","zip":"45880","latitude":41.077471,"column_6":null,"ai type w bus size":"Schools (K-12)","primary_sic_description":"SCHOOLS","returned address":"500-598 W Townline St","country":"USA","returned latitude":41.0774676,"returned longitude":-84.732382,"longitude":-84.732382,"id":"a64dbk0c4f34","infousa_id":140600545,"state":"OH"},"type":"Feature","geometry":{"type":"Point","coordinates":[-84.732382,41.077471]}},{"properties":{"city":"Paulding","zip":"45879","latitude":41.138249,"column_6":null,"ai type w bus size":"1-49 emp bus loc","primary_sic_description":"SENIOR CITIZENS SERVICE","returned address":"401 E Jackson St","country":"USA","returned latitude":41.138131,"returned longitude":-84.577358,"longitude":-84.577329,"id":"a64dbjy43voa","infousa_id":140599309,"state":"OH"},"type":"Feature","geometry":{"type":"Point","coordinates":[-84.577329,41.138249]}},{"properties":{"city":"Paulding","zip":"45879","latitude":41.135398,"column_6":null,"ai type w bus size":"Public Safety Entities","primary_sic_description":"SHERIFF","returned address":"601-621 E Perry St","country":"USA","returned latitude":41.1354037,"returned longitude":-84.5752773,"longitude":-84.575287,"id":"a64dbjzhpjfy","infousa_id":451565451,"state":"OH"},"type":"Feature","geometry":{"type":"Point","coordinates":[-84.575287,41.135398]}},{"properties":{"city":"Paulding","zip":"45879","latitude":41.1371,"column_6":null,"ai type w bus size":"Public Safety Entities","primary_sic_description":"SHERIFF","returned address":"101-149 S Main St","country":"USA","returned latitude":41.1371,"returned longitude":-84.5795236,"longitude":-84.579522,"id":"a64dbjmxl8lw","infousa_id":835308354,"state":"OH"},"type":"Feature","geometry":{"type":"Point","coordinates":[-84.579522,41.1371]}},{"properties":{"city":"Paulding","zip":"45879","latitude":41.13838,"column_6":null,"ai type w bus size":"1-49 emp bus loc","primary_sic_description":"SOCIAL SERVICE &amp; WELFARE ORGANIZATIONS","returned address":"201 N Main St","country":"USA","returned latitude":41.138366,"returned longitude":-84.579406,"longitude":-84.579509,"id":"a64dbjnwzrar","infousa_id":591450697,"state":"OH"},"type":"Feature","geometry":{"type":"Point","coordinates":[-84.579509,41.13838]}},{"properties":{"city":"Paulding","zip":"45879","latitude":41.129709,"column_6":null,"ai type w bus size":"1-49 emp bus loc","primary_sic_description":"SOCIAL SERVICE &amp; WELFARE ORGANIZATIONS","returned address":"709-753 County Highway 132","country":"USA","returned latitude":41.1297107,"returned longitude":-84.5909057,"longitude":-84.590904,"id":"a64dbjtdd0r8","infousa_id":539095794,"state":"OH"},"type":"Feature","geometry":{"type":"Point","coordinates":[-84.590904,41.129709]}},{"properties":{"city":"Paulding","zip":"45879","latitude":41.137431,"column_6":null,"ai type w bus size":"1-49 emp bus loc","primary_sic_description":"SOCIAL SERVICE &amp; WELFARE ORGANIZATIONS","returned address":"105 N Main St","country":"USA","returned latitude":41.137485,"returned longitude":-84.579298,"longitude":-84.57952,"id":"a64dbju228bk","infousa_id":243540960,"state":"OH"},"type":"Feature","geometry":{"type":"Point","coordinates":[-84.57952,41.137431]}},{"properties":{"city":"Paulding","zip":"45879","latitude":41.13846,"column_6":null,"ai type w bus size":"1-49 emp bus loc","primary_sic_description":"SOCIAL SERVICE &amp; WELFARE ORGANIZATIONS","returned address":"200-220 N Main St","country":"USA","returned latitude":41.1384602,"returned longitude":-84.5795577,"longitude":-84.579546,"id":"a64dbjxx8s1n","infousa_id":983500885,"state":"OH"},"type":"Feature","geometry":{"type":"Point","coordinates":[-84.579546,41.13846]}},{"properties":{"city":"Paulding","zip":"45879","latitude":41.1321,"column_6":null,"ai type w bus size":"Public Safety Entities","primary_sic_description":"STATE GOVERNMENT-POLICE","returned address":"346-564 County Highway 132","country":"USA","returned latitude":41.1320994,"returned longitude":-84.5859216,"longitude":-84.585922,"id":"a64dbjuksmxb","infousa_id":205134927,"state":"OH"},"type":"Feature","geometry":{"type":"Point","coordinates":[-84.585922,41.1321]}},{"properties":{"city":"Antwerp","zip":"45813","latitude":41.178961,"column_6":null,"ai type w bus size":"1-49 emp bus loc","primary_sic_description":"VETERANS' &amp; MILITARY ORGANIZATIONS","returned address":"304 Erie St","country":"USA","returned latitude":41.179045,"returned longitude":-84.737843,"longitude":-84.737905,"id":"a64dbjyqggxi","infousa_id":553789397,"state":"OH"},"type":"Feature","geometry":{"type":"Point","coordinates":[-84.737905,41.178961]}},{"properties":{"city":"Antwerp","zip":"45813","latitude":41.180454,"column_6":null,"ai type w bus size":"1-49 emp bus loc","primary_sic_description":"VETERANS' &amp; MILITARY ORGANIZATIONS","returned address":"101 Railroad St","country":"USA","returned latitude":41.180297,"returned longitude":-84.740503,"longitude":-84.740283,"id":"a64dbk1n5070","infousa_id":835219700,"state":"OH"},"type":"Feature","geometry":{"type":"Point","coordinates":[-84.740283,41.180454]}},{"properties":{"city":"Grover Hill","zip":"45849","latitude":41.01262,"column_6":null,"ai type w bus size":"1-49 emp bus loc","primary_sic_description":"VETERANS' &amp; MILITARY ORGANIZATIONS","returned address":"2500-2770 County Road 165","country":"USA","returned latitude":41.01262,"returned longitude":-84.4380933,"longitude":-84.438101,"id":"a64dbjzyg40q","infousa_id":835461518,"state":"OH"},"type":"Feature","geometry":{"type":"Point","coordinates":[-84.438101,41.01262]}},{"properties":{"city":"Paulding","zip":"45879","latitude":41.13846,"column_6":null,"ai type w bus size":"1-49 emp bus loc","primary_sic_description":"VETERANS' &amp; MILITARY ORGANIZATIONS","returned address":"200-214 N Water St","country":"USA","returned latitude":41.1384601,"returned longitude":-84.5785621,"longitude":-84.578581,"id":"a64dbjxuptbf","infousa_id":140600008,"state":"OH"},"type":"Feature","geometry":{"type":"Point","coordinates":[-84.578581,41.13846]}},{"properties":{"city":"Payne","zip":"45880","latitude":41.079198,"column_6":null,"ai type w bus size":"1-49 emp bus loc","primary_sic_description":"YOUTH ORGANIZATIONS &amp; CENTERS","returned address":"101-113 S Main St","country":"USA","returned latitude":41.079198,"returned longitude":-84.7266618,"longitude":-84.726662,"id":"a64dbjvklyt4","infousa_id":996616371,"state":"OH"},"type":"Feature","geometry":{"type":"Point","coordinates":[-84.726662,41.079198]}}],"is_temporal":false,"author":{"url":"","metadata":"","contact_name":"","contact_address":"","source":"","contact_phone":""},"source":"","pagination":{"sort":null,"start":0,"total":287,"limit":1000000},"state":"complete","tags":"","published":"2014-08-14T17:04:27-04:00","id":201689}