{"url_type":null,"title":"Superpages.com, Newsstands, New York City, 2008","count":425,"stream_id":2017,"contributor":{"name":"emily","url":"http://geocommons.com/users/185"},"extent":[-74.0147,0.0,0.0,40.8658],"data_attributes":null,"calculation_params":null,"icon_link":null,"link":"http://geocommons.com/overlays/2017.json","features":[{"name":"02138 Magazine","website":"","categories":"Categories: Magazine Dealers,  News Dealers &amp; Newsstands","phone":"(212) 984-0606","geometry":{"type":"Point","coordinates":[-73.978732,40.751005]},"id":"a65bahla7w7v","address":"100 Park Avenue, New York, NY 10017","lat":40.751005,"long":-73.978732},{"name":"101 Newsstands","website":"","categories":"Categories: Convenience Stores,  Magazine Dealers,  Newspapers &amp; Magazines,  Newspaper Back Issues,  News Dealers &amp; Newsstands,  more…","phone":"(212) 785-0883","geometry":{"type":"Point","coordinates":[-74.006917,40.707027]},"id":"a65bahcv8fgn","address":"103 Maiden Ln, New York, NY 10038","lat":40.707027,"long":-74.006917},{"name":"125th Street News Inc","website":"","categories":"Categories: Newspapers &amp; Magazines,  News Dealers &amp; Newsstands,  Magazine &amp; Periodical Advertising","phone":"(212) 866-0364","geometry":{"type":"Point","coordinates":[-73.952253,40.810943]},"id":"a65bahcp3ndk","address":"306 Saint Nicholas Avenue, New York, NY 10027","lat":40.810943,"long":-73.952253},{"name":"1370 Newstand Inc","website":"","categories":"Categories: News Dealers &amp; Newsstands","phone":"(212) 629-8870","geometry":{"type":"Point","coordinates":[-73.987408,40.752053]},"id":"a65bahh9o7j1","address":"1370 Broadway, New York, NY 10018","lat":40.752053,"long":-73.987408},{"name":"168 Street News Inc","website":"","categories":"Categories: News Dealers &amp; Newsstands","phone":"(212) 781-2780","geometry":{"type":"Point","coordinates":[-73.941057,40.841617]},"id":"a65bahgm4ps6","address":"W 168th Street, New York, NY 10032","lat":40.841617,"long":-73.941057},{"name":"1st Avenue News Inc","website":"","categories":"Categories: Newspapers &amp; Magazines,  News Dealers &amp; Newsstands","phone":"(212) 397-2205","geometry":{"type":"Point","coordinates":[-73.981846,40.770727]},"id":"a65bahccpkuk","address":"1886 Broadway Frnt 4, New York, NY 10023","lat":40.770727,"long":-73.981846},{"name":"200 City News Inc","website":"","categories":"Categories: Newspapers &amp; Magazines,  News Dealers &amp; Newsstands","phone":"(212) 684-1288","geometry":{"type":"Point","coordinates":[-73.982499,40.748559]},"id":"a65bahjtxcjh","address":"200 Madison Avenue, New York, NY 10016","lat":40.748559,"long":-73.982499},{"name":"30 West Newstand Inc","website":"","categories":"Categories: Newspapers &amp; Magazines,  News Dealers &amp; Newsstands","phone":"(212) 575-4543","geometry":{"type":"Point","coordinates":[-73.97974,40.757004]},"id":"a65bahkdc6h5","address":"30 W 47th Street, New York, NY 10036","lat":40.757004,"long":-73.97974},{"name":"40 Rector Newsstand","website":"","categories":"Categories: Newspapers &amp; Magazines,  News Dealers &amp; Newsstands","phone":"(212) 349-7608","geometry":{"type":"Point","coordinates":[-74.01449,40.708371]},"id":"a65bah71g0ui","address":"40 Rector Street Rm 101, New York, NY 10006","lat":40.708371,"long":-74.01449},{"name":"45th &amp; Park Avenue","website":"","categories":"Categories: Newspapers &amp; Magazines,  News Dealers &amp; Newsstands","phone":"(212) 490-4060","geometry":{"type":"Point","coordinates":[-73.975852,40.754611]},"id":"a65bahdi97xk","address":"230 Park Avenue Lbby 1, New York, NY 10169","lat":40.754611,"long":-73.975852},{"name":"80 Maiden Lane Newstand Inc","website":"","categories":"Categories: Newspapers &amp; Magazines,  News Dealers &amp; Newsstands","phone":"(212) 483-8800","geometry":{"type":"Point","coordinates":[-74.007422,40.707066]},"id":"a65bahdx4945","address":"80 Maiden Lane, New York, NY 10038","lat":40.707066,"long":-74.007422},{"name":"A &amp; H Newstand","website":"","categories":"Categories: News Dealers &amp; Newsstands","phone":"(212) 247-3607","geometry":{"type":"Point","coordinates":[-73.987945,40.75989]},"id":"a65bahfyanro","address":"733 8th Avenue, New York, NY 10036","lat":40.75989,"long":-73.987945},{"name":"ALAM Fakhrul","website":"","categories":"Categories: News Dealers &amp; Newsstands","phone":"(212) 593-1854","geometry":{"type":"Point","coordinates":[-73.972795,40.764589]},"id":"a65baha9z56y","address":"785 5th Avenue, New York, NY 10022","lat":40.764589,"long":-73.972795},{"name":"ALKA News","website":"","categories":"Categories: Newspapers &amp; Magazines,  News Dealers &amp; Newsstands","phone":"(212) 391-0344","geometry":{"type":"Point","coordinates":[-73.989268,40.753025]},"id":"a65bah5syfiy","address":"500 7th Avenue 1, New York, NY 10018","lat":40.753025,"long":-73.989268},{"name":"AMI Trading Limited","website":"","categories":"Categories: News Dealers &amp; Newsstands","phone":"(212) 541-5602","geometry":{"type":"Point","coordinates":[-73.994709,40.74538]},"id":"a65bahhg25e5","address":"57 Street 7 Avenue, New York, NY 10001","lat":40.74538,"long":-73.994709},{"name":"ARUN Patel Newsstand","website":"","categories":"Categories: News Dealers &amp; Newsstands,  News &amp; Sports Services","phone":"(212) 594-9643","geometry":{"type":"Point","coordinates":[-73.992936,40.75266]},"id":"a65bah56574v","address":"496 8th Avenue, New York, NY 10001","lat":40.75266,"long":-73.992936},{"name":"Age News Health &amp; Sciences","website":"","categories":"Categories: Newspapers &amp; Magazines,  News Dealers &amp; Newsstands","phone":"(212) 563-9000","geometry":{"type":"Point","coordinates":[-73.985454,40.746944]},"id":"a65bah599jxa","address":"315 5th Avenue, New York, NY 10016","lat":40.746944,"long":-73.985454},{"name":"Agency Cultural &amp; Technical Cooperation Permanent Observers","website":"","categories":"Categories: News Dealers &amp; Newsstands","phone":"(212) 687-1638","geometry":{"type":"Point","coordinates":[-73.972014,40.750355]},"id":"a65bahadif31","address":"801 2nd Avenue, New York, NY 10017","lat":40.750355,"long":-73.972014},{"name":"Aldon News Corp","website":"","categories":"Categories: News Dealers &amp; Newsstands","phone":"(212) 838-7092","geometry":{"type":"Point","coordinates":[-73.96937,40.757575]},"id":"a65bah9ueyvp","address":"875 3 Avenue, New York, NY 10022","lat":40.757575,"long":-73.96937},{"name":"Alexander Katz","website":"","categories":"Categories: Magazine Dealers,  News Dealers &amp; Newsstands","phone":"(917) 522-1371","geometry":{"type":"Point","coordinates":[-74.014433,40.717503]},"id":"a65bahe25oau","address":"455 N End Avenue, New York, NY 10282","lat":40.717503,"long":-74.014433},{"name":"Allcity News CO","website":"","categories":"Categories: News Dealers &amp; Newsstands","phone":"(212) 580-5955","geometry":{"type":"Point","coordinates":[-73.978021,40.783288]},"id":"a65bah71g99d","address":"405 Amsterdam Avenue, New York, NY 10024","lat":40.783288,"long":-73.978021},{"name":"Allcity News CO","website":"","categories":"Categories: Newspapers &amp; Magazines,  News Dealers &amp; Newsstands","phone":"(212) 724-5325","geometry":{"type":"Point","coordinates":[-73.983586,40.775666]},"id":"a65bahbqc2jj","address":"49 972nd Street, New York, NY 10023","lat":40.775666,"long":-73.983586},{"name":"Ambica Newsstand","website":"","categories":"Categories: News Dealers &amp; Newsstands","phone":"(212) 302-5920","geometry":{"type":"Point","coordinates":[-73.981564,40.75834]},"id":"a65bahcdd6em","address":"6th Avenue 46Th Street, New York, NY 10036","lat":40.75834,"long":-73.981564},{"name":"Ambica Newsstand","website":"","categories":"Categories: Newspapers &amp; Magazines,  News Dealers &amp; Newsstands","phone":"(212) 302-5920","geometry":{"type":"Point","coordinates":[-74.005086,40.720525]},"id":"a65bah8ugw91","address":"46 Avenue Of The Americ, New York, NY 10013","lat":40.720525,"long":-74.005086},{"name":"Ana News Inc","website":"","categories":"Categories: Magazine Dealers,  News Dealers &amp; Newsstands","phone":"(212) 229-1867","geometry":{"type":"Point","coordinates":[-73.99462,40.743819]},"id":"a65bahbt7i0s","address":"171 West 23rd Street, New York, NY 10011","lat":40.743819,"long":-73.99462},{"name":"Anada Media NC Inc","website":"","categories":"Categories: News Dealers &amp; Newsstands,  Publishing Consultants &amp; Services","phone":"(212) 481-9424","geometry":{"type":"Point","coordinates":[-73.982299,40.743143]},"id":"a65bahbbt401","address":"134 Lexington Avenue, New York, NY 10016","lat":40.743143,"long":-73.982299},{"name":"Angers Newstand","website":"","categories":"Categories: Newspapers &amp; Magazines,  News Dealers &amp; Newsstands","phone":"(212) 695-6090","geometry":{"type":"Point","coordinates":[-73.989398,40.752401]},"id":"a65bahgumopr","address":"485 Fashion Avenue, New York, NY 10018","lat":40.752401,"long":-73.989398},{"name":"Array Magazine Inc","website":"","categories":"Categories: Magazine Dealers,  News Dealers &amp; Newsstands","phone":"(212) 929-2733","geometry":{"type":"Point","coordinates":[-73.990774,40.736704]},"id":"a65bah9mgdqz","address":"41 Union Square West, New York, NY 10003","lat":40.736704,"long":-73.990774},{"name":"Arthur Frommer's Budget Travel","website":"","categories":"Categories: Magazine Dealers,  News Dealers &amp; Newsstands","phone":"(646) 695-6700","geometry":{"type":"Point","coordinates":[-73.988521,40.754074]},"id":"a65bahjng7g2","address":"530 7th Avenue 2, New York, NY 10018","lat":40.754074,"long":-73.988521},{"name":"Ashai Shimbun","website":"","categories":"Categories: Magazine Dealers,  News Dealers &amp; Newsstands","phone":"(212) 302-3500","geometry":{"type":"Point","coordinates":[-73.990559,40.756]},"id":"a65bah6sxn21","address":"620 8th Avenue, New York, NY 10018","lat":40.756,"long":-73.990559},{"name":"Atrium News Corporation","website":"","categories":"Categories: News Dealers &amp; Newsstands","phone":"(212) 764-4304","geometry":{"type":"Point","coordinates":[-73.980802,40.759674]},"id":"a65bahfg6mee","address":"1251 Avenue Of The Americas, New York, NY 10020","lat":40.759674,"long":-73.980802},{"name":"Baba Lobby Shop","website":"","categories":"Categories: Newspapers &amp; Magazines,  Paper Products Manufacturers &amp; Wholesalers,  News Dealers &amp; Newsstands","phone":"(212) 695-9850","geometry":{"type":"Point","coordinates":[-73.987759,40.751739]},"id":"a65bah9cfn9b","address":"1359 Broadway, New York, NY 10018","lat":40.751739,"long":-73.987759},{"name":"Barclay Newsstand Corporation","website":"","categories":"Categories: Newspapers &amp; Magazines,  News Dealers &amp; Newsstands","phone":"(212) 587-5312","geometry":{"type":"Point","coordinates":[-74.011751,40.713758]},"id":"a65bah9glnx2","address":"101 Barclay Street, New York, NY 10007","lat":40.713758,"long":-74.011751},{"name":"Barrese News Stand","website":"","categories":"Categories: News Dealers &amp; Newsstands","phone":"(212) 989-9414","geometry":{"type":"Point","coordinates":[-73.987818,40.727253]},"id":"a65bahaw76db","address":"321 E 6th Street, New York, NY 10003","lat":40.727253,"long":-73.987818},{"name":"Barrese Newsstand","website":"","categories":"Categories: News Dealers &amp; Newsstands","phone":"(212) 989-9414","geometry":{"type":"Point","coordinates":[-73.987818,40.727253]},"id":"a65bah4y775j","address":"321 East 6th Street, New York, NY 10003","lat":40.727253,"long":-73.987818},{"name":"Battery News Inc","website":"","categories":"Categories: News Dealers &amp; Newsstands","phone":"(212) 509-0068","geometry":{"type":"Point","coordinates":[-74.01375,40.703725]},"id":"a65bah8y8djt","address":"1 Battery Park Plaza, New York, NY 10004","lat":40.703725,"long":-74.01375},{"name":"Beacon Financial Partners","website":"","categories":"Categories: News Dealers &amp; Newsstands","phone":"(212) 572-6337","geometry":{"type":"Point","coordinates":[-73.974566,40.756726]},"id":"a65bahkf7jl0","address":"300 Park Avenue, New York, NY 10022","lat":40.756726,"long":-73.974566},{"name":"Beyond Race LLC","website":"","categories":"Categories: Magazine Dealers,  News Dealers &amp; Newsstands","phone":"(212) 366-6505","geometry":{"type":"Point","coordinates":[-73.991847,40.739899]},"id":"a65bahia1c3f","address":"20 W 20th Street 600, New York, NY 10011","lat":40.739899,"long":-73.991847},{"name":"Bidoun","website":"","categories":"Categories: Magazine Dealers,  News Dealers &amp; Newsstands","phone":"(212) 475-0123","geometry":{"type":"Point","coordinates":[-73.992059,40.721972]},"id":"a65bahgkva3v","address":"195 Chrystie Street, New York, NY 10002","lat":40.721972,"long":-73.992059},{"name":"Big Apple News Inc","website":"","categories":"Categories: Newspapers &amp; Magazines,  News Dealers &amp; Newsstands","phone":"(212) 755-5579","geometry":{"type":"Point","coordinates":[-73.963239,40.762398]},"id":"a65bah8x7cbq","address":"1173 2nd Avenue, New York, NY 10065","lat":40.762398,"long":-73.963239},{"name":"Bleeker One Stop Inc","website":"","categories":"Categories: Magazine Dealers,  News Dealers &amp; Newsstands","phone":"(212) 366-4938","geometry":{"type":"Point","coordinates":[-74.002403,40.730528]},"id":"a65bahhm1g7t","address":"233 Bleecker Street, New York, NY 10014","lat":40.730528,"long":-74.002403},{"name":"Blue Beginning Com","website":"","categories":"Categories: News Dealers &amp; Newsstands","phone":"(212) 861-5700","geometry":{"type":"Point","coordinates":[-73.979626,40.754938]},"id":"a65bahj00kyw","address":"535 5th Avenue Floor 17, New York, NY 10017","lat":40.754938,"long":-73.979626},{"name":"Book Sales Inc","website":"","categories":"Categories: News Dealers &amp; Newsstands","phone":"(212) 779-4972","geometry":{"type":"Point","coordinates":[-73.986774,40.745676]},"id":"a65bahel03ta","address":"276 5th Avenue 276, New York, NY 10001","lat":40.745676,"long":-73.986774},{"name":"Bookazine CO","website":"","categories":"Categories: Bookstores,  News Dealers &amp; Newsstands","phone":"(212) 727-9662","geometry":{"type":"Point","coordinates":[-74.009574,40.733373]},"id":"a65bahl196zf","address":"303 W 10th Street, New York, NY 10014","lat":40.733373,"long":-74.009574},{"name":"Books for Less Showroom","website":"","categories":"Categories: Bookstores,  News Dealers &amp; Newsstands","phone":"(212) 679-3750","geometry":{"type":"Point","coordinates":[-73.987923,40.744005]},"id":"a65bahgn25om","address":"230 5th Avenue, New York, NY 10001","lat":40.744005,"long":-73.987923},{"name":"Brazilnet News","website":"","categories":"Categories: Newspapers &amp; Magazines,  News Dealers &amp; Newsstands","phone":"(212) 295-7665","geometry":{"type":"Point","coordinates":[-73.981048,40.756219]},"id":"a65bahja84yc","address":"55 W 45th Street, New York, NY 10036","lat":40.756219,"long":-73.981048},{"name":"Bristol Park Books","website":"","categories":"Categories: Bookstores,  Magazine Dealers,  News Dealers &amp; Newsstands","phone":"(212) 842-0700","geometry":{"type":"Point","coordinates":[-73.990358,40.754026]},"id":"a65bahglg8mt","address":"252 W 38th Street, New York, NY 10018","lat":40.754026,"long":-73.990358},{"name":"Broadway Newstand","website":"","categories":"Categories: Newspapers &amp; Magazines,  News Dealers &amp; Newsstands","phone":"(212) 304-8687","geometry":{"type":"Point","coordinates":[-73.926998,40.865766]},"id":"a65bahg8widy","address":"4765 Broadway, New York, NY 10034","lat":40.865766,"long":-73.926998},{"name":"Brothers News Inc","website":"","categories":"Categories: Newspapers &amp; Magazines,  News Dealers &amp; Newsstands","phone":"(212) 227-6363","geometry":{"type":"Point","coordinates":[-74.010007,40.712079]},"id":"a65bahewcub1","address":"30 Vesey Street, New York, NY 10007","lat":40.712079,"long":-74.010007},{"name":"Bulbul Bookstore","website":"","categories":"Categories: Bookstores,  Magazine Dealers,  News Dealers &amp; Newsstands","phone":"(212) 929-1250","geometry":{"type":"Point","coordinates":[-74.005308,40.733094]},"id":"a65bahe260ra","address":"116 Christopher Street, New York, NY 10014","lat":40.733094,"long":-74.005308},{"name":"CLEC News Inc","website":"","categories":"Categories: Newspapers &amp; Magazines,  News Dealers &amp; Newsstands","phone":"(212) 876-8715","geometry":{"type":"Point","coordinates":[-73.949464,40.78126]},"id":"a65bahitmxlw","address":"1751 2nd Avenue, New York, NY 10128","lat":40.78126,"long":-73.949464},{"name":"Caban Newsstand","website":"","categories":"Categories: Newspapers &amp; Magazines,  Paper Products Manufacturers &amp; Wholesalers,  News Dealers &amp; Newsstands,  Newspaper Publishers","phone":"(212) 529-3610","geometry":{"type":"Point","coordinates":[-73.985764,40.717886]},"id":"a65bahhi7225","address":"164 Delancey Street, New York, NY 10002","lat":40.717886,"long":-73.985764},{"name":"Campus News II Inc","website":"","categories":"Categories: Magazine Dealers,  News Dealers &amp; Newsstands","phone":"(212) 254-4299","geometry":{"type":"Point","coordinates":[-74.000262,40.730659]},"id":"a65bah8r3o3w","address":"123 W 3rd Street, New York, NY 10012","lat":40.730659,"long":-74.000262},{"name":"Can Do Woman","website":"","categories":"Categories: News Dealers &amp; Newsstands,  News &amp; Sports Services","phone":"(212) 229-1234","geometry":{"type":"Point","coordinates":[-73.949865,40.772454]},"id":"a65bah8762we","address":"1521 York Avenue, New York, NY 10028","lat":40.772454,"long":-73.949865},{"name":"Canal St Newsstand","website":"","categories":"Categories: News Dealers &amp; Newsstands","phone":"(212) 966-9882","geometry":{"type":"Point","coordinates":[-73.991811,40.714796]},"id":"a65bahhgc58d","address":"52 Canal Street, New York, NY 10002","lat":40.714796,"long":-73.991811},{"name":"Center for Re-Intergra-Tion","website":"","categories":"Categories: Mental Health,  Mental Health Practitioners,  Magazine Dealers,  News Dealers &amp; Newsstands","phone":"(212) 957-5090","geometry":{"type":"Point","coordinates":[-73.988004,40.762152]},"id":"a65bahffip9c","address":"350 W 49th Street A, New York, NY 10019","lat":40.762152,"long":-73.988004},{"name":"Central 5 Avenue Newstand","website":"","categories":"Categories: Convenience Stores,  News Dealers &amp; Newsstands","phone":"(212) 949-6120","geometry":{"type":"Point","coordinates":[-73.978521,40.756448]},"id":"a65bahfac7vy","address":"575 5th Avenue, New York, NY 10017","lat":40.756448,"long":-73.978521},{"name":"Central News Agency","website":"","categories":"Categories: News Dealers &amp; Newsstands","phone":"(212) 279-1172","geometry":{"type":"Point","coordinates":[-73.989285,40.743273]},"id":"a65bah5rza94","address":"1123 Broadway, New York, NY 10010","lat":40.743273,"long":-73.989285},{"name":"Central News Agency of China","website":"","categories":"Categories: News Dealers &amp; Newsstands","phone":"(212) 279-1172","geometry":{"type":"Point","coordinates":[-73.99154,40.751502]},"id":"a65bah8u0c3x","address":"225 W 34th Street, New York, NY 10122","lat":40.751502,"long":-73.99154},{"name":"Central News Agency of China","website":"","categories":"Categories: Importers,  News Dealers &amp; Newsstands","phone":"(212) 643-9332","geometry":{"type":"Point","coordinates":[-73.99154,40.751502]},"id":"a65bahbjph6r","address":"225 West 34th Street, New York, NY 10122","lat":40.751502,"long":-73.99154},{"name":"Cftv African News Magazine","website":"","categories":"Categories: News Dealers &amp; Newsstands","phone":"(212) 643-7132","geometry":{"type":"Point","coordinates":[-73.986058,40.747232]},"id":"a65bah5f0s0x","address":"6 W 32nd Street, New York, NY 10001","lat":40.747232,"long":-73.986058},{"name":"Chaudhary's Newstand","website":"","categories":"Categories: News Dealers &amp; Newsstands","phone":"(212) 281-8294","geometry":{"type":"Point","coordinates":[-73.95458,40.821199]},"id":"a65bah9mg7fw","address":"3371 Broadway, New York, NY 10031","lat":40.821199,"long":-73.95458},{"name":"Chaudhary's Newstand","website":"","categories":"Categories: News Dealers &amp; Newsstands","phone":"(212) 281-8294","geometry":{"type":"Point","coordinates":[-73.996853,40.750325]},"id":"a65bahjkxpek","address":"Bway West 137, New York, NY 10001","lat":40.750325,"long":-73.996853},{"name":"Chelsea Clinton News","website":"","categories":"Categories: Paper Products Manufacturers &amp; Wholesalers,  News Dealers &amp; Newsstands","phone":"(212) 268-8600","geometry":{"type":"Point","coordinates":[-73.984584,40.751893]},"id":"a65bah58sr74","address":"63 W 38th Street, New York, NY 10018","lat":40.751893,"long":-73.984584},{"name":"China News Service US Bureau","website":"","categories":"Categories: News Dealers &amp; Newsstands","phone":"(212) 481-2510","geometry":{"type":"Point","coordinates":[-73.980703,40.751879]},"id":"a65bahgiyxo0","address":"15 E 40th Street 801, New York, NY 10016","lat":40.751879,"long":-73.980703},{"name":"Chungsin Wenhua Enterprises Inc","website":"","categories":"Categories: News Dealers &amp; Newsstands","phone":"(212) 481-2510","geometry":{"type":"Point","coordinates":[-73.980703,40.751879]},"id":"a65bahdd730l","address":"15 East 40th Street Rm 801, New York, NY 10016","lat":40.751879,"long":-73.980703},{"name":"Cineaste Magazine","website":"","categories":"Categories: Magazine Back Issues,  News Dealers &amp; Newsstands","phone":"(212) 366-5720","geometry":{"type":"Point","coordinates":[-73.987465,40.744628]},"id":"a65bahd1yy7k","address":"246 5th Avenue, New York, NY 10001","lat":40.744628,"long":-73.987465},{"name":"City Hall Park News Stand","website":"","categories":"Categories: News Dealers &amp; Newsstands","phone":"(212) 608-9380","geometry":{"type":"Point","coordinates":[-74.007413,40.713011]},"id":"a65bahgi3e46","address":"249 Broadway, New York, NY 10007","lat":40.713011,"long":-74.007413},{"name":"Columbia Newsstand","website":"","categories":"Categories: News Dealers &amp; Newsstands","phone":"(212) 864-3992","geometry":{"type":"Point","coordinates":[-74.01099,40.708579]},"id":"a65bah5y3b8a","address":"116 Broadway, New York, NY 10005","lat":40.708579,"long":-74.01099},{"name":"Columbus Platform Newstand Inc","website":"","categories":"Categories: News Dealers &amp; Newsstands","phone":"(212) 582-0714","geometry":{"type":"Point","coordinates":[-73.982407,40.768213]},"id":"a65bahkgfnzc","address":"59 Columbus Circle, New York, NY 10023","lat":40.768213,"long":-73.982407},{"name":"Columbus Platform Newstand Inc","website":"","categories":"Categories: Newspapers &amp; Magazines,  News Dealers &amp; Newsstands","phone":"(212) 581-9782","geometry":{"type":"Point","coordinates":[-73.97692,40.765247]},"id":"a65bah5qjbj8","address":"101 West 58th Street, New York, NY 10019","lat":40.765247,"long":-73.97692},{"name":"Comedy News Center Inc","website":"","categories":"Categories: News Dealers &amp; Newsstands","phone":"(212) 226-8684","geometry":{"type":"Point","coordinates":[-73.997887,40.723863]},"id":"a65bahe32znq","address":"560 Broadway, New York, NY 10012","lat":40.723863,"long":-73.997887},{"name":"Comtex News Network Inc","website":"http://www.luriecartoon.com","categories":"Categories: News Dealers &amp; Newsstands","phone":"(212) 688-6240","geometry":{"type":"Point","coordinates":[-73.967703,40.760197]},"id":"a65bahcr40dw","address":"950 3rd Avenue 9, New York, NY 10022","lat":40.760197,"long":-73.967703},{"name":"Consul International","website":"","categories":"Categories: News Dealers &amp; Newsstands","phone":"(212) 366-4964","geometry":{"type":"Point","coordinates":[-74.001348,40.74137]},"id":"a65bahjzvss1","address":"7th Avenue W 14Th Street, New York, NY 10011","lat":40.74137,"long":-74.001348},{"name":"Consumer News","website":"","categories":"Categories: Newspapers &amp; Magazines,  News Dealers &amp; Newsstands,  Television Stations","phone":"(212) 868-3000","geometry":{"type":"Point","coordinates":[-73.997758,40.753007]},"id":"a65bahd55ns3","address":"424 W 33rd Street, New York, NY 10001","lat":40.753007,"long":-73.997758},{"name":"Corner News Inc","website":"","categories":"Categories: Boots &amp; Shoes Repair,  News Dealers &amp; Newsstands","phone":"(212) 535-3172","geometry":{"type":"Point","coordinates":[-73.956557,40.766476]},"id":"a65bahc00ya2","address":"405 East 70th Street, New York, NY 10021","lat":40.766476,"long":-73.956557},{"name":"Cortlandt News","website":"","categories":"Categories: Magazine Dealers,  News Dealers &amp; Newsstands","phone":"(212) 962-4192","geometry":{"type":"Point","coordinates":[-74.010058,40.709943]},"id":"a65bahg6xvu9","address":"2 Cortlandt Street, New York, NY 10007","lat":40.709943,"long":-74.010058},{"name":"Cosmogirl Editorial","website":"","categories":"Categories: News Dealers &amp; Newsstands","phone":"(212) 649-3852","geometry":{"type":"Point","coordinates":[-73.981512,40.765987]},"id":"a65bahksh7l3","address":"224 West 57th Street, New York, NY 10019","lat":40.765987,"long":-73.981512},{"name":"Counsel International","website":"","categories":"Categories: News Dealers &amp; Newsstands","phone":"(212) 614-1140","geometry":{"type":"Point","coordinates":[-73.998279,40.741844]},"id":"a65bahkf8imz","address":"220 W 19th Street, New York, NY 10011","lat":40.741844,"long":-73.998279},{"name":"Courthouse News Service","website":"","categories":"Categories: Courts,  News Dealers &amp; Newsstands","phone":"(212) 566-5288","geometry":{"type":"Point","coordinates":[-74.001392,40.713758]},"id":"a65bahl75oku","address":"500 Pearl Street, New York, NY 10007","lat":40.713758,"long":-74.001392},{"name":"Criticas - Main","website":"","categories":"Categories: News Dealers &amp; Newsstands","phone":"(646) 746-6400","geometry":{"type":"Point","coordinates":[-73.98528,40.742036]},"id":"a65baheri3af","address":"360 Park Avenue South, New York, NY 10010","lat":40.742036,"long":-73.98528},{"name":"Cross Tunnel Inc","website":"","categories":"Categories: News Dealers &amp; Newsstands","phone":"(212) 684-1567","geometry":{"type":"Point","coordinates":[-73.977692,40.74539]},"id":"a65bahg0kpof","address":"212 E 34th Street, New York, NY 10016","lat":40.74539,"long":-73.977692},{"name":"Cruise Industry News","website":"http://www.cruiseindustrynews.com","categories":"Categories: Magazine Dealers,  News Dealers &amp; Newsstands","phone":"(212) 986-1025","geometry":{"type":"Point","coordinates":[-73.974938,40.752792]},"id":"a65bahcsvxcq","address":"441 Lexington Avenue 809, New York, NY 10017","lat":40.752792,"long":-73.974938},{"name":"Czechoslovak News Agency","website":"","categories":"Categories: News Dealers &amp; Newsstands,  Newspaper Distributors,  Books &amp; Magazines Wholesale &amp; Distribution","phone":"(212) 753-0017","geometry":{"type":"Point","coordinates":[-73.969508,40.748735]},"id":"a65bah88yojn","address":"405 E 42nd Street, New York, NY 10017","lat":40.748735,"long":-73.969508},{"name":"D &amp; D Lobby Newstand Inc","website":"","categories":"Categories: News Dealers &amp; Newsstands","phone":"(212) 681-9757","geometry":{"type":"Point","coordinates":[-73.974915,40.74985]},"id":"a65bah5wyhbe","address":"633 3rd Avenue 40, New York, NY 10017","lat":40.74985,"long":-73.974915},{"name":"D'Antoni Productions Group","website":"","categories":"Categories: Magazine Dealers,  News Dealers &amp; Newsstands","phone":"(212) 258-7190","geometry":{"type":"Point","coordinates":[-73.98603,40.757419]},"id":"a65bahfxbjv2","address":"1515 Broadway, New York, NY 10036","lat":40.757419,"long":-73.98603},{"name":"DINA Magazines Inc","website":"","categories":"Categories: News Dealers &amp; Newsstands","phone":"(212) 674-6595","geometry":{"type":"Point","coordinates":[-73.987407,40.739138]},"id":"a65bahe7uf0x","address":"270 Park Avenue South, New York, NY 10010","lat":40.739138,"long":-73.987407},{"name":"Daily News","website":"","categories":"Categories: Paper Products Manufacturers &amp; Wholesalers,  News Dealers &amp; Newsstands","phone":"(212) 210-1830","geometry":{"type":"Point","coordinates":[-73.97408,40.750459]},"id":"a65bahgeadjk","address":"220 E 42nd Street, New York, NY 10017","lat":40.750459,"long":-73.97408},{"name":"Daily News","website":"","categories":"Categories: Newspapers &amp; Magazines,  News Dealers &amp; Newsstands,  Magazine &amp; Periodical Advertising","phone":"(212) 513-0099","geometry":{"type":"Point","coordinates":[-74.001392,40.713758]},"id":"a65bahgvs3d0","address":"500 Pearl Street, New York, NY 10007","lat":40.713758,"long":-74.001392},{"name":"Daily News","website":"","categories":"Categories: Newspapers &amp; Magazines,  News Dealers &amp; Newsstands,  Magazine &amp; Periodical Advertising","phone":"(212) 513-0110","geometry":{"type":"Point","coordinates":[-74.002355,40.714444]},"id":"a65bahcvy8e8","address":"60 Centre Street, New York, NY 10007","lat":40.714444,"long":-74.002355},{"name":"Daily News","website":"","categories":"Categories: Advertising,  News Dealers &amp; Newsstands,  Magazine &amp; Periodical Advertising","phone":"(212) 210-6302","geometry":{"type":"Point","coordinates":[-73.998839,40.753525]},"id":"a65bah7eu520","address":"450 W 33rd Street, New York, NY 10001","lat":40.753525,"long":-73.998839},{"name":"Daily News Press Room","website":"","categories":"Categories: Newspapers &amp; Magazines,  News Dealers &amp; Newsstands,  Magazine &amp; Periodical Advertising","phone":"(212) 964-9302","geometry":{"type":"Point","coordinates":[-74.002329,40.711601]},"id":"a65bahc4fxam","address":"1 Police Plaza, New York, NY 10038","lat":40.711601,"long":-74.002329},{"name":"Danw 86 News Corporation","website":"","categories":"Categories: News Dealers &amp; Newsstands","phone":"(212) 873-6543","geometry":{"type":"Point","coordinates":[-73.971794,40.786737]},"id":"a65bah9exvsc","address":"549 Columbus Avenue, New York, NY 10024","lat":40.786737,"long":-73.971794},{"name":"Davids Magazine","website":"","categories":"Categories: Magazine Dealers,  News Dealers &amp; Newsstands","phone":"(212) 226-3330","geometry":{"type":"Point","coordinates":[-73.996223,40.718088]},"id":"a65bahij2dyr","address":"83 Elizabeth Street A, New York, NY 10013","lat":40.718088,"long":-73.996223},{"name":"Dawson Media Direct","website":"","categories":"Categories: News Dealers &amp; Newsstands","phone":"(212) 297-6115","geometry":{"type":"Point","coordinates":[-73.975432,40.752376]},"id":"a65bahkozqkw","address":"420 Lexington Avenue, New York, NY 10170","lat":40.752376,"long":-73.975432},{"name":"Desai Newstand","website":"","categories":"Categories: News Dealers &amp; Newsstands","phone":"(212) 785-3861","geometry":{"type":"Point","coordinates":[-74.009308,40.704544]},"id":"a65bahk5q9i4","address":"10 Hanover Square A, New York, NY 10005","lat":40.704544,"long":-74.009308},{"name":"Desktop News Inc","website":"","categories":"Categories: News Dealers &amp; Newsstands","phone":"(212) 465-9004","geometry":{"type":"Point","coordinates":[-73.984703,40.748396]},"id":"a65bah99fc8b","address":"350 5th Avenue, New York, NY 10118","lat":40.748396,"long":-73.984703},{"name":"Destinations International","website":"","categories":"Categories: News Dealers &amp; Newsstands","phone":"(212) 619-8209","geometry":{"type":"Point","coordinates":[-74.009543,40.710563]},"id":"a65bahgnc9xc","address":"1 Dey Street, New York, NY 10007","lat":40.710563,"long":-74.009543},{"name":"Dhiren Newstand","website":"","categories":"Categories: News Dealers &amp; Newsstands","phone":"(212) 363-4055","geometry":{"type":"Point","coordinates":[-74.005665,40.706494]},"id":"a65bahb27t7v","address":"160 Water Street, New York, NY 10038","lat":40.706494,"long":-74.005665},{"name":"Dimazine Newsstand","website":"","categories":"Categories: Newspapers &amp; Magazines,  News Dealers &amp; Newsstands","phone":"(212) 643-1236","geometry":{"type":"Point","coordinates":[-73.988194,40.749965]},"id":"a65bahi8a3yo","address":"W 34th Street Broadway, New York, NY 10001","lat":40.749965,"long":-73.988194},{"name":"Dimazine Newstand","website":"","categories":"Categories: News Dealers &amp; Newsstands","phone":"(212) 643-2834","geometry":{"type":"Point","coordinates":[-73.987849,40.75026]},"id":"a65bahc3qbp2","address":"Herald Square Broadway, New York, NY 10001","lat":40.75026,"long":-73.987849},{"name":"Dimazine Newstand Inc","website":"","categories":"Categories: Newspapers &amp; Magazines,  News Dealers &amp; Newsstands","phone":"(212) 343-7250","geometry":{"type":"Point","coordinates":[-74.001485,40.725905]},"id":"a65bah9oj771","address":"162 Prince Street, New York, NY 10012","lat":40.725905,"long":-74.001485},{"name":"Dimazine Newstand Inc","website":"","categories":"Categories: News Dealers &amp; Newsstands","phone":"(212) 581-4806","geometry":{"type":"Point","coordinates":[-73.980553,40.76495]},"id":"a65bahdqeqw3","address":"900 7th Avenue, New York, NY 10106","lat":40.76495,"long":-73.980553},{"name":"Dimazine Newstand Inc","website":"","categories":"Categories: News Dealers &amp; Newsstands","phone":"(212) 695-5190","geometry":{"type":"Point","coordinates":[-73.988275,40.74922]},"id":"a65bahaxjlf8","address":"1293 Broadway, New York, NY 10001","lat":40.74922,"long":-73.988275},{"name":"Dimazine Newstand Inc","website":"","categories":"Categories: News Dealers &amp; Newsstands","phone":"(212) 343-7250","geometry":{"type":"Point","coordinates":[-74.008301,40.719398]},"id":"a65baheogch7","address":"162 Franklin Street, New York, NY 10013","lat":40.719398,"long":-74.008301},{"name":"Dime Magazine Inc","website":"","categories":"Categories: Magazine Dealers,  News Dealers &amp; Newsstands","phone":"(212) 629-5066","geometry":{"type":"Point","coordinates":[-74.005917,40.714889]},"id":"a65bahcq4bp8","address":"291 Broadway 1204, New York, NY 10007","lat":40.714889,"long":-74.005917},{"name":"Downtown Newsstand Inc","website":"","categories":"Categories: News Dealers &amp; Newsstands","phone":"(212) 766-9020","geometry":{"type":"Point","coordinates":[-74.008012,40.71457]},"id":"a65bah6sl10s","address":"149 Church Street, New York, NY 10007","lat":40.71457,"long":-74.008012},{"name":"Duggal News Stand","website":"","categories":"Categories: News Dealers &amp; Newsstands","phone":"(212) 927-3715","geometry":{"type":"Point","coordinates":[-73.935916,40.850157]},"id":"a65bah75k6yx","address":"700 W 181st Street, New York, NY 10033","lat":40.850157,"long":-73.935916},{"name":"Dwell Magazine","website":"","categories":"Categories: Magazine Dealers,  News Dealers &amp; Newsstands","phone":"(212) 382-1839","geometry":{"type":"Point","coordinates":[-73.984265,40.749846]},"id":"a65bahiagj2m","address":"10 West 36th Street, New York, NY 10018","lat":40.749846,"long":-73.984265},{"name":"ENI News Service","website":"","categories":"Categories: News Dealers &amp; Newsstands","phone":"(212) 608-0897","geometry":{"type":"Point","coordinates":[-74.00129,40.715991]},"id":"a65bah5qtadf","address":"100 Centre Street, New York, NY 10013","lat":40.715991,"long":-74.00129},{"name":"Eastern Lobby Shops","website":"","categories":"Categories: News Dealers &amp; Newsstands","phone":"(212) 827-0285","geometry":{"type":"Point","coordinates":[-73.981702,40.75843]},"id":"a65bah6e1u9y","address":"1211 Avenue Of The Americas #3118, New York, NY 10036","lat":40.75843,"long":-73.981702},{"name":"Eastern Lobby Shops Inc","website":"","categories":"Categories: News Dealers &amp; Newsstands","phone":"(212) 957-9367","geometry":{"type":"Point","coordinates":[-73.977838,40.760598]},"id":"a65bahbu0k7t","address":"51 W 52nd Street, New York, NY 10019","lat":40.760598,"long":-73.977838},{"name":"Eastern News Stand","website":"","categories":"Categories: News Dealers &amp; Newsstands","phone":"(212) 575-0325","geometry":{"type":"Point","coordinates":[-73.981394,40.753843]},"id":"a65bah7ffplf","address":"11 West 42nd Street, New York, NY 10036","lat":40.753843,"long":-73.981394},{"name":"Eastern Newsstand","website":"","categories":"Categories: News Dealers &amp; Newsstands,  Magazine &amp; Periodical Advertising","phone":"(212) 406-6974","geometry":{"type":"Point","coordinates":[-74.010688,40.709378]},"id":"a65bah6wa2vy","address":"1 Liberty Plaza, New York, NY 10006","lat":40.709378,"long":-74.010688},{"name":"Eastern Newsstand","website":"","categories":"Categories: News Dealers &amp; Newsstands","phone":"(212) 747-1944","geometry":{"type":"Point","coordinates":[-74.007207,40.714431]},"id":"a65bahk602nu","address":"55 Water Street Conc4, New York, NY 10041","lat":40.714431,"long":-74.007207},{"name":"Eastern Newsstand","website":"","categories":"Categories: News Dealers &amp; Newsstands","phone":"(212) 247-8269","geometry":{"type":"Point","coordinates":[-73.978638,40.759263]},"id":"a65bah79gwsp","address":"1271 6th Avenue Conc5, New York, NY 10020","lat":40.759263,"long":-73.978638},{"name":"Eastern Newsstand","website":"","categories":"Categories: News Dealers &amp; Newsstands","phone":"(212) 627-9630","geometry":{"type":"Point","coordinates":[-74.007317,40.728449]},"id":"a65bahkpejac","address":"375 Hudson Street 3421, New York, NY 10014","lat":40.728449,"long":-74.007317},{"name":"Eastern Newsstand","website":"","categories":"Categories: Newspapers &amp; Magazines,  News Dealers &amp; Newsstands","phone":"(212) 753-1313","geometry":{"type":"Point","coordinates":[-73.974154,40.762429]},"id":"a65bahedh5om","address":"725 5th Avenue, New York, NY 10022","lat":40.762429,"long":-73.974154},{"name":"Eastern Newsstand","website":"","categories":"Categories: News Dealers &amp; Newsstands","phone":"(212) 986-1978","geometry":{"type":"Point","coordinates":[-73.975791,40.751691]},"id":"a65bahgqoh64","address":"405 Lexington Avenue 1, New York, NY 10174","lat":40.751691,"long":-73.975791},{"name":"Eastern Newsstand","website":"","categories":"Categories: News Dealers &amp; Newsstands","phone":"(212) 566-3819","geometry":{"type":"Point","coordinates":[-74.014684,40.711075]},"id":"a65bahbvi1b5","address":"200 Liberty Street, New York, NY 10281","lat":40.711075,"long":-74.014684},{"name":"Eastern Newsstand","website":"","categories":"Categories: Newspapers &amp; Magazines,  News Dealers &amp; Newsstands","phone":"(212) 477-7373","geometry":{"type":"Point","coordinates":[-73.991633,40.749383]},"id":"a65bah7oz33r","address":"393 7th Avenue, New York, NY 10001","lat":40.749383,"long":-73.991633},{"name":"Eastern Newsstand","website":"","categories":"Categories: News Dealers &amp; Newsstands","phone":"(212) 224-0047","geometry":{"type":"Point","coordinates":[-73.973085,40.764042]},"id":"a65baha9xz2h","address":"767 5th Avenue, New York, NY 10153","lat":40.764042,"long":-73.973085},{"name":"Eastern Newsstand","website":"","categories":"Categories: News Dealers &amp; Newsstands","phone":"(212) 581-1020","geometry":{"type":"Point","coordinates":[-73.989935,40.769845]},"id":"a65bah92k25w","address":"555 W 57th Street, New York, NY 10019","lat":40.769845,"long":-73.989935},{"name":"Eastern Newsstand","website":"","categories":"Categories: News Dealers &amp; Newsstands","phone":"(212) 952-1464","geometry":{"type":"Point","coordinates":[-74.009447,40.704455]},"id":"a65baheqwuc7","address":"7 Hanover Square, New York, NY 10004","lat":40.704455,"long":-74.009447},{"name":"Eastern Newsstand","website":"","categories":"Categories: Newspapers &amp; Magazines,  News Dealers &amp; Newsstands","phone":"(212) 245-4058","geometry":{"type":"Point","coordinates":[-73.979538,40.761275]},"id":"a65bah59r0iv","address":"1301 Avenue Of The Americas #1, New York, NY 10019","lat":40.761275,"long":-73.979538},{"name":"Eastern Newsstand","website":"","categories":"Categories: News Dealers &amp; Newsstands","phone":"(212) 575-0325","geometry":{"type":"Point","coordinates":[-73.981394,40.753843]},"id":"a65bah92ae8h","address":"11 W 42nd Street 3126, New York, NY 10036","lat":40.753843,"long":-73.981394},{"name":"Eastern Newsstand","website":"","categories":"Categories: News Dealers &amp; Newsstands","phone":"(212) 765-4383","geometry":{"type":"Point","coordinates":[-73.977838,40.760598]},"id":"a65bahkcnd6o","address":"51 W 52nd Street, New York, NY 10019","lat":40.760598,"long":-73.977838},{"name":"Eastern Newsstand Corporation","website":"","categories":"Categories: News Dealers &amp; Newsstands","phone":"(212) 687-1462","geometry":{"type":"Point","coordinates":[-73.977131,40.75357]},"id":"a65baherd1pt","address":"200 Park Avenue 42, New York, NY 10166","lat":40.75357,"long":-73.977131},{"name":"Eastern Newstand","website":"","categories":"Categories: News Dealers &amp; Newsstands,  Magazine &amp; Periodical Advertising","phone":"(212) 513-7437","geometry":{"type":"Point","coordinates":[-74.010688,40.709378]},"id":"a65bahh6cu3z","address":"1 Liberty Plaza, New York, NY 10006","lat":40.709378,"long":-74.010688},{"name":"Eastern Newstand","website":"","categories":"Categories: News Dealers &amp; Newsstands,  Magazine &amp; Periodical Advertising","phone":"(212) 224-0047","geometry":{"type":"Point","coordinates":[-73.973085,40.764042]},"id":"a65bahev8x19","address":"767 5th Bbi Avenue, New York, NY 10153","lat":40.764042,"long":-73.973085},{"name":"Edelkoort Inc","website":"","categories":"Categories: News Dealers &amp; Newsstands","phone":"(212) 420-7622","geometry":{"type":"Point","coordinates":[-73.979221,40.727203]},"id":"a65bahi9xsan","address":"604 East 11th Street, New York, NY 10009","lat":40.727203,"long":-73.979221},{"name":"Edge Newsstand","website":"","categories":"Categories: Newspapers &amp; Magazines,  News Dealers &amp; Newsstands","phone":"(212) 247-0250","geometry":{"type":"Point","coordinates":[-73.982407,40.768213]},"id":"a65bahhg5x3b","address":"59 Columbus Circle, New York, NY 10023","lat":40.768213,"long":-73.982407},{"name":"Empire State News Corporation","website":"","categories":"Categories: News Dealers &amp; Newsstands","phone":"(212) 279-9153","geometry":{"type":"Point","coordinates":[-73.984703,40.748396]},"id":"a65bahcvgx86","address":"350 5th Avenue, New York, NY 10118","lat":40.748396,"long":-73.984703},{"name":"Ens World News","website":"","categories":"Categories: Newspapers &amp; Magazines,  News Dealers &amp; Newsstands","phone":"(212) 903-5722","geometry":{"type":"Point","coordinates":[-73.958834,40.771894]},"id":"a65bahjcxj7c","address":"1317 3rd Avenue Rm 100, New York, NY 10021","lat":40.771894,"long":-73.958834},{"name":"Excel News CO","website":"","categories":"Categories: Magazine Dealers,  Newspapers &amp; Magazines,  News Dealers &amp; Newsstands","phone":"(212) 447-5064","geometry":{"type":"Point","coordinates":[-73.977915,40.74629]},"id":"a65bah9ynwrx","address":"520 3rd Avenue, New York, NY 10016","lat":40.74629,"long":-73.977915},{"name":"Exclusive News LLC","website":"","categories":"Categories: Newspapers &amp; Magazines,  News Dealers &amp; Newsstands","phone":"(212) 366-0333","geometry":{"type":"Point","coordinates":[-74.007107,40.727529]},"id":"a65bahlb4ldf","address":"350 Hudson Street, New York, NY 10014","lat":40.727529,"long":-74.007107},{"name":"Faces NY Inc","website":"","categories":"Categories: Individual &amp; Family Services Organizations,  AIDS &amp; HIV Treatment Centers,  Magazine Dealers,  News Dealers &amp; Newsstands","phone":"(212) 663-7772","geometry":{"type":"Point","coordinates":[-73.950839,40.801771]},"id":"a65bahbqmxlt","address":"123 W 115th Street, New York, NY 10026","lat":40.801771,"long":-73.950839},{"name":"Faces Ny Inc","website":"","categories":"Categories: Individual &amp; Family Services Organizations,  AIDS &amp; HIV Support Groups,  AIDS &amp; HIV Treatment Centers,  Magazine Dealers,  News Dealers &amp; Newsstands,  more…","phone":"(212) 543-2803","geometry":{"type":"Point","coordinates":[-73.931899,40.850257]},"id":"a65bahcukdjg","address":"567 West 183, New York, NY 10033","lat":40.850257,"long":-73.931899},{"name":"Faces of NY","website":"","categories":"Categories: Individual &amp; Family Services Organizations,  AIDS &amp; HIV Information &amp; Referral Services,  AIDS &amp; HIV Support Groups,  Magazine Dealers,  News Dealers &amp; Newsstands,  more…","phone":"(212) 283-9180","geometry":{"type":"Point","coordinates":[-73.945268,40.808406]},"id":"a65bahjxq5cz","address":"317 Malcolm X Boulevard, New York, NY 10027","lat":40.808406,"long":-73.945268},{"name":"Fairchild News Service","website":"","categories":"Categories: News Dealers &amp; Newsstands","phone":"(212) 630-4320","geometry":{"type":"Point","coordinates":[-73.984649,40.74856]},"id":"a65bahjgdb76","address":"7 W 34th Street, New York, NY 10001","lat":40.74856,"long":-73.984649},{"name":"Fairchild News Service","website":"","categories":"Categories: News Dealers &amp; Newsstands","phone":"(212) 630-4320","geometry":{"type":"Point","coordinates":[-73.972502,40.75372]},"id":"a65bah5fzt6g","address":"750 3rd Avenue, New York, NY 10017","lat":40.75372,"long":-73.972502},{"name":"Farrell John","website":"","categories":"Categories: Magazine Dealers,  News Dealers &amp; Newsstands","phone":"(212) 860-3925","geometry":{"type":"Point","coordinates":[-73.954673,40.781022]},"id":"a65bahkniv4c","address":"1326 Lexington Avenue, New York, NY 10128","lat":40.781022,"long":-73.954673},{"name":"Fifth Avenue News Club","website":"","categories":"Categories: News Dealers &amp; Newsstands","phone":"(212) 255-3996","geometry":{"type":"Point","coordinates":[-73.991812,40.739118]},"id":"a65bahkgupie","address":"2 W 19th Street, New York, NY 10011","lat":40.739118,"long":-73.991812},{"name":"First Sping","website":"","categories":"Categories: Magazine Dealers,  News Dealers &amp; Newsstands","phone":"(888) 802-7746","geometry":{"type":"Point","coordinates":[-73.991316,40.75995]},"id":"a65bahhsq9i3","address":"630 9th Avenue, New York, NY 10036","lat":40.75995,"long":-73.991316},{"name":"Fischer-Harbage Agency Inc","website":"","categories":"Categories: Magazine Dealers,  News Dealers &amp; Newsstands","phone":"(212) 695-7105","geometry":{"type":"Point","coordinates":[-73.99061,40.747042]},"id":"a65bahhwsc0r","address":"115 W 29th Street, New York, NY 10001","lat":40.747042,"long":-73.99061},{"name":"Flatiron Newsbar","website":"","categories":"Categories: News Dealers &amp; Newsstands","phone":"(212) 255-3996","geometry":{"type":"Point","coordinates":[-73.991812,40.739118]},"id":"a65bahf8uejp","address":"2 West 19th Street, New York, NY 10011","lat":40.739118,"long":-73.991812},{"name":"Francis A Lawrence Newstand","website":"","categories":"Categories: Newspapers &amp; Magazines,  News Dealers &amp; Newsstands","phone":"(212) 344-1913","geometry":{"type":"Point","coordinates":[-74.012139,40.707407]},"id":"a65bah9tamih","address":"71 Broadway, New York, NY 10006","lat":40.707407,"long":-74.012139},{"name":"Friedman News Consultancy","website":"","categories":"Categories: News Dealers &amp; Newsstands","phone":"(212) 879-3000","geometry":{"type":"Point","coordinates":[-73.958307,40.773666]},"id":"a65bahkgq82i","address":"188 E 78th Street, New York, NY 10075","lat":40.773666,"long":-73.958307},{"name":"Future Network USA","website":"","categories":"Categories: Magazine Dealers,  News Dealers &amp; Newsstands","phone":"(212) 768-2966","geometry":{"type":"Point","coordinates":[-73.990364,40.740309]},"id":"a65bah6x41gz","address":"149 5th Avenue 9, New York, NY 10010","lat":40.740309,"long":-73.990364},{"name":"Gannett","website":"","categories":"Categories: News Dealers &amp; Newsstands","phone":"(212) 682-3742","geometry":{"type":"Point","coordinates":[-73.975666,40.754643]},"id":"a65bahfw2ym7","address":"237 Park Avenue, New York, NY 10017","lat":40.754643,"long":-73.975666},{"name":"Gannett Media Sales","website":"","categories":"Categories: News Dealers &amp; Newsstands","phone":"(212) 207-8982","geometry":{"type":"Point","coordinates":[-73.973505,40.760441]},"id":"a65bahav3qbo","address":"535 Mad Avenue, New York, NY 10022","lat":40.760441,"long":-73.973505},{"name":"Gateway News","website":"","categories":"Categories: News Dealers &amp; Newsstands","phone":"(212) 840-7688","geometry":{"type":"Point","coordinates":[-73.983465,40.760551]},"id":"a65bahfefwi3","address":"745 7th Avenue, New York, NY 10019","lat":40.760551,"long":-73.983465},{"name":"Gateway News Stand","website":"","categories":"Categories: News Dealers &amp; Newsstands","phone":"(212) 319-8348","geometry":{"type":"Point","coordinates":[-73.973937,40.75985]},"id":"a65bah9m6ch3","address":"515 Madison Avenue, New York, NY 10022","lat":40.75985,"long":-73.973937},{"name":"Gateway Newsstand","website":"","categories":"Categories: News Dealers &amp; Newsstands","phone":"(212) 541-4740","geometry":{"type":"Point","coordinates":[-73.978769,40.764841]},"id":"a65bahjrb1bj","address":"152 W 57th Street, New York, NY 10019","lat":40.764841,"long":-73.978769},{"name":"Gateway Newsstands","website":"","categories":"Categories: News Dealers &amp; Newsstands","phone":"(212) 832-7072","geometry":{"type":"Point","coordinates":[-73.974566,40.756726]},"id":"a65bah7bkqnz","address":"300 Park Avenue, New York, NY 10022","lat":40.756726,"long":-73.974566},{"name":"Gay City News","website":"","categories":"Categories: Newspapers &amp; Magazines,  Paper Products Manufacturers &amp; Wholesalers,  News Dealers &amp; Newsstands,  Newspaper Publishers,  Shoppers' News &amp; Guide Advertising,  more…","phone":"(646) 452-2550","geometry":{"type":"Point","coordinates":[-74.003439,40.72696]},"id":"a65bah5dlhju","address":"487 Greenwich Street Suite 6A, New York, NY 10013","lat":40.72696,"long":-74.003439},{"name":"Gem Spa","website":"","categories":"Categories: Magazine Dealers,  News Dealers &amp; Newsstands","phone":"(212) 995-1866","geometry":{"type":"Point","coordinates":[-73.987701,40.728725]},"id":"a65bahjgifaw","address":"131 2nd Avenue, New York, NY 10003","lat":40.728725,"long":-73.987701},{"name":"Genre Media LLC","website":"","categories":"Categories: News Dealers &amp; Newsstands","phone":"(212) 594-4122","geometry":{"type":"Point","coordinates":[-73.990632,40.752021]},"id":"a65bahf73hq3","address":"213 West 35th Street, New York, NY 10001","lat":40.752021,"long":-73.990632},{"name":"German Economic News Service Vwd","website":"","categories":"Categories: Newspapers &amp; Magazines,  News Dealers &amp; Newsstands","phone":"(212) 838-7440","geometry":{"type":"Point","coordinates":[-73.96652,40.752998]},"id":"a65bahdzwzph","address":"866 United Nations Plaza, New York, NY 10017","lat":40.752998,"long":-73.96652},{"name":"Gifts &amp; DEC","website":"","categories":"Categories: News Dealers &amp; Newsstands","phone":"(646) 746-6400","geometry":{"type":"Point","coordinates":[-73.98528,40.742036]},"id":"a65baheea5k1","address":"360 Park Avenue South, New York, NY 10010","lat":40.742036,"long":-73.98528},{"name":"Give &amp; Take Inc","website":"","categories":"Categories: Candy &amp; Confectionery Retail,  News Dealers &amp; Newsstands","phone":"(212) 327-3692","geometry":{"type":"Point","coordinates":[-73.959888,40.773769]},"id":"a65bah9idfdw","address":"1100 Lexington Avenue, New York, NY 10021","lat":40.773769,"long":-73.959888},{"name":"Global Development","website":"","categories":"Categories: News Dealers &amp; Newsstands","phone":"(212) 421-1542","geometry":{"type":"Point","coordinates":[-73.9759,40.757721]},"id":"a65bahd91gal","address":"444 Madison Avenue Suite 1206, New York, NY 10022","lat":40.757721,"long":-73.9759},{"name":"Global News &amp; Butler","website":"","categories":"Categories: News Dealers &amp; Newsstands","phone":"(212) 572-6337","geometry":{"type":"Point","coordinates":[-73.974566,40.756726]},"id":"a65bah8g2j72","address":"300 Park Avenue, New York, NY 10022","lat":40.756726,"long":-73.974566},{"name":"Good News Evangelical","website":"","categories":"Categories: News Dealers &amp; Newsstands","phone":"(212) 987-1217","geometry":{"type":"Point","coordinates":[-73.947778,40.80309]},"id":"a65bah67z4g4","address":"81 W 118th Street, New York, NY 10026","lat":40.80309,"long":-73.947778},{"name":"Gotham Magazine","website":"","categories":"Categories: News Dealers &amp; Newsstands","phone":"(646) 835-5200","geometry":{"type":"Point","coordinates":[-73.97521,40.755084]},"id":"a65bah8do4qz","address":"257 Park Avenue, New York, NY 10017","lat":40.755084,"long":-73.97521},{"name":"H &amp; D Newsstand Inc","website":"","categories":"Categories: Newspapers &amp; Magazines,  News Dealers &amp; Newsstands","phone":"(212) 267-9861","geometry":{"type":"Point","coordinates":[-74.00698,40.717255]},"id":"a65bahdau8ug","address":"40 Worth Street 220, New York, NY 10013","lat":40.717255,"long":-74.00698},{"name":"H &amp; M News","website":"","categories":"Categories: Newspapers &amp; Magazines,  News Dealers &amp; Newsstands","phone":"(212) 666-3209","geometry":{"type":"Point","coordinates":[-73.970313,40.797136]},"id":"a65bahbwmm86","address":"2635 Broadway, New York, NY 10025","lat":40.797136,"long":-73.970313},{"name":"HAZ News","website":"","categories":"Categories: News Dealers &amp; Newsstands","phone":"(212) 520-2777","geometry":{"type":"Point","coordinates":[-73.981984,40.76656]},"id":"a65bah8lo5k2","address":"1775 Broadway, New York, NY 10019","lat":40.76656,"long":-73.981984},{"name":"Hayes Newstand","website":"","categories":"Categories: News Dealers &amp; Newsstands","phone":"(212) 283-9119","geometry":{"type":"Point","coordinates":[-73.937275,40.829413]},"id":"a65bah8wze7u","address":"2929 8th Avenue, New York, NY 10039","lat":40.829413,"long":-73.937275},{"name":"Headline News II Inc","website":"","categories":"Categories: News Dealers &amp; Newsstands","phone":"(212) 989-4170","geometry":{"type":"Point","coordinates":[-74.00199,40.740767]},"id":"a65bahjlo599","address":"111 8th Esg Avenue, New York, NY 10011","lat":40.740767,"long":-74.00199},{"name":"Headline News III Inc","website":"","categories":"Categories: News Dealers &amp; Newsstands","phone":"(212) 979-1185","geometry":{"type":"Point","coordinates":[-73.991884,40.731029]},"id":"a65bah5zo47i","address":"770 Broadway, New York, NY 10003","lat":40.731029,"long":-73.991884},{"name":"Headline News V Inc","website":"","categories":"Categories: News Dealers &amp; Newsstands","phone":"(212) 750-7876","geometry":{"type":"Point","coordinates":[-73.972208,40.753565]},"id":"a65bah5mq26s","address":"747 3rd Rftv Avenue, New York, NY 10017","lat":40.753565,"long":-73.972208},{"name":"Helec Monica","website":"","categories":"Categories: News Dealers &amp; Newsstands","phone":"(212) 593-4994","geometry":{"type":"Point","coordinates":[-73.97267,40.758891]},"id":"a65bahb9okd1","address":"375 Park Brady Avenue, New York, NY 10152","lat":40.758891,"long":-73.97267},{"name":"Hossiam News Stand","website":"","categories":"Categories: Newspapers &amp; Magazines,  News Dealers &amp; Newsstands","phone":"(212) 587-0914","geometry":{"type":"Point","coordinates":[-74.007247,40.713257]},"id":"a65bahcgal2l","address":"252 Broadway, New York, NY 10007","lat":40.713257,"long":-74.007247},{"name":"Hour Media","website":"","categories":"Categories: Magazine Dealers,  News Dealers &amp; Newsstands","phone":"(212) 573-6124","geometry":{"type":"Point","coordinates":[-73.976492,40.751541]},"id":"a65bah6bvo21","address":"122 E 42nd Street 220, New York, NY 10168","lat":40.751541,"long":-73.976492},{"name":"Hudson News","website":"","categories":"Categories: News Dealers &amp; Newsstands","phone":"(212) 988-2793","geometry":{"type":"Point","coordinates":[-73.961925,40.765466]},"id":"a65bahebxw96","address":"265 E 66th Street, New York, NY 10065","lat":40.765466,"long":-73.961925},{"name":"Hudson News","website":"","categories":"Categories: Newspapers &amp; Magazines,  Paper Products Manufacturers &amp; Wholesalers,  News Dealers &amp; Newsstands,  Newspaper Publishers,  Magazine &amp; Periodical Advertising,  more…","phone":"(212) 486-9162","geometry":{"type":"Point","coordinates":[-73.969508,40.748735]},"id":"a65bah6at89n","address":"405 E 42nd Street, New York, NY 10017","lat":40.748735,"long":-73.969508},{"name":"Hudson News CO","website":"","categories":"Categories: Newspapers &amp; Magazines,  Paper Products Manufacturers &amp; Wholesalers,  News Dealers &amp; Newsstands","phone":"(212) 971-3840","geometry":{"type":"Point","coordinates":[-73.99189,40.750118]},"id":"a65bahejwevg","address":"Pennsylvania Station, New York, NY 10001","lat":40.750118,"long":-73.99189},{"name":"Hudson News CO","website":"","categories":"Categories: Paper Products Manufacturers &amp; Wholesalers,  News Dealers &amp; Newsstands,  Newspaper Publishers","phone":"(212) 971-6800","geometry":{"type":"Point","coordinates":[-73.995974,40.74874]},"id":"a65bahapb78f","address":"8th Avenue, New York, NY 10001","lat":40.74874,"long":-73.995974},{"name":"Hudson News CO","website":"","categories":"Categories: Newspapers &amp; Magazines,  Paper Products Manufacturers &amp; Wholesalers,  News Dealers &amp; Newsstands,  Newspaper Publishers,  Magazine &amp; Periodical Advertising,  more…","phone":"(212) 973-0947","geometry":{"type":"Point","coordinates":[-73.978433,40.753681]},"id":"a65bah55araj","address":"335 Madison Avenue, New York, NY 10017","lat":40.753681,"long":-73.978433},{"name":"Hudson News CO","website":"","categories":"Categories: Newspapers &amp; Magazines,  News Dealers &amp; Newsstands,  News &amp; Sports Services","phone":"(212) 382-0870","geometry":{"type":"Point","coordinates":[-73.985173,40.755438]},"id":"a65bahdfcy7o","address":"4 Times Square Plaza, New York, NY 10036","lat":40.755438,"long":-73.985173},{"name":"Hudson News CO","website":"","categories":"Categories: News Dealers &amp; Newsstands","phone":"(212) 563-1032","geometry":{"type":"Point","coordinates":[-73.990704,40.75625]},"id":"a65bah7w02o9","address":"625 8th Avenue, New York, NY 10018","lat":40.75625,"long":-73.990704},{"name":"Hudson News Inc","website":"","categories":"Categories: Gift Shops,  Newspapers &amp; Magazines,  News Dealers &amp; Newsstands,  Magazine &amp; Periodical Advertising","phone":"(212) 227-8729","geometry":{"type":"Point","coordinates":[-74.01048,40.711857]},"id":"a65bahbbk8a4","address":"5 World Trade Centre Lbby B2, New York, NY 10048","lat":40.711857,"long":-74.01048},{"name":"Hudson News Inc","website":"","categories":"Categories: News Dealers &amp; Newsstands","phone":"(212) 227-8143","geometry":{"type":"Point","coordinates":[-74.012316,40.712863]},"id":"a65bah5gzi8z","address":"7 World Trade Centre, New York, NY 10007","lat":40.712863,"long":-74.012316},{"name":"Hudson Review","website":"","categories":"Categories: Magazine Dealers,  Charitable &amp; Nonprofit Organizations,  News Dealers &amp; Newsstands","phone":"(212) 650-0020","geometry":{"type":"Point","coordinates":[-73.965816,40.768842]},"id":"a65bahgvr72i","address":"684 Park Avenue, New York, NY 10065","lat":40.768842,"long":-73.965816},{"name":"Impacto Latin News","website":"","categories":"Categories: News Dealers &amp; Newsstands","phone":"(212) 807-0400","geometry":{"type":"Point","coordinates":[-73.990977,40.741109]},"id":"a65bahh93rl2","address":"20 W 22nd Street 807, New York, NY 10010","lat":40.741109,"long":-73.990977},{"name":"In House Cafe","website":"","categories":"Categories: Restaurants,  News Dealers &amp; Newsstands","phone":"(212) 355-1439","geometry":{"type":"Point","coordinates":[-73.9759,40.757721]},"id":"a65bahklaltv","address":"444 Madison Avenue, New York, NY 10022","lat":40.757721,"long":-73.9759},{"name":"Inkona Stationery","website":"","categories":"Categories: Magazine Dealers,  News Dealers &amp; Newsstands","phone":"(212) 871-6125","geometry":{"type":"Point","coordinates":[-73.984438,40.724533]},"id":"a65baha1mbq1","address":"66 Avenue A, New York, NY 10009","lat":40.724533,"long":-73.984438},{"name":"Insight News &amp; Features Inc","website":"","categories":"Categories: News Dealers &amp; Newsstands","phone":"(212) 582-0066","geometry":{"type":"Point","coordinates":[-73.989514,40.758977]},"id":"a65bahdqxwb7","address":"321 W 44th Street Suite 702, New York, NY 10036","lat":40.758977,"long":-73.989514},{"name":"International Consul","website":"","categories":"Categories: News Dealers &amp; Newsstands","phone":"(212) 227-8540","geometry":{"type":"Point","coordinates":[-74.004063,40.713169]},"id":"a65bah9d9435","address":"1 Chambers Street, New York, NY 10007","lat":40.713169,"long":-74.004063},{"name":"International Society-Krishna","website":"","categories":"Categories: News Dealers &amp; Newsstands","phone":"(212) 253-6182","geometry":{"type":"Point","coordinates":[-73.99046,40.724483]},"id":"a65bahaw9a70","address":"26 2nd Avenue, New York, NY 10003","lat":40.724483,"long":-73.99046},{"name":"Interpress-London &amp; New York","website":"","categories":"Categories: News Dealers &amp; Newsstands","phone":"(212) 873-0772","geometry":{"type":"Point","coordinates":[-73.981285,40.786251]},"id":"a65baheqc5r2","address":"90 Riverside Drive, New York, NY 10024","lat":40.786251,"long":-73.981285},{"name":"Item-Eyes Inc","website":"","categories":"Categories: News Dealers &amp; Newsstands","phone":"(212) 594-3980","geometry":{"type":"Point","coordinates":[-73.989979,40.75171]},"id":"a65bah90vm7r","address":"463 Fashion Avenue, New York, NY 10018","lat":40.75171,"long":-73.989979},{"name":"J &amp; R News &amp; Grocery","website":"","categories":"Categories: News Dealers &amp; Newsstands","phone":"(212) 665-5200","geometry":{"type":"Point","coordinates":[-73.967876,40.802878]},"id":"a65bah6tzyx3","address":"2795 Broadway, New York, NY 10025","lat":40.802878,"long":-73.967876},{"name":"J &amp; R Newsstand","website":"","categories":"Categories: News Dealers &amp; Newsstands","phone":"(212) 246-7112","geometry":{"type":"Point","coordinates":[-73.97908,40.762021]},"id":"a65bahh7sw74","address":"1325 Avenue Of The Americas, New York, NY 10019","lat":40.762021,"long":-73.97908},{"name":"J D Candy &amp; News Inc","website":"","categories":"Categories: Newspapers &amp; Magazines,  Paper Products Manufacturers &amp; Wholesalers,  News Dealers &amp; Newsstands","phone":"(212) 571-0727","geometry":{"type":"Point","coordinates":[-74.008743,40.709425]},"id":"a65bahivkoz2","address":"65 Nassau Street, New York, NY 10038","lat":40.709425,"long":-74.008743},{"name":"J J Enterprises","website":"","categories":"Categories: News Dealers &amp; Newsstands","phone":"(212) 751-3230","geometry":{"type":"Point","coordinates":[-73.971062,40.754972]},"id":"a65bahfgt056","address":"200 E 49th Street, New York, NY 10017","lat":40.754972,"long":-73.971062},{"name":"J Patel Newstand","website":"","categories":"Categories: Newspapers &amp; Magazines,  News Dealers &amp; Newsstands","phone":"(212) 629-7066","geometry":{"type":"Point","coordinates":[-73.993867,40.751928]},"id":"a65bah58xmd3","address":"5 Penn Plaza, New York, NY 10001","lat":40.751928,"long":-73.993867},{"name":"J R Newsstand","website":"","categories":"Categories: Newspapers &amp; Magazines,  News Dealers &amp; Newsstands","phone":"(212) 595-0420","geometry":{"type":"Point","coordinates":[-73.98192,40.771459]},"id":"a65bahi0kcke","address":"1900 Broadway 6364, New York, NY 10023","lat":40.771459,"long":-73.98192},{"name":"J R O'Dwyer CO Inc","website":"","categories":"Categories: Magazine Dealers,  News Dealers &amp; Newsstands","phone":"(212) 683-2750","geometry":{"type":"Point","coordinates":[-73.980266,40.75118]},"id":"a65bahir6yj7","address":"271 Madison Avenue, New York, NY 10016","lat":40.75118,"long":-73.980266},{"name":"JANI Newsstand","website":"","categories":"Categories: News Dealers &amp; Newsstands","phone":"(212) 349-6870","geometry":{"type":"Point","coordinates":[-74.007351,40.713026]},"id":"a65bahbw8i0l","address":"250 Broadway, New York, NY 10007","lat":40.713026,"long":-74.007351},{"name":"JCK Jewelers Circular Kystne","website":"","categories":"Categories: Jewelers,  News Dealers &amp; Newsstands","phone":"(646) 746-6400","geometry":{"type":"Point","coordinates":[-73.98528,40.742036]},"id":"a65bahk6go33","address":"360 Park Avenue South, New York, NY 10010","lat":40.742036,"long":-73.98528},{"name":"Jack's Newstand","website":"","categories":"Categories: News Dealers &amp; Newsstands","phone":"(212) 535-4674","geometry":{"type":"Point","coordinates":[-74.012535,40.705584]},"id":"a65bahd4rvo8","address":"79 &amp; 2 Avenue, New York, NY 10001","lat":40.705584,"long":-74.012535},{"name":"Jalakrupa Inc","website":"","categories":"Categories: News Dealers &amp; Newsstands","phone":"(212) 751-3230","geometry":{"type":"Point","coordinates":[-73.988813,40.730793]},"id":"a65bahe1zbk6","address":"49 Street 3 Avenue, New York, NY 10001","lat":40.730793,"long":-73.988813},{"name":"Jalakrupa Inc","website":"","categories":"Categories: News Dealers &amp; Newsstands","phone":"(212) 751-3230","geometry":{"type":"Point","coordinates":[-73.971266,40.755392]},"id":"a65bahd8y9ic","address":"800 3rd Avenue, New York, NY 10022","lat":40.755392,"long":-73.971266},{"name":"Jasmatti Newstand","website":"","categories":"Categories: News Dealers &amp; Newsstands","phone":"(212) 477-2161","geometry":{"type":"Point","coordinates":[-73.986122,40.73993]},"id":"a65bahhhsp2o","address":"102 E 23rd Street, New York, NY 10010","lat":40.73993,"long":-73.986122},{"name":"Jay 1501 Newstand","website":"","categories":"Categories: News Dealers &amp; Newsstands","phone":"(212) 391-0036","geometry":{"type":"Point","coordinates":[-73.986422,40.757039]},"id":"a65bahgc19vb","address":"1501 Broadway, New York, NY 10036","lat":40.757039,"long":-73.986422},{"name":"Jayshree Newstand","website":"","categories":"Categories: News Dealers &amp; Newsstands","phone":"(212) 509-9710","geometry":{"type":"Point","coordinates":[-74.007371,40.705308]},"id":"a65bah8ve2yn","address":"118 Water Street, New York, NY 10005","lat":40.705308,"long":-74.007371},{"name":"Jewel Newstand","website":"","categories":"Categories: News Dealers &amp; Newsstands","phone":"(212) 254-2918","geometry":{"type":"Point","coordinates":[-73.989884,40.735208]},"id":"a65bahd9h4so","address":"16 Union Square East, New York, NY 10003","lat":40.735208,"long":-73.989884},{"name":"Jits News Stand","website":"","categories":"Categories: Newspapers &amp; Magazines,  News Dealers &amp; Newsstands","phone":"(212) 563-0933","geometry":{"type":"Point","coordinates":[-73.98703,40.751025]},"id":"a65bahe62jy8","address":"977 Avenue Of The Americ, New York, NY 10018","lat":40.751025,"long":-73.98703},{"name":"Joseph Militano Newstand","website":"","categories":"Categories: News Dealers &amp; Newsstands","phone":"(212) 888-4886","geometry":{"type":"Point","coordinates":[-73.965229,40.759195]},"id":"a65bahe3udpo","address":"300 E 57th Street, New York, NY 10022","lat":40.759195,"long":-73.965229},{"name":"Jubilee News Inc","website":"","categories":"Categories: Shoe Stores,  News Dealers &amp; Newsstands","phone":"(212) 222-8525","geometry":{"type":"Point","coordinates":[-73.969587,40.798014]},"id":"a65bah6qxecc","address":"2659 Broadway, New York, NY 10025","lat":40.798014,"long":-73.969587},{"name":"Jyotee Shah","website":"","categories":"Categories: Swimwear Wholesale &amp; Manufacturers,  Sportswear Wholesale &amp; Manufacturers,  News Dealers &amp; Newsstands","phone":"(212) 593-5139","geometry":{"type":"Point","coordinates":[-73.969762,40.75748]},"id":"a65bahadx7o1","address":"866 3rd Avenue, New York, NY 10022","lat":40.75748,"long":-73.969762},{"name":"K K News Stand","website":"","categories":"Categories: News Dealers &amp; Newsstands","phone":"(212) 353-8123","geometry":{"type":"Point","coordinates":[-73.99061,40.734614]},"id":"a65bahhkeir8","address":"15 Union Square East, New York, NY 10003","lat":40.734614,"long":-73.99061},{"name":"K T Newstand","website":"","categories":"Categories: News Dealers &amp; Newsstands","phone":"(212) 840-7747","geometry":{"type":"Point","coordinates":[-73.987001,40.753469]},"id":"a65bahgdj7nh","address":"1410 Broadway, New York, NY 10018","lat":40.753469,"long":-73.987001},{"name":"KB Network News","website":"","categories":"Categories: Human Relations Consultants,  Counseling Services,  News Dealers &amp; Newsstands","phone":"(212) 777-3455","geometry":{"type":"Point","coordinates":[-73.974275,40.759385]},"id":"a65bahcijd3u","address":"501 Madison Avenue Floor 7, New York, NY 10022","lat":40.759385,"long":-73.974275},{"name":"Katyayani Inc","website":"","categories":"Categories: News Dealers &amp; Newsstands","phone":"(212) 344-9315","geometry":{"type":"Point","coordinates":[-74.012538,40.70648]},"id":"a65bah9ukskv","address":"52 Broadway, New York, NY 10004","lat":40.70648,"long":-74.012538},{"name":"Kaufman Newsstand","website":"","categories":"Categories: News Dealers &amp; Newsstands","phone":"(212) 721-7860","geometry":{"type":"Point","coordinates":[-74.011974,40.707632]},"id":"a65bahc16280","address":"79 Broadway, New York, NY 10006","lat":40.707632,"long":-74.011974},{"name":"Kaufman Newsstand","website":"","categories":"Categories: News Dealers &amp; Newsstands","phone":"(212) 721-7860","geometry":{"type":"Point","coordinates":[-73.98307,40.763191]},"id":"a65bahapgdoa","address":"Broadway, New York, NY 10001","lat":40.763191,"long":-73.98307},{"name":"Khandaker News Stand","website":"","categories":"Categories: News Dealers &amp; Newsstands","phone":"(212) 566-2366","geometry":{"type":"Point","coordinates":[-74.004778,40.708133]},"id":"a65bah9z5qmt","address":"50 Fulton Street, New York, NY 10038","lat":40.708133,"long":-74.004778},{"name":"Khawaja Greeb Nawaz Inc","website":"","categories":"Categories: News Dealers &amp; Newsstands","phone":"(212) 460-5550","geometry":{"type":"Point","coordinates":[-73.984112,40.73908]},"id":"a65bahl4fstq","address":"162 E 23rd Street, New York, NY 10010","lat":40.73908,"long":-73.984112},{"name":"Kinematics","website":"","categories":"Categories: Video Game Sales &amp; Rental,  Magazine Dealers,  News Dealers &amp; Newsstands","phone":"(212) 944-7561","geometry":{"type":"Point","coordinates":[-73.98498,40.751261]},"id":"a65bah5v3500","address":"61 W 37th Street 2, New York, NY 10018","lat":40.751261,"long":-73.98498},{"name":"Kirit Patel Newstand","website":"","categories":"Categories: News Dealers &amp; Newsstands","phone":"(212) 644-6950","geometry":{"type":"Point","coordinates":[-73.975404,40.760235]},"id":"a65bahblvev6","address":"East 53rd, New York, NY 10022","lat":40.760235,"long":-73.975404},{"name":"Koshi News","website":"","categories":"Categories: News Dealers &amp; Newsstands","phone":"(212) 354-1335","geometry":{"type":"Point","coordinates":[-73.988504,40.75567]},"id":"a65bah9lhhdv","address":"230 West 41, New York, NY 10036","lat":40.75567,"long":-73.988504},{"name":"Kostas News","website":"","categories":"Categories: News Dealers &amp; Newsstands","phone":"(212) 989-9670","geometry":{"type":"Point","coordinates":[-74.004977,40.73722]},"id":"a65bahkbnm39","address":"14 8th Avenue, New York, NY 10014","lat":40.73722,"long":-74.004977},{"name":"Kuwait News Age","website":"","categories":"Categories: News Dealers &amp; Newsstands","phone":"(212) 486-8122","geometry":{"type":"Point","coordinates":[-73.961136,40.763195]},"id":"a65bah8z5c81","address":"340 E 64th Street 21, New York, NY 10065","lat":40.763195,"long":-73.961136},{"name":"Kyodo News","website":"","categories":"Categories: News Dealers &amp; Newsstands","phone":"(212) 603-6600","geometry":{"type":"Point","coordinates":[-73.978454,40.759177]},"id":"a65bahgxm45k","address":"50 Rockefeller Plaza, New York, NY 10020","lat":40.759177,"long":-73.978454},{"name":"Kyodo News International","website":"","categories":"Categories: News Dealers &amp; Newsstands","phone":"(212) 935-4440","geometry":{"type":"Point","coordinates":[-73.972208,40.753565]},"id":"a65bah9gmoki","address":"747 3rd Rftv Avenue, New York, NY 10017","lat":40.753565,"long":-73.972208},{"name":"L &amp; C Newsstand Inc","website":"","categories":"Categories: News Dealers &amp; Newsstands","phone":"(212) 595-5450","geometry":{"type":"Point","coordinates":[-73.977114,40.786176]},"id":"a65bahdu4s9m","address":"2175 Bway, New York, NY 10024","lat":40.786176,"long":-73.977114},{"name":"L &amp; K Newsstand Inc","website":"","categories":"Categories: News Dealers &amp; Newsstands","phone":"(212) 962-6137","geometry":{"type":"Point","coordinates":[-74.008881,40.713244]},"id":"a65bahl14p5v","address":"27 Park Place, New York, NY 10007","lat":40.713244,"long":-74.008881},{"name":"L H Newsstand","website":"","categories":"Categories: News Dealers &amp; Newsstands","phone":"(212) 687-8161","geometry":{"type":"Point","coordinates":[-73.979582,40.754792]},"id":"a65bahkf6x7l","address":"3 Avenue Northwest East 44, New York, NY 10017","lat":40.754792,"long":-73.979582},{"name":"L'Espresso","website":"","categories":"Categories: Magazine Dealers,  News Dealers &amp; Newsstands","phone":"(212) 755-5444","geometry":{"type":"Point","coordinates":[-73.9759,40.757721]},"id":"a65bah866sru","address":"444 Madison Avenue, New York, NY 10022","lat":40.757721,"long":-73.9759},{"name":"Leena Desai Newstand","website":"","categories":"Categories: Newspapers &amp; Magazines,  News Dealers &amp; Newsstands","phone":"(212) 697-0619","geometry":{"type":"Point","coordinates":[-73.979626,40.754938]},"id":"a65bahgdi200","address":"535 5th Avenue, New York, NY 10017","lat":40.754938,"long":-73.979626},{"name":"Lees Newstand","website":"","categories":"Categories: Newspapers &amp; Magazines,  News Dealers &amp; Newsstands","phone":"(212) 966-7702","geometry":{"type":"Point","coordinates":[-73.996853,40.750325]},"id":"a65bahfmhkej","address":"Southeast Circle Canal Centre, New York, NY 10001","lat":40.750325,"long":-73.996853},{"name":"Lexington Avenue Magazine Shop","website":"","categories":"Categories: Magazine Dealers,  News Dealers &amp; Newsstands","phone":"(212) 535-6569","geometry":{"type":"Point","coordinates":[-73.959193,40.774833]},"id":"a65bahexo1x3","address":"1136 Lexington Avenue, New York, NY 10075","lat":40.774833,"long":-73.959193},{"name":"Lifestyle Media","website":"","categories":"Categories: Magazine Dealers,  News Dealers &amp; Newsstands","phone":"(646) 459-4800","geometry":{"type":"Point","coordinates":[-74.007008,40.70876]},"id":"a65bahb2rqo2","address":"110 William Street Floor 23, New York, NY 10038","lat":40.70876,"long":-74.007008},{"name":"Lila News Stand","website":"","categories":"Categories: Newspapers &amp; Magazines,  Paper Products Manufacturers &amp; Wholesalers,  News Dealers &amp; Newsstands","phone":"(212) 682-9212","geometry":{"type":"Point","coordinates":[-74.010045,40.574883]},"id":"a65bahl4o2wb","address":"708 3 Avenue E 44th Street, New York, NY 10001","lat":40.574883,"long":-74.010045},{"name":"Lincoln Center News Stand","website":"","categories":"Categories: News Dealers &amp; Newsstands","phone":"(212) 721-5908","geometry":{"type":"Point","coordinates":[-74.012133,40.706971]},"id":"a65bahab2nfy","address":"66 Broadway, New York, NY 10004","lat":40.706971,"long":-74.012133},{"name":"Lincoln Center News Stand","website":"","categories":"Categories: News Dealers &amp; Newsstands","phone":"(212) 721-5908","geometry":{"type":"Point","coordinates":[-73.982829,40.772589]},"id":"a65bah82syh5","address":"66 Lincoln Center Plaza, New York, NY 10023","lat":40.772589,"long":-73.982829},{"name":"Liz Newstand","website":"","categories":"Categories: Newspapers &amp; Magazines,  News Dealers &amp; Newsstands","phone":"(212) 974-0080","geometry":{"type":"Point","coordinates":[-73.983231,40.760968]},"id":"a65bahgbgxn4","address":"759 7th Avenue, New York, NY 10019","lat":40.760968,"long":-73.983231},{"name":"Liz Newstand","website":"","categories":"Categories: News Dealers &amp; Newsstands","phone":"(212) 721-0062","geometry":{"type":"Point","coordinates":[-74.013014,40.702484]},"id":"a65bahg31ct1","address":"1 State Street, New York, NY 10004","lat":40.702484,"long":-74.013014},{"name":"Lobby News Stand","website":"","categories":"Categories: Candy &amp; Confectionery Retail,  Newspapers &amp; Magazines,  News Dealers &amp; Newsstands","phone":"(212) 869-5485","geometry":{"type":"Point","coordinates":[-73.979968,40.754922]},"id":"a65bahekmhn3","address":"530 5th Avenue, New York, NY 10036","lat":40.754922,"long":-73.979968},{"name":"Lobby Newstand","website":"","categories":"Categories: News Dealers &amp; Newsstands","phone":"(212) 747-0095","geometry":{"type":"Point","coordinates":[-74.013014,40.702484]},"id":"a65bahisozjh","address":"1 State Street, New York, NY 10004","lat":40.702484,"long":-74.013014},{"name":"Lobby Shop","website":"","categories":"Categories: Magazine Dealers,  News Dealers &amp; Newsstands","phone":"(212) 382-3034","geometry":{"type":"Point","coordinates":[-73.986006,40.75331]},"id":"a65bah6crkwb","address":"109 West 39th Street, New York, NY 10018","lat":40.75331,"long":-73.986006},{"name":"London Theatre News","website":"","categories":"Categories: News Dealers &amp; Newsstands,  Newsletters,  Newsletter &amp; Small Publication Production Services","phone":"(212) 517-8608","geometry":{"type":"Point","coordinates":[-73.960029,40.781217]},"id":"a65bahgif72l","address":"12 E 86th Street, New York, NY 10028","lat":40.781217,"long":-73.960029},{"name":"Louies Newsstand","website":"","categories":"Categories: News Dealers &amp; Newsstands","phone":"(212) 587-9422","geometry":{"type":"Point","coordinates":[-73.997178,40.714592]},"id":"a65bah5a08wi","address":"18 Bowery, New York, NY 10013","lat":40.714592,"long":-73.997178},{"name":"Lucky News &amp; Communications","website":"","categories":"Categories: News Dealers &amp; Newsstands","phone":"(212) 725-0476","geometry":{"type":"Point","coordinates":[-73.982128,40.73825]},"id":"a65bahi17s1t","address":"248 E 23rd Street, New York, NY 10010","lat":40.73825,"long":-73.982128},{"name":"Lucky Newsstand","website":"","categories":"Categories: News Dealers &amp; Newsstands","phone":"(212) 587-4170","geometry":{"type":"Point","coordinates":[-73.996833,40.715277]},"id":"a65bahbpasfb","address":"34 Bowery, New York, NY 10013","lat":40.715277,"long":-73.996833},{"name":"Lynn News Stand","website":"","categories":"Categories: News Dealers &amp; Newsstands","phone":"(212) 764-7843","geometry":{"type":"Point","coordinates":[-74.000342,40.737812]},"id":"a65bahchyi8i","address":"40 7th Avenue 558, New York, NY 10011","lat":40.737812,"long":-74.000342},{"name":"M &amp; R News Inc","website":"","categories":"Categories: Newspapers &amp; Magazines,  News Dealers &amp; Newsstands","phone":"(212) 684-2789","geometry":{"type":"Point","coordinates":[-73.982298,40.746206]},"id":"a65bahcfm2mp","address":"2 Park Avenue, New York, NY 10016","lat":40.746206,"long":-73.982298},{"name":"M B S Magazine Store Inc","website":"","categories":"Categories: Magazine Dealers,  News Dealers &amp; Newsstands,  Magazine &amp; Journal Publishers","phone":"(212) 699-9604","geometry":{"type":"Point","coordinates":[-73.996477,40.74323]},"id":"a65baheb7y3o","address":"200 7th Avenue, New York, NY 10011","lat":40.74323,"long":-73.996477},{"name":"M T News","website":"","categories":"Categories: Candy &amp; Confectionery Retail,  Newspapers &amp; Magazines,  News Dealers &amp; Newsstands","phone":"(212) 768-3602","geometry":{"type":"Point","coordinates":[-73.986598,40.754583]},"id":"a65bahagitf9","address":"1440 Broadway, New York, NY 10018","lat":40.754583,"long":-73.986598},{"name":"Madhu &amp; Mehta Newstand","website":"","categories":"Categories: News Dealers &amp; Newsstands","phone":"(212) 395-9779","geometry":{"type":"Point","coordinates":[-73.982679,40.754215]},"id":"a65bahk9rcrs","address":"W 42nd Street 7th Avenue, New York, NY 10036","lat":40.754215,"long":-73.982679},{"name":"Madhu &amp; Mehta Newstand Inc","website":"","categories":"Categories: News Dealers &amp; Newsstands","phone":"(212) 395-9779","geometry":{"type":"Point","coordinates":[-74.00022,40.737995]},"id":"a65bahesdc5r","address":"42 7th Avenue, New York, NY 10011","lat":40.737995,"long":-74.00022},{"name":"Madison Newstand Inc","website":"","categories":"Categories: News Dealers &amp; Newsstands","phone":"(212) 581-4911","geometry":{"type":"Point","coordinates":[-73.982435,40.763746]},"id":"a65bah856hhu","address":"1700 Broadway, New York, NY 10019","lat":40.763746,"long":-73.982435},{"name":"Maiden Lane News LLC","website":"","categories":"Categories: News Dealers &amp; Newsstands","phone":"(212) 344-2728","geometry":{"type":"Point","coordinates":[-74.005179,40.705347]},"id":"a65bah9bap2t","address":"180 Maiden Lane, New York, NY 10038","lat":40.705347,"long":-74.005179},{"name":"Manki News Inc","website":"","categories":"Categories: Newspapers &amp; Magazines,  News Dealers &amp; Newsstands","phone":"(212) 246-7112","geometry":{"type":"Point","coordinates":[-73.97908,40.762021]},"id":"a65bah65b6to","address":"1325 Avenue Of The Americas, New York, NY 10019","lat":40.762021,"long":-73.97908},{"name":"Manoj Rajan Newstand","website":"","categories":"Categories: News Dealers &amp; Newsstands","phone":"(212) 344-1913","geometry":{"type":"Point","coordinates":[-74.012139,40.707407]},"id":"a65bahb7to17","address":"71 Broadway, New York, NY 10006","lat":40.707407,"long":-74.012139},{"name":"Marilyn Louie CO","website":"","categories":"Categories: News Dealers &amp; Newsstands","phone":"(212) 587-9422","geometry":{"type":"Point","coordinates":[-73.997178,40.714592]},"id":"a65bah98bjkx","address":"18 Bowery, New York, NY 10013","lat":40.714592,"long":-73.997178},{"name":"Market News INTL Inc","website":"","categories":"Categories: News Dealers &amp; Newsstands,  News &amp; Sports Services,  Newspaper Feature Syndicates","phone":"(212) 381-0596","geometry":{"type":"Point","coordinates":[-74.004495,40.707875]},"id":"a65bahkrzkky","address":"40 Fulton Street 5, New York, NY 10038","lat":40.707875,"long":-74.004495},{"name":"Marketcast","website":"","categories":"Categories: News Dealers &amp; Newsstands","phone":"(646) 746-6400","geometry":{"type":"Point","coordinates":[-73.98528,40.742036]},"id":"a65bah7waejo","address":"360 Park Avenue South, New York, NY 10010","lat":40.742036,"long":-73.98528},{"name":"Marry News","website":"","categories":"Categories: News Dealers &amp; Newsstands","phone":"(212) 239-8323","geometry":{"type":"Point","coordinates":[-73.988418,40.749986]},"id":"a65bah89ligo","address":"110 W 34th Street, New York, NY 10001","lat":40.749986,"long":-73.988418},{"name":"Martin's News &amp; Sundry Shops","website":"","categories":"Categories: Candy &amp; Confectionery Retail,  Newspapers &amp; Magazines,  News Dealers &amp; Newsstands","phone":"(212) 759-4210","geometry":{"type":"Point","coordinates":[-73.969028,40.757924]},"id":"a65bahc0eojv","address":"885 3rd Avenue, New York, NY 10022","lat":40.757924,"long":-73.969028},{"name":"Martin's News Shop","website":"","categories":"Categories: News Dealers &amp; Newsstands","phone":"(212) 683-7692","geometry":{"type":"Point","coordinates":[-73.987353,40.741597]},"id":"a65bahcqk7at","address":"11 Madison Avenue, New York, NY 10010","lat":40.741597,"long":-73.987353},{"name":"Martins News &amp; Sundry","website":"","categories":"Categories: News Dealers &amp; Newsstands,  News &amp; Sports Services","phone":"(212) 385-1220","geometry":{"type":"Point","coordinates":[-74.01021,40.720657]},"id":"a65bah6ymjvm","address":"388 Greenwich Street, New York, NY 10013","lat":40.720657,"long":-74.01021},{"name":"Mary Whalen Newstand","website":"","categories":"Categories: News Dealers &amp; Newsstands","phone":"(212) 514-8050","geometry":{"type":"Point","coordinates":[-74.006363,40.705575]},"id":"a65bahgysdza","address":"88 Pine Street, New York, NY 10005","lat":40.705575,"long":-74.006363},{"name":"Mary's Newsstand NE","website":"","categories":"Categories: News Dealers &amp; Newsstands","phone":"(212) 233-1458","geometry":{"type":"Point","coordinates":[-74.008881,40.713244]},"id":"a65bahaf6dzu","address":"27 Park Place, New York, NY 10007","lat":40.713244,"long":-74.008881},{"name":"Marys Newstand","website":"","categories":"Categories: News Dealers &amp; Newsstands","phone":"(212) 233-1458","geometry":{"type":"Point","coordinates":[-74.01159,40.709728]},"id":"a65baheqp5h0","address":"1 Church Street, New York, NY 10006","lat":40.709728,"long":-74.01159},{"name":"McWhinney Susan Gentry","website":"","categories":"Categories: News Dealers &amp; Newsstands","phone":"(212) 494-0412","geometry":{"type":"Point","coordinates":[-73.993806,40.747573]},"id":"a65bahd3fkrk","address":"211 West 28th Street, New York, NY 10001","lat":40.747573,"long":-73.993806},{"name":"Medina","website":"","categories":"Categories: Beauty Salons,  Grocery Stores &amp; Supermarkets,  Paper Products Manufacturers &amp; Wholesalers,  News Dealers &amp; Newsstands","phone":"(212) 564-2655","geometry":{"type":"Point","coordinates":[-73.987208,40.747719]},"id":"a65bahi1pp2z","address":"34 West 32nd Street Frnt, New York, NY 10001","lat":40.747719,"long":-73.987208},{"name":"Medina &amp; Associates","website":"","categories":"Categories: Beauty Salons,  Restaurants,  Grocery Stores &amp; Supermarkets,  Paper Products Manufacturers &amp; Wholesalers,  News Dealers &amp; Newsstands,  more…","phone":"(646) 796-9477","geometry":{"type":"Point","coordinates":[-73.91923,40.865004]},"id":"a65bah7mjx6a","address":"148 Post Avenue, New York, NY 10034","lat":40.865004,"long":-73.91923},{"name":"Meeta Metha Newstand","website":"","categories":"Categories: News Dealers &amp; Newsstands","phone":"(212) 752-1543","geometry":{"type":"Point","coordinates":[-73.966158,40.762307]},"id":"a65bahkvy0td","address":"1010 3rd Avenue, New York, NY 10065","lat":40.762307,"long":-73.966158},{"name":"Meeta Metha Newstand","website":"","categories":"Categories: News Dealers &amp; Newsstands","phone":"(212) 752-1543","geometry":{"type":"Point","coordinates":[-74.01239,40.702789]},"id":"a65bah7vtawr","address":"3 Ave &amp; 60, New York, NY 10001","lat":40.702789,"long":-74.01239},{"name":"Mega News Inc","website":"","categories":"Categories: News Dealers &amp; Newsstands","phone":"(212) 223-4561","geometry":{"type":"Point","coordinates":[-73.966269,40.759875]},"id":"a65bahdlkbhq","address":"253 E 57th Street, New York, NY 10022","lat":40.759875,"long":-73.966269},{"name":"Mehatn Newstand","website":"","categories":"Categories: News Dealers &amp; Newsstands","phone":"(212) 764-0164","geometry":{"type":"Point","coordinates":[-73.984463,40.754831]},"id":"a65bah8kpe3r","address":"100 W 42nd Street, New York, NY 10036","lat":40.754831,"long":-73.984463},{"name":"Mehta News Stand","website":"","categories":"Categories: Newspapers &amp; Magazines,  News Dealers &amp; Newsstands,  Newspaper Distributors,  Magazine &amp; Periodical Advertising","phone":"","geometry":{"type":"Point","coordinates":[-74.014721,40.709206]},"id":"a65bahdxyvvm","address":"74 West Street, New York, NY 10006","lat":40.709206,"long":-74.014721},{"name":"Metro Media News Agency Inc","website":"","categories":"Categories: News Dealers &amp; Newsstands","phone":"(212) 755-2229","geometry":{"type":"Point","coordinates":[-73.976816,40.757402]},"id":"a65bahdk0ykr","address":"20 E 49th Street 5, New York, NY 10017","lat":40.757402,"long":-73.976816},{"name":"Metro News Publicity Network","website":"","categories":"Categories: Newspapers &amp; Magazines,  News Dealers &amp; Newsstands","phone":"(212) 947-5100","geometry":{"type":"Point","coordinates":[-73.992685,40.75343]},"id":"a65bah5hkcq7","address":"519 8th Avenue, New York, NY 10018","lat":40.75343,"long":-73.992685},{"name":"Metrocom Enterprises Inc - Service","website":"","categories":"Categories: News Dealers &amp; Newsstands","phone":"(212) 755-2229","geometry":{"type":"Point","coordinates":[-73.976816,40.757402]},"id":"a65bahd2k9gh","address":"20 East 49th Street, New York, NY 10017","lat":40.757402,"long":-73.976816},{"name":"Midtown Newsstand","website":"","categories":"Categories: News Dealers &amp; Newsstands","phone":"(212) 629-8101","geometry":{"type":"Point","coordinates":[-73.992376,40.753527]},"id":"a65bahh2cv8y","address":"520 8th Avenue, New York, NY 10018","lat":40.753527,"long":-73.992376},{"name":"Midway News Inc","website":"","categories":"Categories: News Dealers &amp; Newsstands","phone":"(212) 628-3009","geometry":{"type":"Point","coordinates":[-73.95154,40.777638]},"id":"a65bahd8f26y","address":"302 E 86th Street, New York, NY 10028","lat":40.777638,"long":-73.95154},{"name":"Millennium News Stand","website":"","categories":"Categories: Newspapers &amp; Magazines,  News Dealers &amp; Newsstands","phone":"(212) 730-5782","geometry":{"type":"Point","coordinates":[-73.982502,40.757314]},"id":"a65bah5a78f6","address":"1177 Avenue Of The Americas, New York, NY 10036","lat":40.757314,"long":-73.982502},{"name":"Model News","website":"","categories":"Categories: News Dealers &amp; Newsstands","phone":"(212) 886-1840","geometry":{"type":"Point","coordinates":[-73.998279,40.741844]},"id":"a65bah79kjgx","address":"220 W 19th Street, New York, NY 10011","lat":40.741844,"long":-73.998279},{"name":"Mohammed MOID Newstand","website":"","categories":"Categories: Newspapers &amp; Magazines,  News Dealers &amp; Newsstands","phone":"(212) 452-2300","geometry":{"type":"Point","coordinates":[-73.95235,40.772355]},"id":"a65bah8dq34t","address":"401 E 79th Street, New York, NY 10075","lat":40.772355,"long":-73.95235},{"name":"Morning Star News Corporation","website":"","categories":"Categories: News Dealers &amp; Newsstands","phone":"(212) 967-4570","geometry":{"type":"Point","coordinates":[-73.992807,40.759227]},"id":"a65bahho902r","address":"412 W 43rd Street, New York, NY 10036","lat":40.759227,"long":-73.992807},{"name":"Morningside Partnership","website":"","categories":"Categories: Magazine Dealers,  News Dealers &amp; Newsstands","phone":"(212) 541-6790","geometry":{"type":"Point","coordinates":[-73.98211,40.765714]},"id":"a65bahd9hopi","address":"1755 Broadway 1321, New York, NY 10019","lat":40.765714,"long":-73.98211},{"name":"Multichannel News","website":"","categories":"Categories: Newspapers &amp; Magazines,  News Dealers &amp; Newsstands","phone":"(646) 746-6400","geometry":{"type":"Point","coordinates":[-73.9732,40.7586]},"id":"a65bahflhz3h","address":"360 Park Avenue, New York, NY 10022","lat":40.7586,"long":-73.9732},{"name":"N Y Brite","website":"","categories":"Categories: Magazine Dealers,  News Dealers &amp; Newsstands","phone":"(212) 763-0042","geometry":{"type":"Point","coordinates":[-73.982237,40.71451]},"id":"a65bahj18k0a","address":"509 Grand Street, New York, NY 10002","lat":40.71451,"long":-73.982237},{"name":"NTS News Bureau","website":"","categories":"Categories: News Dealers &amp; Newsstands","phone":"(212) 286-9664","geometry":{"type":"Point","coordinates":[-73.978537,40.7524]},"id":"a65bahb5qipg","address":"60 E 42nd Street, New York, NY 10165","lat":40.7524,"long":-73.978537},{"name":"National News","website":"","categories":"Categories: News Dealers &amp; Newsstands","phone":"(212) 473-8080","geometry":{"type":"Point","coordinates":[-73.983179,40.738965]},"id":"a65bahgmem9t","address":"302 3rd Avenue, New York, NY 10010","lat":40.738965,"long":-73.983179},{"name":"New Shrji Inc","website":"","categories":"Categories: News Dealers &amp; Newsstands","phone":"(212) 573-9402","geometry":{"type":"Point","coordinates":[-73.978537,40.7524]},"id":"a65bahjjmn52","address":"60 E 42nd Street, New York, NY 10165","lat":40.7524,"long":-73.978537},{"name":"News &amp; Discount Inc","website":"","categories":"Categories: Newspapers &amp; Magazines,  News Dealers &amp; Newsstands","phone":"(212) 988-3300","geometry":{"type":"Point","coordinates":[-73.959204,40.763215]},"id":"a65bahkv28hm","address":"1198 1st Avenue, New York, NY 10065","lat":40.763215,"long":-73.959204},{"name":"News Govind","website":"","categories":"Categories: News Dealers &amp; Newsstands","phone":"(212) 695-6681","geometry":{"type":"Point","coordinates":[-73.992884,40.753785]},"id":"a65bah93i1rj","address":"307 W 36th Street, New York, NY 10018","lat":40.753785,"long":-73.992884},{"name":"News Market","website":"","categories":"Categories: Newspapers &amp; Magazines,  News Dealers &amp; Newsstands","phone":"(212) 542-9326","geometry":{"type":"Point","coordinates":[-73.992951,40.752609]},"id":"a65bahd6nn6p","address":"494 8th Avenue, New York, NY 10001","lat":40.752609,"long":-73.992951},{"name":"News Market Inc","website":"http://www.thenewsmarket.com","categories":"Categories: News Dealers &amp; Newsstands","phone":"(212) 497-9022","geometry":{"type":"Point","coordinates":[-73.985158,40.746854]},"id":"a65bahgidrst","address":"6 E 32nd Street, New York, NY 10016","lat":40.746854,"long":-73.985158},{"name":"News New York Network Inc","website":"","categories":"Categories: News Dealers &amp; Newsstands","phone":"(212) 675-8811","geometry":{"type":"Point","coordinates":[-73.991685,40.73549]},"id":"a65bahhlsvnl","address":"5 Union Square West, New York, NY 10003","lat":40.73549,"long":-73.991685},{"name":"News Press Syndicate","website":"","categories":"Categories: News Dealers &amp; Newsstands","phone":"(212) 265-7330","geometry":{"type":"Point","coordinates":[-73.981634,40.76651]},"id":"a65bahdfq4cl","address":"1780 Broadway, New York, NY 10019","lat":40.76651,"long":-73.981634},{"name":"News Stand","website":"","categories":"Categories: News Dealers &amp; Newsstands","phone":"(212) 757-0640","geometry":{"type":"Point","coordinates":[-73.99061,40.761475]},"id":"a65bahbc1rya","address":"677 9th Avenue, New York, NY 10036","lat":40.761475,"long":-73.99061},{"name":"News Station Inc","website":"","categories":"Categories: News Dealers &amp; Newsstands","phone":"(212) 742-9589","geometry":{"type":"Point","coordinates":[-74.010007,40.712079]},"id":"a65bahdshobw","address":"30 Vesey Street 501, New York, NY 10007","lat":40.712079,"long":-74.010007},{"name":"News USA Inc","website":"","categories":"Categories: News Dealers &amp; Newsstands","phone":"","geometry":{"type":"Point","coordinates":[-73.979106,40.752864]},"id":"a65bahkc56pl","address":"317 Madison Avenue, New York, NY 10017","lat":40.752864,"long":-73.979106},{"name":"News at 77","website":"","categories":"Categories: News Dealers &amp; Newsstands","phone":"(212) 721-9653","geometry":{"type":"Point","coordinates":[-73.981163,40.782334]},"id":"a65bah6ywwyk","address":"2175 Broadway, New York, NY 10024","lat":40.782334,"long":-73.981163},{"name":"Newspaper Direct","website":"","categories":"Categories: News Dealers &amp; Newsstands,  Newspaper Publishers","phone":"(212) 896-3909","geometry":{"type":"Point","coordinates":[-73.992701,40.751713]},"id":"a65bahis44ct","address":"1 Penn Plaza, New York, NY 10119","lat":40.751713,"long":-73.992701},{"name":"Newsstand","website":"","categories":"Categories: News Dealers &amp; Newsstands","phone":"(212) 750-3286","geometry":{"type":"Point","coordinates":[-73.960309,40.76206]},"id":"a65bahi3ndcl","address":"1149 1st Avenue, New York, NY 10065","lat":40.76206,"long":-73.960309},{"name":"Newsstation Inc","website":"","categories":"Categories: Restaurants,  Pipes &amp; Smoking Accessories,  News Dealers &amp; Newsstands,  Newspaper Distributors,  Magazine &amp; Periodical Advertising,  more…","phone":"(212) 227-2700","geometry":{"type":"Point","coordinates":[-74.010007,40.712079]},"id":"a65bahci1fsk","address":"30 Vesey Street, New York, NY 10007","lat":40.712079,"long":-74.010007},{"name":"Nikkei Business Publs America","website":"","categories":"Categories: News Dealers &amp; Newsstands","phone":"(212) 599-3331","geometry":{"type":"Point","coordinates":[-73.978962,40.753426]},"id":"a65bahhoy9p1","address":"330 Madison Avenue, New York, NY 10017","lat":40.753426,"long":-73.978962},{"name":"Nissen-Lie Consult Inc","website":"","categories":"Categories: News Dealers &amp; Newsstands","phone":"(212) 986-1025","geometry":{"type":"Point","coordinates":[-73.974938,40.752792]},"id":"a65bahejx2dl","address":"441 Lexington Avenue, New York, NY 10017","lat":40.752792,"long":-73.974938},{"name":"Non LST Shah's News Stand","website":"","categories":"Categories: News Dealers &amp; Newsstands","phone":"(212) 650-0141","geometry":{"type":"Point","coordinates":[-73.945019,40.77504]},"id":"a65bahaymbou","address":"86th Street 2nd Avenue, New York, NY 10028","lat":40.77504,"long":-73.945019},{"name":"Okamoto Newstand","website":"","categories":"Categories: News Dealers &amp; Newsstands","phone":"(212) 791-8503","geometry":{"type":"Point","coordinates":[-74.001392,40.713758]},"id":"a65bahc3uzu3","address":"500 Pearl Street, New York, NY 10007","lat":40.713758,"long":-74.001392},{"name":"On the Go Marketing","website":"","categories":"Categories: Magazine Dealers,  Advertising,  News Dealers &amp; Newsstands","phone":"(212) 937-6600","geometry":{"type":"Point","coordinates":[-73.987572,40.752276]},"id":"a65bahiooop8","address":"1375 Broadway, New York, NY 10018","lat":40.752276,"long":-73.987572},{"name":"One Chase Plaza News Inc","website":"","categories":"Categories: Newspapers &amp; Magazines,  News Dealers &amp; Newsstands","phone":"(212) 509-9164","geometry":{"type":"Point","coordinates":[-74.009724,40.707579]},"id":"a65bahf6qo9b","address":"1 Chase Manhattan Plaza, New York, NY 10005","lat":40.707579,"long":-74.009724},{"name":"Orooj Enterprises Inc","website":"","categories":"Categories: Magazine Back Issues,  News Dealers &amp; Newsstands","phone":"(212) 255-4761","geometry":{"type":"Point","coordinates":[-74.000609,40.734459]},"id":"a65bah7e0vh2","address":"138 West 10th Street, New York, NY 10014","lat":40.734459,"long":-74.000609},{"name":"Otto Penzler Books","website":"","categories":"Categories: Bookstores,  News Dealers &amp; Newsstands,  Books &amp; Magazines Wholesale &amp; Distribution","phone":"(212) 765-0923","geometry":{"type":"Point","coordinates":[-73.978532,40.764159]},"id":"a65bahbetrbd","address":"129 W 56th Street, New York, NY 10019","lat":40.764159,"long":-73.978532},{"name":"Overheard News Inc","website":"","categories":"Categories: Newspapers &amp; Magazines,  News Dealers &amp; Newsstands","phone":"(212) 697-2088","geometry":{"type":"Point","coordinates":[-73.975852,40.754611]},"id":"a65bah821gdu","address":"230 Park Avenue, New York, NY 10169","lat":40.754611,"long":-73.975852},{"name":"Oxford News Inc","website":"","categories":"Categories: Newspapers &amp; Magazines,  News Dealers &amp; Newsstands","phone":"(212) 689-3961","geometry":{"type":"Point","coordinates":[-73.97838,40.745647]},"id":"a65bah8wbd7w","address":"504 3rd Avenue, New York, NY 10016","lat":40.745647,"long":-73.97838},{"name":"P &amp; A Stores Inc","website":"","categories":"Categories: News Dealers &amp; Newsstands","phone":"(212) 972-0752","geometry":{"type":"Point","coordinates":[-73.978962,40.753426]},"id":"a65bah80562w","address":"330 Madison Avenue, New York, NY 10017","lat":40.753426,"long":-73.978962},{"name":"P &amp; B Brothers","website":"","categories":"Categories: News Dealers &amp; Newsstands","phone":"(212) 777-1658","geometry":{"type":"Point","coordinates":[-73.986397,40.740223]},"id":"a65bahgparli","address":"23rd Street Park Avenue South, New York, NY 10010","lat":40.740223,"long":-73.986397},{"name":"P G News","website":"","categories":"Categories: News Dealers &amp; Newsstands","phone":"(212) 865-4175","geometry":{"type":"Point","coordinates":[-73.966128,40.804505]},"id":"a65bahii79mq","address":"2852 Broadway, New York, NY 10025","lat":40.804505,"long":-73.966128},{"name":"P K News Agency","website":"","categories":"Categories: News Dealers &amp; Newsstands","phone":"(212) 529-5972","geometry":{"type":"Point","coordinates":[-73.996645,40.71365]},"id":"a65bah691kh0","address":"22 E Broadway, New York, NY 10002","lat":40.71365,"long":-73.996645},{"name":"P K News Agency","website":"","categories":"Categories: News Dealers &amp; Newsstands","phone":"(212) 529-5972","geometry":{"type":"Point","coordinates":[-73.989274,40.740404]},"id":"a65bahisi2g4","address":"936 Broadway, New York, NY 10010","lat":40.740404,"long":-73.989274},{"name":"P S News","website":"","categories":"Categories: News Dealers &amp; Newsstands","phone":"(212) 472-9775","geometry":{"type":"Point","coordinates":[-73.950588,40.777238]},"id":"a65bahjbd4mf","address":"352 East 86th Street, New York, NY 10028","lat":40.777238,"long":-73.950588},{"name":"PLP","website":"","categories":"Categories: News Dealers &amp; Newsstands","phone":"(212) 255-6729","geometry":{"type":"Point","coordinates":[-73.993509,40.746751]},"id":"a65bah71q9t3","address":"305 7th Avenue, New York, NY 10001","lat":40.746751,"long":-73.993509},{"name":"Parabola","website":"","categories":"Categories: Magazine Dealers,  News Dealers &amp; Newsstands","phone":"(212) 505-6200","geometry":{"type":"Point","coordinates":[-73.995092,40.727243]},"id":"a65bah7sy0ye","address":"666 Broadway, New York, NY 10012","lat":40.727243,"long":-73.995092},{"name":"Parikh Enterprises Inc","website":"","categories":"Categories: Clothing Stores,  Real Estate Developers &amp; Subdividers,  Financial Services,  Circuit Board Assembly &amp; Repair,  News Dealers &amp; Newsstands,  more…","phone":"(212) 928-4239","geometry":{"type":"Point","coordinates":[-73.937555,40.855199]},"id":"a65bahc08459","address":"814 West 187, New York, NY 10033","lat":40.855199,"long":-73.937555},{"name":"Park Avenue News","website":"","categories":"Categories: News Dealers &amp; Newsstands","phone":"(212) 529-5585","geometry":{"type":"Point","coordinates":[-73.985976,40.739868]},"id":"a65bah8ki0vd","address":"106 E 23rd Street, New York, NY 10010","lat":40.739868,"long":-73.985976},{"name":"Park News Inc","website":"","categories":"Categories: News Dealers &amp; Newsstands","phone":"(212) 317-0636","geometry":{"type":"Point","coordinates":[-73.973754,40.754861]},"id":"a65bahi7bwc3","address":"500 Lexington Avenue, New York, NY 10017","lat":40.754861,"long":-73.973754},{"name":"Park News Inc","website":"","categories":"Categories: News Dealers &amp; Newsstands","phone":"(212) 317-0636","geometry":{"type":"Point","coordinates":[-73.974857,40.755722]},"id":"a65bahdw4snk","address":"277 Park Avenue 2, New York, NY 10172","lat":40.755722,"long":-73.974857},{"name":"Parrs News Stand","website":"","categories":"Categories: Newspapers &amp; Magazines,  News Dealers &amp; Newsstands","phone":"(212) 967-0653","geometry":{"type":"Point","coordinates":[-73.993854,40.752203]},"id":"a65bahblpvzx","address":"300 W 34th Street, New York, NY 10001","lat":40.752203,"long":-73.993854},{"name":"Parsley Sage Inc","website":"","categories":"Categories: Magazine Dealers,  News Dealers &amp; Newsstands","phone":"(212) 691-7960","geometry":{"type":"Point","coordinates":[-74.00353,40.732055]},"id":"a65bahexiwt2","address":"73 7th Avenue South, New York, NY 10014","lat":40.732055,"long":-74.00353},{"name":"Parul News CO","website":"","categories":"Categories: News Dealers &amp; Newsstands,  News &amp; Sports Services","phone":"(212) 629-4293","geometry":{"type":"Point","coordinates":[-73.990954,40.75037]},"id":"a65bahij208h","address":"421 7th Avenue, New York, NY 10001","lat":40.75037,"long":-73.990954},{"name":"Patel &amp; Mehta Newsstand","website":"","categories":"Categories: Newspapers &amp; Magazines,  Paper Products Manufacturers &amp; Wholesalers,  News Dealers &amp; Newsstands,  Newspaper Publishers","phone":"(212) 244-4249","geometry":{"type":"Point","coordinates":[-73.990182,40.757242]},"id":"a65bah5x0c4b","address":"300 West 42, New York, NY 10036","lat":40.757242,"long":-73.990182},{"name":"Patel Mukesh","website":"","categories":"Categories: News Dealers &amp; Newsstands","phone":"(212) 832-7072","geometry":{"type":"Point","coordinates":[-73.974566,40.756726]},"id":"a65bahixvj9u","address":"300 Park Avenue, New York, NY 10022","lat":40.756726,"long":-73.974566},{"name":"Patel News Stand","website":"","categories":"Categories: News Dealers &amp; Newsstands","phone":"(212) 682-5952","geometry":{"type":"Point","coordinates":[-73.977894,40.752369]},"id":"a65bahgo07ep","address":"89 E 42nd Street, New York, NY 10017","lat":40.752369,"long":-73.977894},{"name":"Patel Newsstand","website":"","categories":"Categories: News Dealers &amp; Newsstands","phone":"(212) 785-7606","geometry":{"type":"Point","coordinates":[-74.009724,40.707579]},"id":"a65bah61qzb0","address":"1 Chase Manhattan Plaza, New York, NY 10005","lat":40.707579,"long":-74.009724},{"name":"Patel Newsstand","website":"","categories":"Categories: News Dealers &amp; Newsstands","phone":"(212) 691-5306","geometry":{"type":"Point","coordinates":[-73.995757,40.743667]},"id":"a65bahck0i90","address":"215 7th Avenue, New York, NY 10011","lat":40.743667,"long":-73.995757},{"name":"Patel Newstand","website":"","categories":"Categories: News Dealers &amp; Newsstands","phone":"(212) 977-7290","geometry":{"type":"Point","coordinates":[-73.982765,40.765125]},"id":"a65bah61wrlv","address":"259 W 55th Street, New York, NY 10019","lat":40.765125,"long":-73.982765},{"name":"Pathe News Inc","website":"","categories":"Categories: Newspapers &amp; Magazines,  News Dealers &amp; Newsstands","phone":"(212) 489-8669","geometry":{"type":"Point","coordinates":[-73.991316,40.75995]},"id":"a65bah820csy","address":"630 9th Avenue, New York, NY 10036","lat":40.75995,"long":-73.991316},{"name":"Paudyadipak","website":"","categories":"Categories: News Dealers &amp; Newsstands","phone":"(212) 983-3743","geometry":{"type":"Point","coordinates":[-73.980103,40.752999]},"id":"a65bahitxliu","address":"22 E 42nd Street, New York, NY 10017","lat":40.752999,"long":-73.980103},{"name":"Paulina Grocery Store","website":"","categories":"Categories: News Dealers &amp; Newsstands","phone":"(718) 898-0044","geometry":{"type":"Point","coordinates":[-73.980221,40.757517]},"id":"a65bah5bdhfi","address":"55 West 47th Street Unit 69, New York, NY 10036","lat":40.757517,"long":-73.980221},{"name":"Peimei News","website":"","categories":"Categories: News Dealers &amp; Newsstands","phone":"(212) 732-8950","geometry":{"type":"Point","coordinates":[-73.998157,40.713761]},"id":"a65bahk5ff7c","address":"7 Chatham Square, New York, NY 10038","lat":40.713761,"long":-73.998157},{"name":"Plaza News","website":"","categories":"Categories: News Dealers &amp; Newsstands","phone":"(212) 785-4071","geometry":{"type":"Point","coordinates":[-74.012641,40.702409]},"id":"a65bahh1a7i6","address":"1 Water, New York, NY 10001","lat":40.702409,"long":-74.012641},{"name":"Prestige Newstand","website":"","categories":"Categories: Newspapers &amp; Magazines,  News Dealers &amp; Newsstands","phone":"(212) 366-4640","geometry":{"type":"Point","coordinates":[-73.989094,40.735]},"id":"a65bahhpwt3h","address":"Union Square Park &amp; 15 Southeast Corner, New York, NY 10003","lat":40.735,"long":-73.989094},{"name":"Prince Stationary &amp; News","website":"","categories":"Categories: Newspapers &amp; Magazines,  News Dealers &amp; Newsstands","phone":"(212) 838-0410","geometry":{"type":"Point","coordinates":[-73.963896,40.761498]},"id":"a65bah9t4hv3","address":"1147 2nd Avenue, New York, NY 10065","lat":40.761498,"long":-73.963896},{"name":"Queenie's News &amp; Stationery","website":"","categories":"Categories: News Dealers &amp; Newsstands","phone":"(212) 472-0541","geometry":{"type":"Point","coordinates":[-73.957417,40.765582]},"id":"a65bahfiha7e","address":"1278 1st Avenue, New York, NY 10065","lat":40.765582,"long":-73.957417},{"name":"R K News","website":"","categories":"Categories: News Dealers &amp; Newsstands","phone":"(212) 860-3933","geometry":{"type":"Point","coordinates":[-73.955313,40.779533]},"id":"a65bah7ygrfy","address":"147 E 86th Street, New York, NY 10028","lat":40.779533,"long":-73.955313},{"name":"R N Newstand Inc","website":"","categories":"Categories: Newspapers &amp; Magazines,  News Dealers &amp; Newsstands","phone":"(212) 758-3352","geometry":{"type":"Point","coordinates":[-73.974109,40.757346]},"id":"a65bahfhwg9j","address":"320 Park Avenue, New York, NY 10022","lat":40.757346,"long":-73.974109},{"name":"RDV Books","website":"","categories":"Categories: News Dealers &amp; Newsstands,  Magazine &amp; Journal Publishers","phone":"(212) 414-3232","geometry":{"type":"Point","coordinates":[-73.991833,40.738641]},"id":"a65bah7syvt3","address":"130 5th Avenue, New York, NY 10011","lat":40.738641,"long":-73.991833},{"name":"RNT News Plus","website":"","categories":"Categories: Newspapers &amp; Magazines,  News Dealers &amp; Newsstands","phone":"(212) 785-4530","geometry":{"type":"Point","coordinates":[-74.006617,40.704808]},"id":"a65bahi658ba","address":"120 Wall Street 1, New York, NY 10005","lat":40.704808,"long":-74.006617},{"name":"Raj Galabya Newstand","website":"","categories":"Categories: News Dealers &amp; Newsstands","phone":"(212) 785-7270","geometry":{"type":"Point","coordinates":[-74.008069,40.708316]},"id":"a65bahbozgfy","address":"59 Maiden Lane, New York, NY 10038","lat":40.708316,"long":-74.008069},{"name":"Rakuza","website":"","categories":"Categories: Magazine Dealers,  News Dealers &amp; Newsstands","phone":"(212) 686-5560","geometry":{"type":"Point","coordinates":[-73.98061,40.752343]},"id":"a65bahc5wak1","address":"16 E 41st Street, New York, NY 10017","lat":40.752343,"long":-73.98061},{"name":"Ram Newstand Corporation","website":"","categories":"Categories: Candy &amp; Confectionery Retail,  News Dealers &amp; Newsstands","phone":"(212) 489-1430","geometry":{"type":"Point","coordinates":[-73.984321,40.761319]},"id":"a65bahik91e9","address":"1627 Broadway, New York, NY 10019","lat":40.761319,"long":-73.984321},{"name":"Ranima Newstand","website":"","categories":"Categories: News Dealers &amp; Newsstands","phone":"(212) 873-6404","geometry":{"type":"Point","coordinates":[-73.970944,40.785965]},"id":"a65bahjdyybx","address":"86th Broadway, New York, NY 10024","lat":40.785965,"long":-73.970944},{"name":"Reed Business Information","website":"","categories":"Categories: News Dealers &amp; Newsstands","phone":"(646) 746-6400","geometry":{"type":"Point","coordinates":[-73.98528,40.742036]},"id":"a65bah9dn967","address":"360 Park Avenue South, New York, NY 10010","lat":40.742036,"long":-73.98528},{"name":"Reed Business Information","website":"","categories":"Categories: Business Services,  News Dealers &amp; Newsstands","phone":"(212) 370-7440","geometry":{"type":"Point","coordinates":[-73.977884,40.751457]},"id":"a65bahdfwg9n","address":"125 Park Av, New York, NY 10017","lat":40.751457,"long":-73.977884},{"name":"Roger's News Inc","website":"","categories":"Categories: News Dealers &amp; Newsstands","phone":"(212) 697-2280","geometry":{"type":"Point","coordinates":[-73.975791,40.751691]},"id":"a65bahjcpwcn","address":"405 Lexington Avenue, New York, NY 10174","lat":40.751691,"long":-73.975791},{"name":"S &amp; A RAJA Newsstand","website":"","categories":"Categories: News Dealers &amp; Newsstands","phone":"(212) 619-2195","geometry":{"type":"Point","coordinates":[-74.01122,40.70809]},"id":"a65bahdnetqe","address":"100 Broadway, New York, NY 10005","lat":40.70809,"long":-74.01122},{"name":"S S News Stand","website":"","categories":"Categories: News Dealers &amp; Newsstands","phone":"(212) 608-5154","geometry":{"type":"Point","coordinates":[-73.988856,40.69774]},"id":"a65bah6ap3dp","address":"Brooklyn Bridge Station, New York, NY 10010","lat":40.69774,"long":-73.988856},{"name":"S S News Stand","website":"","categories":"Categories: News Dealers &amp; Newsstands","phone":"(646) 497-0321","geometry":{"type":"Point","coordinates":[-74.008379,40.713013]},"id":"a65bahkyeunm","address":"59 Lexington Subway, New York, NY 10007","lat":40.713013,"long":-74.008379},{"name":"S S News Stand","website":"","categories":"Categories: News Dealers &amp; Newsstands","phone":"(212) 369-7791","geometry":{"type":"Point","coordinates":[-73.983152,40.741954]},"id":"a65bah9mbdy2","address":"96 Lexington Avenue, New York, NY 10016","lat":40.741954,"long":-73.983152},{"name":"SI Lobby Stand","website":"","categories":"Categories: News Dealers &amp; Newsstands","phone":"(212) 370-1757","geometry":{"type":"Point","coordinates":[-73.975426,40.749675]},"id":"a65bahdtrisj","address":"622 3rd Avenue, New York, NY 10017","lat":40.749675,"long":-73.975426},{"name":"SS News Stand","website":"","categories":"Categories: Newspapers &amp; Magazines,  News Dealers &amp; Newsstands","phone":"(212) 369-7791","geometry":{"type":"Point","coordinates":[-73.983584,40.7411]},"id":"a65bahefihnl","address":"Lexington Avenue, New York, NY 10001","lat":40.7411,"long":-73.983584},{"name":"SS News Stand","website":"","categories":"Categories: News Dealers &amp; Newsstands","phone":"(646) 497-0321","geometry":{"type":"Point","coordinates":[-73.983782,40.740664]},"id":"a65bah93gsd6","address":"59 Lexington Avenue, New York, NY 10010","lat":40.740664,"long":-73.983782},{"name":"SS News Stand","website":"","categories":"Categories: Newspapers &amp; Magazines,  News Dealers &amp; Newsstands","phone":"(212) 608-5154","geometry":{"type":"Point","coordinates":[-73.988856,40.69774]},"id":"a65bahe481ng","address":"Brooklyn Bridge Station, New York, NY 10001","lat":40.69774,"long":-73.988856},{"name":"Schanzer Newstand","website":"","categories":"Categories: News Dealers &amp; Newsstands","phone":"(212) 315-1997","geometry":{"type":"Point","coordinates":[-73.992243,40.764343]},"id":"a65bahamfcf3","address":"725 10th Avenue, New York, NY 10019","lat":40.764343,"long":-73.992243},{"name":"Schnider News","website":"","categories":"Categories: News Dealers &amp; Newsstands","phone":"(212) 840-6795","geometry":{"type":"Point","coordinates":[-73.98735,40.755764]},"id":"a65bahfd3olu","address":"5 Times Square Plaza, New York, NY 10036","lat":40.755764,"long":-73.98735},{"name":"Scotties Newstand","website":"","categories":"Categories: Newspapers &amp; Magazines,  News Dealers &amp; Newsstands","phone":"(212) 732-6272","geometry":{"type":"Point","coordinates":[-74.003648,40.713738]},"id":"a65bahi4ebx3","address":"2 Lafayette Street, New York, NY 10007","lat":40.713738,"long":-74.003648},{"name":"Sebastian's News Corporation","website":"","categories":"Categories: News Dealers &amp; Newsstands","phone":"(212) 987-4943","geometry":{"type":"Point","coordinates":[-73.953093,40.783186]},"id":"a65bah5qks2b","address":"1394 Lexington Avenue, New York, NY 10128","lat":40.783186,"long":-73.953093},{"name":"Securities Industry News","website":"","categories":"Categories: Magazine Dealers,  Newspapers &amp; Magazines,  News Dealers &amp; Newsstands","phone":"(212) 803-6088","geometry":{"type":"Point","coordinates":[-74.013699,40.702417]},"id":"a65bah5pregv","address":"1 State Street Plaza 26, New York, NY 10004","lat":40.702417,"long":-74.013699},{"name":"Serious Eats","website":"","categories":"Categories: Magazine Dealers,  News Dealers &amp; Newsstands","phone":"(212) 488-6302","geometry":{"type":"Point","coordinates":[-73.994855,40.746912]},"id":"a65bahg4dfw3","address":"242 W 27th Street, New York, NY 10001","lat":40.746912,"long":-73.994855},{"name":"Shah Lobby Stand","website":"","categories":"Categories: Candy &amp; Confectionery Retail,  News Dealers &amp; Newsstands","phone":"(212) 227-7960","geometry":{"type":"Point","coordinates":[-74.010139,40.70938]},"id":"a65bahgkm9qh","address":"160 Broadway, New York, NY 10038","lat":40.70938,"long":-74.010139},{"name":"Shah's News Stand","website":"","categories":"Categories: News Dealers &amp; Newsstands","phone":"(212) 650-0141","geometry":{"type":"Point","coordinates":[0.0,0.0]},"id":"a65bah8xcql0","address":"86 Street 2 Avenue, New York, NY 10001","lat":0,"long":0},{"name":"Shaha Inc","website":"","categories":"Categories: News Dealers &amp; Newsstands","phone":"(646) 638-3948","geometry":{"type":"Point","coordinates":[-73.988114,40.749315]},"id":"a65bahgbr7z5","address":"6th Avenue, New York, NY 10001","lat":40.749315,"long":-73.988114},{"name":"Shivum News Inc","website":"","categories":"Categories: News Dealers &amp; Newsstands","phone":"(212) 269-6453","geometry":{"type":"Point","coordinates":[-74.013296,40.705853]},"id":"a65bahiujbu3","address":"25 Broadway, New York, NY 10004","lat":40.705853,"long":-74.013296},{"name":"Show Biz News","website":"","categories":"Categories: News Dealers &amp; Newsstands","phone":"(212) 886-1840","geometry":{"type":"Point","coordinates":[-73.998279,40.741844]},"id":"a65bahcsy75c","address":"220 W 19th Street, New York, NY 10011","lat":40.741844,"long":-73.998279},{"name":"Slate","website":"","categories":"Categories: News Dealers &amp; Newsstands","phone":"(212) 627-0241","geometry":{"type":"Point","coordinates":[-73.996648,40.740702]},"id":"a65bah87ighs","address":"163 West 18th Street, New York, NY 10011","lat":40.740702,"long":-73.996648},{"name":"Soo Henry Newstand","website":"","categories":"Categories: News Dealers &amp; Newsstands","phone":"(212) 957-3448","geometry":{"type":"Point","coordinates":[-73.996853,40.750325]},"id":"a65bahcnxh51","address":"Southwest Corner Of 45, New York, NY 10001","lat":40.750325,"long":-73.996853},{"name":"Soo Henry Newstand","website":"","categories":"Categories: News Dealers &amp; Newsstands","phone":"(212) 957-3448","geometry":{"type":"Point","coordinates":[-73.98887,40.758674]},"id":"a65bahhqkbuk","address":"701 8th Avenue, New York, NY 10036","lat":40.758674,"long":-73.98887},{"name":"Sourcing News","website":"","categories":"Categories: News Dealers &amp; Newsstands","phone":"(212) 398-9273","geometry":{"type":"Point","coordinates":[-73.986792,40.751431]},"id":"a65bahko4fuf","address":"989 6th Avenue, New York, NY 10018","lat":40.751431,"long":-73.986792},{"name":"Southbridge News Service","website":"","categories":"Categories: News Dealers &amp; Newsstands","phone":"(212) 406-9728","geometry":{"type":"Point","coordinates":[-74.005111,40.708925]},"id":"a65bah5d6hqm","address":"77 Fulton Street, New York, NY 10038","lat":40.708925,"long":-74.005111},{"name":"Southern Progress Corporation","website":"","categories":"Categories: News Dealers &amp; Newsstands","phone":"(212) 522-1212","geometry":{"type":"Point","coordinates":[-73.98034,40.760306]},"id":"a65bah9kk04h","address":"1271 Avenue Of The Americ, New York, NY 10020","lat":40.760306,"long":-73.98034},{"name":"Spectrum News","website":"","categories":"Categories: Newspapers &amp; Magazines,  News Dealers &amp; Newsstands","phone":"(212) 679-1010","geometry":{"type":"Point","coordinates":[-73.981831,40.746007]},"id":"a65baha4q0fk","address":"1 Park Avenue, New York, NY 10016","lat":40.746007,"long":-73.981831},{"name":"Springer Foreign News Service","website":"","categories":"Categories: News Dealers &amp; Newsstands,  News &amp; Sports Services","phone":"(212) 736-5888","geometry":{"type":"Point","coordinates":[-73.994042,40.750097]},"id":"a65bahcm3qvc","address":"4 Penn Plaza, New York, NY 10121","lat":40.750097,"long":-73.994042},{"name":"Sri Balajai News Inc","website":"","categories":"Categories: News Dealers &amp; Newsstands","phone":"(212) 967-9989","geometry":{"type":"Point","coordinates":[-73.987618,40.748201]},"id":"a65bahapraz0","address":"49 W 32nd Street, New York, NY 10001","lat":40.748201,"long":-73.987618},{"name":"St Marks Comics","website":"http://www.stmarkscomics.com","categories":"Categories: Magazine Dealers,  Magazine Back Issues,  News Dealers &amp; Newsstands","phone":"(212) 598-9439","geometry":{"type":"Point","coordinates":[-73.989083,40.729356]},"id":"a65bahh1r9kn","address":"11 Saint Marks Place, New York, NY 10003","lat":40.729356,"long":-73.989083},{"name":"Standard New York","website":"","categories":"Categories: Magazine Dealers,  News Dealers &amp; Newsstands","phone":"(212) 355-4362","geometry":{"type":"Point","coordinates":[-73.974109,40.757346]},"id":"a65bahhr78ym","address":"320 Park Avenue, New York, NY 10022","lat":40.757346,"long":-73.974109},{"name":"Starchefs","website":"http://www.starchefs.com","categories":"Categories: Magazine Dealers,  News Dealers &amp; Newsstands","phone":"(212) 966-3775","geometry":{"type":"Point","coordinates":[-73.996502,40.723905]},"id":"a65bahkrwoj3","address":"270 Lafayette Street, New York, NY 10012","lat":40.723905,"long":-73.996502},{"name":"State News","website":"","categories":"Categories: News Dealers &amp; Newsstands","phone":"(212) 831-8010","geometry":{"type":"Point","coordinates":[-73.956637,40.779785]},"id":"a65bah6rejh0","address":"112 E 86th Street, New York, NY 10028","lat":40.779785,"long":-73.956637},{"name":"Stearn CO","website":"","categories":"Categories: News Dealers &amp; Newsstands","phone":"(212) 406-3955","geometry":{"type":"Point","coordinates":[-74.01002,40.711961]},"id":"a65bahc6qr9e","address":"25 Vesey Street, New York, NY 10007","lat":40.711961,"long":-74.01002},{"name":"Stora Enso","website":"","categories":"Categories: Magazine Dealers,  News Dealers &amp; Newsstands","phone":"(646) 756-2691","geometry":{"type":"Point","coordinates":[-73.98094,40.75892]},"id":"a65bahi63len","address":"1230 Avenue Of The Americas, New York, NY 10020","lat":40.75892,"long":-73.98094},{"name":"Swami 80 Inc","website":"","categories":"Categories: Coffee &amp; Tea Shops,  News Dealers &amp; Newsstands","phone":"(212) 759-0322","geometry":{"type":"Point","coordinates":[-73.968188,40.759075]},"id":"a65bahedowbt","address":"919 3rd Avenue, New York, NY 10022","lat":40.759075,"long":-73.968188},{"name":"Swami Newsstand","website":"","categories":"Categories: News Dealers &amp; Newsstands","phone":"(212) 349-3124","geometry":{"type":"Point","coordinates":[-74.008879,40.717855]},"id":"a65bah7nj3b4","address":"60 Hudson Street Lbby A, New York, NY 10013","lat":40.717855,"long":-74.008879},{"name":"TAJ News &amp; Grocery","website":"","categories":"Categories: News Dealers &amp; Newsstands","phone":"(212) 772-6162","geometry":{"type":"Point","coordinates":[-73.954688,40.769322]},"id":"a65bah6igjop","address":"1408 1st Avenue, New York, NY 10021","lat":40.769322,"long":-73.954688},{"name":"TSO Newsstand","website":"","categories":"Categories: News Dealers &amp; Newsstands","phone":"(212) 925-7690","geometry":{"type":"Point","coordinates":[-74.000118,40.71803]},"id":"a65bahdwfair","address":"240 Canal Street, New York, NY 10013","lat":40.71803,"long":-74.000118},{"name":"The Ashley Group","website":"","categories":"Categories: News Dealers &amp; Newsstands","phone":"(646) 746-6400","geometry":{"type":"Point","coordinates":[-73.9732,40.7586]},"id":"a65bahab0oen","address":"360 Park Avenue, New York, NY 10022","lat":40.7586,"long":-73.9732},{"name":"Tom's Newsstand","website":"","categories":"Categories: Paper Products Manufacturers &amp; Wholesalers,  News Dealers &amp; Newsstands,  Newspaper Publishers","phone":"(212) 226-7187","geometry":{"type":"Point","coordinates":[-74.009974,40.72504]},"id":"a65bahj7v3lp","address":"Canal Street Lafayette Street, New York, NY 10013","lat":40.72504,"long":-74.009974},{"name":"Tudor City Newsstand","website":"","categories":"Categories: News Dealers &amp; Newsstands","phone":"(212) 557-4788","geometry":{"type":"Point","coordinates":[-73.971028,40.748035]},"id":"a65bahl9bilc","address":"5 Tudor City Place, New York, NY 10017","lat":40.748035,"long":-73.971028},{"name":"US Royal News","website":"","categories":"Categories: News Dealers &amp; Newsstands","phone":"(212) 223-1819","geometry":{"type":"Point","coordinates":[-73.962288,40.761223]},"id":"a65bahbn5a8m","address":"328 E 61st Street, New York, NY 10065","lat":40.761223,"long":-73.962288},{"name":"Universal News","website":"","categories":"Categories: Magazine Dealers,  News Dealers &amp; Newsstands","phone":"(212) 647-1761","geometry":{"type":"Point","coordinates":[-73.991275,40.742102]},"id":"a65bahiap2bk","address":"50 W 23rd Street 1, New York, NY 10010","lat":40.742102,"long":-73.991275},{"name":"Universal News","website":"http://www.universalnewsusa.com","categories":"Categories: Magazine Dealers,  News Dealers &amp; Newsstands","phone":"(212) 594-3113","geometry":{"type":"Point","coordinates":[-73.985066,40.749666]},"id":"a65bahl0dd0t","address":"29 W 35th Street 2, New York, NY 10001","lat":40.749666,"long":-73.985066},{"name":"Universal News &amp; Cafe","website":"","categories":"Categories: News Dealers &amp; Newsstands","phone":"(212) 965-1015","geometry":{"type":"Point","coordinates":[-73.999856,40.721534]},"id":"a65bah5eckln","address":"484 Broadway Frnt 1, New York, NY 10013","lat":40.721534,"long":-73.999856},{"name":"Universal News &amp; Cafe","website":"","categories":"Categories: Magazine Dealers,  News Dealers &amp; Newsstands","phone":"(212) 221-1809","geometry":{"type":"Point","coordinates":[-73.988121,40.756369]},"id":"a65bahh0gset","address":"234 West 42nd Street, New York, NY 10036","lat":40.756369,"long":-73.988121},{"name":"Universal News Paper Inc","website":"","categories":"Categories: News Dealers &amp; Newsstands","phone":"(212) 809-0053","geometry":{"type":"Point","coordinates":[-74.011664,40.704336]},"id":"a65bahgvl403","address":"80 Broad Street, New York, NY 10004","lat":40.704336,"long":-74.011664},{"name":"Universal News USA Corporation","website":"","categories":"Categories: Magazine Dealers,  News Dealers &amp; Newsstands","phone":"(212) 627-5708","geometry":{"type":"Point","coordinates":[-73.994138,40.736373]},"id":"a65bahhst9nt","address":"11 W 14th Street, New York, NY 10011","lat":40.736373,"long":-73.994138},{"name":"University Knowledge News","website":"","categories":"Categories: Office Supplies Retail,  News Dealers &amp; Newsstands","phone":"(212) 505-0323","geometry":{"type":"Point","coordinates":[-73.99488,40.730487]},"id":"a65bahl9j8vp","address":"31 Waverly Place, New York, NY 10003","lat":40.730487,"long":-73.99488},{"name":"Upside Downtown News","website":"","categories":"Categories: News Dealers &amp; Newsstands","phone":"(212) 431-0600","geometry":{"type":"Point","coordinates":[-73.994579,40.72468]},"id":"a65bahflge74","address":"49 E Houston Street, New York, NY 10012","lat":40.72468,"long":-73.994579},{"name":"Uptown Dispatch Community News","website":"","categories":"Categories: News Dealers &amp; Newsstands","phone":"(212) 568-8036","geometry":{"type":"Point","coordinates":[-73.935908,40.849741]},"id":"a65bah6l826p","address":"125 Cabrini Boulevard A21, New York, NY 10033","lat":40.849741,"long":-73.935908},{"name":"VDT News","website":"","categories":"Categories: News Dealers &amp; Newsstands","phone":"(212) 517-2802","geometry":{"type":"Point","coordinates":[-73.959485,40.773637]},"id":"a65bahjtqexl","address":"155 E 77th Street 3D, New York, NY 10075","lat":40.773637,"long":-73.959485},{"name":"VIP Newstand 666 Inc","website":"","categories":"Categories: News Dealers &amp; Newsstands","phone":"(212) 397-2972","geometry":{"type":"Point","coordinates":[-73.976017,40.760267]},"id":"a65bahht2fan","address":"666 5th Avenue, New York, NY 10103","lat":40.760267,"long":-73.976017},{"name":"Vaidya Newsstand","website":"","categories":"Categories: Newspapers &amp; Magazines,  News Dealers &amp; Newsstands","phone":"(212) 727-8218","geometry":{"type":"Point","coordinates":[-73.997061,40.737606]},"id":"a65bahkzziag","address":"101 W 14th Street, New York, NY 10011","lat":40.737606,"long":-73.997061},{"name":"Variety Daily Variety &amp; Daily","website":"","categories":"Categories: Variety Stores,  News Dealers &amp; Newsstands","phone":"(646) 746-6400","geometry":{"type":"Point","coordinates":[-73.98528,40.742036]},"id":"a65bahbs5i30","address":"360 Park Avenue S 14, New York, NY 10010","lat":40.742036,"long":-73.98528},{"name":"Vietnams News Agency","website":"","categories":"Categories: News Dealers &amp; Newsstands","phone":"(212) 826-4202","geometry":{"type":"Point","coordinates":[-73.969508,40.748735]},"id":"a65bahalpl5y","address":"405 E 42nd Street, New York, NY 10017","lat":40.748735,"long":-73.969508},{"name":"Village One Stop","website":"","categories":"Categories: Magazine Dealers,  News Dealers &amp; Newsstands","phone":"(212) 604-0494","geometry":{"type":"Point","coordinates":[-74.006161,40.735245]},"id":"a65bahj1yznj","address":"551 Hudson, New York, NY 10014","lat":40.735245,"long":-74.006161},{"name":"Wang's Newstand","website":"","categories":"Categories: News Dealers &amp; Newsstands","phone":"(212) 431-3460","geometry":{"type":"Point","coordinates":[-73.994029,40.713789]},"id":"a65bahg0ce2l","address":"88 E Broadway, New York, NY 10002","lat":40.713789,"long":-73.994029},{"name":"West Side Newstand","website":"","categories":"Categories: News Dealers &amp; Newsstands","phone":"(212) 629-3508","geometry":{"type":"Point","coordinates":[-73.992701,40.751713]},"id":"a65bahl37r9l","address":"1 Penn Plaza, New York, NY 10119","lat":40.751713,"long":-73.992701},{"name":"West Side Newstand","website":"","categories":"Categories: Newspapers &amp; Magazines,  News Dealers &amp; Newsstands","phone":"(212) 727-7217","geometry":{"type":"Point","coordinates":[-74.006721,40.741369]},"id":"a65bah8z872e","address":"430 W 14th Street, New York, NY 10014","lat":40.741369,"long":-74.006721},{"name":"Western Interior &amp; Design","website":"","categories":"Categories: Magazine Dealers,  News Dealers &amp; Newsstands,  Magazine &amp; Journal Publishers","phone":"(212) 397-0250","geometry":{"type":"Point","coordinates":[-73.982395,40.769272]},"id":"a65bahiayg49","address":"1841 Broadway 700, New York, NY 10023","lat":40.769272,"long":-73.982395},{"name":"Winkreative","website":"","categories":"Categories: Magazine Dealers,  Magazine Back Issues,  News Dealers &amp; Newsstands","phone":"(212) 673-1333","geometry":{"type":"Point","coordinates":[-73.996744,40.725679]},"id":"a65bahc0n04i","address":"611 Broadway, New York, NY 10012","lat":40.725679,"long":-73.996744},{"name":"Women's Media Center","website":"","categories":"Categories: News Dealers &amp; Newsstands,  Newsletters,  Newsletter &amp; Small Publication Production Services","phone":"(212) 563-0680","geometry":{"type":"Point","coordinates":[-73.984703,40.748396]},"id":"a65bah5pyt8y","address":"350 5th Avenue, New York, NY 10118","lat":40.748396,"long":-73.984703},{"name":"Yogi News","website":"","categories":"Categories: Newspapers &amp; Magazines,  News Dealers &amp; Newsstands","phone":"(212) 501-0320","geometry":{"type":"Point","coordinates":[-74.012242,40.707353]},"id":"a65bahfysi23","address":"69 Broadway, New York, NY 10006","lat":40.707353,"long":-74.012242},{"name":"Yon Hap News Agency","website":"","categories":"Categories: News Dealers &amp; Newsstands","phone":"(212) 888-9818","geometry":{"type":"Point","coordinates":[-73.969508,40.748735]},"id":"a65bahdzyyct","address":"405 E 42nd Street, New York, NY 10017","lat":40.748735,"long":-73.969508},{"name":"Yonhap News Agency","website":"","categories":"Categories: News Dealers &amp; Newsstands","phone":"(212) 575-5856","geometry":{"type":"Point","coordinates":[-73.981261,40.756001]},"id":"a65bahh94vzf","address":"56 W 45th Street, New York, NY 10036","lat":40.756001,"long":-73.981261},{"name":"Yorkville Newsstand","website":"","categories":"Categories: News Dealers &amp; Newsstands","phone":"(212) 831-9207","geometry":{"type":"Point","coordinates":[-73.983344,40.74171]},"id":"a65bahecyuug","address":"86 Lexington Avenue, New York, NY 10016","lat":40.74171,"long":-73.983344},{"name":"Youssef's Newstand","website":"","categories":"Categories: News Dealers &amp; Newsstands","phone":"(646) 557-0225","geometry":{"type":"Point","coordinates":[-73.983009,40.769122]},"id":"a65bahl0ztux","address":"30 W 60th Street, New York, NY 10023","lat":40.769122,"long":-73.983009},{"name":"Zahim Newstand","website":"","categories":"Categories: Newspapers &amp; Magazines,  Paper Products Manufacturers &amp; Wholesalers,  News Dealers &amp; Newsstands","phone":"(212) 673-2937","geometry":{"type":"Point","coordinates":[-73.990379,40.735939]},"id":"a65bahg2ph76","address":"Union Square Park, Manhattan, NY 10009","lat":40.735939,"long":-73.990379},{"name":"Zashim Newstand","website":"","categories":"Categories: News Dealers &amp; Newsstands","phone":"(212) 254-4584","geometry":{"type":"Point","coordinates":[-73.989094,40.735]},"id":"a65baha8131a","address":"East 15, New York, NY 10001","lat":40.735,"long":-73.989094},{"name":"Zashim Newstand","website":"","categories":"Categories: News Dealers &amp; Newsstands","phone":"(212) 254-4584","geometry":{"type":"Point","coordinates":[-73.989094,40.735]},"id":"a65bahk6dut4","address":"E 15th Street, New York, NY 10003","lat":40.735,"long":-73.989094}],"geometry_types":["point"],"unique_name":null,"name":"Superpages.com, Newsstands, New York City, 2008","feature_count":425,"state":"complete","published":"2008-06-05T12:00:00Z","description":"This is a dataset of 424 newsstands in New York City compiled from superpages.com. Attributes name, address, business categories and phone number. Please not that this is not all of the newsstands in New York City and that some of the newsstands listed may not actually be a newsstand or may no longer be in business. \n","stats":{"lat":{"max": 40.865766, "mean": 40.6505417576471, "variance": 3.90729099286917, "stdev": 1.97668687274165, "min": 0, "median": 40.750355},"long":{"max": 0, "mean": -73.811968042353, "variance": 12.8801292547529, "stdev": 3.58888969665451, "min": -74.014721, "median": -73.986397}},"next_feature":null,"is_raster":false,"pagination":{"sort":null,"start":0,"limit":1000000,"total":425},"short_classification":"Y","is_temporal":false,"author":{"metadata":"","url":"http://yellowpages.superpages.com/listings.jsp?SRC=portals&C=News+Dealers+%26+Newsstands&T=New+York&S=NY&PS=22&OO=1&PP=N&STYPE=S&F=1&L=New+York+NY&CID=00000546250&CP=Shopping%5EBooks%2C+Magazines%2C+%26+Publications%5ENewspapers+%26+Magazines%5ENews+Deale","contact_name":"Emily Sciarillo","contact_address":"","source":"superpages.com","contact_phone":""},"source":"http://yellowpages.superpages.com/listings.jsp?SRC=portals&C=News+Dealers+%26+Newsstands&T=New+York&S=NY&PS=22&OO=1&PP=N&STYPE=S&F=1&L=New+York+NY&CID=00000546250&CP=Shopping%5EBooks%2C+Magazines%2C+%26+Publications%5ENewspapers+%26+Magazines%5ENews+Deale","data_type":"Dataset","permissions":[{"group_id":"everyone","permissions":{"download":true,"view":true}}],"classification":null,"tags":"media,newsstands","id":2017}