{"type":"FeatureCollection","data_type":"Dataset","url_type":null,"permissions":[{"permissions":{"download":true,"view":true},"group_id":"everyone"}],"classification":null,"title":"20120201 Security Operations - Kenya","count":149,"stream_id":201790,"contributor":{"url":"http://geocommons.com/users/33152","name":"rberntsson"},"data_attributes":null,"calculation_params":null,"icon_link":null,"link":"http://geocommons.com/overlays/201790.json","extent":[36.8167,-4.05,39.6667,1.0],"geometry_types":["point"],"unique_name":null,"name":"20120201 Security Operations - Kenya","feature_count":149,"description":"","next_feature":null,"is_raster":false,"short_classification":"Y","stats":{"latitude":{"max":1.0,"mean":-1.2658331574,"variance":2.86985885760242,"stdev":1.69406577723606,"min":-4.050000191,"median":-1.283332944},"event id":{"max":3938945,"mean":1627272.08724832,"variance":1116589844638.81,"stdev":1056688.14919011,"min":1002549,"median":1065279},"longitude":{"max":39.66666794,"mean":37.6824996955,"variance":1.24040917693837,"stdev":1.11373658328097,"min":36.81666565,"median":36.81666565},"total deaths":{"max":36,"mean":1.71538461538462,"variance":33.1509242695289,"stdev":5.75768393275707,"min":0,"median":0},"total injuries":{"max":23,"mean":0.203125,"variance":4.19463582677165,"stdev":2.04808101079319,"min":0,"median":0}},"features":[{"properties":{"city":"Mombasa","event type":"Police Operation","latitude":-4.050000191,"event id":1002549,"event date":"26-May","country":"Kenya","event title":null,"longitude":39.66666794,"id":"a66pnhykb8og","total deaths":null,"group":"Unknown","total injuries":null,"state":"Coast"},"type":"Feature","geometry":{"type":"Point","coordinates":[39.66666794,-4.050000191]}},{"properties":{"city":"Unknown","event type":"Police Operation","latitude":null,"event id":1013281,"event date":"19-Feb","country":"Kenya","event title":null,"longitude":null,"id":"a66pni7x49fs","total deaths":null,"group":"Al Qaeda (Afghanistan)","total injuries":null,"state":"North Eastern"},"type":"Feature","geometry":null},{"properties":{"city":"Mombasa","event type":"Police Operation","latitude":-4.050000191,"event id":1013997,"event date":"13-May","country":"Kenya","event title":null,"longitude":39.66666794,"id":"a66pnid5pekz","total deaths":null,"group":"Unknown","total injuries":null,"state":"Coast"},"type":"Feature","geometry":{"type":"Point","coordinates":[39.66666794,-4.050000191]}},{"properties":{"city":"Mombasa","event type":"Police Operation","latitude":-4.050000191,"event id":1019711,"event date":"15-Jul","country":"Kenya","event title":null,"longitude":39.66666794,"id":"a66pni2q3xtu","total deaths":null,"group":"Unknown","total injuries":null,"state":"Coast"},"type":"Feature","geometry":{"type":"Point","coordinates":[39.66666794,-4.050000191]}},{"properties":{"city":"Unknown","event type":"Police Operation","latitude":1.0,"event id":1022144,"event date":null,"country":"Kenya","event title":null,"longitude":38.0,"id":"a66pni10k6lg","total deaths":null,"group":"Unknown","total injuries":null,"state":"Unknown"},"type":"Feature","geometry":{"type":"Point","coordinates":[38.0,1.0]}},{"properties":{"city":"Nairobi","event type":"Police Operation","latitude":-1.283332944,"event id":1023404,"event date":"28-Jan","country":"Kenya","event title":null,"longitude":36.81666565,"id":"a66pni9ck8gj","total deaths":null,"group":"Unknown","total injuries":null,"state":"Nairobi Area"},"type":"Feature","geometry":{"type":"Point","coordinates":[36.81666565,-1.283332944]}},{"properties":{"city":"Nairobi","event type":"Police Operation","latitude":-1.283332944,"event id":1023401,"event date":"25-Jan","country":"Kenya","event title":null,"longitude":36.81666565,"id":"a66pnidjbal0","total deaths":null,"group":"Popular Front for the Liberation of Palestine (PFLP)","total injuries":null,"state":"Nairobi Area"},"type":"Feature","geometry":{"type":"Point","coordinates":[36.81666565,-1.283332944]}},{"properties":{"city":"Nairobi","event type":"Police Operation","latitude":-1.283332944,"event id":1023997,"event date":"15-Feb","country":"Kenya","event title":null,"longitude":36.81666565,"id":"a66pni9rzeuh","total deaths":null,"group":"Kurdistan Workers Party (PKK / Kongra GEL) - Turkey","total injuries":null,"state":"Nairobi Area"},"type":"Feature","geometry":{"type":"Point","coordinates":[36.81666565,-1.283332944]}},{"properties":{"city":"Nairobi","event type":"Police Operation","latitude":-1.283332944,"event id":1025299,"event date":"1-Jan","country":"Kenya","event title":null,"longitude":36.81666565,"id":"a66pni0yex1m","total deaths":null,"group":"Al Qaeda Group of Jihad in the Country of Two Rivers (Iraq)","total injuries":null,"state":"Nairobi Area"},"type":"Feature","geometry":{"type":"Point","coordinates":[36.81666565,-1.283332944]}},{"properties":{"city":"Unknown","event type":"Police Operation","latitude":null,"event id":1025500,"event date":"10-Feb","country":"Kenya","event title":null,"longitude":null,"id":"a66pni0rw8o0","total deaths":null,"group":"Unknown","total injuries":null,"state":"Nairobi Area"},"type":"Feature","geometry":null},{"properties":{"city":"Nairobi","event type":"Police Operation","latitude":-1.283332944,"event id":1025492,"event date":"5-Jan","country":"Kenya","event title":null,"longitude":36.81666565,"id":"a66pni0iwjd6","total deaths":null,"group":"Al Qaeda Group of Jihad in the Country of Two Rivers (Iraq)","total injuries":null,"state":"Nairobi Area"},"type":"Feature","geometry":{"type":"Point","coordinates":[36.81666565,-1.283332944]}},{"properties":{"city":"Unknown","event type":"Police Operation","latitude":1.0,"event id":1026032,"event date":"11-Feb","country":"Kenya","event title":null,"longitude":38.0,"id":"a66pni8scg62","total deaths":null,"group":"Unknown","total injuries":null,"state":"Unknown"},"type":"Feature","geometry":{"type":"Point","coordinates":[38.0,1.0]}},{"properties":{"city":"Turkana (Lodwar)","event type":"Military Operation","latitude":null,"event id":1028898,"event date":"20-Jul","country":"Kenya","event title":null,"longitude":null,"id":"a66pnib4ugb6","total deaths":18,"group":"Unknown","total injuries":null,"state":"Western"},"type":"Feature","geometry":null},{"properties":{"city":"Mombasa","event type":"Police Operation","latitude":-4.050000191,"event id":1032408,"event date":"20-Jul","country":"Kenya","event title":null,"longitude":39.66666794,"id":"a66pnhzzmtl4","total deaths":null,"group":"Lashkar-e-Tayyiba (LeT) - Pakistan &amp; India","total injuries":null,"state":"Coast"},"type":"Feature","geometry":{"type":"Point","coordinates":[39.66666794,-4.050000191]}},{"properties":{"city":"Liboi","event type":"Police Operation","latitude":null,"event id":1046644,"event date":null,"country":"Kenya","event title":null,"longitude":null,"id":"a66pnialankn","total deaths":null,"group":"Unknown","total injuries":null,"state":"North Eastern"},"type":"Feature","geometry":null},{"properties":{"city":"Garissa","event type":"Military Operation","latitude":null,"event id":1046580,"event date":"6-Jan","country":"Kenya","event title":null,"longitude":null,"id":"a66pni4j5mms","total deaths":0,"group":"Oromo Liberation Front (OLF) - Ethiopia","total injuries":0,"state":"Coast"},"type":"Feature","geometry":null},{"properties":{"city":"Kiunga","event type":"Police Operation","latitude":null,"event id":1046596,"event date":"10-Jan","country":"Kenya","event title":null,"longitude":null,"id":"a66pni83cgt2","total deaths":0,"group":"Unknown","total injuries":0,"state":"Coast"},"type":"Feature","geometry":null},{"properties":{"city":"Nairobi","event type":"Military Operation","latitude":-1.283332944,"event id":1046567,"event date":"25-Dec","country":"Kenya","event title":null,"longitude":36.81666565,"id":"a66pni5fte8i","total deaths":0,"group":"Mungiki Sect (Kenya)","total injuries":0,"state":"Nairobi Area"},"type":"Feature","geometry":{"type":"Point","coordinates":[36.81666565,-1.283332944]}},{"properties":{"city":"Kiunga","event type":"Police Operation","latitude":null,"event id":1046758,"event date":"9-Jan","country":"Kenya","event title":null,"longitude":null,"id":"a66pni1t3uy0","total deaths":0,"group":"Unknown","total injuries":0,"state":"Coast"},"type":"Feature","geometry":null},{"properties":{"city":"Garissa","event type":"Police Operation","latitude":null,"event id":1046883,"event date":"15-Jan","country":"Kenya","event title":null,"longitude":null,"id":"a66pni5hwar2","total deaths":0,"group":"Unknown","total injuries":0,"state":"Coast"},"type":"Feature","geometry":null},{"properties":{"city":"Dadaab","event type":"Police Operation","latitude":null,"event id":1046570,"event date":"7-Jan","country":"Kenya","event title":null,"longitude":null,"id":"a66pni8jy0t0","total deaths":0,"group":"Oromo Liberation Front (OLF) - Ethiopia","total injuries":0,"state":"North Eastern"},"type":"Feature","geometry":null},{"properties":{"city":"Kiunga","event type":"Police Operation","latitude":null,"event id":1046742,"event date":"11-Jan","country":"Kenya","event title":null,"longitude":null,"id":"a66pni3cex68","total deaths":0,"group":"Al Qaeda (Afghanistan)","total injuries":0,"state":"Coast"},"type":"Feature","geometry":null},{"properties":{"city":"Nairobi","event type":"Police Operation","latitude":-1.283332944,"event id":1046746,"event date":"6-Jan","country":"Kenya","event title":null,"longitude":36.81666565,"id":"a66pniapykn9","total deaths":0,"group":"Unknown","total injuries":0,"state":"Nairobi Area"},"type":"Feature","geometry":{"type":"Point","coordinates":[36.81666565,-1.283332944]}},{"properties":{"city":"Nairobi","event type":"Police Operation","latitude":-1.283332944,"event id":1046975,"event date":"15-Jan","country":"Kenya","event title":null,"longitude":36.81666565,"id":"a66pni9git7r","total deaths":0,"group":"Unknown","total injuries":0,"state":"Nairobi Area"},"type":"Feature","geometry":{"type":"Point","coordinates":[36.81666565,-1.283332944]}},{"properties":{"city":"Mombasa","event type":"Police Operation","latitude":-4.050000191,"event id":1046970,"event date":"16-Jan","country":"Kenya","event title":null,"longitude":39.66666794,"id":"a66pni9qy2ls","total deaths":0,"group":"Union of Islamic Courts (ICU)","total injuries":0,"state":"Coast"},"type":"Feature","geometry":{"type":"Point","coordinates":[39.66666794,-4.050000191]}},{"properties":{"city":"Mombasa","event type":"Police Operation","latitude":-4.050000191,"event id":1047086,"event date":"17-Jan","country":"Kenya","event title":null,"longitude":39.66666794,"id":"a66pni6m8mm8","total deaths":0,"group":"Unknown","total injuries":0,"state":"Coast"},"type":"Feature","geometry":{"type":"Point","coordinates":[39.66666794,-4.050000191]}},{"properties":{"city":"Unknown","event type":"Police Operation","latitude":1.0,"event id":1047098,"event date":"17-Jan","country":"Kenya","event title":null,"longitude":38.0,"id":"a66pnidecndb","total deaths":0,"group":"Union of Islamic Courts (ICU)","total injuries":0,"state":"Unknown"},"type":"Feature","geometry":{"type":"Point","coordinates":[38.0,1.0]}},{"properties":{"city":"Kiunga","event type":"Police Operation","latitude":null,"event id":1047237,"event date":"24-Dec","country":"Kenya","event title":null,"longitude":null,"id":"a66pni3dxygj","total deaths":0,"group":"Unknown","total injuries":0,"state":"Coast"},"type":"Feature","geometry":null},{"properties":{"city":"Kiunga","event type":"Police Operation","latitude":null,"event id":1047239,"event date":"20-Jan","country":"Kenya","event title":null,"longitude":null,"id":"a66pni61xdpb","total deaths":0,"group":"Unknown","total injuries":0,"state":"Coast"},"type":"Feature","geometry":null},{"properties":{"city":"Wajir","event type":"Military Operation","latitude":null,"event id":1047070,"event date":"22-Jan","country":"Kenya","event title":null,"longitude":null,"id":"a66pni1d9thk","total deaths":0,"group":"Council of Islamic Courts","total injuries":0,"state":"North Eastern"},"type":"Feature","geometry":null},{"properties":{"city":"Unknown","event type":"Police Operation","latitude":1.0,"event id":1048260,"event date":"2-Feb","country":"Kenya","event title":null,"longitude":38.0,"id":"a66pni4ss9tm","total deaths":0,"group":"Council of Islamic Courts","total injuries":0,"state":"Unknown"},"type":"Feature","geometry":{"type":"Point","coordinates":[38.0,1.0]}},{"properties":{"city":"Nairobi","event type":"Police Operation","latitude":-1.283332944,"event id":1048473,"event date":"10-Feb","country":"Kenya","event title":null,"longitude":36.81666565,"id":"a66pnhz7sl6c","total deaths":1,"group":"Mungiki Sect (Kenya)","total injuries":0,"state":"Nairobi Area"},"type":"Feature","geometry":{"type":"Point","coordinates":[36.81666565,-1.283332944]}},{"properties":{"city":"Unknown","event type":"Police Operation","latitude":1.0,"event id":1048831,"event date":"11-Feb","country":"Kenya","event title":null,"longitude":38.0,"id":"a66pnic2mfrn","total deaths":0,"group":"Unknown","total injuries":0,"state":"Unknown"},"type":"Feature","geometry":{"type":"Point","coordinates":[38.0,1.0]}},{"properties":{"city":"Unknown","event type":"Police Operation","latitude":1.0,"event id":1049020,"event date":"21-Jan","country":"Kenya","event title":"Alleged U.S. Terrorist, Daniel Joseph Maldonado, Captured in Kenya","longitude":38.0,"id":"a66pnhzh80lt","total deaths":0,"group":"Unknown","total injuries":0,"state":"Unknown"},"type":"Feature","geometry":{"type":"Point","coordinates":[38.0,1.0]}},{"properties":{"city":"Garissa","event type":"Police Operation","latitude":null,"event id":1051725,"event date":"8-Mar","country":"Kenya","event title":null,"longitude":null,"id":"a66pni2wxhmx","total deaths":0,"group":"Unknown","total injuries":0,"state":"Coast"},"type":"Feature","geometry":null},{"properties":{"city":"Nairobi","event type":"Police Operation","latitude":-1.283332944,"event id":1052229,"event date":"19-Mar","country":"Kenya","event title":null,"longitude":36.81666565,"id":"a66pnhyzy5um","total deaths":0,"group":"Unknown","total injuries":0,"state":"Nairobi Area"},"type":"Feature","geometry":{"type":"Point","coordinates":[36.81666565,-1.283332944]}},{"properties":{"city":"Unknown","event type":"Police Operation","latitude":1.0,"event id":1054810,"event date":"10-Apr","country":"Kenya","event title":null,"longitude":38.0,"id":"a66pnibt954o","total deaths":13,"group":"Unknown","total injuries":23,"state":"Unknown"},"type":"Feature","geometry":{"type":"Point","coordinates":[38.0,1.0]}},{"properties":{"city":"Mombasa","event type":"Police Operation","latitude":-4.050000191,"event id":1056412,"event date":"25-Apr","country":"Kenya","event title":null,"longitude":39.66666794,"id":"a66pnicmdbjx","total deaths":0,"group":"Unknown","total injuries":0,"state":"Coast"},"type":"Feature","geometry":{"type":"Point","coordinates":[39.66666794,-4.050000191]}},{"properties":{"city":"Nairobi","event type":"Police Operation","latitude":-1.283332944,"event id":1056469,"event date":"21-Apr","country":"Kenya","event title":null,"longitude":36.81666565,"id":"a66pni2zg4ax","total deaths":0,"group":"Unknown","total injuries":0,"state":"Nairobi Area"},"type":"Feature","geometry":{"type":"Point","coordinates":[36.81666565,-1.283332944]}},{"properties":{"city":"Maragua","event type":"Police Operation","latitude":null,"event id":1056459,"event date":"24-Apr","country":"Kenya","event title":null,"longitude":null,"id":"a66pni83dy4t","total deaths":0,"group":"Mungiki Sect (Kenya)","total injuries":0,"state":"Central"},"type":"Feature","geometry":null},{"properties":{"city":"Mombasa","event type":"Police Operation","latitude":-4.050000191,"event id":1056468,"event date":"24-Apr","country":"Kenya","event title":null,"longitude":39.66666794,"id":"a66pni6t3oi4","total deaths":0,"group":"Unknown","total injuries":0,"state":"Coast"},"type":"Feature","geometry":{"type":"Point","coordinates":[39.66666794,-4.050000191]}},{"properties":{"city":"Thika","event type":"Police Operation","latitude":null,"event id":1056807,"event date":"25-Apr","country":"Kenya","event title":null,"longitude":null,"id":"a66pnhz4pvn4","total deaths":0,"group":"Mungiki Sect (Kenya)","total injuries":0,"state":"Central"},"type":"Feature","geometry":null},{"properties":{"city":"Goraya","event type":"Police Operation","latitude":null,"event id":1056819,"event date":"25-Apr","country":"Kenya","event title":null,"longitude":null,"id":"a66pnie0xdxz","total deaths":0,"group":"Al Qaeda (Afghanistan)","total injuries":0,"state":"Coast"},"type":"Feature","geometry":null},{"properties":{"city":"Kiambu","event type":"Police Operation","latitude":null,"event id":1056815,"event date":"24-Apr","country":"Kenya","event title":null,"longitude":null,"id":"a66pnidvef00","total deaths":1,"group":"Mungiki Sect (Kenya)","total injuries":null,"state":"Central"},"type":"Feature","geometry":null},{"properties":{"city":"Nairobi","event type":"Police Operation","latitude":-1.283332944,"event id":1059881,"event date":"22-May","country":"Kenya","event title":null,"longitude":36.81666565,"id":"a66pniaysc8d","total deaths":0,"group":"Unknown","total injuries":0,"state":"Nairobi Area"},"type":"Feature","geometry":{"type":"Point","coordinates":[36.81666565,-1.283332944]}},{"properties":{"city":"Nairobi","event type":"Police Operation","latitude":-1.283332944,"event id":1059635,"event date":"21-May","country":"Kenya","event title":null,"longitude":36.81666565,"id":"a66pnic0b3m0","total deaths":0,"group":"Mungiki Sect (Kenya)","total injuries":0,"state":"Nairobi Area"},"type":"Feature","geometry":{"type":"Point","coordinates":[36.81666565,-1.283332944]}},{"properties":{"city":"Nairobi","event type":"Police Operation","latitude":-1.283332944,"event id":1059661,"event date":"22-May","country":"Kenya","event title":null,"longitude":36.81666565,"id":"a66pni894lp7","total deaths":0,"group":"Mungiki Sect (Kenya)","total injuries":0,"state":"Nairobi Area"},"type":"Feature","geometry":{"type":"Point","coordinates":[36.81666565,-1.283332944]}},{"properties":{"city":"Unknown","event type":"Police Operation","latitude":1.0,"event id":1059831,"event date":"6-Jul","country":"Kenya","event title":null,"longitude":38.0,"id":"a66pnichk58k","total deaths":0,"group":"Kurdistan Workers Party (PKK / Kongra GEL) - Turkey","total injuries":0,"state":"Unknown"},"type":"Feature","geometry":{"type":"Point","coordinates":[38.0,1.0]}},{"properties":{"city":"Nairobi","event type":"Police Operation","latitude":-1.283332944,"event id":1059960,"event date":"25-May","country":"Kenya","event title":null,"longitude":36.81666565,"id":"a66pnhzvlu4y","total deaths":0,"group":"Mungiki Sect (Kenya)","total injuries":0,"state":"Nairobi Area"},"type":"Feature","geometry":{"type":"Point","coordinates":[36.81666565,-1.283332944]}},{"properties":{"city":"Nairobi","event type":"Police Operation","latitude":-1.283332944,"event id":1060097,"event date":"27-May","country":"Kenya","event title":null,"longitude":36.81666565,"id":"a66pnidl6vf9","total deaths":0,"group":"Unknown","total injuries":0,"state":"Nairobi Area"},"type":"Feature","geometry":{"type":"Point","coordinates":[36.81666565,-1.283332944]}},{"properties":{"city":"Mombasa","event type":"Police Operation","latitude":-4.050000191,"event id":1060402,"event date":"25-May","country":"Kenya","event title":null,"longitude":39.66666794,"id":"a66pni6htsi0","total deaths":0,"group":"Unknown","total injuries":0,"state":"Coast"},"type":"Feature","geometry":{"type":"Point","coordinates":[39.66666794,-4.050000191]}},{"properties":{"city":"Unknown","event type":"Police Operation","latitude":1.0,"event id":1061175,"event date":"1-Jun","country":"Kenya","event title":null,"longitude":38.0,"id":"a66pni68c2yq","total deaths":0,"group":"Mungiki Sect (Kenya)","total injuries":0,"state":"Unknown"},"type":"Feature","geometry":{"type":"Point","coordinates":[38.0,1.0]}},{"properties":{"city":"Maranga","event type":"Police Operation","latitude":null,"event id":1061164,"event date":"31-May","country":"Kenya","event title":null,"longitude":null,"id":"a66pni8he3rz","total deaths":0,"group":"Mungiki Sect (Kenya)","total injuries":0,"state":"Central"},"type":"Feature","geometry":null},{"properties":{"city":"Mathari","event type":"Police Operation","latitude":null,"event id":1061270,"event date":"4-May","country":"Kenya","event title":null,"longitude":null,"id":"a66pnie04shq","total deaths":21,"group":"Mungiki Sect (Kenya)","total injuries":0,"state":"Central"},"type":"Feature","geometry":null},{"properties":{"city":"Kiambu","event type":"Police Operation","latitude":null,"event id":1061603,"event date":"8-Jun","country":"Kenya","event title":null,"longitude":null,"id":"a66pnhya4g7b","total deaths":0,"group":"Mungiki Sect (Kenya)","total injuries":0,"state":"Central"},"type":"Feature","geometry":null},{"properties":{"city":"Maragua","event type":"Police Operation","latitude":null,"event id":1061804,"event date":"7-Jun","country":"Kenya","event title":null,"longitude":null,"id":"a66pni7yr2hz","total deaths":0,"group":"Mungiki Sect (Kenya)","total injuries":0,"state":"Central"},"type":"Feature","geometry":null},{"properties":{"city":"Nairobi","event type":"Police Operation","latitude":-1.283332944,"event id":1062348,"event date":"12-Jun","country":"Kenya","event title":null,"longitude":36.81666565,"id":"a66pni0a7sb9","total deaths":0,"group":"Unknown","total injuries":0,"state":"Nairobi Area"},"type":"Feature","geometry":{"type":"Point","coordinates":[36.81666565,-1.283332944]}},{"properties":{"city":"Mombasa","event type":"Police Operation","latitude":-4.050000191,"event id":1063048,"event date":"18-Jun","country":"Kenya","event title":null,"longitude":39.66666794,"id":"a66pni0ts7z5","total deaths":0,"group":"Mungiki Sect (Kenya)","total injuries":0,"state":"Coast"},"type":"Feature","geometry":{"type":"Point","coordinates":[39.66666794,-4.050000191]}},{"properties":{"city":"Kwale","event type":"Police Operation","latitude":null,"event id":1063104,"event date":"19-Jun","country":"Kenya","event title":null,"longitude":null,"id":"a66pnid31ec6","total deaths":1,"group":"Unknown","total injuries":0,"state":"Coast"},"type":"Feature","geometry":null},{"properties":{"city":"Nairobi","event type":"Police Operation","latitude":-1.283332944,"event id":1063337,"event date":"20-Jun","country":"Kenya","event title":null,"longitude":36.81666565,"id":"a66pnhzql5hj","total deaths":30,"group":"Mungiki Sect (Kenya)","total injuries":0,"state":"Nairobi Area"},"type":"Feature","geometry":{"type":"Point","coordinates":[36.81666565,-1.283332944]}},{"properties":{"city":"Nairobi","event type":"Police Operation","latitude":-1.283332944,"event id":1063554,"event date":"26-Jun","country":"Kenya","event title":null,"longitude":36.81666565,"id":"a66pnieen379","total deaths":3,"group":"Mungiki Sect (Kenya)","total injuries":0,"state":"Nairobi Area"},"type":"Feature","geometry":{"type":"Point","coordinates":[36.81666565,-1.283332944]}},{"properties":{"city":"Nairobi","event type":"Police Operation","latitude":-1.283332944,"event id":1063456,"event date":"24-Jun","country":"Kenya","event title":null,"longitude":36.81666565,"id":"a66pni8yq6of","total deaths":5,"group":"Mungiki Sect (Kenya)","total injuries":0,"state":"Nairobi Area"},"type":"Feature","geometry":{"type":"Point","coordinates":[36.81666565,-1.283332944]}},{"properties":{"city":"Thika","event type":"Police Operation","latitude":null,"event id":1063459,"event date":"24-Jun","country":"Kenya","event title":null,"longitude":null,"id":"a66pnhzaytku","total deaths":0,"group":"Mungiki Sect (Kenya)","total injuries":0,"state":"Central"},"type":"Feature","geometry":null},{"properties":{"city":"Nairobi","event type":"Police Operation","latitude":-1.283332944,"event id":1063464,"event date":"22-Jun","country":"Kenya","event title":null,"longitude":36.81666565,"id":"a66pni9jy9w6","total deaths":1,"group":"Mungiki Sect (Kenya)","total injuries":0,"state":"Nairobi Area"},"type":"Feature","geometry":{"type":"Point","coordinates":[36.81666565,-1.283332944]}},{"properties":{"city":"Mandera","event type":"Military Operation","latitude":null,"event id":1063861,"event date":"19-Jun","country":"Kenya","event title":null,"longitude":null,"id":"a66pni77wzbi","total deaths":0,"group":"Unknown","total injuries":0,"state":"North Eastern"},"type":"Feature","geometry":null},{"properties":{"city":"Kagumo","event type":"Police Operation","latitude":null,"event id":1063968,"event date":"29-Jun","country":"Kenya","event title":null,"longitude":null,"id":"a66pni22iv2i","total deaths":0,"group":"Mungiki Sect (Kenya)","total injuries":0,"state":"Central"},"type":"Feature","geometry":null},{"properties":{"city":"Nairobi","event type":"Police Operation","latitude":-1.283332944,"event id":1064022,"event date":"29-Jun","country":"Kenya","event title":null,"longitude":36.81666565,"id":"a66pnhybe6i5","total deaths":1,"group":"Mungiki Sect (Kenya)","total injuries":0,"state":"Nairobi Area"},"type":"Feature","geometry":{"type":"Point","coordinates":[36.81666565,-1.283332944]}},{"properties":{"city":"Kibwezi","event type":"Police Operation","latitude":null,"event id":1063890,"event date":"27-Jun","country":"Kenya","event title":null,"longitude":null,"id":"a66pni0mpzfj","total deaths":0,"group":"Unknown","total injuries":0,"state":"Eastern"},"type":"Feature","geometry":null},{"properties":{"city":"Nairobi","event type":"Police Operation","latitude":-1.283332944,"event id":1064038,"event date":"2-Jul","country":"Kenya","event title":null,"longitude":36.81666565,"id":"a66pnhzqrda8","total deaths":7,"group":"Mungiki Sect (Kenya)","total injuries":0,"state":"Nairobi Area"},"type":"Feature","geometry":{"type":"Point","coordinates":[36.81666565,-1.283332944]}},{"properties":{"city":"Nyeri","event type":"Police Operation","latitude":null,"event id":1064767,"event date":"15-Jul","country":"Kenya","event title":null,"longitude":null,"id":"a66pni0z3od0","total deaths":1,"group":"Mungiki Sect (Kenya)","total injuries":0,"state":"Central"},"type":"Feature","geometry":null},{"properties":{"city":"Nairobi","event type":"Police Operation","latitude":-1.283332944,"event id":1064932,"event date":"15-Jul","country":"Kenya","event title":null,"longitude":36.81666565,"id":"a66pni9y9790","total deaths":2,"group":"Unknown","total injuries":0,"state":"Nairobi Area"},"type":"Feature","geometry":{"type":"Point","coordinates":[36.81666565,-1.283332944]}},{"properties":{"city":"Nairobi","event type":"Police Operation","latitude":-1.283332944,"event id":1064934,"event date":"15-Jul","country":"Kenya","event title":null,"longitude":36.81666565,"id":"a66pnicxfxq6","total deaths":0,"group":"Unknown","total injuries":0,"state":"Nairobi Area"},"type":"Feature","geometry":{"type":"Point","coordinates":[36.81666565,-1.283332944]}},{"properties":{"city":"Kiambu","event type":"Police Operation","latitude":null,"event id":1065279,"event date":"20-Jul","country":"Kenya","event title":null,"longitude":null,"id":"a66pnia7uv1u","total deaths":3,"group":"Mungiki Sect (Kenya)","total injuries":0,"state":"Central"},"type":"Feature","geometry":null},{"properties":{"city":"Kiambu","event type":"Police Operation","latitude":null,"event id":1065276,"event date":"20-Jul","country":"Kenya","event title":null,"longitude":null,"id":"a66pni8gidyi","total deaths":1,"group":"Mungiki Sect (Kenya)","total injuries":0,"state":"Central"},"type":"Feature","geometry":null},{"properties":{"city":"Unknown","event type":"Police Operation","latitude":1.0,"event id":1065306,"event date":"20-Jul","country":"Kenya","event title":null,"longitude":38.0,"id":"a66pni2abky3","total deaths":0,"group":"Unknown","total injuries":0,"state":"Unknown"},"type":"Feature","geometry":{"type":"Point","coordinates":[38.0,1.0]}},{"properties":{"city":"Kiunga","event type":"Police Operation","latitude":null,"event id":1065254,"event date":"24-Jan","country":"Kenya","event title":null,"longitude":null,"id":"a66pni0v9g0q","total deaths":0,"group":"Al Qaeda (Afghanistan)","total injuries":0,"state":"Coast"},"type":"Feature","geometry":null},{"properties":{"city":"Murang'a","event type":"Police Operation","latitude":null,"event id":1065312,"event date":"23-Jul","country":"Kenya","event title":null,"longitude":null,"id":"a66pni3z16ep","total deaths":0,"group":"Mungiki Sect (Kenya)","total injuries":0,"state":"Central"},"type":"Feature","geometry":null},{"properties":{"city":"Unknown","event type":"Police Operation","latitude":1.0,"event id":1065309,"event date":"18-Jul","country":"Kenya","event title":null,"longitude":38.0,"id":"a66pni3rs5qc","total deaths":0,"group":"Unknown","total injuries":0,"state":"Unknown"},"type":"Feature","geometry":{"type":"Point","coordinates":[38.0,1.0]}},{"properties":{"city":"Unknown","event type":"Police Operation","latitude":1.0,"event id":1067398,"event date":"21-Aug","country":"Kenya","event title":null,"longitude":38.0,"id":"a66pni4y41ry","total deaths":0,"group":"Mungiki Sect (Kenya)","total injuries":0,"state":"Unknown"},"type":"Feature","geometry":{"type":"Point","coordinates":[38.0,1.0]}},{"properties":{"city":"Kaimugul","event type":"Police Operation","latitude":null,"event id":1070435,"event date":"19-Oct","country":"Kenya","event title":null,"longitude":null,"id":"a66pni2zy0dt","total deaths":0,"group":"Sabaot Land Defence Forces (SLDF) - Kenya","total injuries":0,"state":"Rift Valley"},"type":"Feature","geometry":null},{"properties":{"city":"Mount Eljon","event type":"Police Operation","latitude":null,"event id":1074142,"event date":"11-Jan","country":"Kenya","event title":null,"longitude":null,"id":"a66pnibw57hh","total deaths":0,"group":"Sabaot Land Defence Forces (SLDF) - Kenya","total injuries":0,"state":"Western"},"type":"Feature","geometry":null},{"properties":{"city":"Unknown","event type":"Police Operation","latitude":null,"event id":1075876,"event date":"1-Dec","country":"Kenya","event title":null,"longitude":null,"id":"a66pni096amg","total deaths":0,"group":"Oromo Liberation Front (OLF) - Ethiopia","total injuries":0,"state":"Eastern"},"type":"Feature","geometry":null},{"properties":{"city":"Nairobi","event type":"Police Operation","latitude":-1.283332944,"event id":1082804,"event date":"19-Jan","country":"Kenya","event title":null,"longitude":36.81666565,"id":"a66pni6gvyv9","total deaths":null,"group":"Unknown","total injuries":null,"state":"Nairobi Area"},"type":"Feature","geometry":{"type":"Point","coordinates":[36.81666565,-1.283332944]}},{"properties":{"city":"Mombasa","event type":"Police Operation","latitude":-4.050000191,"event id":1082922,"event date":"12-Dec","country":"Kenya","event title":null,"longitude":39.66666794,"id":"a66pni1cs8iv","total deaths":null,"group":"Unknown","total injuries":null,"state":"Coast"},"type":"Feature","geometry":{"type":"Point","coordinates":[39.66666794,-4.050000191]}},{"properties":{"city":"Nakuru","event type":"Police Operation","latitude":null,"event id":1084315,"event date":"26-Jan","country":"Kenya","event title":null,"longitude":null,"id":"a66pni92vgrc","total deaths":32,"group":"Unknown","total injuries":0,"state":"Unknown"},"type":"Feature","geometry":null},{"properties":{"city":"Mombasa","event type":"Police Operation","latitude":-4.050000191,"event id":1094582,"event date":"12-Feb","country":"Kenya","event title":null,"longitude":39.66666794,"id":"a66pniceyiow","total deaths":0,"group":"Unknown","total injuries":0,"state":"Coast"},"type":"Feature","geometry":{"type":"Point","coordinates":[39.66666794,-4.050000191]}},{"properties":{"city":"Unknown","event type":"Police Operation","latitude":1.0,"event id":1098145,"event date":"6-Mar","country":"Kenya","event title":null,"longitude":38.0,"id":"a66pni1e6zz0","total deaths":2,"group":"Sabaot Land Defence Forces (SLDF) - Kenya","total injuries":0,"state":"Unknown"},"type":"Feature","geometry":{"type":"Point","coordinates":[38.0,1.0]}},{"properties":{"city":"Unknown","event type":"Police Operation","latitude":null,"event id":1099302,"event date":"9-Mar","country":"Kenya","event title":null,"longitude":null,"id":"a66pni1jbstv","total deaths":0,"group":"Sabaot Land Defence Forces (SLDF) - Kenya","total injuries":0,"state":"Rift Valley"},"type":"Feature","geometry":null},{"properties":{"city":"Nairobi","event type":"Military Operation","latitude":-1.283332944,"event id":1099198,"event date":"5-Mar","country":"Kenya","event title":null,"longitude":36.81666565,"id":"a66pni8hymhu","total deaths":0,"group":"Sabaot Land Defence Forces (SLDF) - Kenya","total injuries":0,"state":"Nairobi Area"},"type":"Feature","geometry":{"type":"Point","coordinates":[36.81666565,-1.283332944]}},{"properties":{"city":"Nairobi","event type":"Military Operation","latitude":-1.283332944,"event id":1099570,"event date":"11-Mar","country":"Kenya","event title":null,"longitude":36.81666565,"id":"a66pniauhsxc","total deaths":0,"group":"Sabaot Land Defence Forces (SLDF) - Kenya","total injuries":0,"state":"Nairobi Area"},"type":"Feature","geometry":{"type":"Point","coordinates":[36.81666565,-1.283332944]}},{"properties":{"city":"Nairobi","event type":"Police Operation","latitude":-1.283332944,"event id":1099760,"event date":"11-Mar","country":"Kenya","event title":null,"longitude":36.81666565,"id":"a66pni741qex","total deaths":null,"group":"Sabaot Land Defence Forces (SLDF) - Kenya","total injuries":null,"state":"Nairobi Area"},"type":"Feature","geometry":{"type":"Point","coordinates":[36.81666565,-1.283332944]}},{"properties":{"city":"Mount Elgon","event type":"Police Operation","latitude":null,"event id":1100129,"event date":"14-Mar","country":"Kenya","event title":null,"longitude":null,"id":"a66pni8nb6rf","total deaths":0,"group":"Sabaot Land Defence Forces (SLDF) - Kenya","total injuries":0,"state":"Western"},"type":"Feature","geometry":null},{"properties":{"city":"Mount Elgon","event type":"Military Operation","latitude":null,"event id":1100251,"event date":"14-Mar","country":"Kenya","event title":null,"longitude":null,"id":"a66pni7r0lwt","total deaths":1,"group":"Sabaot Land Defence Forces (SLDF) - Kenya","total injuries":0,"state":"Western"},"type":"Feature","geometry":null},{"properties":{"city":"Mount Elgon","event type":"Police Operation","latitude":null,"event id":1100910,"event date":"19-Mar","country":"Kenya","event title":null,"longitude":null,"id":"a66pniaey9sv","total deaths":0,"group":"Sabaot Land Defence Forces (SLDF) - Kenya","total injuries":0,"state":"Western"},"type":"Feature","geometry":null},{"properties":{"city":"Mount Elgon","event type":"Military Operation","latitude":null,"event id":1102075,"event date":"25-Mar","country":"Kenya","event title":null,"longitude":null,"id":"a66pni568d8r","total deaths":0,"group":"Sabaot Land Defence Forces (SLDF) - Kenya","total injuries":0,"state":"Western"},"type":"Feature","geometry":null},{"properties":{"city":"Lamu","event type":"Military Operation","latitude":null,"event id":1103736,"event date":"28-Feb","country":"Kenya","event title":null,"longitude":null,"id":"a66pni4wvtss","total deaths":0,"group":"Unknown","total injuries":0,"state":"Coast"},"type":"Feature","geometry":null},{"properties":{"city":"Mount Elgon","event type":"Police Operation","latitude":null,"event id":1105335,"event date":"4-Apr","country":"Kenya","event title":null,"longitude":null,"id":"a66pni5rbgj0","total deaths":2,"group":"Sabaot Land Defence Forces (SLDF) - Kenya","total injuries":3,"state":"Western"},"type":"Feature","geometry":null},{"properties":{"city":"Lugari","event type":"Police Operation","latitude":null,"event id":1106691,"event date":"5-Apr","country":"Kenya","event title":null,"longitude":null,"id":"a66pni43mgof","total deaths":0,"group":"Sabaot Land Defence Forces (SLDF) - Kenya","total injuries":0,"state":"Western"},"type":"Feature","geometry":null},{"properties":{"city":"Lugari","event type":"Police Operation","latitude":null,"event id":1106684,"event date":"8-Apr","country":"Kenya","event title":null,"longitude":null,"id":"a66pnidbp3dl","total deaths":0,"group":"Sabaot Land Defence Forces (SLDF) - Kenya","total injuries":0,"state":"Western"},"type":"Feature","geometry":null},{"properties":{"city":"Mount Elgon","event type":"Police Operation","latitude":null,"event id":1107019,"event date":"11-Apr","country":"Kenya","event title":null,"longitude":null,"id":"a66pni1d0zcq","total deaths":0,"group":"Sabaot Land Defence Forces (SLDF) - Kenya","total injuries":0,"state":"Western"},"type":"Feature","geometry":null},{"properties":{"city":"Unknown","event type":"Police Operation","latitude":1.0,"event id":1109075,"event date":"26-Dec","country":"Kenya","event title":null,"longitude":38.0,"id":"a66pni2470bx","total deaths":9,"group":"Unknown","total injuries":0,"state":"Unknown"},"type":"Feature","geometry":{"type":"Point","coordinates":[38.0,1.0]}},{"properties":{"city":"Nairobi","event type":"Police Operation","latitude":-1.283332944,"event id":1109240,"event date":"16-Apr","country":"Kenya","event title":null,"longitude":36.81666565,"id":"a66pnicdzn45","total deaths":0,"group":"Mungiki Sect (Kenya)","total injuries":0,"state":"Nairobi Area"},"type":"Feature","geometry":{"type":"Point","coordinates":[36.81666565,-1.283332944]}},{"properties":{"city":"Mount Elgon","event type":"Military Operation","latitude":null,"event id":1115876,"event date":"19-May","country":"Kenya","event title":null,"longitude":null,"id":"a66pni8e3w6n","total deaths":12,"group":"Sabaot Land Defence Forces (SLDF) - Kenya","total injuries":0,"state":"Western"},"type":"Feature","geometry":null},{"properties":{"city":"Nairobi","event type":"Police Operation","latitude":-1.283332944,"event id":1117606,"event date":"15-Apr","country":"Kenya","event title":"Police Kill Three Mungiki Gang Members in Nairobi","longitude":36.81666565,"id":"a66pni0dzjvn","total deaths":4,"group":"Mungiki Sect (Kenya)","total injuries":0,"state":"Nairobi Area"},"type":"Feature","geometry":{"type":"Point","coordinates":[36.81666565,-1.283332944]}},{"properties":{"city":"Wajir","event type":"Police Operation","latitude":null,"event id":1118516,"event date":"31-May","country":"Kenya","event title":null,"longitude":null,"id":"a66pnhyu1pjs","total deaths":0,"group":"Salafist Group For Call And Combat (GSPC) / Al Qaeda in the Lands of Islamic Maghreb - Algeria","total injuries":0,"state":"North Eastern"},"type":"Feature","geometry":null},{"properties":{"city":"Unknown","event type":"Police Operation","latitude":1.0,"event id":1119957,"event date":"9-Jun","country":"Kenya","event title":null,"longitude":38.0,"id":"a66pni42b72w","total deaths":0,"group":"Sabaot Land Defence Forces (SLDF) - Kenya","total injuries":0,"state":"Unknown"},"type":"Feature","geometry":{"type":"Point","coordinates":[38.0,1.0]}},{"properties":{"city":"Liboi","event type":"Police Operation","latitude":null,"event id":1130165,"event date":"1-Jun","country":"Kenya","event title":null,"longitude":null,"id":"a66pni4k925l","total deaths":0,"group":"Unknown","total injuries":0,"state":"North Eastern"},"type":"Feature","geometry":null},{"properties":{"city":"Mount Elgon","event type":"Military Operation","latitude":null,"event id":1130178,"event date":"20-Jun","country":"Kenya","event title":null,"longitude":null,"id":"a66pnidjurj8","total deaths":0,"group":"Sabaot Land Defence Forces (SLDF) - Kenya","total injuries":0,"state":"Western"},"type":"Feature","geometry":null},{"properties":{"city":"Nairobi","event type":"Police Operation","latitude":-1.283332944,"event id":1130556,"event date":"26-Nov","country":"Kenya","event title":"Trafficker and cocaine seized at Nairobi airport.","longitude":36.81666565,"id":"a66pnhzosyyr","total deaths":null,"group":"Unknown","total injuries":null,"state":"Nairobi Area"},"type":"Feature","geometry":{"type":"Point","coordinates":[36.81666565,-1.283332944]}},{"properties":{"city":"Malindi","event type":"Police Operation","latitude":null,"event id":1134487,"event date":"2-Aug","country":"Kenya","event title":null,"longitude":null,"id":"a66pnic5ccpm","total deaths":0,"group":"Al Qaeda (Afghanistan)","total injuries":0,"state":"Coast"},"type":"Feature","geometry":null},{"properties":{"city":"Nairobi","event type":"Police Operation","latitude":-1.283332944,"event id":1135466,"event date":"24-Sep","country":"Kenya","event title":null,"longitude":36.81666565,"id":"a66pni0k6398","total deaths":0,"group":"Unknown","total injuries":0,"state":"Nairobi Area"},"type":"Feature","geometry":{"type":"Point","coordinates":[36.81666565,-1.283332944]}},{"properties":{"city":"Nairobi","event type":"Police Operation","latitude":-1.283332944,"event id":1135464,"event date":"24-Sep","country":"Kenya","event title":null,"longitude":36.81666565,"id":"a66pni6823na","total deaths":0,"group":"Unknown","total injuries":0,"state":"Nairobi Area"},"type":"Feature","geometry":{"type":"Point","coordinates":[36.81666565,-1.283332944]}},{"properties":{"city":"Malindi","event type":"Police Operation","latitude":null,"event id":1135942,"event date":"10-Aug","country":"Kenya","event title":null,"longitude":null,"id":"a66pni8zadlq","total deaths":0,"group":"Unknown","total injuries":0,"state":"Coast"},"type":"Feature","geometry":null},{"properties":{"city":"Mombasa","event type":"Police Operation","latitude":-4.050000191,"event id":1136925,"event date":"11-Aug","country":"Kenya","event title":null,"longitude":39.66666794,"id":"a66pni91i9n6","total deaths":0,"group":"Unknown","total injuries":0,"state":"Coast"},"type":"Feature","geometry":{"type":"Point","coordinates":[39.66666794,-4.050000191]}},{"properties":{"city":"Nairobi","event type":"Police Operation","latitude":-1.283332944,"event id":1138089,"event date":"20-Aug","country":"Kenya","event title":null,"longitude":36.81666565,"id":"a66pni3re7gj","total deaths":0,"group":"Unknown","total injuries":0,"state":"Nairobi Area"},"type":"Feature","geometry":{"type":"Point","coordinates":[36.81666565,-1.283332944]}},{"properties":{"city":"Nyeri","event type":"Police Operation","latitude":null,"event id":1152383,"event date":"30-Mar","country":"Kenya","event title":"Kenyan police prepare to counter Mungiki sect attack","longitude":null,"id":"a66pni1ie3ej","total deaths":0,"group":"Mungiki Sect (Kenya)","total injuries":0,"state":"Central"},"type":"Feature","geometry":null},{"properties":{"city":"Mombasa","event type":"Police Operation","latitude":-4.050000191,"event id":3016586,"event date":"31-Dec","country":"Kenya","event title":"Jamaican Muslim Cleric Arrested in Mombasa","longitude":39.66666794,"id":"a66pnhzztko5","total deaths":0,"group":"Unknown","total injuries":0,"state":"Coast"},"type":"Feature","geometry":{"type":"Point","coordinates":[39.66666794,-4.050000191]}},{"properties":{"city":"Nairobi","event type":"Police Operation","latitude":-1.283332944,"event id":3030191,"event date":"15-Jan","country":"Kenya","event title":"Police Move on Illegal Immigrants, Arrest 2,000","longitude":36.81666565,"id":"a66pniceowpu","total deaths":0,"group":"Al Shabaab (The Young Islamic Movement)","total injuries":0,"state":"Nairobi Area"},"type":"Feature","geometry":{"type":"Point","coordinates":[36.81666565,-1.283332944]}},{"properties":{"city":"Nairobi","event type":"Police Operation","latitude":-1.283332944,"event id":3060020,"event date":"21-Feb","country":"Kenya","event title":"Canadian Hostage Freed, Two Kidnappers Killed in Police Operation","longitude":36.81666565,"id":"a66pni8wdm96","total deaths":2,"group":"Unknown","total injuries":0,"state":"Nairobi Area"},"type":"Feature","geometry":{"type":"Point","coordinates":[36.81666565,-1.283332944]}},{"properties":{"city":"Nairobi","event type":"Police Operation","latitude":-1.283332944,"event id":3226654,"event date":"15-Jul","country":"Kenya","event title":"Over 100 Somalis Detained in Kenyan Police Operation","longitude":36.81666565,"id":"a66pni95fmrh","total deaths":0,"group":"Unknown","total injuries":0,"state":"Nairobi Area"},"type":"Feature","geometry":{"type":"Point","coordinates":[36.81666565,-1.283332944]}},{"properties":{"city":"Nairobi","event type":"Police Operation","latitude":-1.283332944,"event id":3226619,"event date":"14-Jul","country":"Kenya","event title":"Thirty Ethiopian Illegals Arrested in Nairobi","longitude":36.81666565,"id":"a66pnicpr3xn","total deaths":0,"group":"Unknown","total injuries":0,"state":"Nairobi Area"},"type":"Feature","geometry":{"type":"Point","coordinates":[36.81666565,-1.283332944]}},{"properties":{"city":"Unknown","event type":"Military Operation","latitude":1.0,"event id":3291611,"event date":"2-Sep","country":"Kenya","event title":"Suspected Militant Arrested","longitude":38.0,"id":"a66pnici9cae","total deaths":0,"group":"Unknown","total injuries":0,"state":"Unknown"},"type":"Feature","geometry":{"type":"Point","coordinates":[38.0,1.0]}},{"properties":{"city":"Nairobi","event type":"Police Operation","latitude":-1.283332944,"event id":3458144,"event date":"6-Dec","country":"Kenya","event title":"Three Suspected OLF Leaders Arrested at Wedding in Huruma","longitude":36.81666565,"id":"a66pnidsx2h3","total deaths":0,"group":"Oromo Liberation Front (OLF) - Ethiopia","total injuries":0,"state":"Nairobi Area"},"type":"Feature","geometry":{"type":"Point","coordinates":[36.81666565,-1.283332944]}},{"properties":{"city":"Nairobi","event type":"Police Operation","latitude":-1.283332944,"event id":3466783,"event date":"3-Dec","country":"Kenya","event title":"Police Kill Two Militants Responsible for Attack on Kenyan Police","longitude":36.81666565,"id":"a66pni2mr1i8","total deaths":2,"group":"Al Shabaab (The Young Islamic Movement)","total injuries":0,"state":"Nairobi Area"},"type":"Feature","geometry":{"type":"Point","coordinates":[36.81666565,-1.283332944]}},{"properties":{"city":"Nairobi","event type":"Police Operation","latitude":-1.283332944,"event id":3474472,"event date":"20-Dec","country":"Kenya","event title":"One Suspect Arrested in Connection with IED Attack at Nairobi Bus Station","longitude":36.81666565,"id":"a66pni213m4x","total deaths":0,"group":"Unknown","total injuries":0,"state":"Nairobi Area"},"type":"Feature","geometry":{"type":"Point","coordinates":[36.81666565,-1.283332944]}},{"properties":{"city":"Mombasa","event type":"Police Operation","latitude":-4.050000191,"event id":3522708,"event date":"21-Dec","country":"Kenya","event title":"Kenyan Police Arrested One Suspected Militant in Mombasa","longitude":39.66666794,"id":"a66pniavmt25","total deaths":0,"group":"Al Shabaab (The Young Islamic Movement)","total injuries":0,"state":"Coast"},"type":"Feature","geometry":{"type":"Point","coordinates":[39.66666794,-4.050000191]}},{"properties":{"city":"Mombasa","event type":"Police Operation","latitude":-4.050000191,"event id":3522785,"event date":"18-Jan","country":"Kenya","event title":"Kenyan Police Raid Home of Suspected Militant in Mombasa","longitude":39.66666794,"id":"a66pni7x2lrp","total deaths":0,"group":"Unknown","total injuries":0,"state":"Coast"},"type":"Feature","geometry":{"type":"Point","coordinates":[39.66666794,-4.050000191]}},{"properties":{"city":"Unknown","event type":"Police Operation","latitude":null,"event id":3522664,"event date":"20-Dec","country":"Kenya","event title":"Police Arrest Suspected Militant in Connection with Militant Bombing in Kilifi","longitude":null,"id":"a66pni5w0v1v","total deaths":0,"group":"Al Shabaab (The Young Islamic Movement)","total injuries":0,"state":"Coast"},"type":"Feature","geometry":null},{"properties":{"city":"Unknown","event type":"Police Operation","latitude":null,"event id":3522753,"event date":"18-Jan","country":"Kenya","event title":"Kenyan Police Raid House of Suspected Militant in Kilifi","longitude":null,"id":"a66pni1sc62y","total deaths":0,"group":"Unknown","total injuries":0,"state":"Coast"},"type":"Feature","geometry":null},{"properties":{"city":"Nairobi","event type":"Police Operation","latitude":-1.283332944,"event id":3587207,"event date":"5-Mar","country":"Kenya","event title":"Kenyan Police Arrest Nine Suspected Al-Shabaab Miltiants in Nairobi","longitude":36.81666565,"id":"a66pni1125c8","total deaths":0,"group":"Al Shabaab (The Young Islamic Movement)","total injuries":0,"state":"Nairobi Area"},"type":"Feature","geometry":{"type":"Point","coordinates":[36.81666565,-1.283332944]}},{"properties":{"city":"Mandera","event type":"Police Operation","latitude":null,"event id":3587054,"event date":"6-Mar","country":"Kenya","event title":"Kenyan Police Arrested Suspected Al-Shabaab Militants in Mandera","longitude":null,"id":"a66pni89ezrh","total deaths":0,"group":"Al Shabaab (The Young Islamic Movement)","total injuries":0,"state":"North Eastern"},"type":"Feature","geometry":null},{"properties":{"city":"Liboi","event type":"Military Operation","latitude":null,"event id":3610045,"event date":null,"country":"Kenya","event title":null,"longitude":null,"id":"a66pnicrf8zr","total deaths":null,"group":"Unknown","total injuries":null,"state":"North Eastern"},"type":"Feature","geometry":null},{"properties":{"city":"Liboi","event type":"Military Operation","latitude":null,"event id":3612507,"event date":"23-Mar","country":"Kenya","event title":"Twelve Militants Killed During Military Operation in Liboi","longitude":null,"id":"a66pnichhaz3","total deaths":12,"group":"Al Shabaab (The Young Islamic Movement)","total injuries":0,"state":"North Eastern"},"type":"Feature","geometry":null},{"properties":{"city":"Liboi","event type":"Police Operation","latitude":null,"event id":3632300,"event date":"31-Mar","country":"Kenya","event title":"Militants Injured During Attack on Police Station in Liboi","longitude":null,"id":"a66pnibf5f1m","total deaths":0,"group":"Al Shabaab (The Young Islamic Movement)","total injuries":0,"state":"North Eastern"},"type":"Feature","geometry":null},{"properties":{"city":"Unknown","event type":"Police Operation","latitude":1.0,"event id":3660422,"event date":"4-Jul","country":"Kenya","event title":"Kenyan Police Arrest Al-Shabaab Suspect","longitude":38.0,"id":"a66pnibrzdts","total deaths":0,"group":"Allied Democratic Forces (ADF) - Uganda","total injuries":0,"state":"Unknown"},"type":"Feature","geometry":{"type":"Point","coordinates":[38.0,1.0]}},{"properties":{"city":"Liboi","event type":"Police Operation","latitude":null,"event id":3681154,"event date":"22-Apr","country":"Kenya","event title":"Kenyan Police Arrest Three Al-Shabaab Militants Armed with Explosives in Northeastern","longitude":null,"id":"a66pni5hebg0","total deaths":0,"group":"Al Shabaab (The Young Islamic Movement)","total injuries":0,"state":"North Eastern"},"type":"Feature","geometry":null},{"properties":{"city":"Lamu","event type":"Police Operation","latitude":null,"event id":3702706,"event date":"8-May","country":"Kenya","event title":"Suspected Al-Shabaab Militants Arrested in Malindi","longitude":null,"id":"a66pni8jhpll","total deaths":0,"group":"Al Shabaab (The Young Islamic Movement)","total injuries":0,"state":"Coast"},"type":"Feature","geometry":null},{"properties":{"city":"Garssa","event type":"Police Operation","latitude":null,"event id":3736576,"event date":"23-May","country":"Kenya","event title":"Suspected Militatns Detained in Garissa, Kenya","longitude":null,"id":"a66pnhybbs2t","total deaths":0,"group":"Al Shabaab (The Young Islamic Movement)","total injuries":0,"state":"North Eastern"},"type":"Feature","geometry":null},{"properties":{"city":"Lamu","event type":"Police Operation","latitude":null,"event id":3745484,"event date":"5-Jun","country":"Kenya","event title":"Two Suspeceted Militants Detained in Lamu, Kenya","longitude":null,"id":"a66pnicieu01","total deaths":0,"group":"Unknown","total injuries":0,"state":"Coast"},"type":"Feature","geometry":null},{"properties":{"city":"Mandera","event type":"Military Operation","latitude":null,"event id":3743716,"event date":"3-Jun","country":"Kenya","event title":"Ten People Arrested in Connection with IED Attack on Kenyan Military Convoy","longitude":null,"id":"a66pni7e3cmh","total deaths":0,"group":"Unknown","total injuries":0,"state":"North Eastern"},"type":"Feature","geometry":null},{"properties":{"city":"Unknown","event type":"Police Operation","latitude":null,"event id":3743948,"event date":"5-Jun","country":"Kenya","event title":"Four Suspected Al-Shabaab Militants Arrested in Kerugoya","longitude":null,"id":"a66pni5e10bk","total deaths":0,"group":"Al Shabaab (The Young Islamic Movement)","total injuries":0,"state":"Central"},"type":"Feature","geometry":null},{"properties":{"city":"Mandera","event type":"Police Operation","latitude":null,"event id":3759572,"event date":"17-Jun","country":"Kenya","event title":"Kenya Police Arrest Three Suspected Al Shabaab Militants and Search for Five More","longitude":null,"id":"a66pnia02g6i","total deaths":0,"group":"Al Shabaab (The Young Islamic Movement)","total injuries":0,"state":"North Eastern"},"type":"Feature","geometry":null},{"properties":{"city":"Mandera","event type":"Police Operation","latitude":null,"event id":3802155,"event date":"27-Jul","country":"Kenya","event title":"Police Recover One IED During IED Attack Investigation","longitude":null,"id":"a66pni48a1v7","total deaths":0,"group":"Unknown","total injuries":0,"state":"North Eastern"},"type":"Feature","geometry":null},{"properties":{"city":"Unknown","event type":"Police Operation","latitude":1.0,"event id":3865943,"event date":"13-Sep","country":"Kenya","event title":"One Suspected Al-Shabaab Militant Arrested in Connection with the Kidnapping of a British National in Kenya","longitude":38.0,"id":"a66pni0hcqoi","total deaths":0,"group":"Al Shabaab (The Young Islamic Movement)","total injuries":0,"state":"Unknown"},"type":"Feature","geometry":{"type":"Point","coordinates":[38.0,1.0]}},{"properties":{"city":"Lamu","event type":"Police Operation","latitude":null,"event id":3887205,"event date":"1-Oct","country":"Kenya","event title":"Kenyan Police Arrest One Suspect in French National Incident","longitude":null,"id":"a66pni4qc7p1","total deaths":0,"group":"Unknown","total injuries":0,"state":"Coast"},"type":"Feature","geometry":null},{"properties":{"city":"Nairobi","event type":"Police Operation","latitude":-1.283332944,"event id":3915559,"event date":"26-Oct","country":"Kenya","event title":"Nairobi Police Discover and Defuse a VBIED in Nairobi","longitude":36.81666565,"id":"a66pni8r57t0","total deaths":0,"group":"Unknown","total injuries":0,"state":"Nairobi Area"},"type":"Feature","geometry":{"type":"Point","coordinates":[36.81666565,-1.283332944]}},{"properties":{"city":"Liboi","event type":"Military Operation","latitude":null,"event id":3920287,"event date":"31-Oct","country":"Kenya","event title":"Thirty six Militants Killed during Fighting in Liboi","longitude":null,"id":"a66pnielwhu1","total deaths":36,"group":"Al Shabaab (The Young Islamic Movement)","total injuries":0,"state":"North Eastern"},"type":"Feature","geometry":null},{"properties":{"city":"Garssa","event type":"Military Operation","latitude":1.0,"event id":3933690,"event date":"5-Nov","country":"Kenya","event title":"Kenya Soldiers Discover and Defuse an IED in Garssa","longitude":38.0,"id":"a66pnida3bt4","total deaths":0,"group":"Unknown","total injuries":0,"state":"North Eastern"},"type":"Feature","geometry":{"type":"Point","coordinates":[38.0,1.0]}},{"properties":{"city":"Garssa","event type":"Police Operation","latitude":1.0,"event id":3938945,"event date":"6-Nov","country":"Kenya","event title":"Police Arrest 10 People in Connection with Grenade Attack in Garissa","longitude":38.0,"id":"a66pnhyebaz7","total deaths":0,"group":"Unknown","total injuries":0,"state":"North Eastern"},"type":"Feature","geometry":{"type":"Point","coordinates":[38.0,1.0]}}],"is_temporal":false,"author":{"url":"","metadata":"","contact_name":"","contact_address":"","source":"","contact_phone":""},"source":"","pagination":{"sort":null,"start":0,"total":149,"limit":1000000},"state":"complete","tags":"","published":"2014-08-14T17:20:19-04:00","id":201790}