{"type":"FeatureCollection","data_type":"Dataset","url_type":null,"permissions":[{"permissions":{"download":true,"view":true},"group_id":"everyone"}],"classification":null,"title":"20120201 Security Operations - Burundi","count":31,"stream_id":201787,"contributor":{"url":"http://geocommons.com/users/33152","name":"rberntsson"},"data_attributes":null,"calculation_params":null,"icon_link":null,"link":"http://geocommons.com/overlays/201787.json","extent":[29.36,-3.37611,29.36,-3.37611],"geometry_types":["point"],"unique_name":null,"name":"20120201 Security Operations - Burundi","feature_count":31,"description":"","next_feature":null,"is_raster":false,"short_classification":"Y","stats":{"latitude":{"max":-3.376111031,"mean":-3.376111031,"variance":0.0,"stdev":0.0,"min":-3.376111031,"median":-3.376111031},"event id":{"max":3825281,"mean":1758504.80645161,"variance":1272393620492.56,"stdev":1128004.26439467,"min":1016468,"median":1079890},"longitude":{"max":29.36000061,"mean":29.36000061,"variance":1.23922876747446e-28,"stdev":1.1132065250772e-14,"min":29.36000061,"median":29.36000061},"total deaths":{"max":12,"mean":1.78571428571429,"variance":8.61904761904763,"stdev":2.93582145558064,"min":0,"median":0},"total injuries":{"max":4,"mean":0.521739130434783,"variance":1.44268774703557,"stdev":1.20111937251698,"min":0,"median":0}},"features":[{"properties":{"city":"Bujumbura","event type":"Military Operation","latitude":-3.376111031,"event id":1016468,"event date":"7-Jun","country":"Burundi","event title":null,"longitude":29.36000061,"id":"a62hz44wmq6c","total deaths":12,"group":"Palipehutu FLN / Party for the Liberation of the Hutu People - National Liberation Forces (Burundi)","total injuries":null,"state":"Bujumbura"},"type":"Feature","geometry":{"type":"Point","coordinates":[29.36000061,-3.376111031]}},{"properties":{"city":"Bujumbura","event type":"Military Operation","latitude":-3.376111031,"event id":1017916,"event date":"27-Jul","country":"Burundi","event title":null,"longitude":29.36000061,"id":"a62hz3zyt6t3","total deaths":6,"group":"Palipehutu FLN / Party for the Liberation of the Hutu People - National Liberation Forces (Burundi)","total injuries":4,"state":"Bujumbura"},"type":"Feature","geometry":{"type":"Point","coordinates":[29.36000061,-3.376111031]}},{"properties":{"city":"Unknown","event type":"Police Operation","latitude":null,"event id":1020861,"event date":"22-Sep","country":"Burundi","event title":null,"longitude":null,"id":"a62hz465zpjs","total deaths":null,"group":"Unknown","total injuries":null,"state":"Unknown"},"type":"Feature","geometry":null},{"properties":{"city":"Unknown","event type":"Military Operation","latitude":null,"event id":1024188,"event date":"21-Dec","country":"Burundi","event title":null,"longitude":null,"id":"a62hz4bewrl2","total deaths":null,"group":"Palipehutu FLN / Party for the Liberation of the Hutu People - National Liberation Forces (Burundi)","total injuries":null,"state":"Unknown"},"type":"Feature","geometry":null},{"properties":{"city":"Bubanza","event type":"Military Operation","latitude":null,"event id":1024163,"event date":"24-Dec","country":"Burundi","event title":null,"longitude":null,"id":"a62hz3y236e1","total deaths":7,"group":"Palipehutu FLN / Party for the Liberation of the Hutu People - National Liberation Forces (Burundi)","total injuries":null,"state":"Bubanza"},"type":"Feature","geometry":null},{"properties":{"city":"Mubimbi","event type":"Police Operation","latitude":null,"event id":1025307,"event date":"29-Jan","country":"Burundi","event title":null,"longitude":null,"id":"a62hz44zten9","total deaths":null,"group":"Palipehutu FLN / Party for the Liberation of the Hutu People - National Liberation Forces (Burundi)","total injuries":null,"state":"Bujumbura"},"type":"Feature","geometry":null},{"properties":{"city":"Bujumbura","event type":"Military Operation","latitude":-3.376111031,"event id":1025816,"event date":"15-Feb","country":"Burundi","event title":null,"longitude":29.36000061,"id":"a62hz3xdloor","total deaths":6,"group":"Palipehutu FLN / Party for the Liberation of the Hutu People - National Liberation Forces (Burundi)","total injuries":3,"state":"Bujumbura"},"type":"Feature","geometry":{"type":"Point","coordinates":[29.36000061,-3.376111031]}},{"properties":{"city":"Bujumbura","event type":"Military Operation","latitude":-3.376111031,"event id":1026162,"event date":"22-Feb","country":"Burundi","event title":null,"longitude":29.36000061,"id":"a62hz405dzkr","total deaths":2,"group":"Palipehutu FLN / Party for the Liberation of the Hutu People - National Liberation Forces (Burundi)","total injuries":null,"state":"Bujumbura"},"type":"Feature","geometry":{"type":"Point","coordinates":[29.36000061,-3.376111031]}},{"properties":{"city":"Cibitoke","event type":"Military Operation","latitude":null,"event id":1026160,"event date":"23-Feb","country":"Burundi","event title":null,"longitude":null,"id":"a62hz3zsa2bg","total deaths":3,"group":"Palipehutu FLN / Party for the Liberation of the Hutu People - National Liberation Forces (Burundi)","total injuries":null,"state":"Cibitoke"},"type":"Feature","geometry":null},{"properties":{"city":"Bubanza","event type":"Military Operation","latitude":null,"event id":1026369,"event date":"21-Feb","country":"Burundi","event title":null,"longitude":null,"id":"a62hz40biv9q","total deaths":1,"group":"Palipehutu FLN / Party for the Liberation of the Hutu People - National Liberation Forces (Burundi)","total injuries":null,"state":"Bubanza"},"type":"Feature","geometry":null},{"properties":{"city":"Bujumbura","event type":"Police Operation","latitude":-3.376111031,"event id":1058204,"event date":"9-May","country":"Burundi","event title":null,"longitude":29.36000061,"id":"a62hz3vhipo8","total deaths":0,"group":"Unknown","total injuries":2,"state":"Bujumbura"},"type":"Feature","geometry":{"type":"Point","coordinates":[29.36000061,-3.376111031]}},{"properties":{"city":"Bubanza","event type":"Police Operation","latitude":null,"event id":1060568,"event date":"27-May","country":"Burundi","event title":null,"longitude":null,"id":"a62hz4843zkd","total deaths":0,"group":"Palipehutu FLN / Party for the Liberation of the Hutu People - National Liberation Forces (Burundi)","total injuries":0,"state":"Bubanza"},"type":"Feature","geometry":null},{"properties":{"city":"Unknown","event type":"Police Operation","latitude":null,"event id":1061923,"event date":"30-May","country":"Burundi","event title":null,"longitude":null,"id":"a62hz3w0chtd","total deaths":0,"group":"Palipehutu FLN / Party for the Liberation of the Hutu People - National Liberation Forces (Burundi)","total injuries":0,"state":"Unknown"},"type":"Feature","geometry":null},{"properties":{"city":"Giteranyi","event type":"Police Operation","latitude":null,"event id":1063125,"event date":"13-Jun","country":"Burundi","event title":null,"longitude":null,"id":"a62hz44osyng","total deaths":0,"group":"Palipehutu FLN / Party for the Liberation of the Hutu People - National Liberation Forces (Burundi)","total injuries":0,"state":"Muyinga"},"type":"Feature","geometry":null},{"properties":{"city":"Kabezi","event type":"Military Operation","latitude":null,"event id":1071500,"event date":"24-Oct","country":"Burundi","event title":null,"longitude":null,"id":"a62hz44w3rcd","total deaths":0,"group":"National Liberation Front (FNL) - Burundi","total injuries":0,"state":"Bujumbura"},"type":"Feature","geometry":null},{"properties":{"city":"Ruyigi","event type":"Police Operation","latitude":null,"event id":1079890,"event date":"4-Jan","country":"Burundi","event title":null,"longitude":null,"id":"a62hz4447y0g","total deaths":0,"group":"Unknown","total injuries":0,"state":"Ruyigi"},"type":"Feature","geometry":null},{"properties":{"city":"Ngagara","event type":"Police Operation","latitude":null,"event id":1089645,"event date":"12-Feb","country":"Burundi","event title":null,"longitude":null,"id":"a62hz44q5nzg","total deaths":0,"group":"Unknown","total injuries":0,"state":"Bujumbura"},"type":"Feature","geometry":null},{"properties":{"city":"Musigati","event type":"Military Operation","latitude":null,"event id":1091046,"event date":"28-Dec","country":"Burundi","event title":null,"longitude":null,"id":"a62hz3z9pbq4","total deaths":1,"group":"Palipehutu FLN / Party for the Liberation of the Hutu People - National Liberation Forces (Burundi)","total injuries":0,"state":"Bubanza"},"type":"Feature","geometry":null},{"properties":{"city":"Musigati","event type":"Military Operation","latitude":null,"event id":1107507,"event date":"28-Dec","country":"Burundi","event title":null,"longitude":null,"id":"a62hz3wllr1u","total deaths":0,"group":"Palipehutu FLN / Party for the Liberation of the Hutu People - National Liberation Forces (Burundi)","total injuries":0,"state":"Bubanza"},"type":"Feature","geometry":null},{"properties":{"city":"Bujumbura","event type":"Military Operation","latitude":-3.376111031,"event id":1110626,"event date":"24-Apr","country":"Burundi","event title":"Army Captures an FNL Fighter During Battle north of Bujumbura.","longitude":29.36000061,"id":"a62hz3xwap5m","total deaths":0,"group":"National Liberation Front (FNL) - Burundi","total injuries":0,"state":"Bujumbura"},"type":"Feature","geometry":{"type":"Point","coordinates":[29.36000061,-3.376111031]}},{"properties":{"city":"Bujumbura","event type":"Military Operation","latitude":-3.376111031,"event id":1115980,"event date":"22-May","country":"Burundi","event title":null,"longitude":29.36000061,"id":"a62hz4aj4r8k","total deaths":0,"group":"National Liberation Front (FNL) - Burundi","total injuries":0,"state":"Bujumbura"},"type":"Feature","geometry":{"type":"Point","coordinates":[29.36000061,-3.376111031]}},{"properties":{"city":"Unknown","event type":"Military Operation","latitude":null,"event id":1123295,"event date":"19-Jun","country":"Burundi","event title":null,"longitude":null,"id":"a62hz48t3mr3","total deaths":0,"group":"National Liberation Front (FNL) - Burundi","total injuries":0,"state":"Bujumbura"},"type":"Feature","geometry":null},{"properties":{"city":"Bujumbura","event type":"Police Operation","latitude":-3.376111031,"event id":2993022,"event date":"29-Oct","country":"Burundi","event title":"Police Step Up Security in Capital After Somali Terrorist Threat","longitude":29.36000061,"id":"a62hz45uv5ug","total deaths":0,"group":"Al Shabaab (The Young Islamic Movement)","total injuries":0,"state":"Bujumbura"},"type":"Feature","geometry":{"type":"Point","coordinates":[29.36000061,-3.376111031]}},{"properties":{"city":"Bujumbura","event type":"Police Operation","latitude":-3.376111031,"event id":3190751,"event date":"16-Jun","country":"Burundi","event title":"Three Injured in Bujumbura Riot","longitude":29.36000061,"id":"a62hz46drn8a","total deaths":0,"group":"National Liberation Front (FNL) - Burundi","total injuries":3,"state":"Bujumbura"},"type":"Feature","geometry":{"type":"Point","coordinates":[29.36000061,-3.376111031]}},{"properties":{"city":"Kayanza","event type":"Police Operation","latitude":null,"event id":3192681,"event date":"19-Jun","country":"Burundi","event title":"Suspect Arrested for Burundia Grenade Attacks","longitude":null,"id":"a62hz3xjxcwt","total deaths":0,"group":"National Liberation Front (FNL) - Burundi","total injuries":0,"state":"Kayanza"},"type":"Feature","geometry":null},{"properties":{"city":"Bujumbura","event type":"Police Operation","latitude":-3.376111031,"event id":3199533,"event date":"28-Jun","country":"Burundi","event title":"Police Remove Grenade From EU House","longitude":29.36000061,"id":"a62hz49a9lyu","total deaths":0,"group":"Unknown","total injuries":0,"state":"Bujumbura"},"type":"Feature","geometry":{"type":"Point","coordinates":[29.36000061,-3.376111031]}},{"properties":{"city":"Unknown","event type":"Military Operation","latitude":null,"event id":3438064,"event date":"23-Nov","country":"Burundi","event title":"Two Militants Killed and Two Arrested in Makamba","longitude":null,"id":"a62hz47asoq3","total deaths":2,"group":"Unknown","total injuries":0,"state":"Makamba"},"type":"Feature","geometry":null},{"properties":{"city":"Bujumbura","event type":"Police Operation","latitude":-3.376111031,"event id":3797654,"event date":"4-Jul","country":"Burundi","event title":"Police Arrested Four People that were thought Responsible for the Attacks on Two Police Posts in Bujumbura","longitude":29.36000061,"id":"a62hz3wqsmon","total deaths":0,"group":"Unknown","total injuries":0,"state":"Bujumbura"},"type":"Feature","geometry":{"type":"Point","coordinates":[29.36000061,-3.376111031]}},{"properties":{"city":"Unknown","event type":"Military Operation","latitude":null,"event id":3801974,"event date":"19-Jul","country":"Burundi","event title":"Four Militants Killed in Attack on a Transport Vehicles","longitude":null,"id":"a62hz44xcybi","total deaths":5,"group":"Unknown","total injuries":0,"state":"Cibitoke"},"type":"Feature","geometry":null},{"properties":{"city":"Rumonge","event type":"Police Operation","latitude":null,"event id":3807970,"event date":"2-Aug","country":"Burundi","event title":"Two Militans Killed in Exchange of Gunfire with Burundi Police near Rumonge","longitude":null,"id":"a62hz486hczs","total deaths":2,"group":"Unknown","total injuries":0,"state":"Bururi"},"type":"Feature","geometry":null},{"properties":{"city":"Bujumbura","event type":"Police Operation","latitude":-3.376111031,"event id":3825281,"event date":"7-Aug","country":"Burundi","event title":"Burundi Police Kill Three Suspected FNL Militants in Bujumbura","longitude":29.36000061,"id":"a62hz417sl9t","total deaths":3,"group":"Palipehutu FLN / Party for the Liberation of the Hutu People - National Liberation Forces (Burundi)","total injuries":0,"state":"Bujumbura"},"type":"Feature","geometry":{"type":"Point","coordinates":[29.36000061,-3.376111031]}}],"is_temporal":false,"author":{"url":"","metadata":"","contact_name":"","contact_address":"","source":"","contact_phone":""},"source":"","pagination":{"sort":null,"start":0,"total":31,"limit":1000000},"state":"complete","tags":"","published":"2014-08-14T17:20:17-04:00","id":201787}