{"type":"FeatureCollection","data_type":"Dataset","url_type":null,"permissions":[{"permissions":{"download":true,"view":true},"group_id":"everyone"}],"classification":null,"title":"20120201 Violent Events - Kenya","count":167,"stream_id":201822,"contributor":{"url":"http://geocommons.com/users/33152","name":"rberntsson"},"data_attributes":null,"calculation_params":null,"icon_link":null,"link":"http://geocommons.com/overlays/201822.json","extent":[36.8167,-4.05,39.6667,1.0],"geometry_types":["point"],"unique_name":null,"name":"20120201 Violent Events - Kenya","feature_count":167,"description":"","next_feature":null,"is_raster":false,"short_classification":"Y","stats":{"latitude":{"max":1.0,"mean":-0.865818908728814,"variance":1.03332757662472,"stdev":1.0165272139125,"min":-4.050000191,"median":-1.283332944},"event id":{"max":3939025,"mean":2064914.47904192,"variance":1486779707251.42,"stdev":1219335.76477171,"min":1016312,"median":1108316},"longitude":{"max":39.66666794,"mean":37.1056489464407,"variance":0.344805273586257,"stdev":0.587201220695476,"min":36.81666565,"median":36.81666565},"total deaths":{"max":212,"mean":3.85987261146497,"variance":301.339212804179,"stdev":17.3591247706841,"min":0,"median":1},"total injuries":{"max":4000,"mean":28.4423076923077,"variance":102555.577295285,"stdev":320.2429972619,"min":0,"median":0}},"features":[{"properties":{"city":"Marsabit","event type":"Armed Assault","latitude":null,"event id":1016312,"event date":"21-Jun","country":"Kenya","event title":null,"longitude":null,"id":"a62ie36nk7jc","total deaths":6,"group":"Unknown","total injuries":null,"state":"North Eastern"},"type":"Feature","geometry":null},{"properties":{"city":"Turkana (Lodwar)","event type":"Armed Assault","latitude":null,"event id":1017635,"event date":"20-Jul","country":"Kenya","event title":null,"longitude":null,"id":"a62ie2xd7mpo","total deaths":null,"group":"Unknown","total injuries":null,"state":"Western"},"type":"Feature","geometry":null},{"properties":{"city":"Unknown","event type":"Hostage Taking/Kidnapping","latitude":1.0,"event id":1019359,"event date":"4-Sep","country":"Kenya","event title":null,"longitude":38.0,"id":"a62ie35z5y7v","total deaths":null,"group":"Unknown","total injuries":null,"state":"Unknown"},"type":"Feature","geometry":{"type":"Point","coordinates":[38.0,1.0]}},{"properties":{"city":"Nairobi","event type":"Bombing","latitude":-1.283332944,"event id":1019372,"event date":"7-Aug","country":"Kenya","event title":"Al Qaeda Bombs American Embassy in Kenya","longitude":36.81666565,"id":"a62ie30dz98k","total deaths":212,"group":"Al Qaeda (Afghanistan)","total injuries":4000,"state":"Nairobi Area"},"type":"Feature","geometry":{"type":"Point","coordinates":[36.81666565,-1.283332944]}},{"properties":{"city":"Moyale","event type":"Hostage Taking/Kidnapping","latitude":null,"event id":1022720,"event date":"5-Aug","country":"Kenya","event title":null,"longitude":null,"id":"a62ie2qlri5o","total deaths":null,"group":"Somali Liberation Front (Somalia)","total injuries":null,"state":"Eastern"},"type":"Feature","geometry":null},{"properties":{"city":"Moyale","event type":"Armed Assault","latitude":null,"event id":1022717,"event date":"5-Aug","country":"Kenya","event title":null,"longitude":null,"id":"a62ie2tnv038","total deaths":5,"group":"Somali Liberation Front (Somalia)","total injuries":20,"state":"Eastern"},"type":"Feature","geometry":null},{"properties":{"city":"Nairobi","event type":"Armed Assault","latitude":-1.283332944,"event id":1023398,"event date":"25-Jan","country":"Kenya","event title":null,"longitude":36.81666565,"id":"a62ie2u79hw7","total deaths":null,"group":"Popular Front for the Liberation of Palestine (PFLP)","total injuries":null,"state":"Nairobi Area"},"type":"Feature","geometry":{"type":"Point","coordinates":[36.81666565,-1.283332944]}},{"properties":{"city":"Turkana (Lodwar)","event type":"Robbery","latitude":null,"event id":1028897,"event date":"20-Jul","country":"Kenya","event title":null,"longitude":null,"id":"a62ie2zciasj","total deaths":1,"group":"Unknown","total injuries":null,"state":"Western"},"type":"Feature","geometry":null},{"properties":{"city":"Malindi","event type":"Armed Assault","latitude":null,"event id":1046210,"event date":"28-Nov","country":"Kenya","event title":null,"longitude":null,"id":"a62ie32wz0fz","total deaths":0,"group":"Al Qaeda (Afghanistan)","total injuries":0,"state":"Coast"},"type":"Feature","geometry":null},{"properties":{"city":"Malindi","event type":"Bombing","latitude":null,"event id":1046205,"event date":"28-Nov","country":"Kenya","event title":"Al Qaeda Attacks Israel-Owned Hotel in Kenya","longitude":null,"id":"a62ie34fr6da","total deaths":16,"group":"Al Qaeda (Afghanistan)","total injuries":26,"state":"Coast"},"type":"Feature","geometry":null},{"properties":{"city":"Kongowea","event type":"Bombing","latitude":null,"event id":1047588,"event date":"4-Feb","country":"Kenya","event title":null,"longitude":null,"id":"a62ie35d8aa5","total deaths":2,"group":"Unknown","total injuries":1,"state":"Coast"},"type":"Feature","geometry":null},{"properties":{"city":"Mandera","event type":"Armed Assault","latitude":null,"event id":1052237,"event date":"16-Mar","country":"Kenya","event title":null,"longitude":null,"id":"a62ie30sg86j","total deaths":1,"group":"Unknown","total injuries":1,"state":"North Eastern"},"type":"Feature","geometry":null},{"properties":{"city":"Unknown","event type":"Armed Assault","latitude":1.0,"event id":1053927,"event date":"1-Apr","country":"Kenya","event title":null,"longitude":38.0,"id":"a62ie2yo9680","total deaths":6,"group":"Unknown","total injuries":0,"state":"Unknown"},"type":"Feature","geometry":{"type":"Point","coordinates":[38.0,1.0]}},{"properties":{"city":"Nairobi","event type":"Armed Assault","latitude":-1.283332944,"event id":1054813,"event date":"31-Mar","country":"Kenya","event title":null,"longitude":36.81666565,"id":"a62ie2sqbfyt","total deaths":1,"group":"Unknown","total injuries":0,"state":"Nairobi Area"},"type":"Feature","geometry":{"type":"Point","coordinates":[36.81666565,-1.283332944]}},{"properties":{"city":"Unknown","event type":"Armed Assault","latitude":1.0,"event id":1054817,"event date":"11-Apr","country":"Kenya","event title":null,"longitude":38.0,"id":"a62ie3302bd1","total deaths":1,"group":"Unknown","total injuries":0,"state":"Unknown"},"type":"Feature","geometry":{"type":"Point","coordinates":[38.0,1.0]}},{"properties":{"city":"Kiambu","event type":"Armed Assault","latitude":null,"event id":1055806,"event date":"17-Apr","country":"Kenya","event title":null,"longitude":null,"id":"a62ie33xfmcf","total deaths":1,"group":"Mungiki Sect (Kenya)","total injuries":1,"state":"Central"},"type":"Feature","geometry":null},{"properties":{"city":"Unknown","event type":"Armed Assault","latitude":1.0,"event id":1056413,"event date":"25-Apr","country":"Kenya","event title":null,"longitude":38.0,"id":"a62ie3337xe4","total deaths":8,"group":"Mungiki Sect (Kenya)","total injuries":0,"state":"Unknown"},"type":"Feature","geometry":{"type":"Point","coordinates":[38.0,1.0]}},{"properties":{"city":"Kiambu","event type":"Armed Assault","latitude":null,"event id":1056386,"event date":"21-Apr","country":"Kenya","event title":null,"longitude":null,"id":"a62ie36009yn","total deaths":1,"group":"Unknown","total injuries":0,"state":"Central"},"type":"Feature","geometry":null},{"properties":{"city":"Nairobi","event type":"Arson","latitude":-1.283332944,"event id":1056805,"event date":"28-Apr","country":"Kenya","event title":null,"longitude":36.81666565,"id":"a62ie36ljmtw","total deaths":0,"group":"Mungiki Sect (Kenya)","total injuries":1,"state":"Nairobi Area"},"type":"Feature","geometry":{"type":"Point","coordinates":[36.81666565,-1.283332944]}},{"properties":{"city":"Nairobi","event type":"Armed Assault","latitude":-1.283332944,"event id":1056804,"event date":"28-Apr","country":"Kenya","event title":null,"longitude":36.81666565,"id":"a62ie35d2fve","total deaths":0,"group":"Mungiki Sect (Kenya)","total injuries":1,"state":"Nairobi Area"},"type":"Feature","geometry":{"type":"Point","coordinates":[36.81666565,-1.283332944]}},{"properties":{"city":"Nairobi","event type":"Armed Assault","latitude":-1.283332944,"event id":1059337,"event date":"17-May","country":"Kenya","event title":null,"longitude":36.81666565,"id":"a62ie31d6k3j","total deaths":10,"group":"Unknown","total injuries":0,"state":"Nairobi Area"},"type":"Feature","geometry":{"type":"Point","coordinates":[36.81666565,-1.283332944]}},{"properties":{"city":"Nairobi","event type":"Armed Assault","latitude":-1.283332944,"event id":1059618,"event date":"22-May","country":"Kenya","event title":null,"longitude":36.81666565,"id":"a62ie2yx5zxt","total deaths":6,"group":"Mungiki Sect (Kenya)","total injuries":0,"state":"Nairobi Area"},"type":"Feature","geometry":{"type":"Point","coordinates":[36.81666565,-1.283332944]}},{"properties":{"city":"Nyeri","event type":"Armed Assault","latitude":null,"event id":1059634,"event date":"14-Feb","country":"Kenya","event title":null,"longitude":null,"id":"a62ie2rxhvno","total deaths":2,"group":"Mungiki Sect (Kenya)","total injuries":0,"state":"Central"},"type":"Feature","geometry":null},{"properties":{"city":"Nairobi","event type":"Armed Assault","latitude":-1.283332944,"event id":1059637,"event date":"17-May","country":"Kenya","event title":null,"longitude":36.81666565,"id":"a62ie33oqwm7","total deaths":3,"group":"Unknown","total injuries":0,"state":"Nairobi Area"},"type":"Feature","geometry":{"type":"Point","coordinates":[36.81666565,-1.283332944]}},{"properties":{"city":"Kiambu","event type":"Armed Assault","latitude":null,"event id":1059636,"event date":"18-May","country":"Kenya","event title":null,"longitude":null,"id":"a62ie36mmrdw","total deaths":1,"group":"Mungiki Sect (Kenya)","total injuries":0,"state":"Central"},"type":"Feature","geometry":null},{"properties":{"city":"Nairobi","event type":"Armed Assault","latitude":-1.283332944,"event id":1059663,"event date":"22-May","country":"Kenya","event title":null,"longitude":36.81666565,"id":"a62ie2z8de6f","total deaths":4,"group":"Mungiki Sect (Kenya)","total injuries":0,"state":"Nairobi Area"},"type":"Feature","geometry":{"type":"Point","coordinates":[36.81666565,-1.283332944]}},{"properties":{"city":"Nairobi","event type":"Armed Assault","latitude":-1.283332944,"event id":1060095,"event date":"27-May","country":"Kenya","event title":null,"longitude":36.81666565,"id":"a62ie2sm1emt","total deaths":6,"group":"Mungiki Sect (Kenya)","total injuries":0,"state":"Nairobi Area"},"type":"Feature","geometry":{"type":"Point","coordinates":[36.81666565,-1.283332944]}},{"properties":{"city":"Nyeri","event type":"Armed Assault","latitude":null,"event id":1061162,"event date":"31-May","country":"Kenya","event title":null,"longitude":null,"id":"a62ie2xrxiky","total deaths":5,"group":"Mungiki Sect (Kenya)","total injuries":0,"state":"Central"},"type":"Feature","geometry":null},{"properties":{"city":"Murang'a","event type":"Armed Assault","latitude":null,"event id":1061267,"event date":"4-Jun","country":"Kenya","event title":null,"longitude":null,"id":"a62ie33t6vmj","total deaths":4,"group":"Mungiki Sect (Kenya)","total injuries":0,"state":"Central"},"type":"Feature","geometry":null},{"properties":{"city":"Nairobi","event type":"Armed Assault","latitude":-1.283332944,"event id":1061127,"event date":"30-May","country":"Kenya","event title":null,"longitude":36.81666565,"id":"a62ie2sufmr8","total deaths":1,"group":"Unknown","total injuries":0,"state":"Nairobi Area"},"type":"Feature","geometry":{"type":"Point","coordinates":[36.81666565,-1.283332944]}},{"properties":{"city":"Nairobi","event type":"Arson","latitude":-1.283332944,"event id":1061704,"event date":"30-May","country":"Kenya","event title":null,"longitude":36.81666565,"id":"a62ie33fp1fr","total deaths":0,"group":"Mungiki Sect (Kenya)","total injuries":0,"state":"Nairobi Area"},"type":"Feature","geometry":{"type":"Point","coordinates":[36.81666565,-1.283332944]}},{"properties":{"city":"Nairobi","event type":"Bombing","latitude":-1.283332944,"event id":1062347,"event date":"11-Jun","country":"Kenya","event title":null,"longitude":36.81666565,"id":"a62ie2x96uyk","total deaths":1,"group":"Unknown","total injuries":30,"state":"Nairobi Area"},"type":"Feature","geometry":{"type":"Point","coordinates":[36.81666565,-1.283332944]}},{"properties":{"city":"Mandera","event type":"Hostage Taking/Kidnapping","latitude":null,"event id":1062859,"event date":"14-Jun","country":"Kenya","event title":null,"longitude":null,"id":"a62ie3105yei","total deaths":0,"group":"Unknown","total injuries":0,"state":"North Eastern"},"type":"Feature","geometry":null},{"properties":{"city":"Nairobi","event type":"Armed Assault","latitude":-1.283332944,"event id":1063413,"event date":"21-Jun","country":"Kenya","event title":null,"longitude":36.81666565,"id":"a62ie2r2czup","total deaths":3,"group":"Unknown","total injuries":0,"state":"Nairobi Area"},"type":"Feature","geometry":{"type":"Point","coordinates":[36.81666565,-1.283332944]}},{"properties":{"city":"Nairobi","event type":"Armed Assault","latitude":-1.283332944,"event id":1063410,"event date":"21-Jun","country":"Kenya","event title":null,"longitude":36.81666565,"id":"a62ie2ykr2pr","total deaths":0,"group":"Unknown","total injuries":0,"state":"Nairobi Area"},"type":"Feature","geometry":{"type":"Point","coordinates":[36.81666565,-1.283332944]}},{"properties":{"city":"Nairobi","event type":"Bombing","latitude":-1.283332944,"event id":1063409,"event date":"21-Jun","country":"Kenya","event title":null,"longitude":36.81666565,"id":"a62ie2twwfma","total deaths":8,"group":"Unknown","total injuries":0,"state":"Nairobi Area"},"type":"Feature","geometry":{"type":"Point","coordinates":[36.81666565,-1.283332944]}},{"properties":{"city":"Baringo","event type":"Armed Assault","latitude":null,"event id":1063844,"event date":"25-Jun","country":"Kenya","event title":null,"longitude":null,"id":"a62ie34zj1sy","total deaths":1,"group":"Unknown","total injuries":2,"state":"Rift Valley"},"type":"Feature","geometry":null},{"properties":{"city":"Mandera","event type":"Armed Assault","latitude":null,"event id":1063860,"event date":"19-Jun","country":"Kenya","event title":null,"longitude":null,"id":"a62ie31kiktt","total deaths":1,"group":"Unknown","total injuries":0,"state":"North Eastern"},"type":"Feature","geometry":null},{"properties":{"city":"Nairobi","event type":"Armed Assault","latitude":-1.283332944,"event id":1063901,"event date":"27-Jun","country":"Kenya","event title":null,"longitude":36.81666565,"id":"a62ie2yu69xh","total deaths":5,"group":"Mungiki Sect (Kenya)","total injuries":0,"state":"Nairobi Area"},"type":"Feature","geometry":{"type":"Point","coordinates":[36.81666565,-1.283332944]}},{"properties":{"city":"Nairobi","event type":"Armed Assault","latitude":-1.283332944,"event id":1063553,"event date":"26-Jun","country":"Kenya","event title":null,"longitude":36.81666565,"id":"a62ie2rz6bga","total deaths":0,"group":"Mungiki Sect (Kenya)","total injuries":1,"state":"Nairobi Area"},"type":"Feature","geometry":{"type":"Point","coordinates":[36.81666565,-1.283332944]}},{"properties":{"city":"Nairobi","event type":"Robbery","latitude":-1.283332944,"event id":1063976,"event date":"29-Jun","country":"Kenya","event title":null,"longitude":36.81666565,"id":"a62ie2yy76sv","total deaths":4,"group":"Mungiki Sect (Kenya)","total injuries":3,"state":"Nairobi Area"},"type":"Feature","geometry":{"type":"Point","coordinates":[36.81666565,-1.283332944]}},{"properties":{"city":"Nairobi","event type":"Armed Assault","latitude":-1.283332944,"event id":1063980,"event date":"29-Jun","country":"Kenya","event title":null,"longitude":36.81666565,"id":"a62ie31tnj5o","total deaths":0,"group":"Mungiki Sect (Kenya)","total injuries":0,"state":"Nairobi Area"},"type":"Feature","geometry":{"type":"Point","coordinates":[36.81666565,-1.283332944]}},{"properties":{"city":"Kagumo","event type":"Armed Assault","latitude":null,"event id":1063965,"event date":"29-Jun","country":"Kenya","event title":null,"longitude":null,"id":"a62ie2ylfvu4","total deaths":2,"group":"Mungiki Sect (Kenya)","total injuries":0,"state":"Central"},"type":"Feature","geometry":null},{"properties":{"city":"Nairobi","event type":"Armed Assault","latitude":-1.283332944,"event id":1064039,"event date":"2-Jul","country":"Kenya","event title":null,"longitude":36.81666565,"id":"a62ie35oshc6","total deaths":0,"group":"Mungiki Sect (Kenya)","total injuries":0,"state":"Nairobi Area"},"type":"Feature","geometry":{"type":"Point","coordinates":[36.81666565,-1.283332944]}},{"properties":{"city":"Nyeri","event type":"Armed Assault","latitude":null,"event id":1064768,"event date":"15-Jul","country":"Kenya","event title":null,"longitude":null,"id":"a62ie2t6wa0s","total deaths":0,"group":"Mungiki Sect (Kenya)","total injuries":0,"state":"Central"},"type":"Feature","geometry":null},{"properties":{"city":"Nairobi","event type":"Armed Assault","latitude":-1.283332944,"event id":1064933,"event date":"15-Jul","country":"Kenya","event title":null,"longitude":36.81666565,"id":"a62ie319ww40","total deaths":1,"group":"Unknown","total injuries":1,"state":"Nairobi Area"},"type":"Feature","geometry":{"type":"Point","coordinates":[36.81666565,-1.283332944]}},{"properties":{"city":"Nairobi","event type":"Armed Assault","latitude":-1.283332944,"event id":1064929,"event date":"15-Jul","country":"Kenya","event title":null,"longitude":36.81666565,"id":"a62ie2v7jppg","total deaths":0,"group":"Unknown","total injuries":0,"state":"Nairobi Area"},"type":"Feature","geometry":{"type":"Point","coordinates":[36.81666565,-1.283332944]}},{"properties":{"city":"Unknown","event type":"Armed Assault","latitude":1.0,"event id":1065305,"event date":"20-Jul","country":"Kenya","event title":null,"longitude":38.0,"id":"a62ie32ec4j8","total deaths":0,"group":"Unknown","total injuries":0,"state":"Unknown"},"type":"Feature","geometry":{"type":"Point","coordinates":[38.0,1.0]}},{"properties":{"city":"Unknown","event type":"Hostage Taking/Kidnapping","latitude":1.0,"event id":1065304,"event date":"20-Jul","country":"Kenya","event title":null,"longitude":38.0,"id":"a62ie2ses7gx","total deaths":2,"group":"Unknown","total injuries":0,"state":"Unknown"},"type":"Feature","geometry":{"type":"Point","coordinates":[38.0,1.0]}},{"properties":{"city":"Unknown","event type":"Hostage Taking/Kidnapping","latitude":1.0,"event id":1065307,"event date":"18-Jul","country":"Kenya","event title":null,"longitude":38.0,"id":"a62ie2z3z9sm","total deaths":1,"group":"Unknown","total injuries":0,"state":"Unknown"},"type":"Feature","geometry":{"type":"Point","coordinates":[38.0,1.0]}},{"properties":{"city":"Unknown","event type":"Armed Assault","latitude":1.0,"event id":1065308,"event date":"18-Jul","country":"Kenya","event title":null,"longitude":38.0,"id":"a62ie3322jg3","total deaths":0,"group":"Unknown","total injuries":0,"state":"Unknown"},"type":"Feature","geometry":{"type":"Point","coordinates":[38.0,1.0]}},{"properties":{"city":"Kalaha","event type":"Armed Assault","latitude":null,"event id":1070424,"event date":"20-Oct","country":"Kenya","event title":null,"longitude":null,"id":"a62ie36trctv","total deaths":0,"group":"Sabaot Land Defence Forces (SLDF) - Kenya","total injuries":0,"state":"Rift Valley"},"type":"Feature","geometry":null},{"properties":{"city":"Kaimugul","event type":"Armed Assault","latitude":null,"event id":1070432,"event date":"17-Oct","country":"Kenya","event title":null,"longitude":null,"id":"a62ie36v7cna","total deaths":2,"group":"Sabaot Land Defence Forces (SLDF) - Kenya","total injuries":0,"state":"Rift Valley"},"type":"Feature","geometry":null},{"properties":{"city":"Kaimugul","event type":"Armed Assault","latitude":null,"event id":1070437,"event date":"19-Oct","country":"Kenya","event title":null,"longitude":null,"id":"a62ie331r8it","total deaths":0,"group":"Sabaot Land Defence Forces (SLDF) - Kenya","total injuries":0,"state":"Rift Valley"},"type":"Feature","geometry":null},{"properties":{"city":"Mount Eljon","event type":"Armed Assault","latitude":null,"event id":1074139,"event date":"11-Jan","country":"Kenya","event title":null,"longitude":null,"id":"a62ie35kwefc","total deaths":0,"group":"Sabaot Land Defence Forces (SLDF) - Kenya","total injuries":0,"state":"Western"},"type":"Feature","geometry":null},{"properties":{"city":"Unknown","event type":"Armed Assault","latitude":null,"event id":1074146,"event date":"13-Jan","country":"Kenya","event title":null,"longitude":null,"id":"a62ie2y9upr8","total deaths":2,"group":"Sabaot Land Defence Forces (SLDF) - Kenya","total injuries":0,"state":"Western"},"type":"Feature","geometry":null},{"properties":{"city":"Unknown","event type":"Armed Assault","latitude":null,"event id":1074156,"event date":"13-Jan","country":"Kenya","event title":null,"longitude":null,"id":"a62ie2qw9xu8","total deaths":0,"group":"Sabaot Land Defence Forces (SLDF) - Kenya","total injuries":1,"state":"Western"},"type":"Feature","geometry":null},{"properties":{"city":"Unknown","event type":"Armed Assault","latitude":null,"event id":1074136,"event date":"8-Jan","country":"Kenya","event title":null,"longitude":null,"id":"a62ie350fkzb","total deaths":2,"group":"Sabaot Land Defence Forces (SLDF) - Kenya","total injuries":0,"state":"Western"},"type":"Feature","geometry":null},{"properties":{"city":"Unknown","event type":"Arson","latitude":null,"event id":1074154,"event date":"13-Jan","country":"Kenya","event title":null,"longitude":null,"id":"a62ie2y5694y","total deaths":0,"group":"Sabaot Land Defence Forces (SLDF) - Kenya","total injuries":0,"state":"Western"},"type":"Feature","geometry":null},{"properties":{"city":"Cheptai","event type":"Armed Assault","latitude":null,"event id":1074514,"event date":"16-Jan","country":"Kenya","event title":null,"longitude":null,"id":"a62ie2qrpzqx","total deaths":1,"group":"Sabaot Land Defence Forces (SLDF) - Kenya","total injuries":0,"state":"Western"},"type":"Feature","geometry":null},{"properties":{"city":"Trans-Nzoia","event type":"Armed Assault","latitude":null,"event id":1074537,"event date":"24-Apr","country":"Kenya","event title":null,"longitude":null,"id":"a62ie2z9q1mr","total deaths":5,"group":"Unknown","total injuries":5,"state":"Rift Valley"},"type":"Feature","geometry":null},{"properties":{"city":"Kopsiro","event type":"Armed Assault","latitude":null,"event id":1074160,"event date":"13-Jan","country":"Kenya","event title":null,"longitude":null,"id":"a62ie2t8s3u4","total deaths":1,"group":"Sabaot Land Defence Forces (SLDF) - Kenya","total injuries":0,"state":"Western"},"type":"Feature","geometry":null},{"properties":{"city":"Kitale","event type":"Robbery","latitude":null,"event id":1074559,"event date":"3-May","country":"Kenya","event title":null,"longitude":null,"id":"a62ie3516zex","total deaths":0,"group":"Sabaot Land Defence Forces (SLDF) - Kenya","total injuries":0,"state":"Rift Valley"},"type":"Feature","geometry":null},{"properties":{"city":"Chebkube","event type":"Hostage Taking/Kidnapping","latitude":null,"event id":1074512,"event date":"14-Jan","country":"Kenya","event title":null,"longitude":null,"id":"a62ie32xwpfu","total deaths":0,"group":"Sabaot Land Defence Forces (SLDF) - Kenya","total injuries":0,"state":"Western"},"type":"Feature","geometry":null},{"properties":{"city":"Kitale","event type":"Armed Assault","latitude":null,"event id":1074557,"event date":"3-May","country":"Kenya","event title":null,"longitude":null,"id":"a62ie2vxkui0","total deaths":10,"group":"Sabaot Land Defence Forces (SLDF) - Kenya","total injuries":0,"state":"Rift Valley"},"type":"Feature","geometry":null},{"properties":{"city":"Chebyuk","event type":"Armed Assault","latitude":null,"event id":1074515,"event date":"3-Mar","country":"Kenya","event title":null,"longitude":null,"id":"a62ie33enzk9","total deaths":7,"group":"Sabaot Land Defence Forces (SLDF) - Kenya","total injuries":0,"state":"Western"},"type":"Feature","geometry":null},{"properties":{"city":"Tindibare","event type":"Armed Assault","latitude":null,"event id":1074167,"event date":"14-Jan","country":"Kenya","event title":null,"longitude":null,"id":"a62ie2y8txsw","total deaths":2,"group":"Sabaot Land Defence Forces (SLDF) - Kenya","total injuries":0,"state":"Western"},"type":"Feature","geometry":null},{"properties":{"city":"Mandera","event type":"Hostage Taking/Kidnapping","latitude":null,"event id":1074565,"event date":"10-Jun","country":"Kenya","event title":null,"longitude":null,"id":"a62ie34wgkc4","total deaths":0,"group":"Unknown","total injuries":0,"state":"North Eastern"},"type":"Feature","geometry":null},{"properties":{"city":"Trans-Nzoia","event type":"Robbery","latitude":null,"event id":1074562,"event date":"24-Apr","country":"Kenya","event title":null,"longitude":null,"id":"a62ie2ttuepj","total deaths":0,"group":"Sabaot Land Defence Forces (SLDF) - Kenya","total injuries":0,"state":"Rift Valley"},"type":"Feature","geometry":null},{"properties":{"city":"Chebyuk","event type":"Armed Assault","latitude":null,"event id":1074550,"event date":"1-May","country":"Kenya","event title":null,"longitude":null,"id":"a62ie2tned9f","total deaths":1,"group":"Sabaot Land Defence Forces (SLDF) - Kenya","total injuries":0,"state":"Western"},"type":"Feature","geometry":null},{"properties":{"city":"Chebyuk","event type":"Robbery","latitude":null,"event id":1074517,"event date":"3-Mar","country":"Kenya","event title":null,"longitude":null,"id":"a62ie33z7qn9","total deaths":0,"group":"Sabaot Land Defence Forces (SLDF) - Kenya","total injuries":0,"state":"Western"},"type":"Feature","geometry":null},{"properties":{"city":"Mount Elgon","event type":"Armed Assault","latitude":null,"event id":1074535,"event date":"13-Apr","country":"Kenya","event title":null,"longitude":null,"id":"a62ie2td5rnm","total deaths":3,"group":"Sabaot Land Defence Forces (SLDF) - Kenya","total injuries":0,"state":"Western"},"type":"Feature","geometry":null},{"properties":{"city":"Chebyuk","event type":"Hostage Taking/Kidnapping","latitude":null,"event id":1074520,"event date":"3-Mar","country":"Kenya","event title":null,"longitude":null,"id":"a62ie2rb51xl","total deaths":0,"group":"Sabaot Land Defence Forces (SLDF) - Kenya","total injuries":0,"state":"Western"},"type":"Feature","geometry":null},{"properties":{"city":"Kilimanini","event type":"Hostage Taking/Kidnapping","latitude":null,"event id":1081542,"event date":"13-Jan","country":"Kenya","event title":null,"longitude":null,"id":"a62ie2tia99l","total deaths":null,"group":"Unknown","total injuries":null,"state":"Central"},"type":"Feature","geometry":null},{"properties":{"city":"Nairobi","event type":"Robbery","latitude":-1.283332944,"event id":1082041,"event date":"15-Jan","country":"Kenya","event title":null,"longitude":36.81666565,"id":"a62ie2up85m5","total deaths":0,"group":"Sabaot Land Defence Forces (SLDF) - Kenya","total injuries":0,"state":"Nairobi Area"},"type":"Feature","geometry":{"type":"Point","coordinates":[36.81666565,-1.283332944]}},{"properties":{"city":"Nairobi","event type":"Armed Assault","latitude":-1.283332944,"event id":1082154,"event date":"16-Jan","country":"Kenya","event title":null,"longitude":36.81666565,"id":"a62ie2xbosac","total deaths":0,"group":"Mungiki Sect (Kenya)","total injuries":5,"state":"Nairobi Area"},"type":"Feature","geometry":{"type":"Point","coordinates":[36.81666565,-1.283332944]}},{"properties":{"city":"Nairobi","event type":"Armed Assault","latitude":-1.283332944,"event id":1083481,"event date":"23-Jan","country":"Kenya","event title":null,"longitude":36.81666565,"id":"a62ie33znf11","total deaths":2,"group":"Unknown","total injuries":0,"state":"Nairobi Area"},"type":"Feature","geometry":{"type":"Point","coordinates":[36.81666565,-1.283332944]}},{"properties":{"city":"Nakuru","event type":"Armed Assault","latitude":null,"event id":1084292,"event date":"24-Jan","country":"Kenya","event title":null,"longitude":null,"id":"a62ie2qzimkk","total deaths":8,"group":"Unknown","total injuries":0,"state":"Unknown"},"type":"Feature","geometry":null},{"properties":{"city":"Embakasi","event type":"Armed Assault","latitude":null,"event id":1085292,"event date":"29-Jan","country":"Kenya","event title":null,"longitude":null,"id":"a62ie333c8xw","total deaths":1,"group":"Unknown","total injuries":0,"state":"Nairobi Area"},"type":"Feature","geometry":null},{"properties":{"city":"Nakuru","event type":"Armed Assault","latitude":null,"event id":1085534,"event date":"25-Jan","country":"Kenya","event title":null,"longitude":null,"id":"a62ie35g1roj","total deaths":8,"group":"Unknown","total injuries":0,"state":"Rift Valley"},"type":"Feature","geometry":null},{"properties":{"city":"Molo","event type":"Armed Assault","latitude":null,"event id":1085520,"event date":"26-Jan","country":"Kenya","event title":null,"longitude":null,"id":"a62ie2zjuo1r","total deaths":18,"group":"Unknown","total injuries":0,"state":"Rift Valley"},"type":"Feature","geometry":null},{"properties":{"city":"Nairobi","event type":"Armed Assault","latitude":-1.283332944,"event id":1107443,"event date":"14-Apr","country":"Kenya","event title":"Mungiki Derail Passenger Train in Nairobi's Eastlands, Kill Eleven Civilians","longitude":36.81666565,"id":"a62ie2ri4hmw","total deaths":11,"group":"Mungiki Sect (Kenya)","total injuries":0,"state":"Nairobi Area"},"type":"Feature","geometry":{"type":"Point","coordinates":[36.81666565,-1.283332944]}},{"properties":{"city":"Unknown","event type":"Armed Assault","latitude":null,"event id":1107456,"event date":null,"country":"Kenya","event title":null,"longitude":null,"id":"a62ie2qqsqzx","total deaths":11,"group":"Mungiki Sect (Kenya)","total injuries":0,"state":"Nairobi Area"},"type":"Feature","geometry":null},{"properties":{"city":"Nairobi","event type":"Arson","latitude":-1.283332944,"event id":1108316,"event date":"31-Dec","country":"Kenya","event title":null,"longitude":36.81666565,"id":"a62ie2ybopk4","total deaths":35,"group":"Unknown","total injuries":0,"state":"Nairobi Area"},"type":"Feature","geometry":{"type":"Point","coordinates":[36.81666565,-1.283332944]}},{"properties":{"city":"Nairobi","event type":"Armed Assault","latitude":-1.283332944,"event id":1112421,"event date":"28-Apr","country":"Kenya","event title":"Leader of the Kenya National Youth Alliance Killed Naiyasha.","longitude":36.81666565,"id":"a62ie2upc7rd","total deaths":2,"group":"Mungiki Sect (Kenya)","total injuries":0,"state":"Nairobi Area"},"type":"Feature","geometry":{"type":"Point","coordinates":[36.81666565,-1.283332944]}},{"properties":{"city":"Loki","event type":"Armed Assault","latitude":null,"event id":1113872,"event date":"9-May","country":"Kenya","event title":"Gunmen Kill United Nations Official in Lokichoggio, Kenya","longitude":null,"id":"a62ie2vm1cos","total deaths":1,"group":"Unknown","total injuries":0,"state":"Rift Valley"},"type":"Feature","geometry":null},{"properties":{"city":"Unknown","event type":"Armed Assault","latitude":null,"event id":1115697,"event date":"21-May","country":"Kenya","event title":null,"longitude":null,"id":"a62ie312urpr","total deaths":11,"group":"Unknown","total injuries":0,"state":"Western"},"type":"Feature","geometry":null},{"properties":{"city":"Liboi","event type":"Armed Assault","latitude":null,"event id":1117418,"event date":"1-Jun","country":"Kenya","event title":null,"longitude":null,"id":"a62ie2r65d0e","total deaths":9,"group":"Unknown","total injuries":0,"state":"North Eastern"},"type":"Feature","geometry":null},{"properties":{"city":"Nairobi","event type":"Hijacking","latitude":-1.283332944,"event id":1117613,"event date":"15-Apr","country":"Kenya","event title":"Mungiki Hijack Bus in Nairobi","longitude":36.81666565,"id":"a62ie312oivy","total deaths":0,"group":"Mungiki Sect (Kenya)","total injuries":0,"state":"Nairobi Area"},"type":"Feature","geometry":{"type":"Point","coordinates":[36.81666565,-1.283332944]}},{"properties":{"city":"Wajir","event type":"Armed Assault","latitude":null,"event id":1118518,"event date":"31-May","country":"Kenya","event title":"Militiamen Attacked Police Post Freeing Suspected AQIM Members who Were Arrested Earlier That Day","longitude":null,"id":"a62ie2z1evbq","total deaths":0,"group":"Al Shabaab (The Young Islamic Movement)","total injuries":0,"state":"North Eastern"},"type":"Feature","geometry":null},{"properties":{"city":"Nairobi","event type":"Armed Assault","latitude":-1.283332944,"event id":1128122,"event date":"14-Jul","country":"Kenya","event title":null,"longitude":36.81666565,"id":"a62ie35u4n5t","total deaths":5,"group":"Unknown","total injuries":0,"state":"Nairobi Area"},"type":"Feature","geometry":{"type":"Point","coordinates":[36.81666565,-1.283332944]}},{"properties":{"city":"Unknown","event type":"Armed Assault","latitude":null,"event id":1128787,"event date":"16-Jul","country":"Kenya","event title":null,"longitude":null,"id":"a62ie325725l","total deaths":5,"group":"Unknown","total injuries":0,"state":"North Eastern"},"type":"Feature","geometry":null},{"properties":{"city":"Mathari","event type":"Armed Assault","latitude":null,"event id":1136968,"event date":"29-Aug","country":"Kenya","event title":null,"longitude":null,"id":"a62ie2qxsyhz","total deaths":0,"group":"Mungiki Sect (Kenya)","total injuries":0,"state":"Central"},"type":"Feature","geometry":null},{"properties":{"city":"Mandera","event type":"Armed Assault","latitude":null,"event id":1139739,"event date":"7-Sep","country":"Kenya","event title":null,"longitude":null,"id":"a62ie3108vc6","total deaths":17,"group":"Unknown","total injuries":20,"state":"North Eastern"},"type":"Feature","geometry":null},{"properties":{"city":"Nairobi","event type":"Arson","latitude":-1.283332944,"event id":1142265,"event date":"17-Oct","country":"Kenya","event title":"Mungikli firebomb a bus in Nairobi.","longitude":36.81666565,"id":"a62ie33v409u","total deaths":null,"group":"Unknown","total injuries":1,"state":"Nairobi Area"},"type":"Feature","geometry":{"type":"Point","coordinates":[36.81666565,-1.283332944]}},{"properties":{"city":"Nairobi","event type":"Bombing","latitude":-1.283332944,"event id":1142286,"event date":"25-Apr","country":"Kenya","event title":"Mungiki Bomb Bus They Hijacked in Nairobi","longitude":36.81666565,"id":"a62ie2zf5fhj","total deaths":0,"group":"Mungiki Sect (Kenya)","total injuries":0,"state":"Nairobi Area"},"type":"Feature","geometry":{"type":"Point","coordinates":[36.81666565,-1.283332944]}},{"properties":{"city":"Mombasa","event type":"Hijacking","latitude":-4.050000191,"event id":1143633,"event date":"15-Nov","country":"Kenya","event title":"Somali Pirates Hijack Saudi oil tanker","longitude":39.66666794,"id":"a62ie2vdzwgw","total deaths":null,"group":"Pirates","total injuries":null,"state":"Coast"},"type":"Feature","geometry":{"type":"Point","coordinates":[39.66666794,-4.050000191]}},{"properties":{"city":"Elwaq","event type":"Hostage Taking/Kidnapping","latitude":null,"event id":1143717,"event date":"9-Nov","country":"Kenya","event title":"Two female aid workers taken in Kenya","longitude":null,"id":"a62ie35m6dau","total deaths":null,"group":"Unknown","total injuries":null,"state":"North Eastern"},"type":"Feature","geometry":null},{"properties":{"city":"Mandera","event type":"Arson","latitude":null,"event id":1152531,"event date":"7-Sep","country":"Kenya","event title":"House Burnt in Mandera","longitude":null,"id":"a62ie2uazave","total deaths":0,"group":"Unknown","total injuries":0,"state":"North Eastern"},"type":"Feature","geometry":null},{"properties":{"city":"Nairobi","event type":"Armed Assault","latitude":-1.283332944,"event id":2876456,"event date":"24-Jun","country":"Kenya","event title":"One Civilian Wounded in Armed Attack in Nairobi, Kenya","longitude":36.81666565,"id":"a62ie3021uj8","total deaths":0,"group":"Unknown","total injuries":1,"state":"Nairobi Area"},"type":"Feature","geometry":{"type":"Point","coordinates":[36.81666565,-1.283332944]}},{"properties":{"city":"Elwaq","event type":"Bombing","latitude":null,"event id":2884507,"event date":"9-Nov","country":"Kenya","event title":"Religious Workers Kidnapped in Armed Attack and Bombing in El Wak, North Eastern Province, Kenya","longitude":null,"id":"a62ie2v7jq5a","total deaths":null,"group":"Unknown","total injuries":null,"state":"North Eastern"},"type":"Feature","geometry":null},{"properties":{"city":"Mount Elgon","event type":"Armed Assault","latitude":null,"event id":2889428,"event date":"12-Nov","country":"Kenya","event title":"Three Civilians Wounded in Western Province, Kenya","longitude":null,"id":"a62ie2xwamvg","total deaths":0,"group":"Sabaot Land Defence Forces (SLDF) - Kenya","total injuries":3,"state":"Western"},"type":"Feature","geometry":null},{"properties":{"city":"Dadaab","event type":"Armed Assault","latitude":null,"event id":2893358,"event date":"8-Dec","country":"Kenya","event title":"Aid Worker Wounded in Armed Attack","longitude":null,"id":"a62ie2vo31di","total deaths":0,"group":"Unknown","total injuries":1,"state":"North Eastern"},"type":"Feature","geometry":null},{"properties":{"city":null,"event type":"Armed Assault","latitude":null,"event id":2930042,"event date":"31-May","country":"Kenya","event title":"Two Police Officers Wounded in Dadajabula, Kenya, near Doolow, Gedo, Somalia","longitude":null,"id":"a62ie2s0f68s","total deaths":0,"group":"Al Shabaab (The Young Islamic Movement)","total injuries":2,"state":null},"type":"Feature","geometry":null},{"properties":{"city":"Mandera","event type":"Hostage Taking/Kidnapping","latitude":null,"event id":2953721,"event date":"18-Jul","country":"Kenya","event title":"Armed Men Kidnap Three Foreign Aid Workers","longitude":null,"id":"a62ie339pmeo","total deaths":0,"group":"Al Shabaab (The Young Islamic Movement)","total injuries":0,"state":"North Eastern"},"type":"Feature","geometry":null},{"properties":{"city":"Mandera","event type":"Armed Assault","latitude":null,"event id":2977106,"event date":"17-Jul","country":"Kenya","event title":"Ten Armed Assailants Attack a Security Guard in Mandera, North Eastern Province, Kenya","longitude":null,"id":"a62ie35j4rm0","total deaths":0,"group":"Al Shabaab (The Young Islamic Movement)","total injuries":1,"state":"North Eastern"},"type":"Feature","geometry":null},{"properties":{"city":"Unknown","event type":"Armed Assault","latitude":null,"event id":3056507,"event date":"14-Feb","country":"Kenya","event title":"Gunmen Kill Two Kenyan Soldiers, Injure Six Others in Ambush","longitude":null,"id":"a62ie33qtdj6","total deaths":2,"group":"Unknown","total injuries":6,"state":"Nairobi Area"},"type":"Feature","geometry":null},{"properties":{"city":"Nairobi","event type":"Hostage Taking/Kidnapping","latitude":-1.283332944,"event id":3060059,"event date":"17-Feb","country":"Kenya","event title":"Canadian Kidnapped from Gigiri, Nairobi","longitude":36.81666565,"id":"a62ie2xfug6m","total deaths":0,"group":"Unknown","total injuries":0,"state":"Nairobi Area"},"type":"Feature","geometry":{"type":"Point","coordinates":[36.81666565,-1.283332944]}},{"properties":{"city":"Nairobi","event type":"Arson","latitude":-1.283332944,"event id":3073994,"event date":"15-Apr","country":"Kenya","event title":"Mungiki Sect Members Setup Roadblocks, Petrol Bomb Vehicles in Nairobi","longitude":36.81666565,"id":"a62ie36r4xn4","total deaths":0,"group":"Mungiki Sect (Kenya)","total injuries":0,"state":"Nairobi Area"},"type":"Feature","geometry":{"type":"Point","coordinates":[36.81666565,-1.283332944]}},{"properties":{"city":"Todonyang","event type":"Armed Assault","latitude":null,"event id":3179665,"event date":"26-Feb","country":"Kenya","event title":"One Kenyan Security Officer Killed Near Border","longitude":null,"id":"a62ie2y6y6r7","total deaths":1,"group":"Unknown","total injuries":0,"state":"Eastern"},"type":"Feature","geometry":null},{"properties":{"city":null,"event type":"Hostage Taking/Kidnapping","latitude":null,"event id":3179697,"event date":"24-Jan","country":"Kenya","event title":"Three Fishermen Kidnapped in Kenya","longitude":null,"id":"a62ie2s07ddu","total deaths":0,"group":"Unknown","total injuries":0,"state":"Eastern"},"type":"Feature","geometry":null},{"properties":{"city":"Unknown","event type":"Armed Assault","latitude":null,"event id":3179681,"event date":"24-Jan","country":"Kenya","event title":"Three Policemen Killed in Kenya","longitude":null,"id":"a62ie34jl5f0","total deaths":3,"group":"Unknown","total injuries":0,"state":"Eastern"},"type":"Feature","geometry":null},{"properties":{"city":"Todonyang","event type":"Hostage Taking/Kidnapping","latitude":null,"event id":3179674,"event date":"26-Feb","country":"Kenya","event title":"Five Kenyan Security Officers Kidnapped Near Border","longitude":null,"id":"a62ie35egygc","total deaths":0,"group":"Unknown","total injuries":0,"state":"Eastern"},"type":"Feature","geometry":null},{"properties":{"city":"Nairobi","event type":"Armed Assault","latitude":-1.283332944,"event id":3183569,"event date":"13-Jun","country":"Kenya","event title":"Grenade Attack at Rally in Nairobi","longitude":36.81666565,"id":"a62ie2u1omsd","total deaths":6,"group":"Al Shabaab (The Young Islamic Movement)","total injuries":109,"state":"Nairobi Area"},"type":"Feature","geometry":{"type":"Point","coordinates":[36.81666565,-1.283332944]}},{"properties":{"city":null,"event type":"Armed Assault","latitude":null,"event id":3207644,"event date":"26-Feb","country":"Kenya","event title":"Armed Attack by Suspected Merille militia Killed One  Police Officer in Turkana, Rift Valley, Kenya","longitude":null,"id":"a62ie2rhgm6f","total deaths":1,"group":"Unknown","total injuries":0,"state":"Rift Valley"},"type":"Feature","geometry":null},{"properties":{"city":"Liboi","event type":"Armed Assault","latitude":null,"event id":3226006,"event date":"30-Mar","country":"Kenya","event title":"Al-Shabaab Al-Islamiya (MYM) Militants Attack Paramilitary Camp in North Eastern Province, Kenya.","longitude":null,"id":"a62ie36oh3b5","total deaths":0,"group":"Al Shabaab (The Young Islamic Movement)","total injuries":3,"state":"North Eastern"},"type":"Feature","geometry":null},{"properties":{"city":"Liboi","event type":"Armed Assault","latitude":null,"event id":3233542,"event date":"20-Jul","country":"Kenya","event title":"Somali Assailants Attack Kenyan Border Patrol","longitude":null,"id":"a62ie2rbifa7","total deaths":0,"group":"Al Shabaab (The Young Islamic Movement)","total injuries":1,"state":"North Eastern"},"type":"Feature","geometry":null},{"properties":{"city":"Unknown","event type":"Hostage Taking/Kidnapping","latitude":null,"event id":3260472,"event date":"22-Jan","country":"Kenya","event title":"Assailants Then Kidnapped Three Fishermen","longitude":null,"id":"a62ie2ugc16q","total deaths":0,"group":"Unknown","total injuries":0,"state":"Rift Valley"},"type":"Feature","geometry":null},{"properties":{"city":"Unknown","event type":"Armed Assault","latitude":null,"event id":3260430,"event date":"22-Jan","country":"Kenya","event title":"Armed Assailants Fired Upon People","longitude":null,"id":"a62ie2thfv51","total deaths":6,"group":"Unknown","total injuries":1,"state":"Rift Valley"},"type":"Feature","geometry":null},{"properties":{"city":"Nairobi","event type":"Bombing","latitude":-1.283332944,"event id":3260390,"event date":"12-Jan","country":"Kenya","event title":"Assailant Boarded a Commuter Bus and Placed an Explosive Package in the Empty Bus","longitude":36.81666565,"id":"a62ie2ruehe9","total deaths":0,"group":"Unknown","total injuries":0,"state":"Nairobi Area"},"type":"Feature","geometry":{"type":"Point","coordinates":[36.81666565,-1.283332944]}},{"properties":{"city":"Liboi","event type":"Armed Assault","latitude":null,"event id":3300296,"event date":"15-Apr","country":"Kenya","event title":"Suspected Al-Shabaab Militants Raid Kenyan Town","longitude":null,"id":"a62ie2ymkr80","total deaths":0,"group":"Al Shabaab (The Young Islamic Movement)","total injuries":0,"state":"North Eastern"},"type":"Feature","geometry":null},{"properties":{"city":"Wajir","event type":"Armed Assault","latitude":null,"event id":3341098,"event date":"27-May","country":"Kenya","event title":"Suspected Al-Shabaab Al-Islamiya Attack Village in Dadajabula, Wajir","longitude":null,"id":"a62ie2udw4qo","total deaths":0,"group":"Al Shabaab (The Young Islamic Movement)","total injuries":5,"state":"North Eastern"},"type":"Feature","geometry":null},{"properties":{"city":"Wajir","event type":"Hostage Taking/Kidnapping","latitude":null,"event id":3342199,"event date":"27-May","country":"Kenya","event title":"Suspected Al-Shabaab Al-Islamiya Militants Kidnap Three Civilians in Dadajabula, Wajir","longitude":null,"id":"a62ie2vysvi4","total deaths":0,"group":"Al Shabaab (The Young Islamic Movement)","total injuries":0,"state":"North Eastern"},"type":"Feature","geometry":null},{"properties":{"city":"Wajir","event type":"Robbery","latitude":null,"event id":3342296,"event date":"27-May","country":"Kenya","event title":"Suspected Al-Shabaab Al-Islamiya Ransack Houses in Dadajabula, Wajir","longitude":null,"id":"a62ie2xbw9cf","total deaths":0,"group":"Al Shabaab (The Young Islamic Movement)","total injuries":0,"state":"North Eastern"},"type":"Feature","geometry":null},{"properties":{"city":"Malaba","event type":"Armed Assault","latitude":null,"event id":3381496,"event date":"30-Jun","country":"Kenya","event title":"Prayer Rally Attacked in Western Province, Kenya","longitude":null,"id":"a62ie2vm6dc5","total deaths":0,"group":"Unknown","total injuries":3,"state":"Western"},"type":"Feature","geometry":null},{"properties":{"city":"Liboi","event type":"Armed Assault","latitude":null,"event id":3393566,"event date":"12-Apr","country":"Kenya","event title":"Assailants Using Firearms and Grenades Attacked a General Service Unit Camp","longitude":null,"id":"a62ie345loep","total deaths":0,"group":"Al Shabaab (The Young Islamic Movement)","total injuries":0,"state":"North Eastern"},"type":"Feature","geometry":null},{"properties":{"city":"Liboi","event type":"Armed Assault","latitude":null,"event id":3393666,"event date":"17-Apr","country":"Kenya","event title":"Armed Assailants Fired Upon Businesses","longitude":null,"id":"a62ie2uplvuh","total deaths":0,"group":"Al Shabaab (The Young Islamic Movement)","total injuries":0,"state":"North Eastern"},"type":"Feature","geometry":null},{"properties":{"city":"Unknown","event type":"Armed Assault","latitude":null,"event id":3400527,"event date":"3-Nov","country":"Kenya","event title":"One Police Officer Killed, One Other Injured in Ambush in Eastern Province","longitude":null,"id":"a62ie2vfc087","total deaths":1,"group":"Oromo Liberation Front (OLF) - Ethiopia","total injuries":1,"state":"Eastern"},"type":"Feature","geometry":null},{"properties":{"city":"Unknown","event type":"Armed Assault","latitude":1.0,"event id":3407761,"event date":"8-Nov","country":"Kenya","event title":"Three Militants Kill Community Organizer Working with Somali Refugees in Kenya","longitude":38.0,"id":"a62ie36s94nb","total deaths":1,"group":"Al Shabaab (The Young Islamic Movement)","total injuries":0,"state":"Unknown"},"type":"Feature","geometry":{"type":"Point","coordinates":[38.0,1.0]}},{"properties":{"city":"Unknown","event type":"Armed Assault","latitude":null,"event id":3415718,"event date":"12-Apr","country":"Kenya","event title":"Armed Assault Kills 26 and Injureds 75 in Nairobi, Kenya, Africa","longitude":null,"id":"a62ie34i22hd","total deaths":26,"group":"Unknown","total injuries":75,"state":"Nairobi Area"},"type":"Feature","geometry":null},{"properties":{"city":"Nairobi","event type":"Armed Assault","latitude":-1.283332944,"event id":3466768,"event date":"3-Dec","country":"Kenya","event title":"Two Policemen Shot and Killed by Suspected Militants in Nairobi","longitude":36.81666565,"id":"a62ie2xxcm2c","total deaths":2,"group":"Al Shabaab (The Young Islamic Movement)","total injuries":0,"state":"Nairobi Area"},"type":"Feature","geometry":{"type":"Point","coordinates":[36.81666565,-1.283332944]}},{"properties":{"city":"Nairobi","event type":"Bombing","latitude":-1.283332944,"event id":3466755,"event date":"3-Dec","country":"Kenya","event title":"One Policemen Killed in Rigged Grenade Attack in Nairobi","longitude":36.81666565,"id":"a62ie2qyr42c","total deaths":1,"group":"Al Shabaab (The Young Islamic Movement)","total injuries":0,"state":"Nairobi Area"},"type":"Feature","geometry":{"type":"Point","coordinates":[36.81666565,-1.283332944]}},{"properties":{"city":"Nairobi","event type":"Bombing","latitude":-1.283332944,"event id":3474383,"event date":"20-Dec","country":"Kenya","event title":"IED Attack at Nairobi Bus Station Injures 40 People","longitude":36.81666565,"id":"a62ie2ymq10f","total deaths":3,"group":"Al Shabaab (The Young Islamic Movement)","total injuries":40,"state":"Nairobi Area"},"type":"Feature","geometry":{"type":"Point","coordinates":[36.81666565,-1.283332944]}},{"properties":{"city":"Nairobi","event type":"Arson","latitude":-1.283332944,"event id":3524670,"event date":"3-Jul","country":"Kenya","event title":"Two Killed, Seven Wounded in Church Arson","longitude":36.81666565,"id":"a62ie35er72c","total deaths":2,"group":"Unknown","total injuries":7,"state":"Nairobi Area"},"type":"Feature","geometry":{"type":"Point","coordinates":[36.81666565,-1.283332944]}},{"properties":{"city":"Nairobi","event type":"Armed Assault","latitude":-1.283332944,"event id":3525687,"event date":"3-Jul","country":"Kenya","event title":"Bishop Killed in Attack on Church in Nairobi","longitude":36.81666565,"id":"a62ie30h94w7","total deaths":1,"group":"Unknown","total injuries":0,"state":"Nairobi Area"},"type":"Feature","geometry":{"type":"Point","coordinates":[36.81666565,-1.283332944]}},{"properties":{"city":"Mandera","event type":"Armed Assault","latitude":null,"event id":3573042,"event date":"23-Feb","country":"Kenya","event title":"Police Station Targeted in Mortar Attack","longitude":null,"id":"a62ie2zf4ffv","total deaths":0,"group":"Unknown","total injuries":0,"state":"North Eastern"},"type":"Feature","geometry":null},{"properties":{"city":"Mandera","event type":"Bombing","latitude":null,"event id":3602742,"event date":"19-Mar","country":"Kenya","event title":"One Civilian Killed in IED Attack in Mandera","longitude":null,"id":"a62ie2trcnft","total deaths":1,"group":"Unknown","total injuries":3,"state":"North Eastern"},"type":"Feature","geometry":null},{"properties":{"city":"Mandera","event type":"Armed Assault","latitude":null,"event id":3603541,"event date":"15-Mar","country":"Kenya","event title":"Five People Injured in Missile Attack in Mandera","longitude":null,"id":"a62ie33fin3v","total deaths":5,"group":"Unknown","total injuries":0,"state":"North Eastern"},"type":"Feature","geometry":null},{"properties":{"city":"Liboi","event type":"Armed Assault","latitude":null,"event id":3614268,"event date":"27-Mar","country":"Kenya","event title":"Suspected Al Shabaab Militants Attack Kenyan Security Base in Liboi","longitude":null,"id":"a62ie2xnonl4","total deaths":0,"group":"Al Shabaab (The Young Islamic Movement)","total injuries":2,"state":"North Eastern"},"type":"Feature","geometry":null},{"properties":{"city":"Liboi","event type":"Armed Assault","latitude":null,"event id":3622621,"event date":"29-Mar","country":"Kenya","event title":"Suspected Al-Shabaab Militants Attack Police Station in Liboi","longitude":null,"id":"a62ie30y0l5z","total deaths":0,"group":"Al Shabaab (The Young Islamic Movement)","total injuries":0,"state":"North Eastern"},"type":"Feature","geometry":null},{"properties":{"city":"Unknown","event type":"Armed Assault","latitude":null,"event id":3622689,"event date":"28-Mar","country":"Kenya","event title":"One Kenyan Policeman Killed in Attack in Border Post","longitude":null,"id":"a62ie341yqle","total deaths":1,"group":"Al Shabaab (The Young Islamic Movement)","total injuries":0,"state":"North Eastern"},"type":"Feature","geometry":null},{"properties":{"city":"Liboi","event type":"Armed Assault","latitude":null,"event id":3632254,"event date":"31-Mar","country":"Kenya","event title":"Militants Target Kenyan Police Station in Liboi","longitude":null,"id":"a62ie2vrz0hw","total deaths":0,"group":"Boko Haram (Nigeria)","total injuries":0,"state":"North Eastern"},"type":"Feature","geometry":null},{"properties":{"city":"Kajiado","event type":"Bombing","latitude":null,"event id":3704670,"event date":"9-May","country":"Kenya","event title":"IED Kills Four, Wounds One in Rift Valley, Kenya","longitude":null,"id":"a62ie2sa6tyw","total deaths":4,"group":"Unknown","total injuries":1,"state":"Rift Valley"},"type":"Feature","geometry":null},{"properties":{"city":"Isiolo","event type":"Armed Assault","latitude":null,"event id":3704655,"event date":"7-May","country":"Kenya","event title":"Militants Attack in Eastern, Kenya","longitude":null,"id":"a62ie36jk6kt","total deaths":2,"group":"Unknown","total injuries":1,"state":"Eastern"},"type":"Feature","geometry":null},{"properties":{"city":"Mandera","event type":"Bombing","latitude":null,"event id":3739880,"event date":"2-Jun","country":"Kenya","event title":"Roadside Bomb Detonates Near Convoy in Mander, Kenya","longitude":null,"id":"a62ie2qj4t16","total deaths":4,"group":"Al Shabaab (The Young Islamic Movement)","total injuries":10,"state":"North Eastern"},"type":"Feature","geometry":null},{"properties":{"city":"Mandera","event type":"Bombing","latitude":null,"event id":3802143,"event date":"27-Jul","country":"Kenya","event title":"One Policeman Killed in IED Attack in Mandera","longitude":null,"id":"a62ie2qcyof9","total deaths":1,"group":"Al Shabaab (The Young Islamic Movement)","total injuries":3,"state":"North Eastern"},"type":"Feature","geometry":null},{"properties":{"city":"Mandera","event type":"Bombing","latitude":null,"event id":3854254,"event date":"3-Sep","country":"Kenya","event title":"One Kenyan Soldiers Killed in IED Attack in Mandera","longitude":null,"id":"a62ie33al4v9","total deaths":1,"group":"Unknown","total injuries":3,"state":"North Eastern"},"type":"Feature","geometry":null},{"properties":{"city":"Lamu","event type":"Hostage Taking/Kidnapping","latitude":null,"event id":3865757,"event date":"11-Sep","country":"Kenya","event title":"One British National Kidnapped During Attack on a Resort in Kenya","longitude":null,"id":"a62ie32c6012","total deaths":0,"group":"Al Shabaab (The Young Islamic Movement)","total injuries":0,"state":"Coast"},"type":"Feature","geometry":null},{"properties":{"city":"Lamu","event type":"Armed Assault","latitude":null,"event id":3865720,"event date":"11-Sep","country":"Kenya","event title":"One British National Killed in Attack on a Resort in Kenya","longitude":null,"id":"a62ie30hprmx","total deaths":1,"group":"Al Shabaab (The Young Islamic Movement)","total injuries":0,"state":"Coast"},"type":"Feature","geometry":null},{"properties":{"city":"Lamu","event type":"Hostage Taking/Kidnapping","latitude":null,"event id":3882448,"event date":"1-Oct","country":"Kenya","event title":"Suspected Al-Shabaab Militants Kidnap a French National in Kenya","longitude":null,"id":"a62ie2yzsui1","total deaths":0,"group":"Al Shabaab (The Young Islamic Movement)","total injuries":0,"state":"Coast"},"type":"Feature","geometry":null},{"properties":{"city":"Dadaab","event type":"Armed Assault","latitude":null,"event id":3902891,"event date":"13-Oct","country":"Kenya","event title":"One Person Injured in the Kidnaping of Two Spanish Aid Workers in Dadaab","longitude":null,"id":"a62ie312ak90","total deaths":0,"group":"Al Shabaab (The Young Islamic Movement)","total injuries":1,"state":"North Eastern"},"type":"Feature","geometry":null},{"properties":{"city":"Dadaab","event type":"Hostage Taking/Kidnapping","latitude":null,"event id":3902877,"event date":"13-Oct","country":"Kenya","event title":"Militants Kidnap Two Spanish Nationals in Kenya","longitude":null,"id":"a62ie2xl028r","total deaths":0,"group":"Al Shabaab (The Young Islamic Movement)","total injuries":0,"state":"North Eastern"},"type":"Feature","geometry":null},{"properties":{"city":"Nairobi","event type":"Armed Assault","latitude":-1.283332944,"event id":3913632,"event date":"24-Oct","country":"Kenya","event title":"Two People Killed in Grenade Attack at a Nairobi Nightclub","longitude":36.81666565,"id":"a62ie2uf1dvp","total deaths":2,"group":"Al Shabaab (The Young Islamic Movement)","total injuries":12,"state":"Nairobi Area"},"type":"Feature","geometry":{"type":"Point","coordinates":[36.81666565,-1.283332944]}},{"properties":{"city":"Nairobi","event type":"Armed Assault","latitude":-1.283332944,"event id":3913722,"event date":"24-Oct","country":"Kenya","event title":"One Killed in Grenade Attack at Bus Station in Nairobi","longitude":36.81666565,"id":"a62ie2v3qz9n","total deaths":1,"group":"Al Shabaab (The Young Islamic Movement)","total injuries":18,"state":"Nairobi Area"},"type":"Feature","geometry":{"type":"Point","coordinates":[36.81666565,-1.283332944]}},{"properties":{"city":"Mandera","event type":"Armed Assault","latitude":null,"event id":3914353,"event date":"27-Oct","country":"Kenya","event title":"Eight People Killed in an Attack on a Bus in Mandera","longitude":null,"id":"a62ie2tj73zo","total deaths":8,"group":"Al Shabaab (The Young Islamic Movement)","total injuries":0,"state":"North Eastern"},"type":"Feature","geometry":null},{"properties":{"city":"Nairobi","event type":"Bombing","latitude":-1.283332944,"event id":3915548,"event date":"26-Oct","country":"Kenya","event title":"Militants Place VBIED in the Kayole Area of Nairobi","longitude":36.81666565,"id":"a62ie2u7age1","total deaths":0,"group":"Unknown","total injuries":0,"state":"Nairobi Area"},"type":"Feature","geometry":{"type":"Point","coordinates":[36.81666565,-1.283332944]}},{"properties":{"city":"Garssa","event type":"Bombing","latitude":null,"event id":3918198,"event date":"28-Oct","country":"Kenya","event title":"Three Injured in Landmine Attack near Garissa","longitude":null,"id":"a62ie2t0s3u0","total deaths":3,"group":"Unknown","total injuries":0,"state":"North Eastern"},"type":"Feature","geometry":null},{"properties":{"city":"Liboi","event type":"Armed Assault","latitude":null,"event id":3920256,"event date":"31-Oct","country":"Kenya","event title":"Al-Shabaab Militants Attack Kenyan Soldiers near Liboi","longitude":null,"id":"a62ie30rvp6j","total deaths":0,"group":"Al Shabaab (The Young Islamic Movement)","total injuries":0,"state":"North Eastern"},"type":"Feature","geometry":null},{"properties":{"city":"Elwaq","event type":"Armed Assault","latitude":null,"event id":3927908,"event date":"3-Nov","country":"Kenya","event title":"Militants Attack a Kenyan Officials Home in Elwak","longitude":null,"id":"a62ie2r61jhc","total deaths":1,"group":"Unknown","total injuries":0,"state":"North Eastern"},"type":"Feature","geometry":null},{"properties":{"city":"Unknown","event type":"Bombing","latitude":null,"event id":3933385,"event date":"5-Nov","country":"Kenya","event title":"Time Detonated IED Targets a Police Vehicle in Hagardera","longitude":null,"id":"a62ie304e49d","total deaths":0,"group":"Al Shabaab (The Young Islamic Movement)","total injuries":0,"state":"North Eastern"},"type":"Feature","geometry":null},{"properties":{"city":"Garssa","event type":"Armed Assault","latitude":1.0,"event id":3933638,"event date":"5-Nov","country":"Kenya","event title":"Two People Killed in Attack on a Church in Northern Kenya","longitude":38.0,"id":"a62ie33k95ti","total deaths":2,"group":"Al Shabaab (The Young Islamic Movement)","total injuries":3,"state":"North Eastern"},"type":"Feature","geometry":{"type":"Point","coordinates":[38.0,1.0]}},{"properties":{"city":"Garssa","event type":"Bombing","latitude":1.0,"event id":3933669,"event date":"5-Nov","country":"Kenya","event title":"IED Attack Targeted a Taxi in Garissa","longitude":38.0,"id":"a62ie2tuerol","total deaths":0,"group":"Unknown","total injuries":0,"state":"North Eastern"},"type":"Feature","geometry":{"type":"Point","coordinates":[38.0,1.0]}},{"properties":{"city":"Dadaab","event type":"Bombing","latitude":null,"event id":3932872,"event date":"5-Nov","country":"Kenya","event title":"Kenyan Police Jeep Struck a Landmine in Dadaab","longitude":null,"id":"a62ie2u7uqco","total deaths":0,"group":"Unknown","total injuries":0,"state":"North Eastern"},"type":"Feature","geometry":null},{"properties":{"city":"Liboi","event type":"Armed Assault","latitude":null,"event id":3933437,"event date":"25-Oct","country":"Kenya","event title":"Suspected Al-Shabaab Militants Attack a Military Convoy near Liboi","longitude":null,"id":"a62ie33ohpto","total deaths":null,"group":"Al Shabaab (The Young Islamic Movement)","total injuries":null,"state":"North Eastern"},"type":"Feature","geometry":null},{"properties":{"city":"Garssa","event type":"Bombing","latitude":1.0,"event id":3933682,"event date":"5-Nov","country":"Kenya","event title":"Militants Place an IED under a Power Transformer in Garssa","longitude":38.0,"id":"a62ie346e7rp","total deaths":0,"group":"Unknown","total injuries":0,"state":"North Eastern"},"type":"Feature","geometry":{"type":"Point","coordinates":[38.0,1.0]}},{"properties":{"city":"Unknown","event type":"Armed Assault","latitude":null,"event id":3932944,"event date":"4-Nov","country":"Kenya","event title":"Suspected Al-Shabaab Militants Attack a Frontier Post in Hulugho","longitude":null,"id":"a62ie2yzoig5","total deaths":0,"group":"Al Shabaab (The Young Islamic Movement)","total injuries":0,"state":"North Eastern"},"type":"Feature","geometry":null},{"properties":{"city":"Isiolo","event type":"Armed Assault","latitude":null,"event id":3939025,"event date":"4-Nov","country":"Kenya","event title":"One Tourist Killed in Attack in Eastern Kenya","longitude":null,"id":"a62ie2uaczp0","total deaths":1,"group":"Unknown","total injuries":1,"state":"Eastern"},"type":"Feature","geometry":null}],"is_temporal":false,"author":{"url":"","metadata":"","contact_name":"","contact_address":"","source":"","contact_phone":""},"source":"","pagination":{"sort":null,"start":0,"total":167,"limit":1000000},"state":"complete","tags":"","published":"2014-08-14T17:21:59-04:00","id":201822}