{"type":"FeatureCollection","data_type":"Dataset","url_type":null,"permissions":[{"permissions":{"download":true,"view":true},"group_id":"everyone"}],"classification":null,"title":"20120201 Violent Events - Uganda","count":121,"stream_id":201885,"contributor":{"url":"http://geocommons.com/users/33152","name":"rberntsson"},"data_attributes":null,"calculation_params":null,"icon_link":null,"link":"http://geocommons.com/overlays/201885.json","extent":[32.5656,0.315556,34.0,3.33333],"geometry_types":["point"],"unique_name":null,"name":"20120201 Violent Events - Uganda","feature_count":121,"description":"","next_feature":null,"is_raster":false,"short_classification":"Y","stats":{"latitude":{"max":3.333333015,"mean":1.80373987914634,"variance":1.16519652950351,"stdev":1.07944269394142,"min":0.31555599,"median":2.0},"event id":{"max":3907138,"mean":1552313.52066116,"variance":810780258471.818,"stdev":900433.372588899,"min":1001653,"median":1109833},"longitude":{"max":34.0,"mean":33.029349442439,"variance":0.206607693339619,"stdev":0.454541189926302,"min":32.56555557,"median":33.0},"total deaths":{"max":190,"mean":7.1047619047619,"variance":536.11391941392,"stdev":23.1541339594881,"min":0,"median":1},"total injuries":{"max":114,"mean":2.67032967032967,"variance":160.556776556776,"stdev":12.6711000531436,"min":0,"median":0}},"features":[{"properties":{"event type":"Armed Assault","city":"Pader","event id":1001653,"latitude":2.833333015,"event date":"5/17/2004","country":"Uganda","event title":null,"longitude":33.08333206,"id":"a656pwc9bpot","group":"Lord's Resistance Army (LRA) - Sudan &amp; Uganda","total deaths":7,"state":"Northern","total injuries":9},"type":"Feature","geometry":{"type":"Point","coordinates":[33.08333206,2.833333015]}},{"properties":{"event type":"Hostage Taking/Kidnapping","city":"Kampala","event id":1002185,"latitude":0.31555599,"event date":"9/8/2004","country":"Uganda","event title":null,"longitude":32.56555557,"id":"a656pwnatici","group":"Unknown","total deaths":null,"state":"Central","total injuries":null},"type":"Feature","geometry":{"type":"Point","coordinates":[32.56555557,0.31555599]}},{"properties":{"event type":"Armed Assault","city":"Unknown","event id":1006651,"latitude":2.0,"event date":"2/4/2004","country":"Uganda","event title":null,"longitude":33.0,"id":"a656pwnpr54j","group":"Lord's Resistance Army (LRA) - Sudan &amp; Uganda","total deaths":44,"state":"Unknown","total injuries":null},"type":"Feature","geometry":{"type":"Point","coordinates":[33.0,2.0]}},{"properties":{"event type":"Arson","city":"Unknown","event id":1007606,"latitude":null,"event date":"2/21/2004","country":"Uganda","event title":null,"longitude":null,"id":"a656pwfazc20","group":"Unknown","total deaths":190,"state":"Northern","total injuries":0},"type":"Feature","geometry":null},{"properties":{"event type":"Armed Assault","city":"Lira","event id":1007775,"latitude":null,"event date":"1/20/2004","country":"Uganda","event title":null,"longitude":null,"id":"a656pwmssfzl","group":"Lord's Resistance Army (LRA) - Sudan &amp; Uganda","total deaths":17,"state":"Northern","total injuries":null},"type":"Feature","geometry":null},{"properties":{"event type":"Hostage Taking/Kidnapping","city":"Adjumani","event id":1013317,"latitude":null,"event date":"3/26/2005","country":"Uganda","event title":null,"longitude":null,"id":"a656pwjrf1ql","group":"Lord's Resistance Army (LRA) - Sudan &amp; Uganda","total deaths":null,"state":"Northern","total injuries":null},"type":"Feature","geometry":null},{"properties":{"event type":"Armed Assault","city":"Kitgum","event id":1015378,"latitude":null,"event date":"3/20/2005","country":"Uganda","event title":null,"longitude":null,"id":"a656pwgkru2e","group":"Lord's Resistance Army (LRA) - Sudan &amp; Uganda","total deaths":null,"state":"Northern","total injuries":7},"type":"Feature","geometry":null},{"properties":{"event type":"Hostage Taking/Kidnapping","city":"Gulu","event id":1019034,"latitude":null,"event date":"3/15/2005","country":"Uganda","event title":null,"longitude":null,"id":"a656pwejuc7l","group":"Lord's Resistance Army (LRA) - Sudan &amp; Uganda","total deaths":null,"state":"Northern","total injuries":null},"type":"Feature","geometry":null},{"properties":{"event type":"Armed Assault","city":"Pader","event id":1019049,"latitude":2.833333015,"event date":"3/2/2005","country":"Uganda","event title":null,"longitude":33.08333206,"id":"a656pwmamhus","group":"Lord's Resistance Army (LRA) - Sudan &amp; Uganda","total deaths":null,"state":"Northern","total injuries":1},"type":"Feature","geometry":{"type":"Point","coordinates":[33.08333206,2.833333015]}},{"properties":{"event type":"Hostage Taking/Kidnapping","city":"Kampala","event id":1019025,"latitude":0.31555599,"event date":"3/17/2005","country":"Uganda","event title":null,"longitude":32.56555557,"id":"a656pwmuq37i","group":"Lord's Resistance Army (LRA) - Sudan &amp; Uganda","total deaths":null,"state":"Central","total injuries":null},"type":"Feature","geometry":{"type":"Point","coordinates":[32.56555557,0.31555599]}},{"properties":{"event type":"Armed Assault","city":"Kitgum","event id":1019044,"latitude":null,"event date":"3/7/2005","country":"Uganda","event title":null,"longitude":null,"id":"a656pwn91xwz","group":"Lord's Resistance Army (LRA) - Sudan &amp; Uganda","total deaths":1,"state":"Northern","total injuries":7},"type":"Feature","geometry":null},{"properties":{"event type":"Armed Assault","city":"Kitgum","event id":1019017,"latitude":null,"event date":"3/19/2005","country":"Uganda","event title":null,"longitude":null,"id":"a656pwda060h","group":"Lord's Resistance Army (LRA) - Sudan &amp; Uganda","total deaths":null,"state":"Northern","total injuries":3},"type":"Feature","geometry":null},{"properties":{"event type":"Armed Assault","city":"Gulu","event id":1019032,"latitude":null,"event date":"3/15/2005","country":"Uganda","event title":null,"longitude":null,"id":"a656pwo1vldd","group":"Lord's Resistance Army (LRA) - Sudan &amp; Uganda","total deaths":2,"state":"Northern","total injuries":null},"type":"Feature","geometry":null},{"properties":{"event type":"Armed Assault","city":"Gulu","event id":1020419,"latitude":null,"event date":"10/2/2005","country":"Uganda","event title":null,"longitude":null,"id":"a656pwgzzgh5","group":"Lord's Resistance Army (LRA) - Sudan &amp; Uganda","total deaths":3,"state":"Northern","total injuries":null},"type":"Feature","geometry":null},{"properties":{"event type":"Armed Assault","city":"Pader","event id":1020420,"latitude":2.833333015,"event date":"10/2/2005","country":"Uganda","event title":null,"longitude":33.08333206,"id":"a656pwrqz3rn","group":"Lord's Resistance Army (LRA) - Sudan &amp; Uganda","total deaths":1,"state":"Northern","total injuries":null},"type":"Feature","geometry":{"type":"Point","coordinates":[33.08333206,2.833333015]}},{"properties":{"event type":"Armed Assault","city":"Kitgum","event id":1020423,"latitude":null,"event date":"10/3/2005","country":"Uganda","event title":null,"longitude":null,"id":"a656pwpx7bpr","group":"Lord's Resistance Army (LRA) - Sudan &amp; Uganda","total deaths":4,"state":"Northern","total injuries":null},"type":"Feature","geometry":null},{"properties":{"event type":"Armed Assault","city":"Pader","event id":1020409,"latitude":2.833333015,"event date":"9/18/2005","country":"Uganda","event title":null,"longitude":33.08333206,"id":"a656pwe1prlr","group":"Lord's Resistance Army (LRA) - Sudan &amp; Uganda","total deaths":0,"state":"Northern","total injuries":1},"type":"Feature","geometry":{"type":"Point","coordinates":[33.08333206,2.833333015]}},{"properties":{"event type":"Hostage Taking/Kidnapping","city":"Gulu","event id":1021313,"latitude":null,"event date":"10/2/2005","country":"Uganda","event title":null,"longitude":null,"id":"a656pwhmqfx0","group":"Lord's Resistance Army (LRA) - Sudan &amp; Uganda","total deaths":0,"state":"Northern","total injuries":null},"type":"Feature","geometry":null},{"properties":{"event type":"Armed Assault","city":"Pader","event id":1021316,"latitude":2.833333015,"event date":"10/2/2005","country":"Uganda","event title":null,"longitude":33.08333206,"id":"a656pwpxaltp","group":"Lord's Resistance Army (LRA) - Sudan &amp; Uganda","total deaths":1,"state":"Northern","total injuries":null},"type":"Feature","geometry":{"type":"Point","coordinates":[33.08333206,2.833333015]}},{"properties":{"event type":"Armed Assault","city":"Unknown","event id":1021310,"latitude":2.0,"event date":"9/30/2005","country":"Uganda","event title":null,"longitude":33.0,"id":"a656pwjeimte","group":"Lord's Resistance Army (LRA) - Sudan &amp; Uganda","total deaths":1,"state":"Unknown","total injuries":null},"type":"Feature","geometry":{"type":"Point","coordinates":[33.0,2.0]}},{"properties":{"event type":"Arson","city":"Katakwi","event id":1021305,"latitude":null,"event date":"9/28/2005","country":"Uganda","event title":null,"longitude":null,"id":"a656pwh0xwc9","group":"Lord's Resistance Army (LRA) - Sudan &amp; Uganda","total deaths":null,"state":"Eastern","total injuries":null},"type":"Feature","geometry":null},{"properties":{"event type":"Armed Assault","city":"Gulu","event id":1021315,"latitude":null,"event date":"10/2/2005","country":"Uganda","event title":null,"longitude":null,"id":"a656pwc4udwi","group":"Lord's Resistance Army (LRA) - Sudan &amp; Uganda","total deaths":3,"state":"Northern","total injuries":null},"type":"Feature","geometry":null},{"properties":{"event type":"Armed Assault","city":"Gulu","event id":1021357,"latitude":null,"event date":"10/2/2005","country":"Uganda","event title":null,"longitude":null,"id":"a656pwiwjzde","group":"Lord's Resistance Army (LRA) - Sudan &amp; Uganda","total deaths":3,"state":"Northern","total injuries":null},"type":"Feature","geometry":null},{"properties":{"event type":"Arson","city":"Amuria","event id":1021635,"latitude":null,"event date":"9/30/2005","country":"Uganda","event title":null,"longitude":null,"id":"a656pwdkd17x","group":"Lord's Resistance Army (LRA) - Sudan &amp; Uganda","total deaths":null,"state":"Eastern","total injuries":null},"type":"Feature","geometry":null},{"properties":{"event type":"Armed Assault","city":"Amuria","event id":1021629,"latitude":null,"event date":"9/30/2005","country":"Uganda","event title":null,"longitude":null,"id":"a656pwgyutyx","group":"Lord's Resistance Army (LRA) - Sudan &amp; Uganda","total deaths":1,"state":"Eastern","total injuries":null},"type":"Feature","geometry":null},{"properties":{"event type":"Hostage Taking/Kidnapping","city":"Amuria","event id":1021636,"latitude":null,"event date":"9/30/2005","country":"Uganda","event title":null,"longitude":null,"id":"a656pwkf4zlg","group":"Lord's Resistance Army (LRA) - Sudan &amp; Uganda","total deaths":null,"state":"Eastern","total injuries":null},"type":"Feature","geometry":null},{"properties":{"event type":"Bombing","city":"Entebbe","event id":1022775,"latitude":null,"event date":"5/26/1978","country":"Uganda","event title":null,"longitude":null,"id":"a656pwl98zkj","group":"Unknown","total deaths":4,"state":"Central","total injuries":null},"type":"Feature","geometry":null},{"properties":{"event type":"Armed Assault","city":"Unknown","event id":1025813,"latitude":null,"event date":"2/13/2006","country":"Uganda","event title":null,"longitude":null,"id":"a656pwoek5jr","group":"Lord's Resistance Army (LRA) - Sudan &amp; Uganda","total deaths":6,"state":"Northern","total injuries":null},"type":"Feature","geometry":null},{"properties":{"event type":"Hostage Taking/Kidnapping","city":"Unknown","event id":1025812,"latitude":null,"event date":"2/13/2006","country":"Uganda","event title":null,"longitude":null,"id":"a656pwpnvwji","group":"Lord's Resistance Army (LRA) - Sudan &amp; Uganda","total deaths":0,"state":"Northern","total injuries":null},"type":"Feature","geometry":null},{"properties":{"event type":"Armed Assault","city":"Adjumani","event id":1025953,"latitude":null,"event date":"1/7/2006","country":"Uganda","event title":null,"longitude":null,"id":"a656pwsgo8cj","group":"Lord's Resistance Army (LRA) - Sudan &amp; Uganda","total deaths":3,"state":"Northern","total injuries":12},"type":"Feature","geometry":null},{"properties":{"event type":"Bombing","city":"Mbarara","event id":1047558,"latitude":null,"event date":"1/29/2007","country":"Uganda","event title":null,"longitude":null,"id":"a656pwjv4yc9","group":"Unknown","total deaths":0,"state":"Western","total injuries":5},"type":"Feature","geometry":null},{"properties":{"event type":"Armed Assault","city":"Kailkong","event id":1048490,"latitude":null,"event date":"2/12/2007","country":"Uganda","event title":null,"longitude":null,"id":"a656pweez05w","group":"Unknown","total deaths":11,"state":"Nakapiripirit","total injuries":0},"type":"Feature","geometry":null},{"properties":{"event type":"Bombing","city":"Kampala","event id":1049404,"latitude":0.31555599,"event date":"2/16/2007","country":"Uganda","event title":null,"longitude":32.56555557,"id":"a656pwl5590x","group":"Unknown","total deaths":null,"state":"Central","total injuries":null},"type":"Feature","geometry":{"type":"Point","coordinates":[32.56555557,0.31555599]}},{"properties":{"event type":"Robbery","city":"Kitgum","event id":1052180,"latitude":null,"event date":"3/12/2007","country":"Uganda","event title":null,"longitude":null,"id":"a656pwphjudy","group":"Lord's Resistance Army (LRA) - Sudan &amp; Uganda","total deaths":0,"state":"Northern","total injuries":0},"type":"Feature","geometry":null},{"properties":{"event type":"Arson","city":"Entebbe","event id":1052232,"latitude":null,"event date":"3/8/2007","country":"Uganda","event title":null,"longitude":null,"id":"a656pwjf7wrn","group":"Unknown","total deaths":0,"state":"Central","total injuries":0},"type":"Feature","geometry":null},{"properties":{"event type":"Armed Assault","city":"Lubaali","event id":1054970,"latitude":null,"event date":"4/7/2007","country":"Uganda","event title":null,"longitude":null,"id":"a656pwg40o2b","group":"Unknown","total deaths":1,"state":"Mubende","total injuries":6},"type":"Feature","geometry":null},{"properties":{"event type":"Armed Assault","city":"Unknown","event id":1057275,"latitude":null,"event date":"4/30/2007","country":"Uganda","event title":null,"longitude":null,"id":"a656pwfrgs1x","group":"Lord's Resistance Army (LRA) - Sudan &amp; Uganda","total deaths":7,"state":"Northern","total injuries":0},"type":"Feature","geometry":null},{"properties":{"event type":"Armed Assault","city":"Unknown","event id":1057767,"latitude":null,"event date":"5/1/2007","country":"Uganda","event title":null,"longitude":null,"id":"a656pwctrwew","group":"Lord's Resistance Army (LRA) - Sudan &amp; Uganda","total deaths":7,"state":"Northern","total injuries":0},"type":"Feature","geometry":null},{"properties":{"event type":"Hostage Taking/Kidnapping","city":"Unknown","event id":1060277,"latitude":null,"event date":"5/28/2007","country":"Uganda","event title":null,"longitude":null,"id":"a656pwrdqmau","group":"Lord's Resistance Army (LRA) - Sudan &amp; Uganda","total deaths":0,"state":"Western","total injuries":0},"type":"Feature","geometry":null},{"properties":{"event type":"Armed Assault","city":"Unknown","event id":1060276,"latitude":null,"event date":"5/28/2007","country":"Uganda","event title":null,"longitude":null,"id":"a656pwjp3d7z","group":"Lord's Resistance Army (LRA) - Sudan &amp; Uganda","total deaths":4,"state":"Western","total injuries":0},"type":"Feature","geometry":null},{"properties":{"event type":"Armed Assault","city":"Unknown","event id":1061254,"latitude":null,"event date":"5/29/2007","country":"Uganda","event title":null,"longitude":null,"id":"a656pwhc3ne7","group":"Unknown","total deaths":1,"state":"Northern","total injuries":0},"type":"Feature","geometry":null},{"properties":{"event type":"Armed Assault","city":"Kapyanga","event id":1064135,"latitude":null,"event date":"7/1/2007","country":"Uganda","event title":null,"longitude":null,"id":"a656pwpvl442","group":"Unknown","total deaths":2,"state":"Eastern","total injuries":0},"type":"Feature","geometry":null},{"properties":{"event type":"Armed Assault","city":"Kanombe","event id":1076029,"latitude":null,"event date":"11/11/2007","country":"Uganda","event title":null,"longitude":null,"id":"a656pwiv882b","group":"Unknown","total deaths":1,"state":"Western","total injuries":0},"type":"Feature","geometry":null},{"properties":{"event type":"Armed Assault","city":"Unknown","event id":1076167,"latitude":2.0,"event date":"12/6/2007","country":"Uganda","event title":null,"longitude":33.0,"id":"a656pws3fpku","group":"Lord's Resistance Army (LRA) - Sudan &amp; Uganda","total deaths":1,"state":"Unknown","total injuries":0},"type":"Feature","geometry":{"type":"Point","coordinates":[33.0,2.0]}},{"properties":{"event type":"Hijacking","city":"Entebbe","event id":1085839,"latitude":null,"event date":"6/27/1976","country":"Uganda","event title":null,"longitude":null,"id":"a656pwl58jrq","group":"Red Army Faction (RAF) / Baader Meinhoff (Germany)","total deaths":0,"state":"Central","total injuries":0},"type":"Feature","geometry":null},{"properties":{"event type":"Bombing","city":"Kasese","event id":1091971,"latitude":null,"event date":"2/18/2008","country":"Uganda","event title":null,"longitude":null,"id":"a656pwen4w9i","group":"Allied Democratic Forces (ADF) - Uganda","total deaths":0,"state":"Kampala","total injuries":4},"type":"Feature","geometry":null},{"properties":{"event type":"Robbery","city":"Moro","event id":1109370,"latitude":null,"event date":"4/17/2003","country":"Uganda","event title":null,"longitude":null,"id":"a656pwepe5ue","group":"Lord's Resistance Army (LRA) - Sudan &amp; Uganda","total deaths":null,"state":"Lira","total injuries":null},"type":"Feature","geometry":null},{"properties":{"event type":"Hostage Taking/Kidnapping","city":"Moro","event id":1109774,"latitude":null,"event date":"5/25/2003","country":"Uganda","event title":null,"longitude":null,"id":"a656pwnqw2cl","group":"Lord's Resistance Army (LRA) - Sudan &amp; Uganda","total deaths":0,"state":"Lira","total injuries":0},"type":"Feature","geometry":null},{"properties":{"event type":"Bombing","city":"Unknown","event id":1109805,"latitude":null,"event date":"6/11/2003","country":"Uganda","event title":null,"longitude":null,"id":"a656pwev3e4g","group":"Lord's Resistance Army (LRA) - Sudan &amp; Uganda","total deaths":0,"state":"Pader","total injuries":0},"type":"Feature","geometry":null},{"properties":{"event type":"Robbery","city":"Palabek","event id":1109402,"latitude":null,"event date":"4/23/2003","country":"Uganda","event title":null,"longitude":null,"id":"a656pwoz3g39","group":"Lord's Resistance Army (LRA) - Sudan &amp; Uganda","total deaths":0,"state":"Kitgum","total injuries":0},"type":"Feature","geometry":null},{"properties":{"event type":"Hostage Taking/Kidnapping","city":"Moro","event id":1109365,"latitude":null,"event date":"4/17/2003","country":"Uganda","event title":null,"longitude":null,"id":"a656pwfz5vui","group":"Lord's Resistance Army (LRA) - Sudan &amp; Uganda","total deaths":0,"state":"Lira","total injuries":0},"type":"Feature","geometry":null},{"properties":{"event type":"Robbery","city":"Unknown","event id":1109393,"latitude":2.0,"event date":"4/25/2003","country":"Uganda","event title":null,"longitude":33.0,"id":"a656pwc78wrv","group":"Lord's Resistance Army (LRA) - Sudan &amp; Uganda","total deaths":0,"state":"Unknown","total injuries":2},"type":"Feature","geometry":{"type":"Point","coordinates":[33.0,2.0]}},{"properties":{"event type":"Hostage Taking/Kidnapping","city":"Unknown","event id":1109390,"latitude":2.0,"event date":"4/25/2003","country":"Uganda","event title":null,"longitude":33.0,"id":"a656pwp8vndo","group":"Lord's Resistance Army (LRA) - Sudan &amp; Uganda","total deaths":0,"state":"Unknown","total injuries":0},"type":"Feature","geometry":{"type":"Point","coordinates":[33.0,2.0]}},{"properties":{"event type":"Hostage Taking/Kidnapping","city":"Otuke","event id":1109841,"latitude":null,"event date":"7/11/2003","country":"Uganda","event title":null,"longitude":null,"id":"a656pwkvuu32","group":"Lord's Resistance Army (LRA) - Sudan &amp; Uganda","total deaths":3,"state":"Lira","total injuries":0},"type":"Feature","geometry":null},{"properties":{"event type":"Arson","city":"Unknown","event id":1109385,"latitude":2.0,"event date":"4/23/2003","country":"Uganda","event title":null,"longitude":33.0,"id":"a656pwdchij6","group":"Lord's Resistance Army (LRA) - Sudan &amp; Uganda","total deaths":0,"state":"Unknown","total injuries":2},"type":"Feature","geometry":{"type":"Point","coordinates":[33.0,2.0]}},{"properties":{"event type":"Armed Assault","city":"Unknown","event id":1109802,"latitude":null,"event date":"6/11/2003","country":"Uganda","event title":null,"longitude":null,"id":"a656pwiujm6f","group":"Lord's Resistance Army (LRA) - Sudan &amp; Uganda","total deaths":0,"state":"Pader","total injuries":0},"type":"Feature","geometry":null},{"properties":{"event type":"Armed Assault","city":"Unknown","event id":1109762,"latitude":3.333333015,"event date":"5/26/2003","country":"Uganda","event title":null,"longitude":34.0,"id":"a656pwnjujzs","group":"Lord's Resistance Army (LRA) - Sudan &amp; Uganda","total deaths":12,"state":"Kotido","total injuries":0},"type":"Feature","geometry":{"type":"Point","coordinates":[34.0,3.333333015]}},{"properties":{"event type":"Hostage Taking/Kidnapping","city":"Unknown","event id":1109408,"latitude":null,"event date":"4/23/2003","country":"Uganda","event title":null,"longitude":null,"id":"a656pwl8vx9d","group":"Lord's Resistance Army (LRA) - Sudan &amp; Uganda","total deaths":0,"state":"Lira","total injuries":0},"type":"Feature","geometry":null},{"properties":{"event type":"Armed Assault","city":"Unknown","event id":1109751,"latitude":3.333333015,"event date":"5/23/2003","country":"Uganda","event title":null,"longitude":34.0,"id":"a656pwcglcb5","group":"Lord's Resistance Army (LRA) - Sudan &amp; Uganda","total deaths":8,"state":"Kotido","total injuries":0},"type":"Feature","geometry":{"type":"Point","coordinates":[34.0,3.333333015]}},{"properties":{"event type":"Armed Assault","city":"Unknown","event id":1109861,"latitude":null,"event date":"7/30/2003","country":"Uganda","event title":null,"longitude":null,"id":"a656pwfb4ayf","group":"Lord's Resistance Army (LRA) - Sudan &amp; Uganda","total deaths":9,"state":"Northern","total injuries":0},"type":"Feature","geometry":null},{"properties":{"event type":"Hostage Taking/Kidnapping","city":"Soroti","event id":1109822,"latitude":null,"event date":"6/25/2003","country":"Uganda","event title":null,"longitude":null,"id":"a656pwrtn290","group":"Lord's Resistance Army (LRA) - Sudan &amp; Uganda","total deaths":0,"state":"Eastern","total injuries":0},"type":"Feature","geometry":null},{"properties":{"event type":"Armed Assault","city":"Unknown","event id":1109838,"latitude":2.0,"event date":"7/6/2003","country":"Uganda","event title":null,"longitude":33.0,"id":"a656pwigpzm8","group":"Lord's Resistance Army (LRA) - Sudan &amp; Uganda","total deaths":45,"state":"Unknown","total injuries":0},"type":"Feature","geometry":{"type":"Point","coordinates":[33.0,2.0]}},{"properties":{"event type":"Armed Assault","city":"Unknown","event id":1109862,"latitude":2.0,"event date":"7/31/2003","country":"Uganda","event title":null,"longitude":33.0,"id":"a656pwqgyxq2","group":"Lord's Resistance Army (LRA) - Sudan &amp; Uganda","total deaths":3,"state":"Unknown","total injuries":0},"type":"Feature","geometry":{"type":"Point","coordinates":[33.0,2.0]}},{"properties":{"event type":"Arson","city":"Unknown","event id":1109833,"latitude":2.0,"event date":"7/13/2003","country":"Uganda","event title":null,"longitude":33.0,"id":"a656pwokwfvf","group":"Lord's Resistance Army (LRA) - Sudan &amp; Uganda","total deaths":0,"state":"Unknown","total injuries":0},"type":"Feature","geometry":{"type":"Point","coordinates":[33.0,2.0]}},{"properties":{"event type":"Arson","city":"Karamoja","event id":1110068,"latitude":null,"event date":"8/14/2003","country":"Uganda","event title":null,"longitude":null,"id":"a656pweckd3m","group":"Lord's Resistance Army (LRA) - Sudan &amp; Uganda","total deaths":0,"state":"Northern","total injuries":0},"type":"Feature","geometry":null},{"properties":{"event type":"Armed Assault","city":"Unknown","event id":1110129,"latitude":null,"event date":"8/26/2003","country":"Uganda","event title":null,"longitude":null,"id":"a656pwnqaj0c","group":"Lord's Resistance Army (LRA) - Sudan &amp; Uganda","total deaths":0,"state":"Kitgum","total injuries":0},"type":"Feature","geometry":null},{"properties":{"event type":"Hostage Taking/Kidnapping","city":"Unknown","event id":1109816,"latitude":2.0,"event date":"5/1/2003","country":"Uganda","event title":null,"longitude":33.0,"id":"a656pwfsvvlb","group":"Lord's Resistance Army (LRA) - Sudan &amp; Uganda","total deaths":0,"state":"Unknown","total injuries":0},"type":"Feature","geometry":{"type":"Point","coordinates":[33.0,2.0]}},{"properties":{"event type":"Armed Assault","city":"Unknown","event id":1110141,"latitude":null,"event date":"10/13/2003","country":"Uganda","event title":null,"longitude":null,"id":"a656pwd5elno","group":"Lord's Resistance Army (LRA) - Sudan &amp; Uganda","total deaths":22,"state":"Central","total injuries":0},"type":"Feature","geometry":null},{"properties":{"event type":"Armed Assault","city":"Amuria","event id":1110098,"latitude":null,"event date":"8/25/2003","country":"Uganda","event title":null,"longitude":null,"id":"a656pwk5cvqd","group":"Lord's Resistance Army (LRA) - Sudan &amp; Uganda","total deaths":50,"state":"Eastern","total injuries":0},"type":"Feature","geometry":null},{"properties":{"event type":"Hostage Taking/Kidnapping","city":"Unknown","event id":1110040,"latitude":null,"event date":"8/6/2003","country":"Uganda","event title":null,"longitude":null,"id":"a656pwdhnd32","group":"Lord's Resistance Army (LRA) - Sudan &amp; Uganda","total deaths":0,"state":"Eastern","total injuries":0},"type":"Feature","geometry":null},{"properties":{"event type":"Armed Assault","city":"Soroti","event id":1110105,"latitude":null,"event date":"8/23/2003","country":"Uganda","event title":null,"longitude":null,"id":"a656pwcza6w5","group":"Lord's Resistance Army (LRA) - Sudan &amp; Uganda","total deaths":3,"state":"Eastern","total injuries":0},"type":"Feature","geometry":null},{"properties":{"event type":"Armed Assault","city":"Bata","event id":1110079,"latitude":null,"event date":"8/16/2003","country":"Uganda","event title":null,"longitude":null,"id":"a656pwn9w91n","group":"Lord's Resistance Army (LRA) - Sudan &amp; Uganda","total deaths":15,"state":"Lira","total injuries":null},"type":"Feature","geometry":null},{"properties":{"event type":"Hostage Taking/Kidnapping","city":"Bata","event id":1110085,"latitude":null,"event date":"8/17/2003","country":"Uganda","event title":null,"longitude":null,"id":"a656pwojfnx1","group":"Lord's Resistance Army (LRA) - Sudan &amp; Uganda","total deaths":15,"state":"Lira","total injuries":0},"type":"Feature","geometry":null},{"properties":{"event type":"Arson","city":"Soroti","event id":1110112,"latitude":null,"event date":"8/23/2003","country":"Uganda","event title":null,"longitude":null,"id":"a656pwp0ur7c","group":"Lord's Resistance Army (LRA) - Sudan &amp; Uganda","total deaths":0,"state":"Eastern","total injuries":0},"type":"Feature","geometry":null},{"properties":{"event type":"Hostage Taking/Kidnapping","city":"Unknown","event id":1110148,"latitude":null,"event date":"10/29/2003","country":"Uganda","event title":null,"longitude":null,"id":"a656pwi5p0pu","group":"Lord's Resistance Army (LRA) - Sudan &amp; Uganda","total deaths":0,"state":"Lira","total injuries":0},"type":"Feature","geometry":null},{"properties":{"event type":"Armed Assault","city":"Unknown","event id":1110446,"latitude":null,"event date":"11/9/2003","country":"Uganda","event title":null,"longitude":null,"id":"a656pws2trys","group":"Lord's Resistance Army (LRA) - Sudan &amp; Uganda","total deaths":100,"state":"Lira","total injuries":0},"type":"Feature","geometry":null},{"properties":{"event type":"Armed Assault","city":"Unknown","event id":1110437,"latitude":2.0,"event date":"10/30/2003","country":"Uganda","event title":null,"longitude":33.0,"id":"a656pwgixuiv","group":"Lord's Resistance Army (LRA) - Sudan &amp; Uganda","total deaths":13,"state":"Unknown","total injuries":0},"type":"Feature","geometry":{"type":"Point","coordinates":[33.0,2.0]}},{"properties":{"event type":"Hostage Taking/Kidnapping","city":"Karamoja","event id":1110063,"latitude":null,"event date":"8/14/2003","country":"Uganda","event title":null,"longitude":null,"id":"a656pwj9jl3x","group":"Lord's Resistance Army (LRA) - Sudan &amp; Uganda","total deaths":0,"state":"Northern","total injuries":0},"type":"Feature","geometry":null},{"properties":{"event type":"Armed Assault","city":"Nyamyezi","event id":1112490,"latitude":null,"event date":"4/29/2008","country":"Uganda","event title":null,"longitude":null,"id":"a656pwig19bn","group":"Allied Democratic Forces (ADF) - Uganda","total deaths":1,"state":"Kyamutunzi","total injuries":0},"type":"Feature","geometry":null},{"properties":{"event type":"Hostage Taking/Kidnapping","city":"Nyamyezi","event id":1112492,"latitude":null,"event date":"4/29/2008","country":"Uganda","event title":null,"longitude":null,"id":"a656pwk1l11x","group":"Allied Democratic Forces (ADF) - Uganda","total deaths":0,"state":"Kyamutunzi","total injuries":0},"type":"Feature","geometry":null},{"properties":{"event type":"Hostage Taking/Kidnapping","city":"Unknown","event id":1114162,"latitude":2.0,"event date":"3/1/1999","country":"Uganda","event title":null,"longitude":33.0,"id":"a656pwqvpxpz","group":"Unknown","total deaths":8,"state":"Unknown","total injuries":0},"type":"Feature","geometry":{"type":"Point","coordinates":[33.0,2.0]}},{"properties":{"event type":"Bombing","city":"Unknown","event id":1114167,"latitude":2.0,"event date":"2/14/1999","country":"Uganda","event title":null,"longitude":33.0,"id":"a656pwmbfuz0","group":"Allied Democratic Forces (ADF) - Uganda","total deaths":5,"state":"Unknown","total injuries":35},"type":"Feature","geometry":{"type":"Point","coordinates":[33.0,2.0]}},{"properties":{"event type":"Armed Assault","city":"Unknown","event id":1114160,"latitude":2.0,"event date":"3/1/1999","country":"Uganda","event title":null,"longitude":33.0,"id":"a656pwqtjxrp","group":"Unknown","total deaths":4,"state":"Unknown","total injuries":0},"type":"Feature","geometry":{"type":"Point","coordinates":[33.0,2.0]}},{"properties":{"event type":"Armed Assault","city":"Kisoro","event id":1114943,"latitude":null,"event date":"5/16/2008","country":"Uganda","event title":null,"longitude":null,"id":"a656pwpiazm0","group":"(DO NOT USE) Armed Forces of the Democratic Republic of Congo (FARDC)","total deaths":0,"state":"Kisoro","total injuries":0},"type":"Feature","geometry":null},{"properties":{"event type":"Hostage Taking/Kidnapping","city":"Unknown","event id":1118963,"latitude":2.0,"event date":"4/22/2008","country":"Uganda","event title":null,"longitude":33.0,"id":"a656pweke533","group":"Lord's Resistance Army (LRA) - Sudan &amp; Uganda","total deaths":0,"state":"Unknown","total injuries":0},"type":"Feature","geometry":{"type":"Point","coordinates":[33.0,2.0]}},{"properties":{"event type":"Armed Assault","city":"Pagei","event id":1122489,"latitude":null,"event date":"6/14/2008","country":"Uganda","event title":null,"longitude":null,"id":"a656pwmacaxc","group":"Lord's Resistance Army (LRA) - Sudan &amp; Uganda","total deaths":0,"state":"Busoga","total injuries":0},"type":"Feature","geometry":null},{"properties":{"event type":"Hostage Taking/Kidnapping","city":"Kampala","event id":1125901,"latitude":0.31555599,"event date":"7/3/2008","country":"Uganda","event title":null,"longitude":32.56555557,"id":"a656pwm7lij3","group":"Unknown","total deaths":0,"state":"Kampala","total injuries":1},"type":"Feature","geometry":{"type":"Point","coordinates":[32.56555557,0.31555599]}},{"properties":{"event type":"Armed Assault","city":"Namanve","event id":1131326,"latitude":null,"event date":"6/28/2008","country":"Uganda","event title":null,"longitude":null,"id":"a656pwp0nhi0","group":"Unknown","total deaths":0,"state":"Kampala","total injuries":4},"type":"Feature","geometry":null},{"properties":{"event type":"Arson","city":"Namanve","event id":1131339,"latitude":null,"event date":"6/28/2008","country":"Uganda","event title":null,"longitude":null,"id":"a656pwdhd5fi","group":"Unknown","total deaths":0,"state":"Kampala","total injuries":0},"type":"Feature","geometry":null},{"properties":{"event type":"Armed Assault","city":"Unknown","event id":1135067,"latitude":null,"event date":"8/5/2008","country":"Uganda","event title":null,"longitude":null,"id":"a656pws0c2ee","group":"Unknown","total deaths":0,"state":"Kaabong","total injuries":0},"type":"Feature","geometry":null},{"properties":{"event type":"Armed Assault","city":"Kitgum","event id":1136920,"latitude":null,"event date":"8/12/2005","country":"Uganda","event title":null,"longitude":null,"id":"a656pwnt7c46","group":"Underground Government of the Free Democratic People of Laos (UGFDPL)","total deaths":1,"state":"Northern","total injuries":0},"type":"Feature","geometry":null},{"properties":{"event type":"Hostage Taking/Kidnapping","city":"Kampala","event id":1138045,"latitude":0.31555599,"event date":"8/18/2008","country":"Uganda","event title":null,"longitude":32.56555557,"id":"a656pwhocven","group":"Sudan People's Liberation Army (SPLA) - Sudan","total deaths":null,"state":"Kampala","total injuries":null},"type":"Feature","geometry":{"type":"Point","coordinates":[32.56555557,0.31555599]}},{"properties":{"event type":"Hostage Taking/Kidnapping","city":"Pagei","event id":1148583,"latitude":null,"event date":"6/14/2008","country":"Uganda","event title":"LRA Kidnapped Two People in Pageri","longitude":null,"id":"a656pwgdigj2","group":"Lord's Resistance Army (LRA) - Sudan &amp; Uganda","total deaths":0,"state":"Busoga","total injuries":null},"type":"Feature","geometry":null},{"properties":{"event type":"Armed Assault","city":"Kampala","event id":1152193,"latitude":0.31555599,"event date":"3/15/2009","country":"Uganda","event title":"Aerolift transport plane likely shot down with a missile: Islamic militants claim responsibility.","longitude":32.56555557,"id":"a656pwls5dgd","group":"Unknown","total deaths":11,"state":"Kampala","total injuries":0},"type":"Feature","geometry":{"type":"Point","coordinates":[32.56555557,0.31555599]}},{"properties":{"event type":"Bombing","city":"Kampala","event id":2859610,"latitude":null,"event date":"10/30/2009","country":"Uganda","event title":"Ugandan Security Agencies Foil Bomb Plot In Capital Kampala","longitude":null,"id":"a656pwnq07vm","group":"Unknown","total deaths":null,"state":"Central","total injuries":null},"type":"Feature","geometry":null},{"properties":{"event type":"Armed Assault","city":"Unknown","event id":2872845,"latitude":null,"event date":"11/19/2008","country":"Uganda","event title":"Two Humanitarian Workers Wounded in Armed Attack Near Lanyatido, Pader, Uganda","longitude":null,"id":"a656pwjhwi3a","group":"Unknown","total deaths":0,"state":"Pader","total injuries":2},"type":"Feature","geometry":null},{"properties":{"event type":"Armed Assault","city":null,"event id":2993242,"latitude":null,"event date":"8/26/2009","country":"Uganda","event title":"Assailants Assault Workers with Canes near the Sudanese Border, in Moyo, Uganda","longitude":null,"id":"a656pwcus2h4","group":"Sudan People's Liberation Army (SPLA) - Sudan","total deaths":0,"state":null,"total injuries":20},"type":"Feature","geometry":null},{"properties":{"event type":"Hostage Taking/Kidnapping","city":null,"event id":2993196,"latitude":null,"event date":"8/26/2009","country":"Uganda","event title":"Assailants Kidnapped Several Workers near the Sudanese Border, in Moyo, Uganda","longitude":null,"id":"a656pwrwwmqp","group":"Sudan People's Liberation Army (SPLA) - Sudan","total deaths":0,"state":null,"total injuries":0},"type":"Feature","geometry":null},{"properties":{"event type":"Armed Assault","city":"Unknown","event id":3004817,"latitude":null,"event date":"8/15/2008","country":"Uganda","event title":"Assailants Fired Upon and Killed One Civilian, Wounding Six Others near Amgamwa, Moroto, Uganda","longitude":null,"id":"a656pwnf2o2z","group":"Karimojong Warriors","total deaths":1,"state":"Moroto","total injuries":6},"type":"Feature","geometry":null},{"properties":{"event type":"Armed Assault","city":"Panyangara","event id":3004886,"latitude":null,"event date":"8/16/2008","country":"Uganda","event title":"Assailants Kill One Civilian and Wound Another in Panyangara, Kotido, Uganda","longitude":null,"id":"a656pwfmvg3g","group":"Karimojong Warriors","total deaths":1,"state":"Kotido","total injuries":1},"type":"Feature","geometry":null},{"properties":{"event type":"Armed Assault","city":"Kampala","event id":3024507,"latitude":0.31555599,"event date":"7/1/2008","country":"Uganda","event title":"One Journalist Wounded in Assault in Kampala, Uganda","longitude":32.56555557,"id":"a656pwi5xhmr","group":"Unknown","total deaths":0,"state":"Kampala","total injuries":1},"type":"Feature","geometry":{"type":"Point","coordinates":[32.56555557,0.31555599]}},{"properties":{"event type":"Hostage Taking/Kidnapping","city":"Kampala","event id":3024500,"latitude":0.31555599,"event date":"7/1/2008","country":"Uganda","event title":"One Journalist Kidnapped in Kampala, Uganda","longitude":32.56555557,"id":"a656pws88go1","group":"Unknown","total deaths":null,"state":"Kampala","total injuries":null},"type":"Feature","geometry":{"type":"Point","coordinates":[32.56555557,0.31555599]}},{"properties":{"event type":"Armed Assault","city":null,"event id":3033253,"latitude":null,"event date":"5/27/2008","country":"Uganda","event title":"Assailants Kill One Political Official in Osioda Village, near Kumi, Kumi, Uganda","longitude":null,"id":"a656pwlrh5y1","group":"Unknown","total deaths":null,"state":null,"total injuries":null},"type":"Feature","geometry":null},{"properties":{"event type":"Hostage Taking/Kidnapping","city":null,"event id":3145422,"latitude":null,"event date":"11/6/2009","country":"Uganda","event title":"Suspected SPLM/SPLA Kidnapped Two Police Officers, One Government Official and Five Civilians in Moyo, Uganda","longitude":null,"id":"a656pwcyggq5","group":"Unknown","total deaths":0,"state":"Moyo","total injuries":0},"type":"Feature","geometry":null},{"properties":{"event type":"Armed Assault","city":"Kotido","event id":3220953,"latitude":null,"event date":"7/10/2010","country":"Uganda","event title":"Assailants Kill Former Army Chief of Staff's Son","longitude":null,"id":"a656pwmx2trx","group":"Unknown","total deaths":1,"state":"Kotido","total injuries":0},"type":"Feature","geometry":null},{"properties":{"event type":"Robbery","city":"Unknown","event id":3221002,"latitude":null,"event date":"7/10/2010","country":"Uganda","event title":"Suspected Warriors Steal Cattle","longitude":null,"id":"a656pwfknlo4","group":"Unknown","total deaths":0,"state":"Nakapiripirit","total injuries":0},"type":"Feature","geometry":null},{"properties":{"event type":"Bombing","city":"Kampala","event id":3218790,"latitude":0.31555599,"event date":"7/11/2010","country":"Uganda","event title":"IED Attack Targets World Cup Watchers in Kampala Restaurant","longitude":32.56555557,"id":"a656pws51l4e","group":"Al Shabaab (The Young Islamic Movement)","total deaths":78,"state":"Kampala","total injuries":114},"type":"Feature","geometry":{"type":"Point","coordinates":[32.56555557,0.31555599]}},{"properties":{"event type":"Robbery","city":"Unknown","event id":3245917,"latitude":3.333333015,"event date":"7/28/2010","country":"Uganda","event title":"Ninety Head of Cattle Stolen in Kanawat Area of Kotido","longitude":34.0,"id":"a656pwjq208j","group":"Karimojong Warriors","total deaths":0,"state":"Kotido","total injuries":0},"type":"Feature","geometry":{"type":"Point","coordinates":[34.0,3.333333015]}},{"properties":{"event type":"Robbery","city":"Unknown","event id":3246221,"latitude":3.333333015,"event date":"7/28/2010","country":"Uganda","event title":"Assailants Attempt to Steal Cattle from Cattle Farm in Rupa Area of Kotido, Uganda","longitude":34.0,"id":"a656pwjxa5gj","group":"Karimojong Warriors","total deaths":1,"state":"Kotido","total injuries":0},"type":"Feature","geometry":{"type":"Point","coordinates":[34.0,3.333333015]}},{"properties":{"event type":"Robbery","city":"Unknown","event id":3246400,"latitude":3.333333015,"event date":"7/29/2010","country":"Uganda","event title":"Suspected Karimojong Warriors Steal 685 Head of Cattle in Nadungetut, Kotido, Uganda","longitude":34.0,"id":"a656pwfsoskp","group":"Karimojong Warriors","total deaths":8,"state":"Kotido","total injuries":0},"type":"Feature","geometry":{"type":"Point","coordinates":[34.0,3.333333015]}},{"properties":{"event type":"Robbery","city":"Unknown","event id":3246283,"latitude":3.333333015,"event date":"7/28/2010","country":"Uganda","event title":"Assailants Attempted to Steal Cattle from a Cattle Farm in the Moroto Area of Kotido, Uganda","longitude":34.0,"id":"a656pwgk2tc4","group":"Karimojong Warriors","total deaths":1,"state":"Kotido","total injuries":0},"type":"Feature","geometry":{"type":"Point","coordinates":[34.0,3.333333015]}},{"properties":{"event type":"Bombing","city":"Kampala","event id":3271581,"latitude":0.31555599,"event date":"8/10/2010","country":"Uganda","event title":"Attempte Bombing at Hostel in Kampala","longitude":32.56555557,"id":"a656pwg06cq5","group":"Unknown","total deaths":0,"state":"Kampala","total injuries":0},"type":"Feature","geometry":{"type":"Point","coordinates":[32.56555557,0.31555599]}},{"properties":{"event type":"Armed Assault","city":"Unknown","event id":3305856,"latitude":2.0,"event date":"9/11/2010","country":"Uganda","event title":"Journalist Attacked by Mob in Kyotera","longitude":33.0,"id":"a656pwg4a2x3","group":"Unknown","total deaths":1,"state":"Unknown","total injuries":0},"type":"Feature","geometry":{"type":"Point","coordinates":[33.0,2.0]}},{"properties":{"event type":"Arson","city":"Unknown","event id":3305850,"latitude":2.0,"event date":"9/11/2010","country":"Uganda","event title":"Mob Sets Fire to Suspected Murder Suspect in Kyotera","longitude":33.0,"id":"a656pwijuayg","group":"Unknown","total deaths":0,"state":"Unknown","total injuries":0},"type":"Feature","geometry":{"type":"Point","coordinates":[33.0,2.0]}},{"properties":{"event type":"Armed Assault","city":"Unknown","event id":3305933,"latitude":2.0,"event date":"9/14/2010","country":"Uganda","event title":"Journalist Beaten to Death in Mukono","longitude":33.0,"id":"a656pwcvha9w","group":"Unknown","total deaths":0,"state":"Unknown","total injuries":0},"type":"Feature","geometry":{"type":"Point","coordinates":[33.0,2.0]}},{"properties":{"event type":"Bombing","city":"Kampala","event id":3343018,"latitude":0.31555599,"event date":"10/2/2010","country":"Uganda","event title":"Militants Place IED Inside Church in Kampala","longitude":32.56555557,"id":"a656pwqvnk32","group":"Unknown","total deaths":0,"state":"Kampala","total injuries":0},"type":"Feature","geometry":{"type":"Point","coordinates":[32.56555557,0.31555599]}},{"properties":{"event type":"Hostage Taking/Kidnapping","city":null,"event id":3411923,"latitude":null,"event date":"10/31/2010","country":"Uganda","event title":"Suspected SPLA Militants Kidnap Two People in Uganda","longitude":null,"id":"a656pwrfjggr","group":"Sudan People's Liberation Army (SPLA) - Sudan","total deaths":0,"state":"Moyo","total injuries":0},"type":"Feature","geometry":null},{"properties":{"event type":"Hostage Taking/Kidnapping","city":null,"event id":3411914,"latitude":null,"event date":"11/10/2010","country":"Uganda","event title":"Suspected SPLA Militants Kidnap 11 Civilians from the Village of Dengolo","longitude":null,"id":"a656pwcbgiez","group":"Sudan People's Liberation Army (SPLA) - Sudan","total deaths":0,"state":"Moyo","total injuries":0},"type":"Feature","geometry":null},{"properties":{"event type":"Hostage Taking/Kidnapping","city":"Moyo","event id":3411931,"latitude":null,"event date":"11/7/2010","country":"Uganda","event title":"Sudanese Militants Abduct One Civilian in Moyo","longitude":null,"id":"a656pwl2fu8z","group":"Sudan People's Liberation Army (SPLA) - Sudan","total deaths":0,"state":"Northern","total injuries":0},"type":"Feature","geometry":null},{"properties":{"event type":"Bombing","city":"Bwera","event id":3474847,"latitude":null,"event date":"12/1/2010","country":"Uganda","event title":"IED Placed in Compound of Hospital in Bwera","longitude":null,"id":"a656pweiw0na","group":"Unknown","total deaths":0,"state":"Kasese","total injuries":0},"type":"Feature","geometry":null},{"properties":{"event type":"Armed Assault","city":"Kampala","event id":3907138,"latitude":0.31555599,"event date":"10/17/2011","country":"Uganda","event title":"Militants Attack a School with Tear Gas in Kampala","longitude":32.56555557,"id":"a656pwrsqyr6","group":"Unknown","total deaths":0,"state":"Kampala","total injuries":0},"type":"Feature","geometry":{"type":"Point","coordinates":[32.56555557,0.31555599]}}],"is_temporal":false,"author":{"url":"","metadata":"","contact_name":"","contact_address":"","source":"","contact_phone":""},"source":"","pagination":{"sort":null,"start":0,"total":121,"limit":1000000},"state":"complete","tags":"","published":"2014-08-14T17:28:24-04:00","id":201885}