{"type":"FeatureCollection","data_type":"Dataset","url_type":null,"permissions":[{"permissions":{"download":true,"view":true},"group_id":"everyone"}],"classification":null,"title":"snow_totals_0730","count":36,"stream_id":202089,"contributor":{"url":"http://geocommons.com/users/28467","name":"bheberto"},"data_attributes":null,"calculation_params":null,"icon_link":null,"link":"http://geocommons.com/overlays/202089.json","extent":[-106.0,39.36,-102.34,40.97],"geometry_types":["point"],"unique_name":null,"name":"snow_totals_0730","feature_count":36,"description":"","next_feature":null,"is_raster":false,"short_classification":"Y","stats":{"latitude":{"max":40.97,"mean":39.8308333333333,"variance":0.149756428571428,"stdev":0.386983757503372,"min":39.36,"median":39.74},"time":{"max":"2030/01/01 11:00:00 -0500","mean":"1649/09/21 09:29:23 -0456","variance":3.39756347193969e+20,"stdev":18432480766.1359,"min":"599/12/31 23:59:58 -0456","median":"2030/01/01 03:00:00 -0500"},"date":{"max":"2012/02/03 00:00:00 -0500","mean":"2012/02/03 00:00:00 -0500","variance":0.0,"stdev":0.0,"min":"2012/02/03 00:00:00 -0500","median":"2012/02/03 00:00:00 -0500"},"longitude":{"max":-102.34,"mean":-104.983333333333,"variance":0.396702857142857,"stdev":0.629843517981138,"min":-106.0,"median":-105.07},"mag":{"max":24.0,"mean":11.9305555555556,"variance":26.5278968253968,"stdev":5.15052393697931,"min":3.7,"median":11.5}},"features":[{"properties":{"city":"2 NE GREENWOOD VILLAGE","latitude":39.64,"time":{"end_time":"2030/01/01 03:00:00 -0500","original":"0914 AM","granularity":"hour","time":"2030/01/01 02:00:00 -0500"},"county":"DENVER","date":{"end_time":"2012/02/04 00:00:00 -0500","original":"02/03/2012","granularity":"day","time":"2012/02/03 00:00:00 -0500"},"event":"HEAVY SNOW","notes":null,"mag":10.5,"longitude":-104.89,"id":"a6i7l09nixmj","source":"TRAINED SPOTTER","state":"CO"},"type":"Feature","geometry":{"type":"Point","coordinates":[-104.89,39.64]}},{"properties":{"city":"3 N CONIFER","latitude":39.57,"time":{"end_time":"901/01/01 00:00:00 -0456","original":"0900","granularity":"year","time":"900/01/01 00:00:00 -0456"},"county":"JEFFERSON","date":{"end_time":"2012/02/04 00:00:00 -0500","original":"02/03/2012","granularity":"day","time":"2012/02/03 00:00:00 -0500"},"event":"HEAVY SNOW","notes":null,"mag":17.1,"longitude":-105.31,"id":"a6i7l06pmgm5","source":"TRAINED SPOTTER","state":"CO"},"type":"Feature","geometry":{"type":"Point","coordinates":[-105.31,39.57]}},{"properties":{"city":"5 SSW ARAPAHOE PARK","latitude":39.57,"time":{"end_time":"901/01/01 00:00:00 -0456","original":"0900","granularity":"year","time":"900/01/01 00:00:00 -0456"},"county":"ARAPAHOE","date":{"end_time":"2012/02/04 00:00:00 -0500","original":"02/03/2012","granularity":"day","time":"2012/02/03 00:00:00 -0500"},"event":"HEAVY SNOW","notes":null,"mag":13.9,"longitude":-104.72,"id":"a6i7l09viv3n","source":"TRAINED SPOTTER","state":"CO"},"type":"Feature","geometry":{"type":"Point","coordinates":[-104.72,39.57]}},{"properties":{"city":"NW CASTLE ROCK","latitude":39.38,"time":{"end_time":"901/01/01 00:00:00 -0456","original":"0900","granularity":"year","time":"900/01/01 00:00:00 -0456"},"county":"DOUGLAS","date":{"end_time":"2012/02/04 00:00:00 -0500","original":"02/03/2012","granularity":"day","time":"2012/02/03 00:00:00 -0500"},"event":"HEAVY SNOW","notes":null,"mag":9.0,"longitude":-104.85,"id":"a6i7l0i3le7n","source":"TRAINED SPOTTER","state":"CO"},"type":"Feature","geometry":{"type":"Point","coordinates":[-104.85,39.38]}},{"properties":{"city":"FORT COLLINS","latitude":40.56,"time":{"end_time":"901/01/01 00:00:00 -0456","original":"0900","granularity":"year","time":"900/01/01 00:00:00 -0456"},"county":"LARIMER","date":{"end_time":"2012/02/04 00:00:00 -0500","original":"02/03/2012","granularity":"day","time":"2012/02/03 00:00:00 -0500"},"event":"HEAVY SNOW","notes":null,"mag":6.0,"longitude":-105.07,"id":"a6i7l0kyzfy1","source":"TRAINED SPOTTER","state":"CO"},"type":"Feature","geometry":{"type":"Point","coordinates":[-105.07,40.56]}},{"properties":{"city":"9 NE PONDEROSA PARK","latitude":39.5,"time":{"end_time":"2030/01/01 09:00:00 -0500","original":"0836 AM","granularity":"hour","time":"2030/01/01 08:00:00 -0500"},"county":"ELBERT","date":{"end_time":"2012/02/04 00:00:00 -0500","original":"02/03/2012","granularity":"day","time":"2012/02/03 00:00:00 -0500"},"event":"HEAVY SNOW","notes":null,"mag":14.5,"longitude":-104.53,"id":"a6i7l0jdpxbn","source":"TRAINED SPOTTER","state":"CO"},"type":"Feature","geometry":{"type":"Point","coordinates":[-104.53,39.5]}},{"properties":{"city":"2 S ALLENSPARK","latitude":40.18,"time":{"end_time":"2030/01/01 09:00:00 -0500","original":"0836 AM","granularity":"hour","time":"2030/01/01 08:00:00 -0500"},"county":"BOULDER","date":{"end_time":"2012/02/04 00:00:00 -0500","original":"02/03/2012","granularity":"day","time":"2012/02/03 00:00:00 -0500"},"event":"HEAVY SNOW","notes":null,"mag":11.0,"longitude":-105.53,"id":"a6i7l0eedtob","source":"TRAINED SPOTTER","state":"CO"},"type":"Feature","geometry":{"type":"Point","coordinates":[-105.53,40.18]}},{"properties":{"city":"N LONGMONT","latitude":40.17,"time":{"end_time":"2030/01/01 03:00:00 -0500","original":"0830 AM","granularity":"hour","time":"2030/01/01 02:00:00 -0500"},"county":"BOULDER","date":{"end_time":"2012/02/04 00:00:00 -0500","original":"02/03/2012","granularity":"day","time":"2012/02/03 00:00:00 -0500"},"event":"HEAVY SNOW","notes":null,"mag":11.5,"longitude":-105.11,"id":"a6i7l0go7gpt","source":"TRAINED SPOTTER","state":"CO"},"type":"Feature","geometry":{"type":"Point","coordinates":[-105.11,40.17]}},{"properties":{"city":"2 SSE WOODLIN SCHOOL","latitude":39.76,"time":{"end_time":"2030/01/01 03:00:00 -0500","original":"0830 AM","granularity":"hour","time":"2030/01/01 02:00:00 -0500"},"county":"WASHINGTON","date":{"end_time":"2012/02/04 00:00:00 -0500","original":"02/03/2012","granularity":"day","time":"2012/02/03 00:00:00 -0500"},"event":"HEAVY SNOW","notes":null,"mag":6.5,"longitude":-103.5,"id":"a6i7l09ihtzk","source":"TRAINED SPOTTER","state":"CO"},"type":"Feature","geometry":{"type":"Point","coordinates":[-103.5,39.76]}},{"properties":{"city":"EVERGREEN","latitude":39.63,"time":{"end_time":"2030/01/01 03:00:00 -0500","original":"0830 AM","granularity":"hour","time":"2030/01/01 02:00:00 -0500"},"county":"JEFFERSON","date":{"end_time":"2012/02/04 00:00:00 -0500","original":"02/03/2012","granularity":"day","time":"2012/02/03 00:00:00 -0500"},"event":"HEAVY SNOW","notes":null,"mag":15.0,"longitude":-105.34,"id":"a6i7l0kkdenr","source":"TRAINED SPOTTER","state":"CO"},"type":"Feature","geometry":{"type":"Point","coordinates":[-105.34,39.63]}},{"properties":{"city":"2 SW LOVELAND","latitude":40.4,"time":{"end_time":"829/01/01 00:00:00 -0456","original":"0828","granularity":"year","time":"828/01/01 00:00:00 -0456"},"county":"LARIMER","date":{"end_time":"2012/02/04 00:00:00 -0500","original":"02/03/2012","granularity":"day","time":"2012/02/03 00:00:00 -0500"},"event":"HEAVY SNOW","notes":null,"mag":9.5,"longitude":-105.09,"id":"a6i7l09v7bow","source":"TRAINED SPOTTER","state":"CO"},"type":"Feature","geometry":{"type":"Point","coordinates":[-105.09,40.4]}},{"properties":{"city":"1 NNW ERIE","latitude":40.04,"time":{"end_time":"2030/01/01 11:00:00 -0500","original":"0826 AM","granularity":"hour","time":"2030/01/01 10:00:00 -0500"},"county":"BOULDER","date":{"end_time":"2012/02/04 00:00:00 -0500","original":"02/03/2012","granularity":"day","time":"2012/02/03 00:00:00 -0500"},"event":"HEAVY SNOW","notes":null,"mag":12.0,"longitude":-105.05,"id":"a6i7l07b72jo","source":"TRAINED SPOTTER","state":"CO"},"type":"Feature","geometry":{"type":"Point","coordinates":[-105.05,40.04]}},{"properties":{"city":"1 SE GLENDALE","latitude":39.69,"time":{"end_time":"2030/01/01 11:00:00 -0500","original":"0826 AM","granularity":"hour","time":"2030/01/01 10:00:00 -0500"},"county":"DENVER","date":{"end_time":"2012/02/04 00:00:00 -0500","original":"02/03/2012","granularity":"day","time":"2012/02/03 00:00:00 -0500"},"event":"HEAVY SNOW","notes":null,"mag":6.9,"longitude":-104.92,"id":"a6i7l08uv8r2","source":"TRAINED SPOTTER","state":"CO"},"type":"Feature","geometry":{"type":"Point","coordinates":[-104.92,39.69]}},{"properties":{"city":"1 WSW BROOMFIELD","latitude":39.93,"time":{"end_time":"2030/01/01 05:00:00 -0500","original":"0820 AM","granularity":"hour","time":"2030/01/01 04:00:00 -0500"},"county":"BROOMFIELD","date":{"end_time":"2012/02/04 00:00:00 -0500","original":"02/03/2012","granularity":"day","time":"2012/02/03 00:00:00 -0500"},"event":"HEAVY SNOW","notes":null,"mag":12.0,"longitude":-105.08,"id":"a6i7l0gyg7lb","source":"NWS EMPLOYEE","state":"CO"},"type":"Feature","geometry":{"type":"Point","coordinates":[-105.08,39.93]}},{"properties":{"city":"3 WSW CONIFER","latitude":39.5,"time":{"end_time":"2030/01/01 03:00:00 -0500","original":"0818 AM","granularity":"hour","time":"2030/01/01 02:00:00 -0500"},"county":"JEFFERSON","date":{"end_time":"2012/02/04 00:00:00 -0500","original":"02/03/2012","granularity":"day","time":"2012/02/03 00:00:00 -0500"},"event":"HEAVY SNOW","notes":null,"mag":24.0,"longitude":-105.36,"id":"a6i7l0ipk2yi","source":"TRAINED SPOTTER","state":"CO"},"type":"Feature","geometry":{"type":"Point","coordinates":[-105.36,39.5]}},{"properties":{"city":"GENESEE","latitude":39.69,"time":{"end_time":"2030/01/01 07:00:00 -0500","original":"0810 AM","granularity":"hour","time":"2030/01/01 06:00:00 -0500"},"county":"JEFFERSON","date":{"end_time":"2012/02/04 00:00:00 -0500","original":"02/03/2012","granularity":"day","time":"2012/02/03 00:00:00 -0500"},"event":"HEAVY SNOW","notes":null,"mag":14.5,"longitude":-105.27,"id":"a6i7l06cxwb9","source":"TRAINED SPOTTER","state":"CO"},"type":"Feature","geometry":{"type":"Point","coordinates":[-105.27,39.69]}},{"properties":{"city":"4 NNW CASTLE ROCK","latitude":39.43,"time":{"end_time":"2030/01/01 07:00:00 -0500","original":"0810 AM","granularity":"hour","time":"2030/01/01 06:00:00 -0500"},"county":"DOUGLAS","date":{"end_time":"2012/02/04 00:00:00 -0500","original":"02/03/2012","granularity":"day","time":"2012/02/03 00:00:00 -0500"},"event":"HEAVY SNOW","notes":null,"mag":8.3,"longitude":-104.88,"id":"a6i7l0kmsqvc","source":"TRAINED SPOTTER","state":"CO"},"type":"Feature","geometry":{"type":"Point","coordinates":[-104.88,39.43]}},{"properties":{"city":"2 NW STRASBURG","latitude":39.76,"time":{"end_time":"2030/01/01 12:00:00 -0500","original":"0743 AM","granularity":"hour","time":"2030/01/01 11:00:00 -0500"},"county":"ADAMS","date":{"end_time":"2012/02/04 00:00:00 -0500","original":"02/03/2012","granularity":"day","time":"2012/02/03 00:00:00 -0500"},"event":"HEAVY SNOW","notes":"SNOW DRIFTS 2-3 FEET","mag":14.0,"longitude":-104.33,"id":"a6i7l0j7b4pm","source":"TRAINED SPOTTER","state":"CO"},"type":"Feature","geometry":{"type":"Point","coordinates":[-104.33,39.76]}},{"properties":{"city":"KEN CARYL","latitude":39.58,"time":{"end_time":"733/01/01 00:00:00 -0456","original":"0732","granularity":"year","time":"732/01/01 00:00:00 -0456"},"county":"JEFFERSON","date":{"end_time":"2012/02/04 00:00:00 -0500","original":"02/03/2012","granularity":"day","time":"2012/02/03 00:00:00 -0500"},"event":"HEAVY SNOW","notes":null,"mag":8.5,"longitude":-105.11,"id":"a6i7l06y0ux1","source":"TRAINED SPOTTER","state":"CO"},"type":"Feature","geometry":{"type":"Point","coordinates":[-105.11,39.58]}},{"properties":{"city":"DENVER","latitude":39.77,"time":{"end_time":"733/01/01 00:00:00 -0456","original":"0732","granularity":"year","time":"732/01/01 00:00:00 -0456"},"county":"DENVER","date":{"end_time":"2012/02/04 00:00:00 -0500","original":"02/03/2012","granularity":"day","time":"2012/02/03 00:00:00 -0500"},"event":"HEAVY SNOW","notes":null,"mag":10.5,"longitude":-104.87,"id":"a6i7l05yjars","source":"TRAINED SPOTTER","state":"CO"},"type":"Feature","geometry":{"type":"Point","coordinates":[-104.87,39.77]}},{"properties":{"city":"1 SSW BENNETT","latitude":39.74,"time":{"end_time":"733/01/01 00:00:00 -0456","original":"0732","granularity":"year","time":"732/01/01 00:00:00 -0456"},"county":"ADAMS","date":{"end_time":"2012/02/04 00:00:00 -0500","original":"02/03/2012","granularity":"day","time":"2012/02/03 00:00:00 -0500"},"event":"HEAVY SNOW","notes":null,"mag":6.8,"longitude":-104.43,"id":"a6i7l0eo1t7k","source":"TRAINED SPOTTER","state":"CO"},"type":"Feature","geometry":{"type":"Point","coordinates":[-104.43,39.74]}},{"properties":{"city":"3 NW AURORA","latitude":39.73,"time":{"end_time":"2030/01/01 12:00:00 -0500","original":"0731 AM","granularity":"hour","time":"2030/01/01 11:00:00 -0500"},"county":"ARAPAHOE","date":{"end_time":"2012/02/04 00:00:00 -0500","original":"02/03/2012","granularity":"day","time":"2012/02/03 00:00:00 -0500"},"event":"HEAVY SNOW","notes":null,"mag":8.0,"longitude":-104.77,"id":"a6i7l0ffqd7x","source":"TRAINED SPOTTER","state":"CO"},"type":"Feature","geometry":{"type":"Point","coordinates":[-104.77,39.73]}},{"properties":{"city":"1 SE WELLINGTON","latitude":40.69,"time":{"end_time":"2030/01/01 11:00:00 -0500","original":"0730 AM","granularity":"hour","time":"2030/01/01 10:00:00 -0500"},"county":"LARIMER","date":{"end_time":"2012/02/04 00:00:00 -0500","original":"02/03/2012","granularity":"day","time":"2012/02/03 00:00:00 -0500"},"event":"HEAVY SNOW","notes":null,"mag":4.0,"longitude":-104.99,"id":"a6i7l0f62293","source":"TRAINED SPOTTER","state":"CO"},"type":"Feature","geometry":{"type":"Point","coordinates":[-104.99,40.69]}},{"properties":{"city":"1 SW WESTMINSTER","latitude":39.87,"time":{"end_time":"2030/01/01 11:00:00 -0500","original":"0730 AM","granularity":"hour","time":"2030/01/01 10:00:00 -0500"},"county":"JEFFERSON","date":{"end_time":"2012/02/04 00:00:00 -0500","original":"02/03/2012","granularity":"day","time":"2012/02/03 00:00:00 -0500"},"event":"HEAVY SNOW","notes":null,"mag":12.3,"longitude":-105.07,"id":"a6i7l07b7fwj","source":"TRAINED SPOTTER","state":"CO"},"type":"Feature","geometry":{"type":"Point","coordinates":[-105.07,39.87]}},{"properties":{"city":"GENESEE","latitude":39.69,"time":{"end_time":"2030/01/01 11:00:00 -0500","original":"0730 AM","granularity":"hour","time":"2030/01/01 10:00:00 -0500"},"county":"JEFFERSON","date":{"end_time":"2012/02/04 00:00:00 -0500","original":"02/03/2012","granularity":"day","time":"2012/02/03 00:00:00 -0500"},"event":"HEAVY SNOW","notes":null,"mag":13.0,"longitude":-105.27,"id":"a6i7l0jouowm","source":"TRAINED SPOTTER","state":"CO"},"type":"Feature","geometry":{"type":"Point","coordinates":[-105.27,39.69]}},{"properties":{"city":"1 E IDAHO SPRINGS","latitude":39.74,"time":{"end_time":"2030/01/01 11:00:00 -0500","original":"0730 AM","granularity":"hour","time":"2030/01/01 10:00:00 -0500"},"county":"CLEAR CREEK","date":{"end_time":"2012/02/04 00:00:00 -0500","original":"02/03/2012","granularity":"day","time":"2012/02/03 00:00:00 -0500"},"event":"HEAVY SNOW","notes":null,"mag":8.3,"longitude":-105.49,"id":"a6i7l06ukfcs","source":"TRAINED SPOTTER","state":"CO"},"type":"Feature","geometry":{"type":"Point","coordinates":[-105.49,39.74]}},{"properties":{"city":"5 W CONIFER","latitude":39.52,"time":{"end_time":"2030/01/01 11:00:00 -0500","original":"0730 AM","granularity":"hour","time":"2030/01/01 10:00:00 -0500"},"county":"PARK","date":{"end_time":"2012/02/04 00:00:00 -0500","original":"02/03/2012","granularity":"day","time":"2012/02/03 00:00:00 -0500"},"event":"HEAVY SNOW","notes":null,"mag":20.0,"longitude":-105.39,"id":"a6i7l0e2ice7","source":"TRAINED SPOTTER","state":"CO"},"type":"Feature","geometry":{"type":"Point","coordinates":[-105.39,39.52]}},{"properties":{"city":"1 SSE ST MARYS GLACIER","latitude":39.82,"time":{"end_time":"2030/01/01 11:00:00 -0500","original":"0718 AM","granularity":"hour","time":"2030/01/01 10:00:00 -0500"},"county":"CLEAR CREEK","date":{"end_time":"2012/02/04 00:00:00 -0500","original":"02/03/2012","granularity":"day","time":"2012/02/03 00:00:00 -0500"},"event":"HEAVY SNOW","notes":null,"mag":8.0,"longitude":-105.64,"id":"a6i7l0i2oc6z","source":"TRAINED SPOTTER","state":"CO"},"type":"Feature","geometry":{"type":"Point","coordinates":[-105.64,39.82]}},{"properties":{"city":"3 W CONIFER","latitude":39.51,"time":{"end_time":"2030/01/01 10:00:00 -0500","original":"0717 AM","granularity":"hour","time":"2030/01/01 09:00:00 -0500"},"county":"JEFFERSON","date":{"end_time":"2012/02/04 00:00:00 -0500","original":"02/03/2012","granularity":"day","time":"2012/02/03 00:00:00 -0500"},"event":"HEAVY SNOW","notes":"THREE TO FOUR FOOT DRIFTS","mag":22.0,"longitude":-105.36,"id":"a6i7l0dvu0hq","source":"TRAINED SPOTTER","state":"CO"},"type":"Feature","geometry":{"type":"Point","coordinates":[-105.36,39.51]}},{"properties":{"city":"4 ESE FRANKTOWN","latitude":39.36,"time":{"end_time":"2030/01/01 04:00:00 -0500","original":"0711 AM","granularity":"hour","time":"2030/01/01 03:00:00 -0500"},"county":"DOUGLAS","date":{"end_time":"2012/02/04 00:00:00 -0500","original":"02/03/2012","granularity":"day","time":"2012/02/03 00:00:00 -0500"},"event":"HEAVY SNOW","notes":null,"mag":9.1,"longitude":-104.69,"id":"a6i7l0hvwp37","source":"TRAINED SPOTTER","state":"CO"},"type":"Feature","geometry":{"type":"Point","coordinates":[-104.69,39.36]}},{"properties":{"city":"3 SW HOLYOKE","latitude":40.55,"time":{"end_time":"2030/01/01 04:00:00 -0500","original":"0711 AM","granularity":"hour","time":"2030/01/01 03:00:00 -0500"},"county":"PHILLIPS","date":{"end_time":"2012/02/04 00:00:00 -0500","original":"02/03/2012","granularity":"day","time":"2012/02/03 00:00:00 -0500"},"event":"SNOW","notes":null,"mag":3.7,"longitude":-102.34,"id":"a6i7l0l4bdvz","source":"TRAINED SPOTTER","state":"CO"},"type":"Feature","geometry":{"type":"Point","coordinates":[-102.34,40.55]}},{"properties":{"city":"8 NNW FOUR CORNERS","latitude":40.97,"time":{"end_time":"2030/01/01 03:00:00 -0500","original":"0710 AM","granularity":"hour","time":"2030/01/01 02:00:00 -0500"},"county":"LARIMER","date":{"end_time":"2012/02/04 00:00:00 -0500","original":"02/03/2012","granularity":"day","time":"2012/02/03 00:00:00 -0500"},"event":"HEAVY SNOW","notes":"WAIST DEEP DRIFTS","mag":17.0,"longitude":-106.0,"id":"a6i7l08jlnc8","source":"TRAINED SPOTTER","state":"CO"},"type":"Feature","geometry":{"type":"Point","coordinates":[-106.0,40.97]}},{"properties":{"city":"4 S EVERGREEN","latitude":39.58,"time":{"end_time":"709/01/01 00:00:00 -0456","original":"0708","granularity":"year","time":"708/01/01 00:00:00 -0456"},"county":"JEFFERSON","date":{"end_time":"2012/02/04 00:00:00 -0500","original":"02/03/2012","granularity":"day","time":"2012/02/03 00:00:00 -0500"},"event":"HEAVY SNOW","notes":null,"mag":13.1,"longitude":-105.34,"id":"a6i7l0cwlivr","source":"TRAINED SPOTTER","state":"CO"},"type":"Feature","geometry":{"type":"Point","coordinates":[-105.34,39.58]}},{"properties":{"city":"3 E HIGHLANDS RANCH","latitude":39.55,"time":{"end_time":"709/01/01 00:00:00 -0456","original":"0708","granularity":"year","time":"708/01/01 00:00:00 -0456"},"county":"DOUGLAS","date":{"end_time":"2012/02/04 00:00:00 -0500","original":"02/03/2012","granularity":"day","time":"2012/02/03 00:00:00 -0500"},"event":"HEAVY SNOW","notes":null,"mag":8.0,"longitude":-104.92,"id":"a6i7l0l5qixw","source":"TRAINED SPOTTER","state":"CO"},"type":"Feature","geometry":{"type":"Point","coordinates":[-104.92,39.55]}},{"properties":{"city":"NEDERLAND","latitude":39.96,"time":{"end_time":"2030/01/01 12:00:00 -0500","original":"0707 AM","granularity":"hour","time":"2030/01/01 11:00:00 -0500"},"county":"BOULDER","date":{"end_time":"2012/02/04 00:00:00 -0500","original":"02/03/2012","granularity":"day","time":"2012/02/03 00:00:00 -0500"},"event":"HEAVY SNOW","notes":null,"mag":17.0,"longitude":-105.5,"id":"a6i7l0fbz658","source":"TRAINED SPOTTER","state":"CO"},"type":"Feature","geometry":{"type":"Point","coordinates":[-105.5,39.96]}},{"properties":{"city":"4 SSE PINECLIFFE","latitude":39.88,"time":{"end_time":"601/01/01 00:00:00 -0456","original":"0600","granularity":"year","time":"600/01/01 00:00:00 -0456"},"county":"GILPIN","date":{"end_time":"2012/02/04 00:00:00 -0500","original":"02/03/2012","granularity":"day","time":"2012/02/03 00:00:00 -0500"},"event":"HEAVY SNOW","notes":null,"mag":24.0,"longitude":-105.39,"id":"a6i7l05cbepq","source":"TRAINED SPOTTER","state":"CO"},"type":"Feature","geometry":{"type":"Point","coordinates":[-105.39,39.88]}}],"is_temporal":true,"author":{"url":"","metadata":null,"contact_name":null,"contact_address":null,"source":null,"contact_phone":null},"source":"","pagination":{"sort":null,"start":0,"total":36,"limit":1000000},"state":"complete","tags":"","published":"2014-08-14T17:41:51-04:00","id":202089}