{"type":"FeatureCollection","data_type":"Dataset","url_type":null,"permissions":[{"permissions":{"download":true,"view":true},"group_id":"everyone"}],"classification":null,"title":"Snowfall reports of Colorado's February 2-4, 2012 snowstorm","count":147,"stream_id":202589,"contributor":{"url":"http://geocommons.com/users/37944","name":"ExaminerWeather"},"data_attributes":null,"calculation_params":null,"icon_link":null,"link":"http://geocommons.com/overlays/202589.json","extent":[-106.33,37.19,-99.71,41.89],"geometry_types":["point"],"unique_name":null,"name":"Snowfall reports of Colorado's February 2-4, 2012 snowstorm","feature_count":147,"description":"Snowfall reports of Colorado's February 2-4, 2012 snowstorm. Final update, February 5, 2012, 6:00am MST.","next_feature":null,"is_raster":false,"short_classification":"Y","stats":{"lon":{"max":-99.71,"mean":-104.121428571429,"variance":2.89860273972603,"stdev":1.70252833742233,"min":-106.33,"median":-104.87},"amount (inches)":{"max":51.1,"mean":15.1394557823129,"variance":97.7517202497437,"stdev":9.88694696302876,"min":1.0,"median":15.1},"lat":{"max":41.89,"mean":39.793537414966,"variance":0.479740825645326,"stdev":0.692633254793131,"min":37.19,"median":39.71}},"features":[{"properties":{"lon":-99.83,"event type":"SNOW","county":"Graham","amount (inches)":8.0,"id":"a620dl56clfu","lat":39.37,"source":"co-op observer","state":"KS","location":"1 E Hill City","report time (subtract 7 for mst)":"Sat Feb 04 2012 15:28:00 GMT-0700 (Mountain Standard Time)"},"type":"Feature","geometry":{"type":"Point","coordinates":[-99.83,39.37]}},{"properties":{"lon":-104.87,"event type":"HEAVY SNOW","county":"El Paso","amount (inches)":21.5,"id":"a620dl6o91xn","lat":39.1,"source":"trained spotter","state":"CO","location":"1 Ene Monument","report time (subtract 7 for mst)":"Sat Feb 04 2012 07:46:00 GMT-0700 (Mountain Standard Time)"},"type":"Feature","geometry":{"type":"Point","coordinates":[-104.87,39.1]}},{"properties":{"lon":-105.07,"event type":"HEAVY SNOW","county":"Jefferson","amount (inches)":19.6,"id":"a620dl6fehrn","lat":39.77,"source":"co-op observer","state":"CO","location":"1 Ese Wheat Ridge","report time (subtract 7 for mst)":"Sat Feb 04 2012 08:15:00 GMT-0700 (Mountain Standard Time)"},"type":"Feature","geometry":{"type":"Point","coordinates":[-105.07,39.77]}},{"properties":{"lon":-102.62,"event type":"SNOW","county":"Yuma","amount (inches)":6.0,"id":"a620dkzw3m9f","lat":40.39,"source":"co-op observer","state":"CO","location":"1 N Clarkville","report time (subtract 7 for mst)":"Sat Feb 04 2012 19:20:00 GMT-0700 (Mountain Standard Time)"},"type":"Feature","geometry":{"type":"Point","coordinates":[-102.62,40.39]}},{"properties":{"lon":-104.3,"event type":"HEAVY SNOW","county":"Adams","amount (inches)":20.0,"id":"a620dl8yygh3","lat":39.75,"source":"trained spotter","state":"CO","location":"1 N Strasburg","report time (subtract 7 for mst)":"Sat Feb 04 2012 03:53:00 GMT-0700 (Mountain Standard Time)"},"type":"Feature","geometry":{"type":"Point","coordinates":[-104.3,39.75]}},{"properties":{"lon":-105.05,"event type":"HEAVY SNOW","county":"Boulder","amount (inches)":17.5,"id":"a620dkt1s6xi","lat":40.04,"source":"nws employee","state":"CO","location":"1 Nnw Erie","report time (subtract 7 for mst)":"Sat Feb 04 2012 16:10:00 GMT-0700 (Mountain Standard Time)"},"type":"Feature","geometry":{"type":"Point","coordinates":[-105.05,40.04]}},{"properties":{"lon":-105.15,"event type":"HEAVY SNOW","county":"Boulder","amount (inches)":20.2,"id":"a620dkvzh5u9","lat":39.99,"source":"trained spotter","state":"CO","location":"1 Nnw Louisville","report time (subtract 7 for mst)":"Sat Feb 04 2012 14:45:00 GMT-0700 (Mountain Standard Time)"},"type":"Feature","geometry":{"type":"Point","coordinates":[-105.15,39.99]}},{"properties":{"lon":-106.33,"event type":"SNOW","county":"Chaffee","amount (inches)":9.0,"id":"a620dl8xnq69","lat":38.51,"source":"public","state":"CO","location":"1 Nnw Monarch Pass","report time (subtract 7 for mst)":"Sat Feb 04 2012 17:22:00 GMT-0700 (Mountain Standard Time)"},"type":"Feature","geometry":{"type":"Point","coordinates":[-106.33,38.51]}},{"properties":{"lon":-105.01,"event type":"HEAVY SNOW","county":"Douglas","amount (inches)":28.0,"id":"a620dkvil8zf","lat":39.48,"source":"trained spotter","state":"CO","location":"1 Nw Louviers","report time (subtract 7 for mst)":"Sat Feb 04 2012 18:29:00 GMT-0700 (Mountain Standard Time)"},"type":"Feature","geometry":{"type":"Point","coordinates":[-105.01,39.48]}},{"properties":{"lon":-105.17,"event type":"HEAVY SNOW","county":"Boulder","amount (inches)":15.5,"id":"a620dl35x3ky","lat":40.1,"source":"trained spotter","state":"CO","location":"1 Nw Niwot","report time (subtract 7 for mst)":"Sat Feb 04 2012 15:15:00 GMT-0700 (Mountain Standard Time)"},"type":"Feature","geometry":{"type":"Point","coordinates":[-105.17,40.1]}},{"properties":{"lon":-104.32,"event type":"HEAVY SNOW","county":"Adams","amount (inches)":17.8,"id":"a620dl6408ke","lat":39.75,"source":"trained spotter","state":"CO","location":"1 Nw Strasburg","report time (subtract 7 for mst)":"Fri Feb 03 2012 23:18:00 GMT-0700 (Mountain Standard Time)"},"type":"Feature","geometry":{"type":"Point","coordinates":[-104.32,39.75]}},{"properties":{"lon":-105.34,"event type":"HEAVY SNOW","county":"Jefferson","amount (inches)":28.0,"id":"a620dkw1wb52","lat":39.63,"source":"trained spotter","state":"CO","location":"1 S Evergreen","report time (subtract 7 for mst)":"Sat Feb 04 2012 03:15:00 GMT-0700 (Mountain Standard Time)"},"type":"Feature","geometry":{"type":"Point","coordinates":[-105.34,39.63]}},{"properties":{"lon":-104.8,"event type":"HEAVY SNOW","county":"Laramie","amount (inches)":5.8,"id":"a620dl5tigmq","lat":41.13,"source":"trained spotter","state":"WY","location":"1 Ssw Cheyenne","report time (subtract 7 for mst)":"Sat Feb 04 2012 20:43:00 GMT-0700 (Mountain Standard Time)"},"type":"Feature","geometry":{"type":"Point","coordinates":[-104.8,41.13]}},{"properties":{"lon":-105.1,"event type":"HEAVY SNOW","county":"Boulder","amount (inches)":14.5,"id":"a620dkyiv46v","lat":39.99,"source":"trained spotter","state":"CO","location":"1 Ssw Lafayette","report time (subtract 7 for mst)":"Sat Feb 04 2012 08:06:00 GMT-0700 (Mountain Standard Time)"},"type":"Feature","geometry":{"type":"Point","coordinates":[-105.1,39.99]}},{"properties":{"lon":-105.36,"event type":"HEAVY SNOW","county":"Jefferson","amount (inches)":33.0,"id":"a620dl5fbsvo","lat":39.62,"source":"trained spotter","state":"CO","location":"1 Sw Evergreen","report time (subtract 7 for mst)":"Sat Feb 04 2012 15:15:00 GMT-0700 (Mountain Standard Time)"},"type":"Feature","geometry":{"type":"Point","coordinates":[-105.36,39.62]}},{"properties":{"lon":-104.94,"event type":"SNOW","county":"Pueblo","amount (inches)":8.0,"id":"a620dkyvmli7","lat":37.91,"source":"nws employee","state":"CO","location":"1 Sw Rye","report time (subtract 7 for mst)":"Sat Feb 04 2012 04:05:00 GMT-0700 (Mountain Standard Time)"},"type":"Feature","geometry":{"type":"Point","coordinates":[-104.94,37.91]}},{"properties":{"lon":-105.07,"event type":"HEAVY SNOW","county":"Jefferson","amount (inches)":21.5,"id":"a620dl8aftgp","lat":39.87,"source":"trained spotter","state":"CO","location":"1 Sw Westminster","report time (subtract 7 for mst)":"Sat Feb 04 2012 14:15:00 GMT-0700 (Mountain Standard Time)"},"type":"Feature","geometry":{"type":"Point","coordinates":[-105.07,39.87]}},{"properties":{"lon":-105.06,"event type":"SNOW","county":"Teller","amount (inches)":12.5,"id":"a620dkvj76kz","lat":38.99,"source":"trained spotter","state":"CO","location":"1 Sw Woodland Park","report time (subtract 7 for mst)":"Sat Feb 04 2012 15:27:00 GMT-0700 (Mountain Standard Time)"},"type":"Feature","geometry":{"type":"Point","coordinates":[-105.06,38.99]}},{"properties":{"lon":-104.31,"event type":"SNOW","county":"El Paso","amount (inches)":7.5,"id":"a620dl2vfl08","lat":39.03,"source":"trained spotter","state":"CO","location":"1 W Calhan","report time (subtract 7 for mst)":"Sat Feb 04 2012 15:16:00 GMT-0700 (Mountain Standard Time)"},"type":"Feature","geometry":{"type":"Point","coordinates":[-104.31,39.03]}},{"properties":{"lon":-105.08,"event type":"HEAVY SNOW","county":"Broomfield","amount (inches)":19.8,"id":"a620dl33pivw","lat":39.93,"source":"nws employee","state":"CO","location":"1 Wsw Broomfield","report time (subtract 7 for mst)":"Sat Feb 04 2012 14:50:00 GMT-0700 (Mountain Standard Time)"},"type":"Feature","geometry":{"type":"Point","coordinates":[-105.08,39.93]}},{"properties":{"lon":-100.97,"event type":"SNOW","county":"Rawlins","amount (inches)":4.0,"id":"a620dkvxn2me","lat":39.94,"source":"trained spotter","state":"KS","location":"10 Nne Atwood","report time (subtract 7 for mst)":"Sat Feb 04 2012 02:16:00 GMT-0700 (Mountain Standard Time)"},"type":"Feature","geometry":{"type":"Point","coordinates":[-100.97,39.94]}},{"properties":{"lon":-102.1,"event type":"HEAVY SNOW","county":"Phillips","amount (inches)":13.0,"id":"a620dl8t9xwu","lat":40.53,"source":"trained spotter","state":"CO","location":"11 Ese Holyoke","report time (subtract 7 for mst)":"Sat Feb 04 2012 01:36:00 GMT-0700 (Mountain Standard Time)"},"type":"Feature","geometry":{"type":"Point","coordinates":[-102.1,40.53]}},{"properties":{"lon":-104.79,"event type":"SNOW","county":"Laramie","amount (inches)":6.0,"id":"a620dl1txama","lat":41.3,"source":"nws employee","state":"WY","location":"11 N Cheyenne","report time (subtract 7 for mst)":"Sat Feb 04 2012 02:00:00 GMT-0700 (Mountain Standard Time)"},"type":"Feature","geometry":{"type":"Point","coordinates":[-104.79,41.3]}},{"properties":{"lon":-104.36,"event type":"SNOW","county":"Laramie","amount (inches)":4.5,"id":"a620dl44ikiv","lat":41.38,"source":"trained spotter","state":"WY","location":"13 N Burns","report time (subtract 7 for mst)":"Sat Feb 04 2012 01:30:00 GMT-0700 (Mountain Standard Time)"},"type":"Feature","geometry":{"type":"Point","coordinates":[-104.36,41.38]}},{"properties":{"lon":-101.97,"event type":"SNOW","county":"Cheyenne","amount (inches)":6.0,"id":"a620dl03mlhv","lat":39.9,"source":"trained spotter","state":"KS","location":"13 Nw St. Francis","report time (subtract 7 for mst)":"Sat Feb 04 2012 18:23:00 GMT-0700 (Mountain Standard Time)"},"type":"Feature","geometry":{"type":"Point","coordinates":[-101.97,39.9]}},{"properties":{"lon":-104.2,"event type":"HEAVY SNOW","county":"Elbert","amount (inches)":26.0,"id":"a620dl6kqhw9","lat":39.42,"source":"trained spotter","state":"CO","location":"14 Wsw Agate","report time (subtract 7 for mst)":"Sat Feb 04 2012 14:00:00 GMT-0700 (Mountain Standard Time)"},"type":"Feature","geometry":{"type":"Point","coordinates":[-104.2,39.42]}},{"properties":{"lon":-104.6,"event type":"HEAVY SNOW","county":"Arapahoe","amount (inches)":17.5,"id":"a620dl5skd0m","lat":39.58,"source":"trained spotter","state":"CO","location":"15 N Elizabeth","report time (subtract 7 for mst)":"Sat Feb 04 2012 01:04:00 GMT-0700 (Mountain Standard Time)"},"type":"Feature","geometry":{"type":"Point","coordinates":[-104.6,39.58]}},{"properties":{"lon":-105.08,"event type":"HEAVY SNOW","county":"Laramie","amount (inches)":6.0,"id":"a620dkt26uss","lat":41.15,"source":"trained spotter","state":"WY","location":"15 W Cheyenne","report time (subtract 7 for mst)":"Sat Feb 04 2012 01:30:00 GMT-0700 (Mountain Standard Time)"},"type":"Feature","geometry":{"type":"Point","coordinates":[-105.08,41.15]}},{"properties":{"lon":-101.73,"event type":"SNOW","county":"Dundy","amount (inches)":6.0,"id":"a620dl46lh0o","lat":40.29,"source":"co-op observer","state":"NE","location":"17 N Parks","report time (subtract 7 for mst)":"Sat Feb 04 2012 15:28:00 GMT-0700 (Mountain Standard Time)"},"type":"Feature","geometry":{"type":"Point","coordinates":[-101.73,40.29]}},{"properties":{"lon":-104.65,"event type":"HEAVY SNOW","county":"Denver","amount (inches)":15.0,"id":"a620dkt1cyx1","lat":39.83,"source":"official nws obs","state":"CO","location":"18 Ene Denver","report time (subtract 7 for mst)":"Sat Feb 04 2012 11:57:00 GMT-0700 (Mountain Standard Time)"},"type":"Feature","geometry":{"type":"Point","coordinates":[-104.65,39.83]}},{"properties":{"lon":-105.22,"event type":"HEAVY SNOW","county":"Platte","amount (inches)":8.5,"id":"a620dl9hu8yy","lat":41.86,"source":"trained spotter","state":"WY","location":"19 Sw Wheatland","report time (subtract 7 for mst)":"Sat Feb 04 2012 01:30:00 GMT-0700 (Mountain Standard Time)"},"type":"Feature","geometry":{"type":"Point","coordinates":[-105.22,41.86]}},{"properties":{"lon":-104.75,"event type":"SNOW","county":"Laramie","amount (inches)":5.0,"id":"a620dkuwtbtn","lat":41.15,"source":"trained spotter","state":"WY","location":"2 E Cheyenne","report time (subtract 7 for mst)":"Sat Feb 04 2012 20:43:00 GMT-0700 (Mountain Standard Time)"},"type":"Feature","geometry":{"type":"Point","coordinates":[-104.75,41.15]}},{"properties":{"lon":-105.32,"event type":"HEAVY SNOW","county":"Jefferson","amount (inches)":22.0,"id":"a620dkx9ii7e","lat":39.71,"source":"trained spotter","state":"CO","location":"2 Ene Bergen Park","report time (subtract 7 for mst)":"Sat Feb 04 2012 16:00:00 GMT-0700 (Mountain Standard Time)"},"type":"Feature","geometry":{"type":"Point","coordinates":[-105.32,39.71]}},{"properties":{"lon":-104.67,"event type":"SNOW","county":"El Paso","amount (inches)":18.0,"id":"a620dktjcbl4","lat":39.03,"source":"trained spotter","state":"CO","location":"2 Ene Black Forest","report time (subtract 7 for mst)":"Sat Feb 04 2012 15:27:00 GMT-0700 (Mountain Standard Time)"},"type":"Feature","geometry":{"type":"Point","coordinates":[-104.67,39.03]}},{"properties":{"lon":-104.84,"event type":"SNOW","county":"El Paso","amount (inches)":22.0,"id":"a620dl5ffjbe","lat":39.11,"source":"trained spotter","state":"CO","location":"2 Ene Monument","report time (subtract 7 for mst)":"Sat Feb 04 2012 14:29:00 GMT-0700 (Mountain Standard Time)"},"type":"Feature","geometry":{"type":"Point","coordinates":[-104.84,39.11]}},{"properties":{"lon":-104.71,"event type":"SNOW","county":"El Paso","amount (inches)":16.0,"id":"a620dl7pdk1f","lat":39.05,"source":"trained spotter","state":"CO","location":"2 N Black Forest","report time (subtract 7 for mst)":"Sat Feb 04 2012 15:52:00 GMT-0700 (Mountain Standard Time)"},"type":"Feature","geometry":{"type":"Point","coordinates":[-104.71,39.05]}},{"properties":{"lon":-104.97,"event type":"HEAVY SNOW","county":"Arapahoe","amount (inches)":19.0,"id":"a620dkv2ags0","lat":39.58,"source":"trained spotter","state":"CO","location":"2 N Highlands Ranch","report time (subtract 7 for mst)":"Sat Feb 04 2012 16:51:00 GMT-0700 (Mountain Standard Time)"},"type":"Feature","geometry":{"type":"Point","coordinates":[-104.97,39.58]}},{"properties":{"lon":-105.07,"event type":"HEAVY SNOW","county":"Larimer","amount (inches)":9.0,"id":"a620dkwzufjt","lat":40.45,"source":"trained spotter","state":"CO","location":"2 N Loveland","report time (subtract 7 for mst)":"Fri Feb 03 2012 23:18:00 GMT-0700 (Mountain Standard Time)"},"type":"Feature","geometry":{"type":"Point","coordinates":[-105.07,40.45]}},{"properties":{"lon":-105.33,"event type":"HEAVY SNOW","county":"Boulder","amount (inches)":18.0,"id":"a620dl5h0sv9","lat":40.04,"source":"trained spotter","state":"CO","location":"2 N Orodell","report time (subtract 7 for mst)":"Sat Feb 04 2012 01:53:00 GMT-0700 (Mountain Standard Time)"},"type":"Feature","geometry":{"type":"Point","coordinates":[-105.33,40.04]}},{"properties":{"lon":-104.93,"event type":"HEAVY SNOW","county":"Adams","amount (inches)":13.8,"id":"a620dl7upjj9","lat":39.92,"source":"trained spotter","state":"CO","location":"2 Ne Thornton","report time (subtract 7 for mst)":"Sat Feb 04 2012 13:00:00 GMT-0700 (Mountain Standard Time)"},"type":"Feature","geometry":{"type":"Point","coordinates":[-104.93,39.92]}},{"properties":{"lon":-105.0,"event type":"HEAVY SNOW","county":"Arapahoe","amount (inches)":14.9,"id":"a620dkvehyva","lat":39.62,"source":"trained spotter","state":"CO","location":"2 Nne Littleton","report time (subtract 7 for mst)":"Fri Feb 03 2012 23:18:00 GMT-0700 (Mountain Standard Time)"},"type":"Feature","geometry":{"type":"Point","coordinates":[-105.0,39.62]}},{"properties":{"lon":-104.7,"event type":"HEAVY SNOW","county":"Arapahoe","amount (inches)":17.8,"id":"a620dkyq5yl5","lat":39.66,"source":"trained spotter","state":"CO","location":"2 Nnw Arapahoe Park","report time (subtract 7 for mst)":"Sat Feb 04 2012 17:45:00 GMT-0700 (Mountain Standard Time)"},"type":"Feature","geometry":{"type":"Point","coordinates":[-104.7,39.66]}},{"properties":{"lon":-105.09,"event type":"HEAVY SNOW","county":"Douglas","amount (inches)":27.3,"id":"a620dl1ibggq","lat":39.46,"source":"trained spotter","state":"CO","location":"2 Nnw Roxborough Park","report time (subtract 7 for mst)":"Sat Feb 04 2012 20:51:00 GMT-0700 (Mountain Standard Time)"},"type":"Feature","geometry":{"type":"Point","coordinates":[-105.09,39.46]}},{"properties":{"lon":-100.66,"event type":"SNOW","county":"Decatur","amount (inches)":4.0,"id":"a620dl1tzwxs","lat":39.96,"source":"cocorahs","state":"KS","location":"2 Nnw Traer","report time (subtract 7 for mst)":"Sat Feb 04 2012 14:00:00 GMT-0700 (Mountain Standard Time)"},"type":"Feature","geometry":{"type":"Point","coordinates":[-100.66,39.96]}},{"properties":{"lon":-100.45,"event type":"SNOW","county":"Red Willow","amount (inches)":4.0,"id":"a620dl7x7tsl","lat":40.26,"source":"cocorahs","state":"NE","location":"2 Nw Indianola","report time (subtract 7 for mst)":"Sat Feb 04 2012 13:00:00 GMT-0700 (Mountain Standard Time)"},"type":"Feature","geometry":{"type":"Point","coordinates":[-100.45,40.26]}},{"properties":{"lon":-105.24,"event type":"HEAVY SNOW","county":"Boulder","amount (inches)":19.0,"id":"a620dku9642f","lat":40.0,"source":"nws employee","state":"CO","location":"2 Sse Boulder","report time (subtract 7 for mst)":"Sat Feb 04 2012 06:50:00 GMT-0700 (Mountain Standard Time)"},"type":"Feature","geometry":{"type":"Point","coordinates":[-105.24,40.0]}},{"properties":{"lon":-105.0,"event type":"HEAVY SNOW","county":"Adams","amount (inches)":16.0,"id":"a620dktwcava","lat":39.84,"source":"trained spotter","state":"CO","location":"2 Sse Federal Heights","report time (subtract 7 for mst)":"Sat Feb 04 2012 16:37:00 GMT-0700 (Mountain Standard Time)"},"type":"Feature","geometry":{"type":"Point","coordinates":[-105.0,39.84]}},{"properties":{"lon":-105.27,"event type":"HEAVY SNOW","county":"Boulder","amount (inches)":21.1,"id":"a620dl1k2ar2","lat":40.0,"source":"nws employee","state":"CO","location":"2 Ssw Boulder","report time (subtract 7 for mst)":"Sat Feb 04 2012 13:00:00 GMT-0700 (Mountain Standard Time)"},"type":"Feature","geometry":{"type":"Point","coordinates":[-105.27,40.0]}},{"properties":{"lon":-104.8,"event type":"HEAVY SNOW","county":"Douglas","amount (inches)":16.5,"id":"a620dl5c1a4o","lat":39.51,"source":"broadcast media","state":"CO","location":"2 W Parker","report time (subtract 7 for mst)":"Sat Feb 04 2012 06:58:00 GMT-0700 (Mountain Standard Time)"},"type":"Feature","geometry":{"type":"Point","coordinates":[-104.8,39.51]}},{"properties":{"lon":-105.14,"event type":"HEAVY SNOW","county":"Jefferson","amount (inches)":19.8,"id":"a620dky6mpb2","lat":39.77,"source":"co-op observer","state":"CO","location":"2 W Wheat Ridge","report time (subtract 7 for mst)":"Sat Feb 04 2012 15:15:00 GMT-0700 (Mountain Standard Time)"},"type":"Feature","geometry":{"type":"Point","coordinates":[-105.14,39.77]}},{"properties":{"lon":-105.01,"event type":"HEAVY SNOW","county":"Douglas","amount (inches)":19.7,"id":"a620dl21z5lg","lat":39.54,"source":"trained spotter","state":"CO","location":"2 Wsw Highlands Ranch","report time (subtract 7 for mst)":"Sat Feb 04 2012 20:53:00 GMT-0700 (Mountain Standard Time)"},"type":"Feature","geometry":{"type":"Point","coordinates":[-105.01,39.54]}},{"properties":{"lon":-104.92,"event type":"HEAVY SNOW","county":"Douglas","amount (inches)":14.5,"id":"a620dl8glhd2","lat":39.53,"source":"trained spotter","state":"CO","location":"2 Wsw Lone Tree","report time (subtract 7 for mst)":"Sat Feb 04 2012 04:54:00 GMT-0700 (Mountain Standard Time)"},"type":"Feature","geometry":{"type":"Point","coordinates":[-104.92,39.53]}},{"properties":{"lon":-104.49,"event type":"SNOW","county":"Laramie","amount (inches)":3.5,"id":"a620dl5r0ydj","lat":41.42,"source":"trained spotter","state":"WY","location":"20 W Albin","report time (subtract 7 for mst)":"Sat Feb 04 2012 01:30:00 GMT-0700 (Mountain Standard Time)"},"type":"Feature","geometry":{"type":"Point","coordinates":[-104.49,41.42]}},{"properties":{"lon":-105.2,"event type":"SNOW","county":"Laramie","amount (inches)":9.5,"id":"a620dl7glng8","lat":41.14,"source":"trained spotter","state":"WY","location":"21 W Cheyenne","report time (subtract 7 for mst)":"Sat Feb 04 2012 01:30:00 GMT-0700 (Mountain Standard Time)"},"type":"Feature","geometry":{"type":"Point","coordinates":[-105.2,41.14]}},{"properties":{"lon":-105.11,"event type":"HEAVY SNOW","county":"Jefferson","amount (inches)":25.0,"id":"a620dktz6q9t","lat":39.58,"source":"trained spotter","state":"CO","location":"3 Ese Tiny Town","report time (subtract 7 for mst)":"Sat Feb 04 2012 14:50:00 GMT-0700 (Mountain Standard Time)"},"type":"Feature","geometry":{"type":"Point","coordinates":[-105.11,39.58]}},{"properties":{"lon":-105.46,"event type":"HEAVY SNOW","county":"Park","amount (inches)":7.3,"id":"a620dl33qz83","lat":39.45,"source":"trained spotter","state":"CO","location":"3 N Bailey","report time (subtract 7 for mst)":"Sat Feb 04 2012 19:30:00 GMT-0700 (Mountain Standard Time)"},"type":"Feature","geometry":{"type":"Point","coordinates":[-105.46,39.45]}},{"properties":{"lon":-105.49,"event type":"HEAVY SNOW","county":"Gilpin","amount (inches)":38.0,"id":"a620dl2utoqz","lat":39.84,"source":"trained spotter","state":"CO","location":"3 N Black Hawk","report time (subtract 7 for mst)":"Sat Feb 04 2012 16:00:00 GMT-0700 (Mountain Standard Time)"},"type":"Feature","geometry":{"type":"Point","coordinates":[-105.49,39.84]}},{"properties":{"lon":-104.62,"event type":"SNOW","county":"Las Animas","amount (inches)":2.5,"id":"a620dl4r3ozb","lat":37.19,"source":"trained spotter","state":"CO","location":"3 N Cokedale","report time (subtract 7 for mst)":"Fri Feb 03 2012 23:10:00 GMT-0700 (Mountain Standard Time)"},"type":"Feature","geometry":{"type":"Point","coordinates":[-104.62,37.19]}},{"properties":{"lon":-105.31,"event type":"HEAVY SNOW","county":"Jefferson","amount (inches)":28.5,"id":"a620dkxjptf7","lat":39.57,"source":"trained spotter","state":"CO","location":"3 N Conifer","report time (subtract 7 for mst)":"Sat Feb 04 2012 06:57:00 GMT-0700 (Mountain Standard Time)"},"type":"Feature","geometry":{"type":"Point","coordinates":[-105.31,39.57]}},{"properties":{"lon":-105.36,"event type":"HEAVY SNOW","county":"Jefferson","amount (inches)":39.0,"id":"a620dl9idnu3","lat":39.5,"source":"trained spotter","state":"CO","location":"3 Ne Pine Junction","report time (subtract 7 for mst)":"Sat Feb 04 2012 20:07:00 GMT-0700 (Mountain Standard Time)"},"type":"Feature","geometry":{"type":"Point","coordinates":[-105.36,39.5]}},{"properties":{"lon":-105.26,"event type":"HEAVY SNOW","county":"Boulder","amount (inches)":23.4,"id":"a620dl1i4gsg","lat":39.97,"source":"trained spotter","state":"CO","location":"3 Nne Eldorado Springs","report time (subtract 7 for mst)":"Sat Feb 04 2012 05:50:00 GMT-0700 (Mountain Standard Time)"},"type":"Feature","geometry":{"type":"Point","coordinates":[-105.26,39.97]}},{"properties":{"lon":-105.28,"event type":"HEAVY SNOW","county":"Jefferson","amount (inches)":20.5,"id":"a620dl9dwgko","lat":39.7,"source":"trained spotter","state":"CO","location":"3 Nw Idledale","report time (subtract 7 for mst)":"Fri Feb 03 2012 23:15:00 GMT-0700 (Mountain Standard Time)"},"type":"Feature","geometry":{"type":"Point","coordinates":[-105.28,39.7]}},{"properties":{"lon":-104.92,"event type":"HEAVY SNOW","county":"Douglas","amount (inches)":14.5,"id":"a620dl1t4ajd","lat":39.53,"source":"trained spotter","state":"CO","location":"3 Nw Surrey Ridge","report time (subtract 7 for mst)":"Sat Feb 04 2012 17:30:00 GMT-0700 (Mountain Standard Time)"},"type":"Feature","geometry":{"type":"Point","coordinates":[-104.92,39.53]}},{"properties":{"lon":-105.25,"event type":"HEAVY SNOW","county":"Boulder","amount (inches)":25.9,"id":"a620dkyhkqa1","lat":39.98,"source":"trained spotter","state":"CO","location":"3 S Boulder","report time (subtract 7 for mst)":"Sat Feb 04 2012 15:15:00 GMT-0700 (Mountain Standard Time)"},"type":"Feature","geometry":{"type":"Point","coordinates":[-105.25,39.98]}},{"properties":{"lon":-105.52,"event type":"HEAVY SNOW","county":"Larimer","amount (inches)":11.1,"id":"a620dl77r8ar","lat":40.33,"source":"trained spotter","state":"CO","location":"3 S Estes Park","report time (subtract 7 for mst)":"Sat Feb 04 2012 04:00:00 GMT-0700 (Mountain Standard Time)"},"type":"Feature","geometry":{"type":"Point","coordinates":[-105.52,40.33]}},{"properties":{"lon":-104.79,"event type":"HEAVY SNOW","county":"Arapahoe","amount (inches)":12.5,"id":"a620dktcywkn","lat":39.67,"source":"trained spotter","state":"CO","location":"3 Sse Aurora","report time (subtract 7 for mst)":"Sat Feb 04 2012 01:04:00 GMT-0700 (Mountain Standard Time)"},"type":"Feature","geometry":{"type":"Point","coordinates":[-104.79,39.67]}},{"properties":{"lon":-104.9,"event type":"HEAVY SNOW","county":"Douglas","amount (inches)":15.5,"id":"a620dkxo1etq","lat":39.43,"source":"trained spotter","state":"CO","location":"3 Ssw Beverly Hills","report time (subtract 7 for mst)":"Fri Feb 03 2012 23:18:00 GMT-0700 (Mountain Standard Time)"},"type":"Feature","geometry":{"type":"Point","coordinates":[-104.9,39.43]}},{"properties":{"lon":-104.92,"event type":"HEAVY SNOW","county":"Douglas","amount (inches)":18.0,"id":"a620dkwz3c7y","lat":39.4,"source":"trained spotter","state":"CO","location":"3 Ssw Castle Pines","report time (subtract 7 for mst)":"Sat Feb 04 2012 04:25:00 GMT-0700 (Mountain Standard Time)"},"type":"Feature","geometry":{"type":"Point","coordinates":[-104.92,39.4]}},{"properties":{"lon":-104.77,"event type":"HEAVY SNOW","county":"Arapahoe","amount (inches)":18.0,"id":"a620dl4l5kyv","lat":39.66,"source":"trained spotter","state":"CO","location":"3 Sw Aurora","report time (subtract 7 for mst)":"Sat Feb 04 2012 16:37:00 GMT-0700 (Mountain Standard Time)"},"type":"Feature","geometry":{"type":"Point","coordinates":[-104.77,39.66]}},{"properties":{"lon":-105.02,"event type":"HEAVY SNOW","county":"Douglas","amount (inches)":16.5,"id":"a620dkws8r3t","lat":39.53,"source":"trained spotter","state":"CO","location":"3 Sw Highlands Ranch","report time (subtract 7 for mst)":"Sat Feb 04 2012 00:10:00 GMT-0700 (Mountain Standard Time)"},"type":"Feature","geometry":{"type":"Point","coordinates":[-105.02,39.53]}},{"properties":{"lon":-105.44,"event type":"HEAVY SNOW","county":"Boulder","amount (inches)":46.0,"id":"a620dkxzsq5g","lat":40.11,"source":"trained spotter","state":"CO","location":"3 W Jamestown","report time (subtract 7 for mst)":"Sat Feb 04 2012 19:30:00 GMT-0700 (Mountain Standard Time)"},"type":"Feature","geometry":{"type":"Point","coordinates":[-105.44,40.11]}},{"properties":{"lon":-105.11,"event type":"HEAVY SNOW","county":"Jefferson","amount (inches)":17.0,"id":"a620dkwsdlle","lat":39.58,"source":"trained spotter","state":"CO","location":"3 Wnw Chatfield Reservo","report time (subtract 7 for mst)":"Fri Feb 03 2012 23:18:00 GMT-0700 (Mountain Standard Time)"},"type":"Feature","geometry":{"type":"Point","coordinates":[-105.11,39.58]}},{"properties":{"lon":-104.85,"event type":"HEAVY SNOW","county":"Laramie","amount (inches)":7.0,"id":"a620dl7w5pyi","lat":41.16,"source":"trained spotter","state":"WY","location":"3 Wnw Cheyenne","report time (subtract 7 for mst)":"Sat Feb 04 2012 20:43:00 GMT-0700 (Mountain Standard Time)"},"type":"Feature","geometry":{"type":"Point","coordinates":[-104.85,41.16]}},{"properties":{"lon":-105.35,"event type":"HEAVY SNOW","county":"Jefferson","amount (inches)":37.0,"id":"a620dkv3q15e","lat":39.5,"source":"trained spotter","state":"CO","location":"3 Wsw Conifer","report time (subtract 7 for mst)":"Sat Feb 04 2012 15:15:00 GMT-0700 (Mountain Standard Time)"},"type":"Feature","geometry":{"type":"Point","coordinates":[-105.35,39.5]}},{"properties":{"lon":-105.18,"event type":"HEAVY SNOW","county":"Boulder","amount (inches)":20.3,"id":"a620dkxghauy","lat":40.03,"source":"nws employee","state":"CO","location":"4 E Boulder","report time (subtract 7 for mst)":"Sat Feb 04 2012 03:00:00 GMT-0700 (Mountain Standard Time)"},"type":"Feature","geometry":{"type":"Point","coordinates":[-105.18,40.03]}},{"properties":{"lon":-105.23,"event type":"HEAVY SNOW","county":"Jefferson","amount (inches)":30.0,"id":"a620dkvfdv4l","lat":39.54,"source":"trained spotter","state":"CO","location":"4 Ene Conifer","report time (subtract 7 for mst)":"Sat Feb 04 2012 17:45:00 GMT-0700 (Mountain Standard Time)"},"type":"Feature","geometry":{"type":"Point","coordinates":[-105.23,39.54]}},{"properties":{"lon":-105.45,"event type":"HEAVY SNOW","county":"Boulder","amount (inches)":37.0,"id":"a620dl9gylq7","lat":39.99,"source":"trained spotter","state":"CO","location":"4 Ene Nederland","report time (subtract 7 for mst)":"Sat Feb 04 2012 15:15:00 GMT-0700 (Mountain Standard Time)"},"type":"Feature","geometry":{"type":"Point","coordinates":[-105.45,39.99]}},{"properties":{"lon":-104.85,"event type":"HEAVY SNOW","county":"Douglas","amount (inches)":18.3,"id":"a620dkxph6nm","lat":39.44,"source":"trained spotter","state":"CO","location":"4 N Castle Rock","report time (subtract 7 for mst)":"Sat Feb 04 2012 13:50:00 GMT-0700 (Mountain Standard Time)"},"type":"Feature","geometry":{"type":"Point","coordinates":[-104.85,39.44]}},{"properties":{"lon":-105.29,"event type":"SNOW","county":"Teller","amount (inches)":9.3,"id":"a620dl7kyina","lat":39.0,"source":"trained spotter","state":"CO","location":"4 N Florissant","report time (subtract 7 for mst)":"Sat Feb 04 2012 15:58:00 GMT-0700 (Mountain Standard Time)"},"type":"Feature","geometry":{"type":"Point","coordinates":[-105.29,39.0]}},{"properties":{"lon":-105.07,"event type":"HEAVY SNOW","county":"Larimer","amount (inches)":9.8,"id":"a620dkxvh1db","lat":40.48,"source":"trained spotter","state":"CO","location":"4 N Loveland","report time (subtract 7 for mst)":"Sun Feb 05 2012 01:40:00 GMT-0700 (Mountain Standard Time)"},"type":"Feature","geometry":{"type":"Point","coordinates":[-105.07,40.48]}},{"properties":{"lon":-104.79,"event type":"SNOW","county":"El Paso","amount (inches)":2.0,"id":"a620dl4pr7rz","lat":38.89,"source":"trained spotter","state":"CO","location":"4 Nne Colorado Springs","report time (subtract 7 for mst)":"Sat Feb 04 2012 15:52:00 GMT-0700 (Mountain Standard Time)"},"type":"Feature","geometry":{"type":"Point","coordinates":[-104.79,38.89]}},{"properties":{"lon":-104.88,"event type":"HEAVY SNOW","county":"Douglas","amount (inches)":22.5,"id":"a620dl8e2kfq","lat":39.43,"source":"trained spotter","state":"CO","location":"4 Nnw Castle Rock","report time (subtract 7 for mst)":"Sat Feb 04 2012 17:45:00 GMT-0700 (Mountain Standard Time)"},"type":"Feature","geometry":{"type":"Point","coordinates":[-104.88,39.43]}},{"properties":{"lon":-104.65,"event type":"HEAVY SNOW","county":"Douglas","amount (inches)":18.0,"id":"a620dl6zcm6o","lat":39.4,"source":"trained spotter","state":"CO","location":"4 Nw Elizabeth","report time (subtract 7 for mst)":"Sat Feb 04 2012 14:00:00 GMT-0700 (Mountain Standard Time)"},"type":"Feature","geometry":{"type":"Point","coordinates":[-104.65,39.4]}},{"properties":{"lon":-105.34,"event type":"HEAVY SNOW","county":"Jefferson","amount (inches)":30.6,"id":"a620dkui13tg","lat":39.58,"source":"trained spotter","state":"CO","location":"4 S Evergreen","report time (subtract 7 for mst)":"Sat Feb 04 2012 15:15:00 GMT-0700 (Mountain Standard Time)"},"type":"Feature","geometry":{"type":"Point","coordinates":[-105.34,39.58]}},{"properties":{"lon":-105.07,"event type":"HEAVY SNOW","county":"Larimer","amount (inches)":6.1,"id":"a620dl28y37r","lat":40.5,"source":"trained spotter","state":"CO","location":"4 S Fort Collins","report time (subtract 7 for mst)":"Fri Feb 03 2012 23:30:00 GMT-0700 (Mountain Standard Time)"},"type":"Feature","geometry":{"type":"Point","coordinates":[-105.07,40.5]}},{"properties":{"lon":-105.19,"event type":"HEAVY SNOW","county":"Jefferson","amount (inches)":17.5,"id":"a620dl169ajc","lat":39.83,"source":"trained spotter","state":"CO","location":"4 S Rocky Flats","report time (subtract 7 for mst)":"Sat Feb 04 2012 01:53:00 GMT-0700 (Mountain Standard Time)"},"type":"Feature","geometry":{"type":"Point","coordinates":[-105.19,39.83]}},{"properties":{"lon":-100.99,"event type":"HEAVY SNOW","county":"Rawlins","amount (inches)":7.5,"id":"a620dkwsnh8o","lat":39.77,"source":"emergency mngr","state":"KS","location":"4 Se Atwood","report time (subtract 7 for mst)":"Sat Feb 04 2012 22:14:00 GMT-0700 (Mountain Standard Time)"},"type":"Feature","geometry":{"type":"Point","coordinates":[-100.99,39.77]}},{"properties":{"lon":-104.39,"event type":"HEAVY SNOW","county":"Arapahoe","amount (inches)":16.0,"id":"a620dkxjg5m4","lat":39.7,"source":"trained spotter","state":"CO","location":"4 Sse Bennett","report time (subtract 7 for mst)":"Sat Feb 04 2012 21:01:00 GMT-0700 (Mountain Standard Time)"},"type":"Feature","geometry":{"type":"Point","coordinates":[-104.39,39.7]}},{"properties":{"lon":-105.39,"event type":"HEAVY SNOW","county":"Gilpin","amount (inches)":51.1,"id":"a620dkymbcq7","lat":39.88,"source":"trained spotter","state":"CO","location":"4 Sse Pinecliffe","report time (subtract 7 for mst)":"Sat Feb 04 2012 19:30:00 GMT-0700 (Mountain Standard Time)"},"type":"Feature","geometry":{"type":"Point","coordinates":[-105.39,39.88]}},{"properties":{"lon":-105.09,"event type":"HEAVY SNOW","county":"Jefferson","amount (inches)":17.0,"id":"a620dkvzwwmk","lat":39.59,"source":"trained spotter","state":"CO","location":"4 W Littleton","report time (subtract 7 for mst)":"Sat Feb 04 2012 17:45:00 GMT-0700 (Mountain Standard Time)"},"type":"Feature","geometry":{"type":"Point","coordinates":[-105.09,39.59]}},{"properties":{"lon":-101.6,"event type":"SNOW","county":"Cheyenne","amount (inches)":4.5,"id":"a620dktik2d5","lat":39.73,"source":"trained spotter","state":"KS","location":"4 Wsw Bird City","report time (subtract 7 for mst)":"Sat Feb 04 2012 22:08:00 GMT-0700 (Mountain Standard Time)"},"type":"Feature","geometry":{"type":"Point","coordinates":[-101.6,39.73]}},{"properties":{"lon":-105.34,"event type":"HEAVY SNOW","county":"Jefferson","amount (inches)":27.0,"id":"a620dl28s7l9","lat":39.91,"source":"trained spotter","state":"CO","location":"4 Wsw Eldorado Springs","report time (subtract 7 for mst)":"Sat Feb 04 2012 04:23:00 GMT-0700 (Mountain Standard Time)"},"type":"Feature","geometry":{"type":"Point","coordinates":[-105.34,39.91]}},{"properties":{"lon":-104.8,"event type":"SNOW","county":"El Paso","amount (inches)":16.0,"id":"a620dkwc4s00","lat":39.03,"source":"trained spotter","state":"CO","location":"5 Ne Air Force Academy","report time (subtract 7 for mst)":"Sat Feb 04 2012 15:16:00 GMT-0700 (Mountain Standard Time)"},"type":"Feature","geometry":{"type":"Point","coordinates":[-104.8,39.03]}},{"properties":{"lon":-104.23,"event type":"HEAVY SNOW","county":"El Paso","amount (inches)":23.5,"id":"a620dkt7qyb8","lat":39.09,"source":"trained spotter","state":"CO","location":"5 Ne Calhan","report time (subtract 7 for mst)":"Sat Feb 04 2012 00:30:00 GMT-0700 (Mountain Standard Time)"},"type":"Feature","geometry":{"type":"Point","coordinates":[-104.23,39.09]}},{"properties":{"lon":-103.28,"event type":"HEAVY SNOW","county":"Washington","amount (inches)":14.0,"id":"a620dkz7wmxu","lat":39.65,"source":"emergency mngr","state":"CO","location":"5 Nw Thurman","report time (subtract 7 for mst)":"Sat Feb 04 2012 02:40:00 GMT-0700 (Mountain Standard Time)"},"type":"Feature","geometry":{"type":"Point","coordinates":[-103.28,39.65]}},{"properties":{"lon":-104.71,"event type":"HEAVY SNOW","county":"Arapahoe","amount (inches)":25.2,"id":"a620dl0196a3","lat":39.57,"source":"trained spotter","state":"CO","location":"5 Ssw Arapahoe Park","report time (subtract 7 for mst)":"Sat Feb 04 2012 14:00:00 GMT-0700 (Mountain Standard Time)"},"type":"Feature","geometry":{"type":"Point","coordinates":[-104.71,39.57]}},{"properties":{"lon":-104.83,"event type":"HEAVY SNOW","county":"Laramie","amount (inches)":6.0,"id":"a620dl6h0hbz","lat":41.08,"source":"trained spotter","state":"WY","location":"5 Ssw Cheyenne","report time (subtract 7 for mst)":"Sat Feb 04 2012 20:43:00 GMT-0700 (Mountain Standard Time)"},"type":"Feature","geometry":{"type":"Point","coordinates":[-104.83,41.08]}},{"properties":{"lon":-105.39,"event type":"HEAVY SNOW","county":"Park","amount (inches)":35.0,"id":"a620dkx4utrx","lat":39.52,"source":"trained spotter","state":"CO","location":"5 W Conifer","report time (subtract 7 for mst)":"Sat Feb 04 2012 15:15:00 GMT-0700 (Mountain Standard Time)"},"type":"Feature","geometry":{"type":"Point","coordinates":[-105.39,39.52]}},{"properties":{"lon":-104.42,"event type":"HEAVY SNOW","county":"Elbert","amount (inches)":17.0,"id":"a620dl1lpyrv","lat":39.43,"source":"public","state":"CO","location":"6 Nne Kiowa","report time (subtract 7 for mst)":"Fri Feb 03 2012 23:04:00 GMT-0700 (Mountain Standard Time)"},"type":"Feature","geometry":{"type":"Point","coordinates":[-104.42,39.43]}},{"properties":{"lon":-102.89,"event type":"SNOW","county":"Cheyenne","amount (inches)":4.0,"id":"a620dl06q5lh","lat":41.07,"source":"public","state":"NE","location":"6 Se Sidney","report time (subtract 7 for mst)":"Sat Feb 04 2012 13:06:00 GMT-0700 (Mountain Standard Time)"},"type":"Feature","geometry":{"type":"Point","coordinates":[-102.89,41.07]}},{"properties":{"lon":-104.72,"event type":"SNOW","county":"Pueblo","amount (inches)":4.0,"id":"a620dky5ibv2","lat":37.95,"source":"trained spotter","state":"CO","location":"7 E Colorado City","report time (subtract 7 for mst)":"Sat Feb 04 2012 03:36:00 GMT-0700 (Mountain Standard Time)"},"type":"Feature","geometry":{"type":"Point","coordinates":[-104.72,37.95]}},{"properties":{"lon":-105.44,"event type":"SNOW","county":"Larimer","amount (inches)":15.1,"id":"a620dkvdberz","lat":40.55,"source":"trained spotter","state":"CO","location":"7 N Glen Haven","report time (subtract 7 for mst)":"Sat Feb 04 2012 17:00:00 GMT-0700 (Mountain Standard Time)"},"type":"Feature","geometry":{"type":"Point","coordinates":[-105.44,40.55]}},{"properties":{"lon":-101.28,"event type":"SNOW","county":"Hitchcock","amount (inches)":5.0,"id":"a620dl2rdkvn","lat":40.24,"source":"trained spotter","state":"NE","location":"7 Nnw Stratton Ne","report time (subtract 7 for mst)":"Sat Feb 04 2012 14:45:00 GMT-0700 (Mountain Standard Time)"},"type":"Feature","geometry":{"type":"Point","coordinates":[-101.28,40.24]}},{"properties":{"lon":-104.49,"event type":"HEAVY SNOW","county":"Arapahoe","amount (inches)":24.8,"id":"a620dkxi8y43","lat":39.67,"source":"trained spotter","state":"CO","location":"8 Se Watkins","report time (subtract 7 for mst)":"Sat Feb 04 2012 15:15:00 GMT-0700 (Mountain Standard Time)"},"type":"Feature","geometry":{"type":"Point","coordinates":[-104.49,39.67]}},{"properties":{"lon":-104.82,"event type":"HEAVY SNOW","county":"Platte","amount (inches)":6.5,"id":"a620dl5qayve","lat":41.89,"source":"trained spotter","state":"WY","location":"9 N Chugwater","report time (subtract 7 for mst)":"Sat Feb 04 2012 01:30:00 GMT-0700 (Mountain Standard Time)"},"type":"Feature","geometry":{"type":"Point","coordinates":[-104.82,41.89]}},{"properties":{"lon":-104.62,"event type":"SNOW","county":"El Paso","amount (inches)":20.0,"id":"a620dkzx6yps","lat":39.06,"source":"broadcast media","state":"CO","location":"9 N Falcon","report time (subtract 7 for mst)":"Sat Feb 04 2012 04:08:00 GMT-0700 (Mountain Standard Time)"},"type":"Feature","geometry":{"type":"Point","coordinates":[-104.62,39.06]}},{"properties":{"lon":-104.53,"event type":"HEAVY SNOW","county":"Elbert","amount (inches)":17.5,"id":"a620dl34p1yb","lat":39.5,"source":"trained spotter","state":"CO","location":"9 Ne Ponderosa Park","report time (subtract 7 for mst)":"Fri Feb 03 2012 23:18:00 GMT-0700 (Mountain Standard Time)"},"type":"Feature","geometry":{"type":"Point","coordinates":[-104.53,39.5]}},{"properties":{"lon":-100.69,"event type":"SNOW","county":"Decatur","amount (inches)":9.0,"id":"a620dl58drx8","lat":39.77,"source":"emergency mngr","state":"KS","location":"9 Wsw Oberlin","report time (subtract 7 for mst)":"Sat Feb 04 2012 21:55:00 GMT-0700 (Mountain Standard Time)"},"type":"Feature","geometry":{"type":"Point","coordinates":[-100.69,39.77]}},{"properties":{"lon":-99.71,"event type":"HEAVY SNOW","county":"Norton","amount (inches)":8.0,"id":"a620dl23czu7","lat":39.89,"source":"emergency mngr","state":"KS","location":"Almena","report time (subtract 7 for mst)":"Sat Feb 04 2012 21:37:00 GMT-0700 (Mountain Standard Time)"},"type":"Feature","geometry":{"type":"Point","coordinates":[-99.71,39.89]}},{"properties":{"lon":-100.69,"event type":"SNOW","county":"Sheridan","amount (inches)":3.0,"id":"a620dkuel3tk","lat":39.19,"source":"emergency mngr","state":"KS","location":"Angelus","report time (subtract 7 for mst)":"Sat Feb 04 2012 15:28:00 GMT-0700 (Mountain Standard Time)"},"type":"Feature","geometry":{"type":"Point","coordinates":[-100.69,39.19]}},{"properties":{"lon":-101.04,"event type":"HEAVY SNOW","county":"Rawlins","amount (inches)":6.0,"id":"a620dkzut7q1","lat":39.81,"source":"public","state":"KS","location":"Atwood","report time (subtract 7 for mst)":"Sat Feb 04 2012 21:37:00 GMT-0700 (Mountain Standard Time)"},"type":"Feature","geometry":{"type":"Point","coordinates":[-101.04,39.81]}},{"properties":{"lon":-104.73,"event type":"HEAVY SNOW","county":"Arapahoe","amount (inches)":17.0,"id":"a620dkzu7gfv","lat":39.7,"source":"trained spotter","state":"CO","location":"Aurora","report time (subtract 7 for mst)":"Fri Feb 03 2012 23:18:00 GMT-0700 (Mountain Standard Time)"},"type":"Feature","geometry":{"type":"Point","coordinates":[-104.73,39.7]}},{"properties":{"lon":-101.54,"event type":"SNOW","county":"Dundy","amount (inches)":3.0,"id":"a620dl9inkre","lat":40.05,"source":"trained spotter","state":"NE","location":"Benkelman","report time (subtract 7 for mst)":"Sat Feb 04 2012 18:23:00 GMT-0700 (Mountain Standard Time)"},"type":"Feature","geometry":{"type":"Point","coordinates":[-101.54,40.05]}},{"properties":{"lon":-105.25,"event type":"HEAVY SNOW","county":"Boulder","amount (inches)":22.7,"id":"a620dl6k4tf0","lat":40.03,"source":"trained spotter","state":"CO","location":"Boulder","report time (subtract 7 for mst)":"Sat Feb 04 2012 15:15:00 GMT-0700 (Mountain Standard Time)"},"type":"Feature","geometry":{"type":"Point","coordinates":[-105.25,40.03]}},{"properties":{"lon":-105.06,"event type":"HEAVY SNOW","county":"Broomfield","amount (inches)":18.0,"id":"a620dktbi7xr","lat":39.94,"source":"nws employee","state":"CO","location":"Broomfield","report time (subtract 7 for mst)":"Sat Feb 04 2012 04:36:00 GMT-0700 (Mountain Standard Time)"},"type":"Feature","geometry":{"type":"Point","coordinates":[-105.06,39.94]}},{"properties":{"lon":-104.79,"event type":"SNOW","county":"Laramie","amount (inches)":4.1,"id":"a620dkw901y7","lat":41.15,"source":"official nws obs","state":"WY","location":"Cheyenne","report time (subtract 7 for mst)":"Sat Feb 04 2012 00:00:00 GMT-0700 (Mountain Standard Time)"},"type":"Feature","geometry":{"type":"Point","coordinates":[-104.79,41.15]}},{"properties":{"lon":-105.14,"event type":"HEAVY SNOW","county":"Fremont","amount (inches)":38.4,"id":"a620dkxafay1","lat":38.36,"source":"trained spotter","state":"CO","location":"Coal Creek","report time (subtract 7 for mst)":"Fri Feb 03 2012 23:04:00 GMT-0700 (Mountain Standard Time)"},"type":"Feature","geometry":{"type":"Point","coordinates":[-105.14,38.36]}},{"properties":{"lon":-101.05,"event type":"SNOW","county":"Thomas","amount (inches)":3.0,"id":"a620dl6hu47m","lat":39.39,"source":"amateur radio","state":"KS","location":"Colby","report time (subtract 7 for mst)":"Sat Feb 04 2012 15:12:00 GMT-0700 (Mountain Standard Time)"},"type":"Feature","geometry":{"type":"Point","coordinates":[-101.05,39.39]}},{"properties":{"lon":-104.67,"event type":"HEAVY SNOW","county":"Denver","amount (inches)":15.9,"id":"a620dl7vmyx2","lat":39.87,"source":"official nws obs","state":"CO","location":"Denver International Ai","report time (subtract 7 for mst)":"Sat Feb 04 2012 18:00:00 GMT-0700 (Mountain Standard Time)"},"type":"Feature","geometry":{"type":"Point","coordinates":[-104.67,39.87]}},{"properties":{"lon":-105.34,"event type":"HEAVY SNOW","county":"Jefferson","amount (inches)":22.0,"id":"a620dl7zpevo","lat":39.63,"source":"trained spotter","state":"CO","location":"Evergreen","report time (subtract 7 for mst)":"Sat Feb 04 2012 15:15:00 GMT-0700 (Mountain Standard Time)"},"type":"Feature","geometry":{"type":"Point","coordinates":[-105.34,39.63]}},{"properties":{"lon":-105.27,"event type":"HEAVY SNOW","county":"Jefferson","amount (inches)":32.0,"id":"a620dkyjicwt","lat":39.69,"source":"trained spotter","state":"CO","location":"Genesee","report time (subtract 7 for mst)":"Sat Feb 04 2012 14:15:00 GMT-0700 (Mountain Standard Time)"},"type":"Feature","geometry":{"type":"Point","coordinates":[-105.27,39.69]}},{"properties":{"lon":-104.97,"event type":"HEAVY SNOW","county":"Douglas","amount (inches)":26.0,"id":"a620dl3xc06t","lat":39.55,"source":"trained spotter","state":"CO","location":"Highlands Ranch","report time (subtract 7 for mst)":"Sat Feb 04 2012 01:04:00 GMT-0700 (Mountain Standard Time)"},"type":"Feature","geometry":{"type":"Point","coordinates":[-104.97,39.55]}},{"properties":{"lon":-99.85,"event type":"HEAVY SNOW","county":"Graham","amount (inches)":8.0,"id":"a620dkt3zg0h","lat":39.37,"source":"law enforcement","state":"KS","location":"Hill City","report time (subtract 7 for mst)":"Sat Feb 04 2012 09:49:00 GMT-0700 (Mountain Standard Time)"},"type":"Feature","geometry":{"type":"Point","coordinates":[-99.85,39.37]}},{"properties":{"lon":-100.44,"event type":"SNOW","county":"Sheridan","amount (inches)":3.5,"id":"a620dl7b4xhl","lat":39.36,"source":"emergency mngr","state":"KS","location":"Hoxie","report time (subtract 7 for mst)":"Sat Feb 04 2012 21:51:00 GMT-0700 (Mountain Standard Time)"},"type":"Feature","geometry":{"type":"Point","coordinates":[-100.44,39.36]}},{"properties":{"lon":-102.04,"event type":"SNOW","county":"Sherman","amount (inches)":3.0,"id":"a620dl18dryo","lat":39.34,"source":"trained spotter","state":"KS","location":"Kanorado","report time (subtract 7 for mst)":"Sat Feb 04 2012 18:23:00 GMT-0700 (Mountain Standard Time)"},"type":"Feature","geometry":{"type":"Point","coordinates":[-102.04,39.34]}},{"properties":{"lon":-105.11,"event type":"HEAVY SNOW","county":"Jefferson","amount (inches)":13.0,"id":"a620dl81b092","lat":39.7,"source":"trained spotter","state":"CO","location":"Lakewood","report time (subtract 7 for mst)":"Sat Feb 04 2012 02:14:00 GMT-0700 (Mountain Standard Time)"},"type":"Feature","geometry":{"type":"Point","coordinates":[-105.11,39.7]}},{"properties":{"lon":-105.07,"event type":"HEAVY SNOW","county":"Larimer","amount (inches)":9.0,"id":"a620dkzs1nc6","lat":40.42,"source":"trained spotter","state":"CO","location":"Loveland","report time (subtract 7 for mst)":"Sat Feb 04 2012 16:21:00 GMT-0700 (Mountain Standard Time)"},"type":"Feature","geometry":{"type":"Point","coordinates":[-105.07,40.42]}},{"properties":{"lon":-100.62,"event type":"SNOW","county":"Red Willow","amount (inches)":4.0,"id":"a620dl9cc3q3","lat":40.2,"source":"law enforcement","state":"NE","location":"Mccook","report time (subtract 7 for mst)":"Sat Feb 04 2012 10:24:00 GMT-0700 (Mountain Standard Time)"},"type":"Feature","geometry":{"type":"Point","coordinates":[-100.62,40.2]}},{"properties":{"lon":-105.11,"event type":"HEAVY SNOW","county":"Boulder","amount (inches)":13.0,"id":"a620dkzp3dyk","lat":40.17,"source":"trained spotter","state":"CO","location":"N Longmont","report time (subtract 7 for mst)":"Sat Feb 04 2012 15:15:00 GMT-0700 (Mountain Standard Time)"},"type":"Feature","geometry":{"type":"Point","coordinates":[-105.11,40.17]}},{"properties":{"lon":-99.89,"event type":"SNOW","county":"Norton","amount (inches)":4.5,"id":"a620dl3sxqmy","lat":39.84,"source":"cocorahs","state":"KS","location":"N Norton","report time (subtract 7 for mst)":"Sat Feb 04 2012 05:17:00 GMT-0700 (Mountain Standard Time)"},"type":"Feature","geometry":{"type":"Point","coordinates":[-99.89,39.84]}},{"properties":{"lon":-104.98,"event type":"HEAVY SNOW","county":"Adams","amount (inches)":13.0,"id":"a620dkzedv63","lat":39.91,"source":"nws employee","state":"CO","location":"Ne Northglenn","report time (subtract 7 for mst)":"Sat Feb 04 2012 15:15:00 GMT-0700 (Mountain Standard Time)"},"type":"Feature","geometry":{"type":"Point","coordinates":[-104.98,39.91]}},{"properties":{"lon":-105.05,"event type":"SNOW","county":"Teller","amount (inches)":12.0,"id":"a620dl7pqf0f","lat":39.0,"source":"trained spotter","state":"CO","location":"Nne Woodland Park","report time (subtract 7 for mst)":"Sat Feb 04 2012 05:34:00 GMT-0700 (Mountain Standard Time)"},"type":"Feature","geometry":{"type":"Point","coordinates":[-105.05,39.0]}},{"properties":{"lon":-103.12,"event type":"HEAVY SNOW","county":"Logan","amount (inches)":6.0,"id":"a620dl0aslwn","lat":40.96,"source":"trained spotter","state":"CO","location":"Nnw Peetz","report time (subtract 7 for mst)":"Sat Feb 04 2012 00:30:00 GMT-0700 (Mountain Standard Time)"},"type":"Feature","geometry":{"type":"Point","coordinates":[-103.12,40.96]}},{"properties":{"lon":-104.98,"event type":"HEAVY SNOW","county":"Adams","amount (inches)":20.0,"id":"a620dl7y6b9j","lat":39.91,"source":"trained spotter","state":"CO","location":"Northglenn","report time (subtract 7 for mst)":"Sat Feb 04 2012 14:00:00 GMT-0700 (Mountain Standard Time)"},"type":"Feature","geometry":{"type":"Point","coordinates":[-104.98,39.91]}},{"properties":{"lon":-99.89,"event type":"HEAVY SNOW","county":"Norton","amount (inches)":8.5,"id":"a620dl6ogorx","lat":39.84,"source":"cocorahs","state":"KS","location":"Norton","report time (subtract 7 for mst)":"Sat Feb 04 2012 13:00:00 GMT-0700 (Mountain Standard Time)"},"type":"Feature","geometry":{"type":"Point","coordinates":[-99.89,39.84]}},{"properties":{"lon":-104.85,"event type":"HEAVY SNOW","county":"Douglas","amount (inches)":19.0,"id":"a620dl6ff995","lat":39.38,"source":"trained spotter","state":"CO","location":"Nw Castle Rock","report time (subtract 7 for mst)":"Sat Feb 04 2012 14:15:00 GMT-0700 (Mountain Standard Time)"},"type":"Feature","geometry":{"type":"Point","coordinates":[-104.85,39.38]}},{"properties":{"lon":-100.85,"event type":"SNOW","county":"Logan","amount (inches)":1.0,"id":"a620dkyv9ggh","lat":39.13,"source":"emergency mngr","state":"KS","location":"Oakley","report time (subtract 7 for mst)":"Sat Feb 04 2012 15:28:00 GMT-0700 (Mountain Standard Time)"},"type":"Feature","geometry":{"type":"Point","coordinates":[-100.85,39.13]}},{"properties":{"lon":-100.53,"event type":"SNOW","county":"Decatur","amount (inches)":2.5,"id":"a620dkt9w8lm","lat":39.82,"source":"emergency mngr","state":"KS","location":"Oberlin","report time (subtract 7 for mst)":"Sat Feb 04 2012 21:55:00 GMT-0700 (Mountain Standard Time)"},"type":"Feature","geometry":{"type":"Point","coordinates":[-100.53,39.82]}},{"properties":{"lon":-100.23,"event type":"SNOW","county":"Gove","amount (inches)":3.0,"id":"a620dl1zp7km","lat":39.07,"source":"public","state":"KS","location":"Quinter","report time (subtract 7 for mst)":"Sat Feb 04 2012 14:20:00 GMT-0700 (Mountain Standard Time)"},"type":"Feature","geometry":{"type":"Point","coordinates":[-100.23,39.07]}},{"properties":{"lon":-100.57,"event type":"SNOW","county":"Sheridan","amount (inches)":3.5,"id":"a620dkwrxu2o","lat":39.54,"source":"emergency mngr","state":"KS","location":"Selden","report time (subtract 7 for mst)":"Sat Feb 04 2012 21:53:00 GMT-0700 (Mountain Standard Time)"},"type":"Feature","geometry":{"type":"Point","coordinates":[-100.57,39.54]}},{"properties":{"lon":-101.8,"event type":"SNOW","county":"Cheyenne","amount (inches)":3.0,"id":"a620dl8ze3uf","lat":39.77,"source":"emergency mngr","state":"KS","location":"St. Francis","report time (subtract 7 for mst)":"Fri Feb 03 2012 23:08:00 GMT-0700 (Mountain Standard Time)"},"type":"Feature","geometry":{"type":"Point","coordinates":[-101.8,39.77]}},{"properties":{"lon":-101.01,"event type":"SNOW","county":"Hitchcock","amount (inches)":4.0,"id":"a620dl3ci4rb","lat":40.17,"source":"law enforcement","state":"NE","location":"Trenton","report time (subtract 7 for mst)":"Sat Feb 04 2012 18:23:00 GMT-0700 (Mountain Standard Time)"},"type":"Feature","geometry":{"type":"Point","coordinates":[-101.01,40.17]}},{"properties":{"lon":-104.73,"event type":"HEAVY SNOW","county":"Arapahoe","amount (inches)":14.0,"id":"a620dkvkfmuf","lat":39.7,"source":"trained spotter","state":"CO","location":"W Aurora","report time (subtract 7 for mst)":"Fri Feb 03 2012 23:18:00 GMT-0700 (Mountain Standard Time)"},"type":"Feature","geometry":{"type":"Point","coordinates":[-104.73,39.7]}},{"properties":{"lon":-104.86,"event type":"SNOW","county":"Laramie","amount (inches)":3.0,"id":"a620dkxsuo6f","lat":41.15,"source":"other federal","state":"WY","location":"Warren Af Base","report time (subtract 7 for mst)":"Sat Feb 04 2012 01:30:00 GMT-0700 (Mountain Standard Time)"},"type":"Feature","geometry":{"type":"Point","coordinates":[-104.86,41.15]}},{"properties":{"lon":-105.05,"event type":"HEAVY SNOW","county":"Adams","amount (inches)":16.0,"id":"a620dktm5pb1","lat":39.88,"source":"nws employee","state":"CO","location":"Westminster","report time (subtract 7 for mst)":"Sat Feb 04 2012 03:00:00 GMT-0700 (Mountain Standard Time)"},"type":"Feature","geometry":{"type":"Point","coordinates":[-105.05,39.88]}},{"properties":{"lon":-101.25,"event type":"SNOW","county":"Logan","amount (inches)":1.0,"id":"a620dl1681t2","lat":39.06,"source":"emergency mngr","state":"KS","location":"Winona","report time (subtract 7 for mst)":"Sat Feb 04 2012 15:28:00 GMT-0700 (Mountain Standard Time)"},"type":"Feature","geometry":{"type":"Point","coordinates":[-101.25,39.06]}},{"properties":{"lon":-105.05,"event type":"SNOW","county":"Teller","amount (inches)":12.0,"id":"a620dkyq1qxx","lat":38.99,"source":"trained spotter","state":"CO","location":"Woodland Park","report time (subtract 7 for mst)":"Sat Feb 04 2012 05:34:00 GMT-0700 (Mountain Standard Time)"},"type":"Feature","geometry":{"type":"Point","coordinates":[-105.05,38.99]}}],"is_temporal":false,"author":{"url":"http://mesonet.agron.iastate.edu/lsr","metadata":"","contact_name":"","contact_address":"","source":"Iowa State","contact_phone":""},"source":"http://mesonet.agron.iastate.edu/lsr","pagination":{"sort":null,"start":0,"total":147,"limit":1000000},"state":"complete","tags":"colorado,denver,national weather service,snow,snowfall,weather","published":"2014-08-14T18:22:44-04:00","id":202589}