{"type":"FeatureCollection","data_type":"Dataset","url_type":null,"permissions":[{"permissions":{"download":true,"view":true},"group_id":"everyone"}],"classification":null,"title":"IMG participants 2","count":18,"stream_id":20271,"contributor":{"url":"http://geocommons.com/users/10546","name":"maxedmond"},"data_attributes":null,"calculation_params":null,"icon_link":null,"link":"http://geocommons.com/overlays/20271.json","extent":[-122.397,33.1796,-117.106,40.5723],"geometry_types":["point"],"unique_name":null,"name":"IMG participants 2","feature_count":18,"description":"","next_feature":null,"is_raster":false,"short_classification":"Y","stats":{"number_of_imgs":{"max":1.0,"mean":0.0555555555555556,"variance":0.0555555555555556,"stdev":0.235702260395516,"min":0.0,"median":0.0},"geo_score":{"max":1.0,"mean":0.838388888888889,"variance":0.0269424869281046,"stdev":0.164141667251507,"min":0.364,"median":0.911}},"features":[{"properties":{"city":"Colton","zip":"92324","number_of_imgs":0.0,"geo_score":0.911,"country":"USA","program":"Arrowhead Regional Medical Center","id":"a6hr5rvsyt7t","geo_precision":"range","address":"400 N Pepper Ave","state":"CA"},"type":"Feature","geometry":{"type":"Point","coordinates":[-117.352907,34.072078]}},{"properties":{"city":"Martinez","zip":"94553","number_of_imgs":0.0,"geo_score":0.902,"country":"USA","program":"Contra Costa County Health Services","id":"a6hr5rkiacmn","geo_precision":"range","address":"2500 Alhambra Ave","state":"CA"},"type":"Feature","geometry":{"type":"Point","coordinates":[-122.130827,38.006471]}},{"properties":{"city":"Glendale","zip":"91205","number_of_imgs":0.0,"geo_score":1.0,"country":"USA","program":"Glendale Adventist Medical Center","id":"a6hr5ru5g47l","geo_precision":"range","address":"801 S Chevy Chase Dr","state":"CA"},"type":"Feature","geometry":{"type":"Point","coordinates":[-118.239582,34.137147]}},{"properties":{"city":"Harbor City","zip":"90710","number_of_imgs":0.0,"geo_score":1.0,"country":"USA","program":"Harbor UCLA Medical Center","id":"a6hr5rsrtf2z","geo_precision":"range","address":"1403 W Lomita Blvd","state":"CA"},"type":"Feature","geometry":{"type":"Point","coordinates":[-118.301231,33.797803]}},{"properties":{"city":"Santa Ana","zip":"92705","number_of_imgs":0.0,"geo_score":0.831,"country":"USA","program":"Kaiser Permanente Anaheim","id":"a6hr5rii3lea","geo_precision":"range","address":"1900 E 4th St","state":"CA"},"type":"Feature","geometry":{"type":"Point","coordinates":[-117.84052,33.7482]}},{"properties":{"city":"Pomona","zip":"92335","number_of_imgs":0.0,"geo_score":0.935,"country":"USA","program":"Kaiser Permanente Fontana","id":"a6hr5rs81yf0","geo_precision":"range","address":"9961 Sierra Ave","state":"CA"},"type":"Feature","geometry":{"type":"Point","coordinates":[-117.435671,34.072873]}},{"properties":{"city":"Los Angeles","zip":"90027","number_of_imgs":0.0,"geo_score":0.61,"country":"USA","program":"Kaiser Permanente Los Angeles","id":"a6hr5rs38nyc","geo_precision":"street","address":"9961 Sierra Ave","state":"CA"},"type":"Feature","geometry":{"type":"Point","coordinates":[-118.274077,34.112924]}},{"properties":{"city":"Riverside","zip":"92505","number_of_imgs":0.0,"geo_score":0.913,"country":"USA","program":"Kaiser Permanente Riverside","id":"a6hr5rr91gl1","geo_precision":"range","address":"10800 Magnolia Ave","state":"CA"},"type":"Feature","geometry":{"type":"Point","coordinates":[-117.469296,33.907405]}},{"properties":{"city":"Woodland Hills","zip":"91367","number_of_imgs":0.0,"geo_score":0.902,"country":"USA","program":"Kaiser Permanente Woodland Hills","id":"a6hr5rmqru3y","geo_precision":"range","address":"5601 De Soto Ave","state":"CA"},"type":"Feature","geometry":{"type":"Point","coordinates":[-118.588183,34.17197]}},{"properties":{"city":"Bakersfiled","zip":"93305","number_of_imgs":0.0,"geo_score":0.911,"country":"USA","program":"Kern Medical Center","id":"a6hr5rls8tuq","geo_precision":"range","address":"1830 Flower St","state":"CA"},"type":"Feature","geometry":{"type":"Point","coordinates":[-118.972169,35.382058]}},{"properties":{"city":"Loma Linda","zip":"92354","number_of_imgs":0.0,"geo_score":1.0,"country":"USA","program":"LLU","id":"a6hr5rxpc2x0","geo_precision":"range","address":"25455 Barton Rd","state":"CA"},"type":"Feature","geometry":{"type":"Point","coordinates":[-117.249427,34.048377]}},{"properties":{"city":"Hanford","zip":"93230","number_of_imgs":1.0,"geo_score":0.927,"country":"USA","program":"LLU (hanford) Rural Program","id":"a6hr5rm28d9o","geo_precision":"range","address":"1122 N Harris St","state":"CA"},"type":"Feature","geometry":{"type":"Point","coordinates":[-119.644364,36.336296]}},{"properties":{"city":"Long Beach","zip":"90806","number_of_imgs":0.0,"geo_score":0.912,"country":"USA","program":"Long Beach Memorial","id":"a6hr5ro5tey1","geo_precision":"range","address":"450 E Spring St","state":"CA"},"type":"Feature","geometry":{"type":"Point","coordinates":[-118.187817,33.811648]}},{"properties":{"city":"Merced","zip":"95340","number_of_imgs":0.0,"geo_score":0.636,"country":"USA","program":"Mercy Medical Center (Merced)","id":"a6hr5rph5y8t","geo_precision":"street","address":"315 E 13th St","state":"CA"},"type":"Feature","geometry":{"type":"Point","coordinates":[-120.473841,37.292736]}},{"properties":{"city":"Redding","zip":"96049","number_of_imgs":0.0,"geo_score":0.805,"country":"USA","program":"Mercy Medical Center (Redding)","id":"a6hr5rnz24pf","geo_precision":"range","address":"2175 Rosaline Ave","state":"CA"},"type":"Feature","geometry":{"type":"Point","coordinates":[-122.397047,40.572332]}},{"properties":{"city":"Sacramento","zip":"95823","number_of_imgs":0.0,"geo_score":0.727,"country":"USA","program":"Methodist Hospital of Sacramento","id":"a6hr5rvl1tqy","geo_precision":"street","address":"7500 Hospital Dr","state":"CA"},"type":"Feature","geometry":{"type":"Point","coordinates":[-121.417532,38.464231]}},{"properties":{"city":"Salinas","zip":"93912","number_of_imgs":0.0,"geo_score":0.805,"country":"USA","program":"Natividad Medical Center","id":"a6hr5rr6pej0","geo_precision":"range","address":"1441 Constitution Blvd","state":"CA"},"type":"Feature","geometry":{"type":"Point","coordinates":[-121.623253,36.699975]}},{"properties":{"city":"Camp Pendleton","zip":"92055","number_of_imgs":0.0,"geo_score":0.364,"country":"USA","program":"Naval Hospital Medical","id":"a6hr5rjzl06q","geo_precision":"street","address":"PO Box 555191","state":"CA"},"type":"Feature","geometry":{"type":"Point","coordinates":[-117.106246,33.179604]}}],"is_temporal":false,"author":{"url":"","metadata":"","contact_name":"","contact_address":"","source":"","contact_phone":""},"source":"","pagination":{"sort":null,"start":0,"total":18,"limit":1000000},"state":"complete","tags":"","published":"2014-08-10T11:20:05-04:00","id":20271}