{"type":"FeatureCollection","data_type":"Dataset","url_type":null,"permissions":[{"permissions":{"download":true,"view":true},"group_id":"everyone"}],"classification":null,"title":"Updated Closure Map","count":113,"stream_id":202966,"contributor":{"url":"http://geocommons.com/users/39624","name":"jessicacampbell888"},"data_attributes":null,"calculation_params":null,"icon_link":null,"link":"http://geocommons.com/overlays/202966.json","extent":[-74.0054,40.5718,-73.7562,40.8848],"geometry_types":["point"],"unique_name":null,"name":"Updated Closure Map","feature_count":113,"description":"","next_feature":null,"is_raster":false,"short_classification":"Y","stats":{},"features":[{"properties":{"status":"PREVIOUSLY APPROVED","name":"John Jay High School","borough":"BROOKLYN","geo_score":0.638,"type":"HS","zip code":"11215","dbn":"K460","id":"a7jx1g042cuz","geo_precision":"range","address":"237 7 AVENUE","state":"NY"},"type":"Feature","geometry":{"type":"Point","coordinates":[-73.972618,40.614194]}},{"properties":{"status":"PREVIOUSLY APPROVED","name":"George L. Gallego School","borough":"BRONX","geo_score":0.422,"type":"ES","zip code":"10459","dbn":"X060","id":"a7jx1frwyc1h","geo_precision":"street","address":"888 REV J A POLITE AVE","state":"NY"},"type":"Feature","geometry":{"type":"Point","coordinates":[-73.8997,40.884816]}},{"properties":{"status":"PREVIOUSLY APPROVED","name":"Elijah D. Clark School","borough":"BRONX","geo_score":0.829,"type":"MS","zip code":"10454","dbn":"X149","id":"a7jx1g0r192t","geo_precision":"range","address":"360 EAST 145 STREET","state":"NY"},"type":"Feature","geometry":{"type":"Point","coordinates":[-73.920966,40.814038]}},{"properties":{"status":"PREVIOUSLY APPROVED","name":"South Bronx High School","borough":"BRONX","geo_score":0.857,"type":"HS","zip code":"10455","dbn":"X470","id":"a7jx1fse4qv6","geo_precision":"zip","address":"701 ST. ANNS AVENUE","state":"NY"},"type":"Feature","geometry":{"type":"Point","coordinates":[-73.908355,40.815029]}},{"properties":{"status":"PREVIOUSLY APPROVED","name":"Thelma J. Hamilton School","borough":"BROOKLYN","geo_score":0.902,"type":"MS","zip code":"11212","dbn":"K275","id":"a7jx1fs9kexn","geo_precision":"range","address":"985 ROCKAWAY AVENUE","state":"NY"},"type":"Feature","geometry":{"type":"Point","coordinates":[-73.907436,40.656401]}},{"properties":{"status":"PREVIOUSLY APPROVED","name":"Carroll Gardens Comm. School","borough":"BROOKLYN","geo_score":0.902,"type":"MS","zip code":"11231","dbn":"K378","id":"a7jx1g0dmtab","geo_precision":"range","address":"610 HENRY STREET","state":"NY"},"type":"Feature","geometry":{"type":"Point","coordinates":[-74.00134,40.680121]}},{"properties":{"status":"PREVIOUSLY APPROVED","name":"Martin Luther King Jr. Academy","borough":"MANHATTAN","geo_score":0.902,"type":"HS","zip code":"10023","dbn":"M490","id":"a7jx1fshxxvc","geo_precision":"range","address":"122 AMSTERDAM AVENUE","state":"NY"},"type":"Feature","geometry":{"type":"Point","coordinates":[-73.984807,40.774286]}},{"properties":{"status":"PREVIOUSLY APPROVED","name":"IS 191","borough":"BRONX","geo_score":0.902,"type":"ES","zip code":"10460","dbn":"X191","id":"a7jx1g30o5b9","geo_precision":"range","address":"2055 MAPES AVENUE","state":"NY"},"type":"Feature","geometry":{"type":"Point","coordinates":[-73.886425,40.845671]}},{"properties":{"status":"PREVIOUSLY APPROVED","name":"PS 234","borough":"BRONX","geo_score":0.902,"type":"ES","zip code":"10457","dbn":"X234","id":"a7jx1fzh19ml","geo_precision":"range","address":"2050 PROSPECT AVENUE","state":"NY"},"type":"Feature","geometry":{"type":"Point","coordinates":[-73.887734,40.845903]}},{"properties":{"status":"PREVIOUSLY APPROVED","name":"Morris High School","borough":"BRONX","geo_score":0.902,"type":"HS","zip code":"10456","dbn":"X400","id":"a7jx1g87117t","geo_precision":"range","address":"1110 BOSTON ROAD","state":"NY"},"type":"Feature","geometry":{"type":"Point","coordinates":[-73.904269,40.82801]}},{"properties":{"status":"PREVIOUSLY APPROVED","name":"PS 314 Luis Munoz Marin (Restructured)","borough":"BROOKLYN","geo_score":0.39,"type":"ES","zip code":"11220","dbn":"K314","id":"a7jx1g492z5e","geo_precision":"street","address":"330 59 STREET","state":"NY"},"type":"Feature","geometry":{"type":"Point","coordinates":[-73.943366,40.610399]}},{"properties":{"status":"PREVIOUSLY APPROVED","name":"Mahalia Jackson","borough":"BROOKLYN","geo_score":0.902,"type":"MS","zip code":"11203","dbn":"K391","id":"a7jx1fssxy3t","geo_precision":"range","address":"790 EAST NEW YORK AVENUE","state":"NY"},"type":"Feature","geometry":{"type":"Point","coordinates":[-73.93677,40.662444]}},{"properties":{"status":"PREVIOUSLY APPROVED","name":"Prospect Heights High School","borough":"BROOKLYN","geo_score":0.902,"type":"HS","zip code":"11225","dbn":"K440","id":"a7jx1g5wccze","geo_precision":"range","address":"883 CLASSON AVENUE","state":"NY"},"type":"Feature","geometry":{"type":"Point","coordinates":[-73.961663,40.670477]}},{"properties":{"status":"PREVIOUSLY APPROVED","name":"Erasmus Hall Campus: High School for Science &amp; Math","borough":"BROOKLYN","geo_score":0.902,"type":"HS","zip code":"11226","dbn":"K459","id":"a7jx1fyr7ihk","geo_precision":"range","address":"911 FLATBUSH AVENUE","state":"NY"},"type":"Feature","geometry":{"type":"Point","coordinates":[-73.958554,40.649561]}},{"properties":{"status":"PREVIOUSLY APPROVED","name":"George Wingate High School","borough":"BROOKLYN","geo_score":0.902,"type":"HS","zip code":"11203","dbn":"K470","id":"a7jx1fyz1c1n","geo_precision":"range","address":"600 KINGSTON AVENUE","state":"NY"},"type":"Feature","geometry":{"type":"Point","coordinates":[-73.942479,40.658991]}},{"properties":{"status":"PREVIOUSLY APPROVED","name":"Bushwick High School","borough":"BROOKLYN","geo_score":0.902,"type":"HS","zip code":"11237","dbn":"K480","id":"a7jx1fziz3bu","geo_precision":"range","address":"400 IRVING AVENUE","state":"NY"},"type":"Feature","geometry":{"type":"Point","coordinates":[-73.910887,40.697004]}},{"properties":{"status":"PREVIOUSLY APPROVED","name":"Corlears School","borough":"MANHATTAN","geo_score":0.902,"type":"MS","zip code":"10002","dbn":"M056","id":"a7jx1g26rlel","geo_precision":"range","address":"220 HENRY STREET","state":"NY"},"type":"Feature","geometry":{"type":"Point","coordinates":[-73.986596,40.713684]}},{"properties":{"status":"PREVIOUSLY APPROVED","name":"IS 90 Mirabel Sisters School","borough":"MANHATTAN","geo_score":0.902,"type":"MS","zip code":"10032","dbn":"M090","id":"a7jx1g88y527","geo_precision":"range","address":"21 JUMEL PLACE","state":"NY"},"type":"Feature","geometry":{"type":"Point","coordinates":[-73.93623,40.83941]}},{"properties":{"status":"PREVIOUSLY APPROVED","name":"Remaining programs associated with M099 (M277 - MIAVA)","borough":"MANHATTAN","geo_score":0.902,"type":"MS","zip code":"10029","dbn":"M099","id":"a7jx1g2t40mf","geo_precision":"range","address":"410 EAST 100 STREET","state":"NY"},"type":"Feature","geometry":{"type":"Point","coordinates":[-73.942711,40.785727]}},{"properties":{"status":"PREVIOUSLY APPROVED","name":"PS 162","borough":"MANHATTAN","geo_score":0.902,"type":"1st-8th","zip code":"10026","dbn":"M162","id":"a7jx1g2l1np4","geo_precision":"range","address":"34 WEST 118 STREET","state":"NY"},"type":"Feature","geometry":{"type":"Point","coordinates":[-73.94632,40.802424]}},{"properties":{"status":"PREVIOUSLY APPROVED","name":"IS 164 Edward W. Stitt School","borough":"MANHATTAN","geo_score":0.902,"type":"MS","zip code":"10032","dbn":"M164","id":"a7jx1g66xu9a","geo_precision":"range","address":"401 WEST 164 STREET","state":"NY"},"type":"Feature","geometry":{"type":"Point","coordinates":[-73.937023,40.836469]}},{"properties":{"status":"PREVIOUSLY APPROVED","name":"MS 244 Columbus Middle School","borough":"MANHATTAN","geo_score":0.902,"type":"MS","zip code":"10024","dbn":"M244","id":"a7jx1ftyx410","geo_precision":"range","address":"100 WEST 77TH STREET","state":"NY"},"type":"Feature","geometry":{"type":"Point","coordinates":[-73.976428,40.780654]}},{"properties":{"status":"PREVIOUSLY APPROVED","name":"Henry Highland Garnet","borough":"MANHATTAN","geo_score":0.902,"type":"MS","zip code":"10030","dbn":"M275","id":"a7jx1g4s0xoi","geo_precision":"range","address":"175 WEST 134TH STREET","state":"NY"},"type":"Feature","geometry":{"type":"Point","coordinates":[-73.942973,40.814341]}},{"properties":{"status":"PREVIOUSLY APPROVED","name":"Seward Park High School","borough":"MANHATTAN","geo_score":0.902,"type":"HS","zip code":"10002","dbn":"M445","id":"a7jx1fvmb7rx","geo_precision":"range","address":"350 GRAND STREET","state":"NY"},"type":"Feature","geometry":{"type":"Point","coordinates":[-73.989423,40.716741]}},{"properties":{"status":"PREVIOUSLY APPROVED","name":"Park West High School","borough":"MANHATTAN","geo_score":0.819,"type":"HS","zip code":"10019","dbn":"M535","id":"a7jx1g2f9mvm","geo_precision":"range","address":"525 WEST 50TH STREET","state":"NY"},"type":"Feature","geometry":{"type":"Point","coordinates":[-73.992653,40.76509]}},{"properties":{"status":"PREVIOUSLY APPROVED","name":"Rockaway Beach School","borough":"QUEENS","geo_score":0.611,"type":"MS","zip code":"11694","dbn":"Q180","id":"a7jx1g61rv6a","geo_precision":"street","address":"320 BEACH 104TH STREET","state":"NY"},"type":"Feature","geometry":{"type":"Point","coordinates":[-73.82618,40.585011]}},{"properties":{"status":"PREVIOUSLY APPROVED","name":"Benjamin N. Cardozo School","borough":"QUEENS","geo_score":0.585,"type":"MS","zip code":"11692","dbn":"Q198","id":"a7jx1g25swd1","geo_precision":"zip","address":"3-65 BEACH 56 STREET","state":"NY"},"type":"Feature","geometry":{"type":"Point","coordinates":[-73.793273,40.5923]}},{"properties":{"status":"PREVIOUSLY APPROVED","name":"MS 143","borough":"BRONX","geo_score":0.829,"type":"MS","zip code":"10463","dbn":"X143","id":"a7jx1fxrh5du","geo_precision":"range","address":"120 WEST 231 STREET","state":"NY"},"type":"Feature","geometry":{"type":"Point","coordinates":[-73.901023,40.87594]}},{"properties":{"status":"PREVIOUSLY APPROVED","name":"Dr. Mario Salvadori School","borough":"BRONX","geo_score":0.902,"type":"MS","zip code":"10454","dbn":"X222","id":"a7jx1g0b9c2g","geo_precision":"range","address":"345 BROOK AVE","state":"NY"},"type":"Feature","geometry":{"type":"Point","coordinates":[-73.917834,40.810065]}},{"properties":{"status":"PREVIOUSLY APPROVED","name":"William H. Taft High School","borough":"BRONX","geo_score":0.829,"type":"HS","zip code":"10457","dbn":"X410","id":"a7jx1g4192ko","geo_precision":"range","address":"240 EAST 172 STREET","state":"NY"},"type":"Feature","geometry":{"type":"Point","coordinates":[-73.911067,40.840434]}},{"properties":{"status":"PREVIOUSLY APPROVED","name":"Theodore Roosevelt High School","borough":"BRONX","geo_score":0.902,"type":"HS","zip code":"10458","dbn":"X435","id":"a7jx1fvurftf","geo_precision":"range","address":"500 EAST FORDHAM ROAD","state":"NY"},"type":"Feature","geometry":{"type":"Point","coordinates":[-73.888004,40.859874]}},{"properties":{"status":"PREVIOUSLY APPROVED","name":"Mark Hopkins Intermediate School","borough":"BROOKLYN","geo_score":0.902,"type":"MS","zip code":"11206","dbn":"K033","id":"a7jx1g0jfakf","geo_precision":"range","address":"70 TOMPKINS AVENUE","state":"NY"},"type":"Feature","geometry":{"type":"Point","coordinates":[-73.946638,40.697179]}},{"properties":{"status":"PREVIOUSLY APPROVED","name":"Maggie Walker School","borough":"BROOKLYN","geo_score":0.902,"type":"MS","zip code":"11213","dbn":"K390","id":"a7jx1g2lbwmy","geo_precision":"range","address":"1224 PARK PLACE","state":"NY"},"type":"Feature","geometry":{"type":"Point","coordinates":[-73.937132,40.672722]}},{"properties":{"status":"PREVIOUSLY APPROVED","name":"Thomas Jefferson High School","borough":"BROOKLYN","geo_score":0.902,"type":"HS","zip code":"11207","dbn":"K435","id":"a7jx1g2xdcxa","geo_precision":"range","address":"400 PENNSYLVANIA AVENUE","state":"NY"},"type":"Feature","geometry":{"type":"Point","coordinates":[-73.89479,40.667621]}},{"properties":{"status":"PREVIOUSLY APPROVED","name":"Erasmus Hall Campus: Humanities","borough":"BROOKLYN","geo_score":0.902,"type":"HS","zip code":"11226","dbn":"K469","id":"a7jx1g6lz7l4","geo_precision":"range","address":"911 FLATBUSH AVENUE","state":"NY"},"type":"Feature","geometry":{"type":"Point","coordinates":[-73.958554,40.649561]}},{"properties":{"status":"PREVIOUSLY APPROVED","name":"Erasmus Hall Campus: High School for Business &amp; Tech","borough":"BROOKLYN","geo_score":0.902,"type":"HS","zip code":"11226","dbn":"K479","id":"a7jx1g37e7ow","geo_precision":"range","address":"911 FLATBUSH AVENUE","state":"NY"},"type":"Feature","geometry":{"type":"Point","coordinates":[-73.958554,40.649561]}},{"properties":{"status":"PREVIOUSLY APPROVED","name":"Harry Van Arsdale High School","borough":"BROOKLYN","geo_score":0.805,"type":"HS","zip code":"11211","dbn":"K640","id":"a7jx1fsr9efz","geo_precision":"range","address":"257 NORTH 6TH STREET","state":"NY"},"type":"Feature","geometry":{"type":"Point","coordinates":[-73.95446,40.71488]}},{"properties":{"status":"PREVIOUSLY APPROVED","name":"JHS 168 Parsons School","borough":"QUEENS","geo_score":0.394,"type":"MS","zip code":"11366","dbn":"Q168","id":"a7jx1g4ki7fb","geo_precision":"street","address":"158-40 76 ROAD","state":"NY"},"type":"Feature","geometry":{"type":"Point","coordinates":[-73.806521,40.724872]}},{"properties":{"status":"PREVIOUSLY APPROVED","name":"Springfield Gardens High School","borough":"QUEENS","geo_score":0.614,"type":"HS","zip code":"11413","dbn":"Q420","id":"a7jx1fyc7xie","geo_precision":"street","address":"143-10 SPRINGFIELD BOULEVARD","state":"NY"},"type":"Feature","geometry":{"type":"Point","coordinates":[-73.7562,40.67328]}},{"properties":{"status":"PREVIOUSLY APPROVED","name":"MS 113","borough":"BRONX","geo_score":0.902,"type":"MS","zip code":"10467","dbn":"X113","id":"a7jx1ftign5p","geo_precision":"range","address":"3710 BARNES AVENUE","state":"NY"},"type":"Feature","geometry":{"type":"Point","coordinates":[-73.860911,40.880985]}},{"properties":{"status":"PREVIOUSLY APPROVED","name":"Theodore Gathings School","borough":"BRONX","geo_score":0.902,"type":"MS","zip code":"10456","dbn":"X158","id":"a7jx1g33cy2s","geo_precision":"range","address":"800 HOME STREET","state":"NY"},"type":"Feature","geometry":{"type":"Point","coordinates":[-73.900229,40.827728]}},{"properties":{"status":"PREVIOUSLY APPROVED","name":"Rafael Cordero y Molina School","borough":"BRONX","geo_score":0.902,"type":"MS","zip code":"10456","dbn":"X184","id":"a7jx1g7g7s6j","geo_precision":"range","address":"778 FOREST AVENUE","state":"NY"},"type":"Feature","geometry":{"type":"Point","coordinates":[-73.906003,40.818894]}},{"properties":{"status":"PREVIOUSLY APPROVED","name":"IS 055 Ocean Hill Brownsville","borough":"BROOKLYN","geo_score":0.902,"type":"MS","zip code":"11233","dbn":"K055","id":"a7jx1g5k0qdj","geo_precision":"range","address":"2021 BERGEN STREET","state":"NY"},"type":"Feature","geometry":{"type":"Point","coordinates":[-73.913672,40.674112]}},{"properties":{"status":"PREVIOUSLY APPROVED","name":"MS 143 Performing &amp; Fine Arts","borough":"BROOKLYN","geo_score":0.902,"type":"MS","zip code":"11221","dbn":"K143","id":"a7jx1g4llxt0","geo_precision":"range","address":"800 GATES AVENUE","state":"NY"},"type":"Feature","geometry":{"type":"Point","coordinates":[-73.932424,40.688334]}},{"properties":{"status":"PREVIOUSLY APPROVED","name":"PS 183 Daniel Chappie James","borough":"BROOKLYN","geo_score":0.902,"type":"K-8","zip code":"11212","dbn":"K183","id":"a7jx1g2qfkxi","geo_precision":"range","address":"76 RIVERDALE AVENUE","state":"NY"},"type":"Feature","geometry":{"type":"Point","coordinates":[-73.914067,40.660194]}},{"properties":{"status":"PREVIOUSLY APPROVED","name":"IS 271 John M Coleman","borough":"BROOKLYN","geo_score":0.902,"type":"MS","zip code":"11233","dbn":"K271","id":"a7jx1fz7ns76","geo_precision":"range","address":"1137 HERKIMER STREET","state":"NY"},"type":"Feature","geometry":{"type":"Point","coordinates":[-73.916224,40.677815]}},{"properties":{"status":"PREVIOUSLY APPROVED","name":"PS 304 Casimir Pulaski","borough":"BROOKLYN","geo_score":0.902,"type":"ES","zip code":"11206","dbn":"K304","id":"a7jx1full9mi","geo_precision":"range","address":"280 HART STREET","state":"NY"},"type":"Feature","geometry":{"type":"Point","coordinates":[-73.941073,40.694129]}},{"properties":{"status":"PREVIOUSLY APPROVED","name":"Brooklyn Comp. Night and Day","borough":"BROOKLYN","geo_score":0.902,"type":"HS","zip code":"11236","dbn":"K585","id":"a7jx1fugwtt2","geo_precision":"range","address":"6565 FLATLANDS AVENUE","state":"NY"},"type":"Feature","geometry":{"type":"Point","coordinates":[-73.916833,40.633255]}},{"properties":{"status":"PREVIOUSLY APPROVED","name":"JHS 135 Frank D Whalen","borough":"BRONX","geo_score":0.902,"type":"MS","zip code":"10467","dbn":"X135","id":"a7jx1g7rd6bc","geo_precision":"range","address":"2441 WALLACE AVENUE","state":"NY"},"type":"Feature","geometry":{"type":"Point","coordinates":[-73.864575,40.862056]}},{"properties":{"status":"PREVIOUSLY APPROVED","name":"PS 156 Benjamin Banneker","borough":"BRONX","geo_score":0.902,"type":"ES","zip code":"10451","dbn":"X156","id":"a7jx1fu5c104","geo_precision":"range","address":"750 CONCOURSE VILLAGE W","state":"NY"},"type":"Feature","geometry":{"type":"Point","coordinates":[-73.923073,40.823623]}},{"properties":{"status":"PREVIOUSLY APPROVED","name":"MS 201","borough":"BRONX","geo_score":0.902,"type":"MS","zip code":"10474","dbn":"X201","id":"a7jx1g774je3","geo_precision":"range","address":"730 BRYANT AVE","state":"NY"},"type":"Feature","geometry":{"type":"Point","coordinates":[-73.885701,40.815342]}},{"properties":{"status":"PREVIOUSLY APPROVED","name":"PS 220 Mott Haven Village School","borough":"BRONX","geo_score":0.902,"type":"ES","zip code":"10454","dbn":"X220","id":"a7jx1g71l4g4","geo_precision":"range","address":"468 EAST 140TH STREET","state":"NY"},"type":"Feature","geometry":{"type":"Point","coordinates":[-73.920303,40.809489]}},{"properties":{"status":"PREVIOUSLY APPROVED","name":"Evander Childs High School","borough":"BRONX","geo_score":0.902,"type":"HS","zip code":"10467","dbn":"X425","id":"a7jx1g6oceub","geo_precision":"range","address":"800 EAST GUN HILL ROAD","state":"NY"},"type":"Feature","geometry":{"type":"Point","coordinates":[-73.86213,40.876011]}},{"properties":{"status":"PREVIOUSLY APPROVED","name":"Walton High School","borough":"BRONX","geo_score":0.902,"type":"HS","zip code":"10468","dbn":"X430","id":"a7jx1fvr06h1","geo_precision":"range","address":"2780 RESERVOIR AVENUE","state":"NY"},"type":"Feature","geometry":{"type":"Point","coordinates":[-73.898431,40.870343]}},{"properties":{"status":"PREVIOUSLY APPROVED","name":"JHS 49 William J. Gaynor","borough":"BROOKLYN","geo_score":0.902,"type":"MS","zip code":"11206","dbn":"K049","id":"a7jx1g6v526m","geo_precision":"range","address":"223 GRAHAM AVENUE","state":"NY"},"type":"Feature","geometry":{"type":"Point","coordinates":[-73.943486,40.709155]}},{"properties":{"status":"PREVIOUSLY APPROVED","name":"JHS 117 Francis Scott Key","borough":"BROOKLYN","geo_score":0.902,"type":"MS","zip code":"11205","dbn":"K117","id":"a7jx1fwptkij","geo_precision":"range","address":"300 WILLOUGHBY AVENUE","state":"NY"},"type":"Feature","geometry":{"type":"Point","coordinates":[-73.958992,40.692628]}},{"properties":{"status":"PREVIOUSLY APPROVED","name":"IS 232 Winthrop","borough":"BROOKLYN","geo_score":0.902,"type":"MS","zip code":"11203","dbn":"K232","id":"a7jx1fxr11o9","geo_precision":"range","address":"905 WINTHROP STREET","state":"NY"},"type":"Feature","geometry":{"type":"Point","coordinates":[-73.929143,40.658418]}},{"properties":{"status":"PREVIOUSLY APPROVED","name":"IS 252 Arthur S. Sommers","borough":"BROOKLYN","geo_score":0.902,"type":"MS","zip code":"11212","dbn":"K252","id":"a7jx1g77tsv1","geo_precision":"range","address":"1084 LENOX ROAD","state":"NY"},"type":"Feature","geometry":{"type":"Point","coordinates":[-73.919968,40.658398]}},{"properties":{"status":"PREVIOUSLY APPROVED","name":"JHS 258 David Ruggles","borough":"BROOKLYN","geo_score":0.902,"type":"MS","zip code":"11216","dbn":"K258","id":"a7jx1fsmjq8v","geo_precision":"range","address":"141 MACON STREET","state":"NY"},"type":"Feature","geometry":{"type":"Point","coordinates":[-73.945868,40.681535]}},{"properties":{"status":"PREVIOUSLY APPROVED","name":"MS 172 Powell MS for Law &amp; Soc.","borough":"MANHATTAN","geo_score":0.902,"type":"MS","zip code":"10027","dbn":"M172","id":"a7jx1g02btzw","geo_precision":"range","address":"509 WEST 129TH STREET","state":"NY"},"type":"Feature","geometry":{"type":"Point","coordinates":[-73.9551,40.815165]}},{"properties":{"status":"PREVIOUSLY APPROVED","name":"IS 174","borough":"BRONX","geo_score":0.902,"type":"MS","zip code":"10473","dbn":"X174","id":"a7jx1fttbdtu","geo_precision":"range","address":"456 WHITE PLAINS ROAD","state":"NY"},"type":"Feature","geometry":{"type":"Point","coordinates":[-73.856504,40.814758]}},{"properties":{"status":"PREVIOUSLY APPROVED","name":"IS 192 Piagentini Jones School","borough":"BRONX","geo_score":0.902,"type":"MS","zip code":"10465","dbn":"X192","id":"a7jx1fsos8b5","geo_precision":"range","address":"650 HOLLYWOOD AVENUE","state":"NY"},"type":"Feature","geometry":{"type":"Point","coordinates":[-73.818241,40.826527]}},{"properties":{"status":"PREVIOUSLY APPROVED","name":"Adlai E. Stevenson High School","borough":"BRONX","geo_score":0.902,"type":"HS","zip code":"10473","dbn":"X450","id":"a7jx1g0sveac","geo_precision":"range","address":"1980 LAFAYETTE AVENUE","state":"NY"},"type":"Feature","geometry":{"type":"Point","coordinates":[-73.857202,40.822154]}},{"properties":{"status":"PREVIOUSLY APPROVED","name":"New School For Arts And Science","borough":"BRONX","geo_score":0.902,"type":"HS","zip code":"10459","dbn":"X686","id":"a7jx1g4yr6v0","geo_precision":"range","address":"965 LONGWOOD AVENUE","state":"NY"},"type":"Feature","geometry":{"type":"Point","coordinates":[-73.898316,40.817523]}},{"properties":{"status":"PREVIOUSLY APPROVED","name":"Lafayette High School","borough":"BROOKLYN","geo_score":0.902,"type":"HS","zip code":"11214","dbn":"K400","id":"a7jx1g82gp97","geo_precision":"range","address":"2630 BENSON AVENUE","state":"NY"},"type":"Feature","geometry":{"type":"Point","coordinates":[-73.985962,40.594402]}},{"properties":{"status":"PREVIOUSLY APPROVED","name":"Samuel J. Tilden High School","borough":"BROOKLYN","geo_score":0.902,"type":"HS","zip code":"11203","dbn":"K415","id":"a7jx1funpc1v","geo_precision":"range","address":"5800 TILDEN AVENUE","state":"NY"},"type":"Feature","geometry":{"type":"Point","coordinates":[-73.922311,40.648658]}},{"properties":{"status":"PREVIOUSLY APPROVED","name":"South Shore High School","borough":"BROOKLYN","geo_score":0.902,"type":"HS","zip code":"11236","dbn":"K515","id":"a7jx1fvmuumw","geo_precision":"range","address":"6565 FLATLANDS AVENUE","state":"NY"},"type":"Feature","geometry":{"type":"Point","coordinates":[-73.916833,40.633255]}},{"properties":{"status":"PREVIOUSLY APPROVED","name":"PS 101 Andrew Draper","borough":"MANHATTAN","geo_score":0.902,"type":"K-8","zip code":"10029","dbn":"M101","id":"a7jx1g46bzmg","geo_precision":"range","address":"141 EAST 111 STREET","state":"NY"},"type":"Feature","geometry":{"type":"Point","coordinates":[-73.944624,40.795593]}},{"properties":{"status":"PREVIOUSLY APPROVED","name":"Tito Puente Education Complex","borough":"MANHATTAN","geo_score":0.902,"type":"MS","zip code":"10029","dbn":"M117","id":"a7jx1g7k9t8d","geo_precision":"range","address":"240 EAST 109 STREET","state":"NY"},"type":"Feature","geometry":{"type":"Point","coordinates":[-73.942581,40.793104]}},{"properties":{"status":"PREVIOUSLY APPROVED","name":"School for the Physical City","borough":"MANHATTAN","geo_score":0.612,"type":"HS","zip code":"10011","dbn":"M690","id":"a7jx1g5wtel0","geo_precision":"street","address":"55 EAST 25TH STREET","state":"NY"},"type":"Feature","geometry":{"type":"Point","coordinates":[-73.983812,40.74079]}},{"properties":{"status":"PREVIOUSLY APPROVED","name":"Urban Peace Academy","borough":"MANHATTAN","geo_score":0.902,"type":"HS","zip code":"10035","dbn":"M695","id":"a7jx1g7u6qsi","geo_precision":"range","address":"2351 1ST AVENUE","state":"NY"},"type":"Feature","geometry":{"type":"Point","coordinates":[-73.93305,40.799231]}},{"properties":{"status":"PREVIOUSLY APPROVED","name":"Business School for Entreprenuerial Studies","borough":"BRONX","geo_score":0.902,"type":"MS","zip code":"10459","dbn":"X216","id":"a7jx1fs3awzo","geo_precision":"range","address":"977 FOX STREET","state":"NY"},"type":"Feature","geometry":{"type":"Point","coordinates":[-73.893887,40.822408]}},{"properties":{"status":"PREVIOUSLY APPROVED","name":"IS 246","borough":"MANHATTAN","geo_score":0.902,"type":"MS","zip code":"10025","dbn":"M246","id":"a7jx1g6fg2hi","geo_precision":"range","address":"234 West 109th street","state":"NY"},"type":"Feature","geometry":{"type":"Point","coordinates":[-73.965161,40.802794]}},{"properties":{"status":"PREVIOUSLY APPROVED","name":"Agnes Y. Humphrey School for Leadership","borough":"BROOKLYN","geo_score":0.902,"type":"K-11","zip code":"11231","dbn":"K027","id":"a7jx1g71e9hs","geo_precision":"range","address":"27 HUNTINGTON STREET","state":"NY"},"type":"Feature","geometry":{"type":"Point","coordinates":[-74.005362,40.677537]}},{"properties":{"status":"PREVIOUSLY APPROVED","name":"PS 072 ANNETTE P GOLDMAN","borough":"BROOKLYN","geo_score":0.902,"type":"K-8","zip code":"11208","dbn":"K072","id":"a7jx1g51gi6c","geo_precision":"range","address":"605 SHEPHERD AVENUE","state":"NY"},"type":"Feature","geometry":{"type":"Point","coordinates":[-73.879668,40.669401]}},{"properties":{"status":"PREVIOUSLY APPROVED","name":"Canarsie HS","borough":"BROOKLYN","geo_score":0.902,"type":"HS","zip code":"11236","dbn":"K500","id":"a7jx1fxjd6jd","geo_precision":"range","address":"1600 ROCKAWAY PARKWAY","state":"NY"},"type":"Feature","geometry":{"type":"Point","coordinates":[-73.898761,40.641925]}},{"properties":{"status":"PREVIOUSLY APPROVED","name":"EBC/ENY HS for Public Safety &amp; Law","borough":"BROOKLYN","geo_score":0.902,"type":"HS","zip code":"11233","dbn":"K645","id":"a7jx1fzq1h4y","geo_precision":"range","address":"1495 HERKIMER STREET","state":"NY"},"type":"Feature","geometry":{"type":"Point","coordinates":[-73.904077,40.677146]}},{"properties":{"status":"PREVIOUSLY APPROVED","name":"JHS 044 WILLIAM J O'SHEA","borough":"MANHATTAN","geo_score":0.902,"type":"MS","zip code":"10024","dbn":"M044","id":"a7jx1ft4ib9m","geo_precision":"range","address":"100 WEST 77 STREET","state":"NY"},"type":"Feature","geometry":{"type":"Point","coordinates":[-73.976428,40.780654]}},{"properties":{"status":"PREVIOUSLY APPROVED","name":"MS 321 - MINERVA","borough":"MANHATTAN","geo_score":0.902,"type":"MS","zip code":"10032","dbn":"M321","id":"a7jx1fuqc6vj","geo_precision":"range","address":"21 JUMEL PLACE","state":"NY"},"type":"Feature","geometry":{"type":"Point","coordinates":[-73.93623,40.83941]}},{"properties":{"status":"PREVIOUSLY APPROVED","name":"PS 225 SEASIDE","borough":"QUEENS","geo_score":0.585,"type":"K-8","zip code":"11694","dbn":"Q225","id":"a7jx1g0jw5qr","geo_precision":"zip","address":"1-90 BEACH 110 STREET","state":"NY"},"type":"Feature","geometry":{"type":"Point","coordinates":[-73.861524,40.571772]}},{"properties":{"status":"PREVIOUSLY APPROVED","name":"Far Rockaway HS","borough":"QUEENS","geo_score":0.679,"type":"HS","zip code":"11691","dbn":"Q465","id":"a7jx1fzzcm06","geo_precision":"range","address":"8-21 BAY 25 STREET","state":"NY"},"type":"Feature","geometry":{"type":"Point","coordinates":[-73.771501,40.611775]}},{"properties":{"status":"PREVIOUSLY APPROVED","name":"PS 79 Creston","borough":"BRONX","geo_score":0.829,"type":"ES","zip code":"10453","dbn":"X079","id":"a7jx1g75230o","geo_precision":"range","address":"125 EAST 181 STREET","state":"NY"},"type":"Feature","geometry":{"type":"Point","coordinates":[-73.90357,40.854869]}},{"properties":{"status":"PREVIOUSLY APPROVED","name":"PS 090 GEORGE MEANY (k-4)","borough":"BRONX","geo_score":0.902,"type":"ES","zip code":"10456","dbn":"X090","id":"a7jx1g59zzgf","geo_precision":"range","address":"1116 SHERIDAN AVENUE","state":"NY"},"type":"Feature","geometry":{"type":"Point","coordinates":[-73.917928,40.832273]}},{"properties":{"status":"PREVIOUSLY APPROVED","name":"JHS 166 ROBERTO CLEMENTE","borough":"BRONX","geo_score":0.829,"type":"MS","zip code":"10456","dbn":"X166","id":"a7jx1fya24v5","geo_precision":"range","address":"250 EAST 164 STREET","state":"NY"},"type":"Feature","geometry":{"type":"Point","coordinates":[-73.917797,40.828759]}},{"properties":{"status":"PREVIOUSLY APPROVED","name":"MS 399","borough":"BRONX","geo_score":0.902,"type":"MS","zip code":"10468","dbn":"X399","id":"a7jx1g6a3efb","geo_precision":"range","address":"120 EAST 184TH STREET","state":"NY"},"type":"Feature","geometry":{"type":"Point","coordinates":[-73.900121,40.859675]}},{"properties":{"status":"PREVIOUSLY APPROVED","name":"Bronx Coalition Community HS","borough":"BRONX","geo_score":0.902,"type":"HS","zip code":"10472","dbn":"X680","id":"a7jx1g3ds8sy","geo_precision":"range","address":"1300 BOYNTON AVENUE","state":"NY"},"type":"Feature","geometry":{"type":"Point","coordinates":[-73.878845,40.831264]}},{"properties":{"status":"PREVIOUSLY APPROVED","name":"Franklin K Lane HS","borough":"BROOKLYN","geo_score":0.902,"type":"HS","zip code":"11208","dbn":"K420","id":"a7jx1g1c4kum","geo_precision":"range","address":"999 JAMAICA AVENUE","state":"NY"},"type":"Feature","geometry":{"type":"Point","coordinates":[-73.870128,40.690709]}},{"properties":{"status":"PREVIOUSLY APPROVED","name":"Bayard Rustin","borough":"MANHATTAN","geo_score":0.902,"type":"HS","zip code":"10011","dbn":"M440","id":"a7jx1g5bersm","geo_precision":"range","address":"351 WEST 18 STREET","state":"NY"},"type":"Feature","geometry":{"type":"Point","coordinates":[-74.0018,40.742863]}},{"properties":{"status":"PREVIOUSLY APPROVED","name":"Louis Brandeis HS","borough":"MANHATTAN","geo_score":0.902,"type":"HS","zip code":"10024","dbn":"M470","id":"a7jx1g38pg8f","geo_precision":"range","address":"145 WEST 84 STREET","state":"NY"},"type":"Feature","geometry":{"type":"Point","coordinates":[-73.9741,40.785708]}},{"properties":{"status":"PREVIOUSLY APPROVED","name":"PS 002 MORRISANIA","borough":"BRONX","geo_score":0.902,"type":"ES","zip code":"10456","dbn":"X002","id":"a7jx1fzd3r49","geo_precision":"range","address":"1365 FULTON AVENUE","state":"NY"},"type":"Feature","geometry":{"type":"Point","coordinates":[-73.902661,40.833774]}},{"properties":{"status":"PREVIOUSLY APPROVED","name":"PS 198","borough":"BRONX","geo_score":0.902,"type":"ES","zip code":"10456","dbn":"X198","id":"a7jx1g2yl6co","geo_precision":"range","address":"1180 TINTON AVENUE","state":"NY"},"type":"Feature","geometry":{"type":"Point","coordinates":[-73.90075,40.828516]}},{"properties":{"status":"PREVIOUSLY APPROVED","name":"Academy of Collaborative Education","borough":"Manhattan","geo_score":0.902,"type":"MS","zip code":"10030","dbn":"M344","id":"a7jx1ftan97q","geo_precision":"range","address":"222 WEST 134 STREET","state":"NY"},"type":"Feature","geometry":{"type":"Point","coordinates":[-73.944676,40.814902]}},{"properties":{"status":"PREVIOUSLY APPROVED","name":"KAPPA II MS","borough":"MANHATTAN","geo_score":0.805,"type":"MS","zip code":"10035","dbn":"M317","id":"a7jx1fuf9jyu","geo_precision":"range","address":"144-176 EAST 128 STREET","state":"NY"},"type":"Feature","geometry":{"type":"Point","coordinates":[-73.937588,40.806949]}},{"properties":{"status":"PREVIOUSLY APPROVED","name":"M.S. 571","borough":"Brooklyn","geo_score":0.902,"type":"MS","zip code":"11238","dbn":"K571","id":"a7jx1fyktixq","geo_precision":"range","address":"80 UNDERHILL AVENUE","state":"NY"},"type":"Feature","geometry":{"type":"Point","coordinates":[-73.965494,40.678258]}},{"properties":{"status":"PREVIOUSLY APPROVED","name":"Paul Robeson High School","borough":"BROOKLYN","geo_score":0.902,"type":"HS","zip code":"11213","dbn":"K625","id":"a7jx1g0xmpns","geo_precision":"range","address":"150 ALBANY AVENUE","state":"NY"},"type":"Feature","geometry":{"type":"Point","coordinates":[-73.938841,40.675492]}},{"properties":{"status":"PREVIOUSLY APPROVED","name":"Monroe Academy for Business/Law HS","borough":"BRONX","geo_score":0.902,"type":"HS","zip code":"10472","dbn":"X690","id":"a7jx1fxomrj6","geo_precision":"range","address":"1300 BOYNTON AVENUE","state":"NY"},"type":"Feature","geometry":{"type":"Point","coordinates":[-73.878845,40.831264]}},{"properties":{"status":"PREVIOUSLY APPROVED","name":"Metropolitan Corporate Academy","borough":"BROOKLYN","geo_score":0.902,"type":"HS","zip code":"11217","dbn":"K530","id":"a7jx1ft98ol2","geo_precision":"range","address":"362 SCHERMERHORN STREET","state":"NY"},"type":"Feature","geometry":{"type":"Point","coordinates":[-73.980522,40.686746]}},{"properties":{"status":"PREVIOUSLY APPROVED","name":"Academy of Environmental Science HS","borough":"MANHATTAN","geo_score":0.902,"type":"HS","zip code":"10029","dbn":"M635","id":"a7jx1fu7edrq","geo_precision":"range","address":"410 EAST 100 STREET","state":"NY"},"type":"Feature","geometry":{"type":"Point","coordinates":[-73.942711,40.785727]}},{"properties":{"status":"PREVIOUSLY APPROVED","name":"Christopher Columbus High School","borough":"BRONX","geo_score":0.902,"type":"HS","zip code":"10469","dbn":"X415","id":"a7jx1fus4ufy","geo_precision":"range","address":"925 ASTOR AVENUE","state":"NY"},"type":"Feature","geometry":{"type":"Point","coordinates":[-73.861263,40.859655]}},{"properties":{"status":"PREVIOUSLY APPROVED","name":"Global Enterprise High School","borough":"BRONX","geo_score":0.902,"type":"HS","zip code":"10469","dbn":"X541","id":"a7jx1g54emln","geo_precision":"range","address":"925 ASTOR AVENUE","state":"NY"},"type":"Feature","geometry":{"type":"Point","coordinates":[-73.861263,40.859655]}},{"properties":{"status":"PREVIOUSLY APPROVED","name":"Performance Conservatory High School","borough":"Bronx","geo_score":0.902,"type":"HS","zip code":"10460","dbn":"X262","id":"a7jx1g1c2hkv","geo_precision":"range","address":"1619 BOSTON ROAD","state":"NY"},"type":"Feature","geometry":{"type":"Point","coordinates":[-73.891211,40.835779]}},{"properties":{"status":"PREVIOUSLY APPROVED","name":"Norman Thomas High School","borough":"NEW YORK","geo_score":0.902,"type":"HS","zip code":"10016","dbn":"M620","id":"a7jx1fs4he32","geo_precision":"range","address":"111 EAST 33 STREET","state":"NY"},"type":"Feature","geometry":{"type":"Point","coordinates":[-73.981509,40.746237]}},{"properties":{"status":"PREVIOUSLY APPROVED","name":"Beach Channel High School","borough":"QUEENS","geo_score":0.683,"type":"HS","zip code":"11694","dbn":"Q410","id":"a7jx1g331a5n","geo_precision":"street","address":"100-00 BEACH CHANNEL DRIVE","state":"NY"},"type":"Feature","geometry":{"type":"Point","coordinates":[-73.859765,40.577585]}},{"properties":{"status":"PREVIOUSLY APPROVED","name":"Jamaica High School","borough":"JAMAICA","geo_score":0.613,"type":"HS","zip code":"11432","dbn":"Q470","id":"a7jx1frxcq72","geo_precision":"street","address":"167-01 GOTHIC DRIVE","state":"NY"},"type":"Feature","geometry":{"type":"Point","coordinates":[-73.794195,40.714212]}},{"properties":{"status":"PREVIOUSLY APPROVED","name":"Frederick Douglass Academy III","borough":"BRONX","geo_score":0.805,"type":"MS/HS","zip code":"10456","dbn":"X517","id":"a7jx1g11mgo8","geo_precision":"range","address":"3630 THIRD AVENUE","state":"NY"},"type":"Feature","geometry":{"type":"Point","coordinates":[-73.904594,40.833588]}},{"properties":{"status":"PREVIOUSLY APPROVED","name":"John F. Kennedy High School","borough":"BRONX","geo_score":0.585,"type":"HS","zip code":"10463","dbn":"X475","id":"a7jx1fvytptc","geo_precision":"zip","address":"99 TERRACE VIEW AVENUE","state":"NY"},"type":"Feature","geometry":{"type":"Point","coordinates":[-73.917359,40.881211]}},{"properties":{"status":"PREVIOUSLY APPROVED","name":"Urban Assembly Academy for History and Citizenship for Young Men","borough":"Bronx","geo_score":0.829,"type":"HS","zip code":"10457","dbn":"X239","id":"a7jx1fwg6pjm","geo_precision":"range","address":"240 EAST 172 STREET","state":"NY"},"type":"Feature","geometry":{"type":"Point","coordinates":[-73.911067,40.840434]}},{"properties":{"status":"PREVIOUSLY APPROVED","name":"School for Community Research and Learning","borough":"Bronx","geo_score":0.902,"type":"HS","zip code":"10473","dbn":"X540","id":"a7jx1fux32pg","geo_precision":"range","address":"1980 LAFAYETTE AVENUE","state":"NY"},"type":"Feature","geometry":{"type":"Point","coordinates":[-73.857202,40.822154]}},{"properties":{"status":"PREVIOUSLY APPROVED","name":"I.S. 195 Roberto Clemente","borough":"Manhattan","geo_score":0.902,"type":null,"zip code":"10027","dbn":"M195","id":"a7jx1fzgn9ar","geo_precision":"range","address":"625 WEST 133 STREET","state":"NY"},"type":"Feature","geometry":{"type":"Point","coordinates":[-73.956551,40.819096]}},{"properties":{"status":"PREVIOUSLY APPROVED","name":"P.S. 332","borough":"BROOKLYN","geo_score":0.902,"type":null,"zip code":"11212","dbn":"K332","id":"a7jx1fwlbply","geo_precision":"range","address":"51 CHRISTOPHER AVENUE","state":"NY"},"type":"Feature","geometry":{"type":"Point","coordinates":[-73.906606,40.672537]}},{"properties":{"status":"PREVIOUSLY APPROVED","name":"P.S. 260","borough":"Brooklyn","geo_score":0.902,"type":null,"zip code":"11207","dbn":"K260","id":"a7jx1g2avk2o","geo_precision":"range","address":"875 WILLIAMS AVENUE","state":"NY"},"type":"Feature","geometry":{"type":"Point","coordinates":[-73.894935,40.654033]}},{"properties":{"status":"PREVIOUSLY APPROVED","name":"New Day Academy","borough":"BRONX","geo_score":0.902,"type":null,"zip code":"10456","dbn":"X245","id":"a7jx1g0p11yq","geo_precision":"range","address":"800 HOME STREET","state":"NY"},"type":"Feature","geometry":{"type":"Point","coordinates":[-73.900229,40.827728]}},{"properties":{"status":"PREVIOUSLY APPROVED","name":"P.S. 102","borough":"Bronx","geo_score":0.902,"type":null,"zip code":"10460","dbn":"X102","id":"a7jx1g28nduc","geo_precision":"range","address":"1827 ARCHER STREET","state":"NY"},"type":"Feature","geometry":{"type":"Point","coordinates":[-73.866155,40.837616]}}],"is_temporal":false,"author":{"url":"","metadata":"","contact_name":"","contact_address":"","source":"","contact_phone":""},"source":"","pagination":{"sort":null,"start":0,"total":113,"limit":1000000},"state":"complete","tags":"","published":"2014-08-14T18:47:53-04:00","id":202966}