{"type":"FeatureCollection","data_type":"Dataset","url_type":null,"permissions":[{"permissions":{"download":true,"view":true},"group_id":"everyone"}],"classification":null,"title":"Austin","count":28,"stream_id":20325,"contributor":{"url":"http://geocommons.com/users/10558","name":"Kdelaney263"},"data_attributes":null,"calculation_params":null,"icon_link":null,"link":"http://geocommons.com/overlays/20325.json","extent":[-80.7648,39.2602,-75.2165,43.976],"geometry_types":["point"],"unique_name":null,"name":"Austin","feature_count":28,"description":"","next_feature":null,"is_raster":false,"short_classification":"Y","stats":{"aws":{"max":54984.0,"mean":38374.6785714286,"variance":41068508.3743386,"stdev":6408.47160985665,"min":28937.0,"median":36225.0}},"features":[{"properties":{"dpsr":"Tiderencel","house_code":"2775","region":"Austin","aws":45577.0,"short_name":"Binghamton","id":"a639v2mkbubz"},"type":"Feature","geometry":{"type":"Point","coordinates":[-75.9657,42.1228]}},{"properties":{"dpsr":"Austin","house_code":"2851","region":"Austin","aws":48386.0,"short_name":"Erie","id":"a639v2jnhmon"},"type":"Feature","geometry":{"type":"Point","coordinates":[-80.0948,42.0686]}},{"properties":{"dpsr":"Watson","house_code":"3230","region":"Austin","aws":42012.0,"short_name":"Indiana","id":"a639v2e8363w"},"type":"Feature","geometry":{"type":"Point","coordinates":[-79.1861,40.6043]}},{"properties":{"dpsr":"Tiderencel","house_code":"3600","region":"Austin","aws":32947.0,"short_name":"Dickson City","id":"a639v2f2rdfn"},"type":"Feature","geometry":{"type":"Point","coordinates":[-75.6533,41.4631]}},{"properties":{"dpsr":"Johnson","house_code":"3661","region":"Austin","aws":32996.0,"short_name":"Hamburg","id":"a639v2n8i9kp"},"type":"Feature","geometry":{"type":"Point","coordinates":[-78.8111,42.791]}},{"properties":{"dpsr":"Tiderencel","house_code":"3916","region":"Austin","aws":40183.0,"short_name":"Horseheads","id":"a639v285z237"},"type":"Feature","geometry":{"type":"Point","coordinates":[-76.876872,42.159979]}},{"properties":{"dpsr":"Watson","house_code":"4183","region":"Austin","aws":35188.0,"short_name":"Clarksburg","id":"a639v2c9p7b1"},"type":"Feature","geometry":{"type":"Point","coordinates":[-80.2847,39.2602]}},{"properties":{"dpsr":"Tiderencel","house_code":"4291","region":"Austin","aws":32314.0,"short_name":"Stroudsburg Route 611","id":"a639v2j25955"},"type":"Feature","geometry":{"type":"Point","coordinates":[-75.2165,40.9893]}},{"properties":{"dpsr":"Watson","house_code":"4299","region":"Austin","aws":42624.0,"short_name":"Morgantown","id":"a639v2chsyb7"},"type":"Feature","geometry":{"type":"Point","coordinates":[-79.8971,39.6493]}},{"properties":{"dpsr":"Watson","house_code":"4411","region":"Austin","aws":38426.0,"short_name":"Somerset","id":"a639v2g0fb1j"},"type":"Feature","geometry":{"type":"Point","coordinates":[-79.078,40.0174]}},{"properties":{"dpsr":"Watson","house_code":"4449","region":"Austin","aws":28937.0,"short_name":"Uniontown","id":"a639v2cpw3gl"},"type":"Feature","geometry":{"type":"Point","coordinates":[-79.7544,39.9063]}},{"properties":{"dpsr":"Watson","house_code":"4462","region":"Austin","aws":36225.0,"short_name":"Dubois","id":"a639v2lb28ft"},"type":"Feature","geometry":{"type":"Point","coordinates":[-78.7292,41.1225]}},{"properties":{"dpsr":"Watson","house_code":"4617","region":"Austin","aws":34977.0,"short_name":"Austintown","id":"a639v2chpmpz"},"type":"Feature","geometry":{"type":"Point","coordinates":[-80.7648,41.0996]}},{"properties":{"dpsr":"Watson","house_code":"4618","region":"Austin","aws":35754.0,"short_name":"New Castle","id":"a639v2csed98"},"type":"Feature","geometry":{"type":"Point","coordinates":[-80.3944,41.0121]}},{"properties":{"dpsr":"Tiderencel","house_code":"4754","region":"Austin","aws":33440.0,"short_name":"Williamsport","id":"a639v277g9tx"},"type":"Feature","geometry":{"type":"Point","coordinates":[-76.9647,41.2488]}},{"properties":{"dpsr":"Tiderencel","house_code":"4844","region":"Austin","aws":45369.0,"short_name":"Montage Mountain","id":"a639v2klngko"},"type":"Feature","geometry":{"type":"Point","coordinates":[-75.6881,41.3488]}},{"properties":{"dpsr":"Tiderencel","house_code":"4918","region":"Austin","aws":38864.0,"short_name":"Bloomsburg","id":"a639v2g502zx"},"type":"Feature","geometry":{"type":"Point","coordinates":[-76.4957,41.0161]}},{"properties":{"dpsr":"Watson","house_code":"5028","region":"Austin","aws":31245.0,"short_name":"Canfield","id":"a639v2gtdjmh"},"type":"Feature","geometry":{"type":"Point","coordinates":[-80.734689,41.0247]}},{"properties":{"dpsr":"Johnson","house_code":"5139","region":"Austin","aws":35127.0,"short_name":"Carrier Circle","id":"a639v28731qv"},"type":"Feature","geometry":{"type":"Point","coordinates":[-76.0854,43.0915]}},{"properties":{"dpsr":"Johnson","house_code":"5180","region":"Austin","aws":34385.0,"short_name":"Walden","id":"a639v2huhci5"},"type":"Feature","geometry":{"type":"Point","coordinates":[-78.776523,42.907493]}},{"properties":{"dpsr":"Johnson","house_code":"5244","region":"Austin","aws":52213.0,"short_name":"Watertown","id":"a639v2d4pme2"},"type":"Feature","geometry":{"type":"Point","coordinates":[-75.946939,43.97598]}},{"properties":{"dpsr":"Johnson","house_code":"7430","region":"Austin","aws":54984.0,"short_name":"Syracuse","id":"a639v2ko5hqr"},"type":"Feature","geometry":{"type":"Point","coordinates":[-76.172,43.0696]}},{"properties":{"dpsr":"Johnson","house_code":"7448","region":"Austin","aws":37510.0,"short_name":"Henrietta","id":"a639v2lkzm1f"},"type":"Feature","geometry":{"type":"Point","coordinates":[-77.6297,43.0891]}},{"properties":{"dpsr":"Johnson","house_code":"7457","region":"Austin","aws":32159.0,"short_name":"Dewitt","id":"a639v2g1qypm"},"type":"Feature","geometry":{"type":"Point","coordinates":[-76.0731,43.0514]}},{"properties":{"dpsr":"Johnson","house_code":"7478","region":"Austin","aws":35274.0,"short_name":"Greece","id":"a639v27zk1gp"},"type":"Feature","geometry":{"type":"Point","coordinates":[-77.6954,43.2098]}},{"properties":{"dpsr":"Johnson","house_code":"7480","region":"Austin","aws":34231.0,"short_name":"Clay","id":"a639v29h1up3"},"type":"Feature","geometry":{"type":"Point","coordinates":[-76.2333,43.1856]}},{"properties":{"dpsr":"Austin","house_code":"7487","region":"Austin","aws":41675.0,"short_name":"Lakewood","id":"a639v2n0u025"},"type":"Feature","geometry":{"type":"Point","coordinates":[-79.306,42.0984]}},{"properties":{"dpsr":"Johnson","house_code":"7494","region":"Austin","aws":41469.0,"short_name":"Oswego","id":"a639v2k96vnl"},"type":"Feature","geometry":{"type":"Point","coordinates":[-76.4899,43.4607]}}],"is_temporal":false,"author":{"url":"","metadata":"","contact_name":"","contact_address":"","source":"","contact_phone":""},"source":"","pagination":{"sort":null,"start":0,"total":28,"limit":1000000},"state":"complete","tags":"","published":"2014-08-10T11:26:28-04:00","id":20325}