{"type":"FeatureCollection","data_type":"Dataset","url_type":null,"permissions":[{"permissions":{"download":true,"view":true},"group_id":"everyone"}],"classification":null,"title":"Interntional Airports in Sudan","count":8,"stream_id":203963,"contributor":{"url":"http://geocommons.com/users/38656","name":"justgio"},"data_attributes":null,"calculation_params":null,"icon_link":null,"link":"http://geocommons.com/overlays/203963.json","extent":[22.4677,4.87194,37.2139,19.5778],"geometry_types":["point"],"unique_name":null,"name":"Interntional Airports in Sudan","feature_count":8,"description":"This map presents all international airports in Sudan. ","next_feature":null,"is_raster":false,"short_classification":"Y","stats":{"lon":{"max":37.21389,"mean":30.2084494625,"variance":20.4296173160853,"stdev":4.51991341909171,"min":22.4677277,"median":31.601111},"lat":{"max":19.577778,"mean":14.7366549875,"variance":22.8598296472171,"stdev":4.78119542031249,"min":4.871944,"median":15.590278}},"features":[{"properties":{"lon":30.43,"airport name":"Dongola","city":"Dongola","surface":"Unpaved","code":"HSDN","international":"Yes","country":"Sudan","customs":"Yes","rwy length":"9800 ft","id":"a67ci5y1y8zv","lat":19.1525,"state":"Ash Shamaliyah"},"type":"Feature","geometry":{"type":"Point","coordinates":[30.43,19.1525]}},{"properties":{"lon":25.324444,"airport name":"El Fasher","city":"El Fasher","surface":"Paved","code":"HSFS","international":"Yes","country":"Sudan","customs":"No","rwy length":"7200 ft","id":"a67ci5pra3m2","lat":13.614722,"state":"Shamal Darfur"},"type":"Feature","geometry":{"type":"Point","coordinates":[25.324444,13.614722]}},{"properties":{"lon":30.234167,"airport name":"El Obeid","city":"El Obeid","surface":"Paved","code":"HSOB","international":"Yes","country":"Sudan","customs":"No","rwy length":"8200 ft","id":"a67ci64p8sz7","lat":13.159722,"state":"North Kurdufan"},"type":"Feature","geometry":{"type":"Point","coordinates":[30.234167,13.159722]}},{"properties":{"lon":22.4677277,"airport name":"Geneina","city":"Geneina","surface":"Paved","code":"HSGN","international":"Yes","country":"Sudan","customs":"O/R","rwy length":"6500 ft","id":"a67ci62dkhhg","lat":13.4844959,"state":"Gharb Darfur"},"type":"Feature","geometry":{"type":"Point","coordinates":[22.4677277,13.4844959]}},{"properties":{"lon":31.601111,"airport name":"Juba","city":"Juba","surface":"Paved","code":"HSSJ","international":"Yes","country":"Sudan","customs":"Yes","rwy length":"7800 ft","id":"a67ci647i2dp","lat":4.871944,"state":"Central Equatoria"},"type":"Feature","geometry":{"type":"Point","coordinates":[31.601111,4.871944]}},{"properties":{"lon":32.553056,"airport name":"Khartoum","city":"Khartoum","surface":"Paved","code":"HSSS","international":"Yes","country":"Sudan","customs":"Yes","rwy length":"9600 ft","id":"a67ci60ot2h9","lat":15.590278,"state":"Khartoum"},"type":"Feature","geometry":{"type":"Point","coordinates":[32.553056,15.590278]}},{"properties":{"lon":31.8432,"airport name":"Merowe","city":"Merowe","surface":"Unpaved","code":"HSMR","international":"Yes","country":"Sudan","customs":"No","rwy length":"4900 ft","id":"a67ci5vrzfcp","lat":18.4418,"state":"Ash Shamaliyah"},"type":"Feature","geometry":{"type":"Point","coordinates":[31.8432,18.4418]}},{"properties":{"lon":37.21389,"airport name":"Port Sudan","city":"Port Sudan","surface":"Paved","code":"HSPN","international":"Yes","country":"Sudan","customs":"Yes","rwy length":"8200 ft","id":"a67ci5owub2k","lat":19.577778,"state":"Al Bahr Al Ahmar"},"type":"Feature","geometry":{"type":"Point","coordinates":[37.21389,19.577778]}}],"is_temporal":false,"author":{"url":"","metadata":"","contact_name":"","contact_address":"","source":"","contact_phone":""},"source":"","pagination":{"sort":null,"start":0,"total":8,"limit":1000000},"state":"complete","tags":"","published":"2014-08-14T19:53:27-04:00","id":203963}