{"type":"FeatureCollection","data_type":"Dataset","url_type":null,"permissions":[{"permissions":{"download":true,"view":true},"group_id":"everyone"}],"classification":null,"title":"top 21 exports annual growth rate","count":21,"stream_id":204000,"contributor":{"url":"http://geocommons.com/users/16291","name":"rpsnino"},"data_attributes":null,"calculation_params":null,"icon_link":null,"link":"http://geocommons.com/overlays/204000.json","extent":[-122.676,26.2034,-1.91667,52.4667],"geometry_types":["point"],"unique_name":null,"name":"top 21 exports annual growth rate","feature_count":21,"description":"","next_feature":null,"is_raster":false,"short_classification":"Y","stats":{"growth":{"max":0.223,"mean":0.161904761904762,"variance":0.000688790476190476,"stdev":0.0262448180826325,"min":0.13,"median":0.157},"rank":{"max":21,"mean":11.0,"variance":38.5,"stdev":6.20483682299543,"min":1,"median":11}},"features":[{"properties":{"growth":0.223,"city":"Wichita","geo_score":0.857,"rank":1,"id":"a6fy9mgk4gh4","geo_precision":"zip"},"type":"Feature","geometry":{"type":"Point","coordinates":[-97.3375448,37.6922361]}},{"properties":{"growth":0.202,"city":"Portland","geo_score":0.857,"rank":2,"id":"a6fy9md0g9fs","geo_precision":"zip"},"type":"Feature","geometry":{"type":"Point","coordinates":[-122.6762071,45.5234515]}},{"properties":{"growth":0.202,"city":"New Orleans","geo_score":0.758,"rank":3,"id":"a6fy9mlfxanx","geo_precision":"zip"},"type":"Feature","geometry":{"type":"Point","coordinates":[-89.950068,30.0335344]}},{"properties":{"growth":0.2,"city":"Houston","geo_score":0.857,"rank":4,"id":"a6fy9mpoq9fj","geo_precision":"zip"},"type":"Feature","geometry":{"type":"Point","coordinates":[-95.3632715,29.7632836]}},{"properties":{"growth":0.175,"city":"Provo","geo_score":0.857,"rank":5,"id":"a6fy9mmx1oum","geo_precision":"zip"},"type":"Feature","geometry":{"type":"Point","coordinates":[-111.6585337,40.2338438]}},{"properties":{"growth":0.175,"city":"Bridgeport","geo_score":0.857,"rank":6,"id":"a6fy9melhs67","geo_precision":"zip"},"type":"Feature","geometry":{"type":"Point","coordinates":[-73.2048348,41.1670412]}},{"properties":{"growth":0.166,"city":"BatonRouge","geo_score":0.857,"rank":7,"id":"a6fy9mfiuou0","geo_precision":"zip"},"type":"Feature","geometry":{"type":"Point","coordinates":[-91.154551,30.4507462]}},{"properties":{"growth":0.164,"city":"Hartford","geo_score":0.796,"rank":8,"id":"a6fy9mmbrtdl","geo_precision":"zip"},"type":"Feature","geometry":{"type":"Point","coordinates":[-72.7662075,41.7667668]}},{"properties":{"growth":0.162,"city":"Las Vegas","geo_score":0.857,"rank":9,"id":"a6fy9mmh9v9w","geo_precision":"zip"},"type":"Feature","geometry":{"type":"Point","coordinates":[-115.137223,36.1749705]}},{"properties":{"growth":0.16,"city":"Austin","geo_score":0.857,"rank":10,"id":"a6fy9mi0lmv1","geo_precision":"zip"},"type":"Feature","geometry":{"type":"Point","coordinates":[-97.7430608,30.267153]}},{"properties":{"growth":0.157,"city":"Bakersfield","geo_score":0.857,"rank":11,"id":"a6fy9mjxe2xc","geo_precision":"zip"},"type":"Feature","geometry":{"type":"Point","coordinates":[-119.0187125,35.3732921]}},{"properties":{"growth":0.157,"city":"Tulsa","geo_score":0.762,"rank":12,"id":"a6fy9mdki91i","geo_precision":"zip"},"type":"Feature","geometry":{"type":"Point","coordinates":[-96.8066667,32.7830556]}},{"properties":{"growth":0.151,"city":"Birmingham,AL","geo_score":0.833,"rank":13,"id":"a6fy9movjl98","geo_precision":"zip"},"type":"Feature","geometry":{"type":"Point","coordinates":[-1.9166667,52.4666667]}},{"properties":{"growth":0.148,"city":"Seattle","geo_score":0.857,"rank":14,"id":"a6fy9mkiqhuj","geo_precision":"zip"},"type":"Feature","geometry":{"type":"Point","coordinates":[-122.3320708,47.6062095]}},{"properties":{"growth":0.144,"city":"Ogden","geo_score":0.857,"rank":15,"id":"a6fy9mkocfjc","geo_precision":"zip"},"type":"Feature","geometry":{"type":"Point","coordinates":[-111.9738304,41.223]}},{"properties":{"growth":0.143,"city":"SaltLakeCity","geo_score":0.827,"rank":16,"id":"a6fy9mczkcjp","geo_precision":"zip"},"type":"Feature","geometry":{"type":"Point","coordinates":[-111.8763236,40.6255033]}},{"properties":{"growth":0.141,"city":"Charleston","geo_score":0.804,"rank":17,"id":"a6fy9mj65yjk","geo_precision":"zip"},"type":"Feature","geometry":{"type":"Point","coordinates":[-79.966479,32.7668437]}},{"properties":{"growth":0.14,"city":"Portland,ME","geo_score":0.829,"rank":18,"id":"a6fy9mh9ys4m","geo_precision":"zip"},"type":"Feature","geometry":{"type":"Point","coordinates":[-122.6762071,45.5234515]}},{"properties":{"growth":0.13,"city":"SanFrancisco","geo_score":0.857,"rank":19,"id":"a6fy9miui0lk","geo_precision":"zip"},"type":"Feature","geometry":{"type":"Point","coordinates":[-122.4194155,37.7749295]}},{"properties":{"growth":0.13,"city":"Dallas","geo_score":0.857,"rank":20,"id":"a6fy9mix63ga","geo_precision":"zip"},"type":"Feature","geometry":{"type":"Point","coordinates":[-96.8066667,32.7830556]}},{"properties":{"growth":0.13,"city":"McAllen","geo_score":0.857,"rank":21,"id":"a6fy9mdlc4dy","geo_precision":"zip"},"type":"Feature","geometry":{"type":"Point","coordinates":[-98.2300124,26.2034071]}}],"is_temporal":false,"author":{"url":"","metadata":"","contact_name":"","contact_address":"","source":"","contact_phone":""},"source":"","pagination":{"sort":null,"start":0,"total":21,"limit":1000000},"state":"complete","tags":"","published":"2014-08-14T19:55:04-04:00","id":204000}