{"type":"FeatureCollection","data_type":"Dataset","url_type":null,"permissions":[{"permissions":{"download":true,"view":true},"group_id":"everyone"}],"classification":null,"title":"Domestic Airports in Ethiopia","count":35,"stream_id":205352,"contributor":{"url":"http://geocommons.com/users/38656","name":"justgio"},"data_attributes":null,"calculation_params":null,"icon_link":null,"link":"http://geocommons.com/overlays/205352.json","extent":[34.5203,5.28823,46.4207,14.2837],"geometry_types":["point"],"unique_name":null,"name":"Domestic Airports in Ethiopia","feature_count":35,"description":"This map presents domestic airports in Ethiopia.","next_feature":null,"is_raster":false,"short_classification":"Y","stats":{"lat":{"max":14.28375,"mean":9.30476240285715,"variance":7.71633440507452,"stdev":2.77782908132853,"min":5.28823,"median":9.03612},"long":{"max":46.42075,"mean":38.8849554771429,"variance":9.84793247188929,"stdev":3.13814156339214,"min":34.5203,"median":38.726019}},"features":[{"properties":{"airport name":"Arba Minch Airport","city":"Arba Minch","surface":"Paved","code":"AMH","international":"No","country":"Ethiopia","id":"a6255tasdk2m","lat":6.039389,"long":37.5904529,"state":"YeDebub Biheroch Bihereseboch na Hizboch Kilil"},"type":"Feature","geometry":{"type":"Point","coordinates":[37.5904529,6.039389]}},{"properties":{"airport name":"Asosa Airport","city":"Asosa","surface":"Unpaved","code":"ASO","international":"No","country":"Ethiopia","id":"a6255tgple2r","lat":10.0230806,"long":34.5784485,"state":"Benishangul-Gumuz Region"},"type":"Feature","geometry":{"type":"Point","coordinates":[34.5784485,10.0230806]}},{"properties":{"airport name":"Axum Airport","city":"Aksum","surface":"Paved","code":"AXU","international":"No","country":"Ethiopia","id":"a6255te6h02h","lat":14.148889,"long":38.772222,"state":"Tigray Kilil"},"type":"Feature","geometry":{"type":"Point","coordinates":[38.772222,14.148889]}},{"properties":{"airport name":"Bahar Dar Airport","city":"Bahar Dar","surface":"Paved","code":"BJR","international":"No","country":"Ethiopia","id":"a6255t92o21i","lat":11.609444,"long":37.321944,"state":"Amhara"},"type":"Feature","geometry":{"type":"Point","coordinates":[37.321944,11.609444]}},{"properties":{"airport name":"Gambela Airport","city":"Gambela","surface":"Paved","code":"GMB","international":"No","country":"Ethiopia","id":"a6255t8wsbhm","lat":8.1324906,"long":34.5652985,"state":"Gambela"},"type":"Feature","geometry":{"type":"Point","coordinates":[34.5652985,8.1324906]}},{"properties":{"airport name":"Gode Airport","city":"Gode","surface":"Paved","code":"GDE","international":"No","country":"Ethiopia","id":"a6255tp62ruk","lat":5.9327,"long":43.5773,"state":"Sumale Kilil"},"type":"Feature","geometry":{"type":"Point","coordinates":[43.5773,5.9327]}},{"properties":{"airport name":"Gondar Airport","city":"Gondar","surface":"Paved","code":"GDQ","international":"No","country":"Ethiopia","id":"a6255tea0fuw","lat":12.520501,"long":37.4338399,"state":"Amhara"},"type":"Feature","geometry":{"type":"Point","coordinates":[37.4338399,12.520501]}},{"properties":{"airport name":"Himora Airport","city":"Himora","surface":"Unpaved","code":"HUE","international":"No","country":"Ethiopia","id":"a6255tagfvp4","lat":14.28375,"long":36.5787,"state":"Tigray Kilil"},"type":"Feature","geometry":{"type":"Point","coordinates":[36.5787,14.28375]}},{"properties":{"airport name":"Shire Airport","city":"Endasilasie","surface":"Unpaved","code":"SHC","international":"No","country":"Ethiopia","id":"a6255tg9jp9b","lat":14.0789684,"long":38.2714347,"state":"Tigray Kilil"},"type":"Feature","geometry":{"type":"Point","coordinates":[38.2714347,14.0789684]}},{"properties":{"airport name":"Jijiga Airport","city":"Jijiga","surface":"Unpaved","code":"JIJ","international":"No","country":"Ethiopia","id":"a6255tlq313p","lat":9.360474,"long":42.7888086,"state":"Somali"},"type":"Feature","geometry":{"type":"Point","coordinates":[42.7888086,9.360474]}},{"properties":{"airport name":"Aba Segud Airport","city":"Jimma","surface":"Paved","code":"JIM","international":"No","country":"Ethiopia","id":"a6255ti520ld","lat":7.6661346,"long":36.8176253,"state":"Oromiya Kilil"},"type":"Feature","geometry":{"type":"Point","coordinates":[36.8176253,7.6661346]}},{"properties":{"airport name":"Jinka Airport","city":"Jinka","surface":"Unpaved","code":"BCO","international":"No","country":"Ethiopia","id":"a6255tjok0cf","lat":5.7836361,"long":36.5623082,"state":"YeDebub Biheroch Bihereseboch na Hizboch Kilil"},"type":"Feature","geometry":{"type":"Point","coordinates":[36.5623082,5.7836361]}},{"properties":{"airport name":"Kabri Dar Airport","city":"Kebri Dehar","surface":"Unpaved","code":"ABK","international":"No","country":"Ethiopia","id":"a6255tp4vc8j","lat":6.7325451,"long":44.2381275,"state":"Somali"},"type":"Feature","geometry":{"type":"Point","coordinates":[44.2381275,6.7325451]}},{"properties":{"airport name":"Lalibela Airport","city":"Lalibela","surface":"Paved","code":"LLI","international":"No","country":"Ethiopia","id":"a6255tmh6ic8","lat":11.975174,"long":38.980823,"state":"Amhara"},"type":"Feature","geometry":{"type":"Point","coordinates":[38.980823,11.975174]}},{"properties":{"airport name":"Alula Aba Negra Airport","city":"Mek'ele","surface":"Paved","code":"MQX","international":"No","country":"Ethiopia","id":"a6255th7c6w1","lat":13.468333,"long":39.52639,"state":"Tigray Kilil"},"type":"Feature","geometry":{"type":"Point","coordinates":[39.52639,13.468333]}},{"properties":{"airport name":"Shilavo Airport","city":"Shilavo","surface":"Unpaved","code":"HIL","international":"No","country":"Ethiopia","id":"a6255td4bful","lat":6.0778914,"long":44.7633412,"state":"Somali"},"type":"Feature","geometry":{"type":"Point","coordinates":[44.7633412,6.0778914]}},{"properties":{"airport name":"Adaba Airport","city":"Adaba","surface":"Unpaved","code":"HAAD","international":"No","country":"Ethiopia","id":"a6255to9n87c","lat":7.01203,"long":39.38809,"state":"Tigray Kilil"},"type":"Feature","geometry":{"type":"Point","coordinates":[39.38809,7.01203]}},{"properties":{"airport name":"Old Airport","city":"Addis Ababa","surface":"Paved","code":"HAAL","international":"No","country":"Ethiopia","id":"a6255tfntz21","lat":9.0036111,"long":38.726019,"state":"Addis Ababa"},"type":"Feature","geometry":{"type":"Point","coordinates":[38.726019,9.0036111]}},{"properties":{"airport name":"Beica Airport","city":"Begi","surface":"Unpaved","code":"BEI","international":"No","country":"Ethiopia","id":"a6255te2l6br","lat":9.38965,"long":34.5203,"state":"Oromiya Kilil"},"type":"Feature","geometry":{"type":"Point","coordinates":[34.5203,9.38965]}},{"properties":{"airport name":"Dansha Airport","city":"Dansha","surface":"Paved","code":"HADA","international":"No","country":"Ethiopia","id":"a6255tinwl4s","lat":13.63587,"long":36.92968,"state":"Oromiya Kilil"},"type":"Feature","geometry":{"type":"Point","coordinates":[36.92968,13.63587]}},{"properties":{"airport name":"Debra Marcos Airport","city":"Debre Markos","surface":"Unpaved","code":"DBM","international":"No","country":"Ethiopia","id":"a6255tmdg1im","lat":10.3166667,"long":37.7333333,"state":"Amhara"},"type":"Feature","geometry":{"type":"Point","coordinates":[37.7333333,10.3166667]}},{"properties":{"airport name":"Dembidollo Airport","city":"Dembidollo","surface":"Unpaved","code":"DEM","international":"No","country":"Ethiopia","id":"a6255tb3z9re","lat":8.55455,"long":34.85757,"state":"Oromiya Kilil"},"type":"Feature","geometry":{"type":"Point","coordinates":[34.85757,8.55455]}},{"properties":{"airport name":"Kombolcha Airport","city":"Kombolcha","surface":"Paved","code":"DSE","international":"No","country":"Ethiopia","id":"a6255tdug2b0","lat":11.0832429,"long":39.7143625,"state":"Amhara"},"type":"Feature","geometry":{"type":"Point","coordinates":[39.7143625,11.0832429]}},{"properties":{"airport name":"Fincha Airport","city":"Fincha","surface":"Unpaved","code":"FNH","international":"No","country":"Ethiopia","id":"a6255to0sqm8","lat":9.5841,"long":37.37763,"state":"Oromiya Kilil"},"type":"Feature","geometry":{"type":"Point","coordinates":[37.37763,9.5841]}},{"properties":{"airport name":"Geladi Airport","city":"Geladi","surface":"Unpaved","code":"GLC","international":"No","country":"Ethiopia","id":"a6255tdlkx0a","lat":6.98395,"long":46.42075,"state":"Somali"},"type":"Feature","geometry":{"type":"Point","coordinates":[46.42075,6.98395]}},{"properties":{"airport name":"Ghinnir Airport","city":"Ghinnir","surface":"Paved","code":"GNN","international":"No","country":"Ethiopia","id":"a6255tfbhjnl","lat":7.1327016,"long":40.7092026,"state":"Oromiya Kilil"},"type":"Feature","geometry":{"type":"Point","coordinates":[40.7092026,7.1327016]}},{"properties":{"airport name":"Goba Airport","city":"Goba","surface":"Unpaved","code":"GOB","international":"No","country":"Ethiopia","id":"a6255tp59pws","lat":7.12135,"long":40.04366,"state":"Oromiya Kilil"},"type":"Feature","geometry":{"type":"Point","coordinates":[40.04366,7.12135]}},{"properties":{"airport name":"Mekane Selam Airport","city":"Borena","surface":"Unpaved","code":"MKS","international":"No","country":"Ethiopia","id":"a6255to3xgb4","lat":10.7258,"long":38.742,"state":"Oromiya Kilil"},"type":"Feature","geometry":{"type":"Point","coordinates":[38.742,10.7258]}},{"properties":{"airport name":"Neghelli Airport","city":"Neghelli","surface":"Unpaved","code":"EGL","international":"No","country":"Ethiopia","id":"a6255tagzsxp","lat":5.28823,"long":39.70118,"state":"Oromiya Kilil"},"type":"Feature","geometry":{"type":"Point","coordinates":[39.70118,5.28823]}},{"properties":{"airport name":"Nekemt Airport","city":"Nekemt","surface":"Unpaved","code":"NEK","international":"No","country":"Ethiopia","id":"a6255teg1ykp","lat":9.03612,"long":36.61079,"state":"Oromiya Kilil"},"type":"Feature","geometry":{"type":"Point","coordinates":[36.61079,9.03612]}},{"properties":{"airport name":"Beles Airport","city":"Beles","surface":"Unpaved","code":"PWI","international":"No","country":"Ethiopia","id":"a6255tob1qmj","lat":11.3124,"long":36.41573,"state":"Tigray Kilil"},"type":"Feature","geometry":{"type":"Point","coordinates":[36.41573,11.3124]}},{"properties":{"airport name":"Semera Airport","city":"Semera","surface":"Unpaved","code":"SZE","international":"No","country":"Ethiopia","id":"a6255taazp8e","lat":11.7876,"long":40.99141,"state":"Afar Kilil"},"type":"Feature","geometry":{"type":"Point","coordinates":[40.99141,11.7876]}},{"properties":{"airport name":"Shakiso Airport","city":"Shakiso","surface":"Unpaved","code":"SKR","international":"No","country":"Ethiopia","id":"a6255tam5uki","lat":5.69229,"long":38.97645,"state":"Oromiya Kilil"},"type":"Feature","geometry":{"type":"Point","coordinates":[38.97645,5.69229]}},{"properties":{"airport name":"Tippi Airport","city":"Tippi","surface":"Unpaved","code":"TIE","international":"No","country":"Ethiopia","id":"a6255tlww6l5","lat":7.201111,"long":35.41528,"state":"YeDebub Biheroch Bihereseboch na Hizboch Kilil"},"type":"Feature","geometry":{"type":"Point","coordinates":[35.41528,7.201111]}},{"properties":{"airport name":"Werder Airport","city":"Werder","surface":"Unpaved","code":"WRA","international":"No","country":"Ethiopia","id":"a6255to28yp4","lat":6.97201,"long":45.33294,"state":"Somali"},"type":"Feature","geometry":{"type":"Point","coordinates":[45.33294,6.97201]}}],"is_temporal":false,"author":{"url":"","metadata":"","contact_name":"","contact_address":"","source":"","contact_phone":""},"source":"","pagination":{"sort":null,"start":0,"total":35,"limit":1000000},"state":"complete","tags":"","published":"2014-08-14T21:41:27-04:00","id":205352}