{"type":"FeatureCollection","data_type":"Dataset","url_type":null,"permissions":[{"permissions":{"download":true,"view":true},"group_id":"everyone"}],"classification":null,"title":"kathy's test 5","count":56,"stream_id":20599,"contributor":{"url":"http://geocommons.com/users/10178","name":"hoekstra"},"data_attributes":null,"calculation_params":null,"icon_link":null,"link":"http://geocommons.com/overlays/20599.json","extent":[-122.869,26.1512,-68.7706,45.78],"geometry_types":["point"],"unique_name":null,"name":"kathy's test 5","feature_count":56,"description":"","next_feature":null,"is_raster":false,"short_classification":"Y","stats":{"number":{"max":11839.0,"mean":1100.78571428571,"variance":3830015.77142857,"stdev":1957.04260848571,"min":1.0,"median":380.0},"geo_score":{"max":0.857,"mean":0.734928571428571,"variance":0.0118334493506494,"stdev":0.108781659072885,"min":0.397,"median":0.714}},"features":[{"properties":{"city":"Albany","number":1.0,"geo_score":0.714,"street":"Clinton Ave","id":"a6mg23956rej","geo_precision":"street","comment":null,"address":"1 CLINTON AVE, ALBANY NY 12207","state":"NY"},"type":"Feature","geometry":{"type":"Point","coordinates":[-73.750031,42.654244]}},{"properties":{"city":"Elkton","number":103.0,"geo_score":0.622,"street":"Chesapeake Blvd","id":"a6mg23b1jddg","geo_precision":"street","comment":"find nearest corner","address":"101 CHESAPEAKE BLVD, ELKTON MD 21921","state":"MD"},"type":"Feature","geometry":{"type":"Point","coordinates":[-76.476942,38.972989]}},{"properties":{"city":"New York","number":101.0,"geo_score":0.714,"street":"W End Ave","id":"a6mg230u36dy","geo_precision":"street","comment":"predir is TIGER artifact","address":"101 West End Avenue, New York NY 10023","state":"NY"},"type":"Feature","geometry":{"type":"Point","coordinates":[-73.989994,40.772242]}},{"properties":{"city":"Sanford","number":1013.0,"geo_score":0.857,"street":"Spring Ln","id":"a6mg239tg1ka","geo_precision":"street","comment":null,"address":"1013 SPRING LANE, SANFORD NC 27330","state":"NC"},"type":"Feature","geometry":{"type":"Point","coordinates":[-79.190069,35.485977]}},{"properties":{"city":"Wayne","number":105.0,"geo_score":0.714,"street":"Amity Dr","id":"a6mg22yr46xb","geo_precision":"street","comment":null,"address":"105 Amity Way, Wayne PA 19087","state":"PA"},"type":"Feature","geometry":{"type":"Point","coordinates":[-75.455396,40.077345]}},{"properties":{"city":"Clarksville","number":108.0,"geo_score":0.857,"street":"Center Pointe Dr","id":"a6mg236i3hl8","geo_precision":"street","comment":null,"address":"108 CENTER POINTE DR, CLARKSVILLE TN 37040","state":"TN"},"type":"Feature","geometry":{"type":"Point","coordinates":[-87.305051,36.568654]}},{"properties":{"city":"Edgewater","number":1111.0,"geo_score":0.592,"street":"River Rd","id":"a6mg23b5kawq","geo_precision":"street","comment":"FIXME: parsing","address":"1111 River Rd Apt A17, Edgewater NJ 07020","state":"NJ"},"type":"Feature","geometry":{"type":"Point","coordinates":[-74.970129,40.033888]}},{"properties":{"city":"Greenwood","number":115.0,"geo_score":0.714,"street":"Enterprise Ct","id":"a6mg23dthbij","geo_precision":"street","comment":null,"address":"115 ENTERPRISE COURT, GREENWOOD SC 29649","state":"SC"},"type":"Feature","geometry":{"type":"Point","coordinates":[-82.165528,34.218031]}},{"properties":{"city":"Grand Island","number":115.0,"geo_score":0.5,"street":"N Webb Rd","id":"a6mg23cmejxe","geo_precision":"street","comment":null,"address":"115 N WEBB RD, GRAND ISLAND NE 68803","state":"NE"},"type":"Feature","geometry":{"type":"Point","coordinates":[-96.768245,40.267145]}},{"properties":{"city":"Roanoke","number":116.0,"geo_score":0.714,"street":"N Jefferson St","id":"a6mg2347xhlw","geo_precision":"street","comment":null,"address":"116 N JEFFERSON STREET, ROANOKE VA 24016","state":"VA"},"type":"Feature","geometry":{"type":"Point","coordinates":[-79.874305,37.500031]}},{"properties":{"city":"Fairfax","number":11839.0,"geo_score":0.857,"street":"Federalist Way","id":"a6mg22ybnt7p","geo_precision":"street","comment":null,"address":"11839 Federalist Way, Fairfax VA 22030","state":"VA"},"type":"Feature","geometry":{"type":"Point","coordinates":[-77.354362,38.850552]}},{"properties":{"city":"Effingham","number":1207.0,"geo_score":0.857,"street":"Network Centre Dr","id":"a6mg2359jmmy","geo_precision":"street","comment":null,"address":"1207 NETWORK CENTRE DR, EFFINGHAM IL 62401","state":"IL"},"type":"Feature","geometry":{"type":"Point","coordinates":[-88.524712,39.146093]}},{"properties":{"city":"Greensburg","number":122.0,"geo_score":0.571,"street":"W 3rd St","id":"a6mg238bmfss","geo_precision":"street","comment":null,"address":"122 W 3RD STREET, GREENSBURG PA 15601","state":"PA"},"type":"Feature","geometry":{"type":"Point","coordinates":[-79.915538,39.791813]}},{"properties":{"city":"Gilbert","number":800.0,"geo_score":0.857,"street":"E Williams Field Rd","id":"a6mg233syjtu","geo_precision":"street","comment":"street","address":"129 E Williams Field Rd, Gilbert AZ 85295","state":"AZ"},"type":"Feature","geometry":{"type":"Point","coordinates":[-111.734009,33.306846]}},{"properties":{"city":"Marietta","number":1301.0,"geo_score":0.857,"street":"Greene St","id":"a6mg238fmrgz","geo_precision":"street","comment":null,"address":"1301 GREENE STREET, MARIETTA OH 45750","state":"OH"},"type":"Feature","geometry":{"type":"Point","coordinates":[-81.452073,39.410722]}},{"properties":{"city":"New Bern","number":1420.0,"geo_score":0.714,"street":"McCarthy Blvd","id":"a6mg23arzy9w","geo_precision":"street","comment":null,"address":"1420 MCCARTHY BLVD, NEW BERN NC 28562","state":"NC"},"type":"Feature","geometry":{"type":"Point","coordinates":[-77.097976,35.108066]}},{"properties":{"city":"Fayetteville","number":145.0,"geo_score":0.714,"street":"Rowan St","id":"a6mg237evkuq","geo_precision":"street","comment":null,"address":"145 ROWAN STREET, FAYETTEVILLE NC 28301","state":"NC"},"type":"Feature","geometry":{"type":"Point","coordinates":[-78.877901,35.057592]}},{"properties":{"city":"Williamson","number":200.0,"geo_score":0.735,"street":"E 1st Ave","id":"a6mg235j4pbb","geo_precision":"street","comment":"find nearest corner","address":"146 EAST FIRST AVE, WILLIAMSON WV 25661","state":"WV"},"type":"Feature","geometry":{"type":"Point","coordinates":[-82.277028,37.670255]}},{"properties":{"city":"Wytheville","number":1168.0,"geo_score":0.857,"street":"E Main St","id":"a6mg23d4i6jt","geo_precision":"street","comment":"nearby address; TIGER omission","address":"1480 EAST MAIN STREET, WYTHEVILLE VA 24382","state":"VA"},"type":"Feature","geometry":{"type":"Point","coordinates":[-81.069447,36.951293]}},{"properties":{"city":"Joliet","number":158.0,"geo_score":0.661,"street":"N Scott St","id":"a6mg232ycocl","geo_precision":"street","comment":null,"address":"158 N SCOTT STREET, JOLIET IL 60432","state":"IL"},"type":"Feature","geometry":{"type":"Point","coordinates":[-89.96318,38.813804]}},{"properties":{"city":"Littleton","number":177.0,"geo_score":0.857,"street":"Main St","id":"a6mg22ykhesb","geo_precision":"street","comment":"range","address":"177 MAIN STREET, LITTLETON NH 03561","state":"NH"},"type":"Feature","geometry":{"type":"Point","coordinates":[-71.770304,44.306095]}},{"properties":{"city":"Union City","number":1800.0,"geo_score":0.397,"street":"Old Troy Rd","id":"a6mg22zd1y9c","geo_precision":"street","comment":null,"address":"1800 OLD TROY RD, UNION CITY TN 38261","state":"TN"},"type":"Feature","geometry":{"type":"Point","coordinates":[-82.138184,36.348431]}},{"properties":{"city":"Albemarle","number":1925.0,"geo_score":0.714,"street":"E Main St","id":"a6mg238cocx2","geo_precision":"street","comment":null,"address":"1925 E MAIN ST, ALBEMARLE NC 28001","state":"NC"},"type":"Feature","geometry":{"type":"Point","coordinates":[-76.787382,36.301215]}},{"properties":{"city":"Bangor","number":202.0,"geo_score":0.857,"street":"Harlow St","id":"a6mg22zyimnr","geo_precision":"street","comment":null,"address":"202 HARLOW ST, BANGOR ME 04401","state":"ME"},"type":"Feature","geometry":{"type":"Point","coordinates":[-68.770643,44.803425]}},{"properties":{"city":"Florence","number":203.0,"geo_score":0.857,"street":"S Walnut St","id":"a6mg22ys6xr5","geo_precision":"street","comment":null,"address":"203 SOUTH WALNUT ST, FLORENCE AL 35630","state":"AL"},"type":"Feature","geometry":{"type":"Point","coordinates":[-87.67197,34.80184]}},{"properties":{"city":"Hackensack","number":22.0,"geo_score":0.857,"street":"Sussex St","id":"a6mg235icwwt","geo_precision":"street","comment":null,"address":"22 SUSSEX ST, HACKENSACK NJ 07601","state":"NJ"},"type":"Feature","geometry":{"type":"Point","coordinates":[-74.048532,40.880333]}},{"properties":{"city":"Pottsville","number":2221.0,"geo_score":0.667,"street":"W Market St","id":"a6mg2307tyjn","geo_precision":"street","comment":null,"address":"2221 W. MARKET STREET, POTTSVILLE PA 17901","state":"PA"},"type":"Feature","geometry":{"type":"Point","coordinates":[-79.148046,41.925965]}},{"properties":{"city":"Fort Lauderdale","number":2276.0,"geo_score":0.714,"street":"Wilton Dr","id":"a6mg23b46y2g","geo_precision":"street","comment":"canonical place","address":"2276 WILTON DR, WILTON MANORS FL 33305","state":"FL"},"type":"Feature","geometry":{"type":"Point","coordinates":[-80.140832,26.15118]}},{"properties":{"city":"Williamsport","number":240.0,"geo_score":0.714,"street":"W 3rd St","id":"a6mg23bl2yg1","geo_precision":"street","comment":null,"address":"240 W 3RD ST, WILLIAMSPORT PA 17701","state":"PA"},"type":"Feature","geometry":{"type":"Point","coordinates":[-77.001008,41.241139]}},{"properties":{"city":"Medford","number":2499.0,"geo_score":0.857,"street":"S Pacific Hwy","id":"a6mg23e91dca","geo_precision":"street","comment":"street","address":"2518 S Pacific Hwy, Medford OR","state":"OR"},"type":"Feature","geometry":{"type":"Point","coordinates":[-122.868529,42.324483]}},{"properties":{"city":"Virginia Beach","number":2809.0,"geo_score":0.714,"street":"Sabre St","id":"a6mg234tma7r","geo_precision":"street","comment":"find nearest corner","address":"2875 SABRE ST, VIRGINIA BEACH VA 23452","state":"VA"},"type":"Feature","geometry":{"type":"Point","coordinates":[-76.067123,36.823032]}},{"properties":{"city":"Billings","number":2900.0,"geo_score":0.592,"street":"4th Ave S","id":"a6mg23a9uukp","geo_precision":"street","comment":"returns 2 results","address":"2900 4TH AVE, BILLINGS MT 59101","state":"MT"},"type":"Feature","geometry":{"type":"Point","coordinates":[-108.494641,45.779973]}},{"properties":{"city":"North Platte","number":300.0,"geo_score":0.714,"street":"E 3rd St","id":"a6mg237vcjfy","geo_precision":"street","comment":null,"address":"300 E 3RD ST, NORTH PLATTE NE 69101","state":"NE"},"type":"Feature","geometry":{"type":"Point","coordinates":[-100.762266,41.135397]}},{"properties":{"city":"New York","number":305.0,"geo_score":0.714,"street":"W 45 St","id":"a6mg22yglt9o","geo_precision":"street","comment":null,"address":"305 W 45th St, New York NY 10036","state":"NY"},"type":"Feature","geometry":{"type":"Point","coordinates":[-73.982711,40.756771]}},{"properties":{"city":"Kalamazoo","number":317.0,"geo_score":0.714,"street":"S Drake Rd","id":"a6mg234a2skm","geo_precision":"street","comment":null,"address":"317 SOUTH DRAKE ROAD, KALAMAZOO MI 49009","state":"MI"},"type":"Feature","geometry":{"type":"Point","coordinates":[-85.64819,42.292072]}},{"properties":{"city":"Clarksville","number":324.0,"geo_score":0.792,"street":"Commerce St","id":"a6mg235q7j8y","geo_precision":"city","comment":"nearby address; might be TIGER omission","address":"324 COMMERCE ROAD, FARMVILLE VA 23901","state":"VA"},"type":"Feature","geometry":{"type":"Point","coordinates":[-77.609713,39.13955]}},{"properties":{"city":"Hyattsville","number":337.0,"geo_score":0.714,"street":"Brightseat Rd","id":"a6mg237m7zqg","geo_precision":"street","comment":"canonical place","address":"337 BRIGHTSEAT ROAD, LANDOVER MD 20785","state":"MD"},"type":"Feature","geometry":{"type":"Point","coordinates":[-76.851107,38.892722]}},{"properties":{"city":"Sioux City","number":3555.0,"geo_score":0.714,"street":"Southern Hills Dr","id":"a6mg2377ss8q","geo_precision":"street","comment":null,"address":"3555 SOUTHERN HILLS DR, SIOUX CITY IA 51106","state":"IA"},"type":"Feature","geometry":{"type":"Point","coordinates":[-96.353014,42.449259]}},{"properties":{"city":"Providence","number":380.0,"geo_score":0.714,"street":"Westminster St","id":"a6mg23e1femw","geo_precision":"street","comment":null,"address":"380 WESTMINSTER ST, PROVIDENCE RI 02903","state":"RI"},"type":"Feature","geometry":{"type":"Point","coordinates":[-71.410771,41.824295]}},{"properties":{"city":"Hoboken","number":400.0,"geo_score":0.857,"street":"Monroe St","id":"a6mg22z3nsij","geo_precision":"city","comment":null,"address":"400 Monroe St, Hoboken, NJ 07030","state":"NJ"},"type":"Feature","geometry":{"type":"Point","coordinates":[-74.027972,40.745197]}},{"properties":{"city":"Nampa","number":4413.0,"geo_score":0.714,"street":"W Ustick Rd","id":"a6mg22zwaehk","geo_precision":"street","comment":"street","address":"4018 W Ustick Rd, Meridian ID","state":"ID"},"type":"Feature","geometry":{"type":"Point","coordinates":[-116.7031,43.633443]}},{"properties":{"city":"Allentown","number":41.0,"geo_score":0.571,"street":"N 4th St","id":"a6mg236iiepm","geo_precision":"street","comment":null,"address":"41 N 4TH ST, ALLENTOWN PA 18102","state":"PA"},"type":"Feature","geometry":{"type":"Point","coordinates":[-75.465764,40.604642]}},{"properties":{"city":"Scotts Bluff","number":501.0,"geo_score":0.656,"street":"Valley View Dr","id":"a6mg23dy78xf","geo_precision":"street","comment":"find nearest corner","address":"415 VALLEY VIEW DR, SCOTTSBLUFF NE 69361","state":"NE"},"type":"Feature","geometry":{"type":"Point","coordinates":[-95.919164,41.136235]}},{"properties":{"city":"Waterville","number":46.0,"geo_score":0.857,"street":"Front St","id":"a6mg230sup0h","geo_precision":"street","comment":null,"address":"46 FRONT STREET, WATERVILLE, ME 04901","state":"ME"},"type":"Feature","geometry":{"type":"Point","coordinates":[-69.628663,44.549357]}},{"properties":{"city":"Amherst","number":460.0,"geo_score":0.643,"street":"West St","id":"a6mg23dkwht4","geo_precision":"street","comment":"address is all abbreviations","address":"460 West St, Amherst MA 01002-2964","state":"MA"},"type":"Feature","geometry":{"type":"Point","coordinates":[-72.520792,42.355298]}},{"properties":{"city":"Welch","number":50.0,"geo_score":0.857,"street":"Mc Dowell St","id":"a6mg236oh5ue","geo_precision":"street","comment":null,"address":"50 MCDOWELL STREET, WELCH WV 24801","state":"WV"},"type":"Feature","geometry":{"type":"Point","coordinates":[-81.585484,37.430901]}},{"properties":{"city":"Richmond","number":500.0,"geo_score":0.857,"street":"N A St","id":"a6mg237ckd5j","geo_precision":"street","comment":null,"address":"500 NORTH A STREET, RICHMOND IN 47374","state":"IN"},"type":"Feature","geometry":{"type":"Point","coordinates":[-84.893962,39.830603]}},{"properties":{"city":"McKeesport","number":520.0,"geo_score":0.571,"street":"5th Ave","id":"a6mg23e9pulm","geo_precision":"street","comment":null,"address":"520 5TH AVE, MCKEESPORT PA 15132","state":"PA"},"type":"Feature","geometry":{"type":"Point","coordinates":[-79.868226,40.350556]}},{"properties":{"city":"South Bend","number":602.0,"geo_score":0.714,"street":"S Michigan St","id":"a6mg23baawsw","geo_precision":"street","comment":null,"address":"602 SOUTH MICHIGAN ST, SOUTH BEND IN 46601","state":"IN"},"type":"Feature","geometry":{"type":"Point","coordinates":[-86.249777,41.672323]}},{"properties":{"city":"Plattsburgh","number":7242.0,"geo_score":0.857,"street":"US Hwy 9","id":"a6mg23aikijv","geo_precision":"street","comment":null,"address":"7242 ROUTE 9, PLATTSBURGH NY 12901","state":"NY"},"type":"Feature","geometry":{"type":"Point","coordinates":[-73.452205,44.697714]}},{"properties":{"city":"Tifton","number":732.0,"geo_score":0.714,"street":"W 2nd St","id":"a6mg231hlyl3","geo_precision":"street","comment":"ZIP is wrong","address":"732 W 2ND ST, TIFTON GA 31794","state":"GA"},"type":"Feature","geometry":{"type":"Point","coordinates":[-83.519866,31.457672]}},{"properties":{"city":"Patchogue","number":75.0,"geo_score":0.857,"street":"Oak St","id":"a6mg231owt2c","geo_precision":"street","comment":null,"address":"75 OAK STREET, PATCHOGUE NY 11772","state":"NY"},"type":"Feature","geometry":{"type":"Point","coordinates":[-73.015086,40.766418]}},{"properties":{"city":"State College","number":901.0,"geo_score":0.738,"street":"University Dr","id":"a6mg231xm13j","geo_precision":"city","comment":null,"address":"901 UNIVERSITY DR, STATE COLLEGE PA 16801","state":"PA"},"type":"Feature","geometry":{"type":"Point","coordinates":[-80.446733,40.303681]}},{"properties":{"city":"Brooklyn","number":93.0,"geo_score":0.571,"street":"N 9th St","id":"a6mg23dyvoc7","geo_precision":"street","comment":null,"address":"93 NORTH 9TH STREET, BROOKLYN NY 11211","state":"NY"},"type":"Feature","geometry":{"type":"Point","coordinates":[-78.441088,42.077414]}},{"properties":{"city":"McMinnville","number":931.0,"geo_score":0.857,"street":"Old Smithville Rd","id":"a6mg236es7eq","geo_precision":"street","comment":null,"address":"931 OLD SMITHVILLE HWY, MCMINNVILLE TN 37110","state":"TN"},"type":"Feature","geometry":{"type":"Point","coordinates":[-85.788226,35.701451]}},{"properties":{"city":"Panama City","number":97.0,"geo_score":0.714,"street":"W Oak Ave","id":"a6mg232iv6g5","geo_precision":"street","comment":null,"address":"97 WEST OAK AVE, PANAMA CITY FL 32401","state":"FL"},"type":"Feature","geometry":{"type":"Point","coordinates":[-85.661436,30.154306]}}],"is_temporal":false,"author":{"url":"","metadata":"","contact_name":"","contact_address":"","source":"","contact_phone":""},"source":"","pagination":{"sort":null,"start":0,"total":56,"limit":1000000},"state":"complete","tags":"test","published":"2010-01-19T19:15:16Z","id":20599}