{"type":"FeatureCollection","data_type":"Dataset","url_type":null,"permissions":[{"permissions":{"download":true,"view":true},"group_id":"everyone"}],"classification":null,"title":"drew08212011","count":55,"stream_id":206124,"contributor":{"url":"http://geocommons.com/users/40243","name":"drewweber"},"data_attributes":null,"calculation_params":null,"icon_link":null,"link":"http://geocommons.com/overlays/206124.json","extent":[0.0,0.0,0.0,0.0],"geometry_types":null,"unique_name":null,"name":"drew08212011","feature_count":55,"description":"","next_feature":null,"is_raster":false,"short_classification":"Y","features":[{"properties":{"month":"0","county":"Lancaster","year":"93","id":"aa1ucn24385d","life":"267"},"type":"Feature","geometry":null},{"properties":{"month":"66","county":"Centre","year":"222","id":"aa1ucmsg3aoa","life":"234"},"type":"Feature","geometry":null},{"properties":{"month":"0","county":"Berks","year":"58","id":"aa1ucmxol647","life":"218"},"type":"Feature","geometry":null},{"properties":{"month":"14","county":"Dauphin","year":"88","id":"aa1ucmzrcgoe","life":"192"},"type":"Feature","geometry":null},{"properties":{"month":"0","county":"Tioga","year":"86","id":"aa1ucn1rbori","life":"168"},"type":"Feature","geometry":null},{"properties":{"month":"0","county":"Schuylkill","year":"76","id":"aa1ucmsm1rur","life":"155"},"type":"Feature","geometry":null},{"properties":{"month":"0","county":"Lebanon","year":"16","id":"aa1ucn8175l3","life":"149"},"type":"Feature","geometry":null},{"properties":{"month":"0","county":"York","year":"0","id":"aa1ucmzl1icw","life":"140"},"type":"Feature","geometry":null},{"properties":{"month":"0","county":"Cumberland","year":"41","id":"aa1ucmv2z7s1","life":"139"},"type":"Feature","geometry":null},{"properties":{"month":"0","county":"Chester","year":"25","id":"aa1ucmx55jpc","life":"137"},"type":"Feature","geometry":null},{"properties":{"month":"0","county":"Bedford","year":"86","id":"aa1ucmzayzdt","life":"122"},"type":"Feature","geometry":null},{"properties":{"month":"0","county":"Westmoreland","year":"0","id":"aa1ucms4ffph","life":"116"},"type":"Feature","geometry":null},{"properties":{"month":"0","county":"Huntingdon","year":"78","id":"aa1ucn6at89b","life":"111"},"type":"Feature","geometry":null},{"properties":{"month":"0","county":"Perry","year":"84","id":"aa1ucn6l74ia","life":"107"},"type":"Feature","geometry":null},{"properties":{"month":"0","county":"Potter","year":"0","id":"aa1ucn6g037n","life":"106"},"type":"Feature","geometry":null},{"properties":{"month":"0","county":"Northumberland","year":"80","id":"aa1ucn79cx35","life":"106"},"type":"Feature","geometry":null},{"properties":{"month":"0","county":"Columbia","year":"30","id":"aa1ucn27ctf5","life":"96"},"type":"Feature","geometry":null},{"properties":{"month":"0","county":"Montour","year":"83","id":"aa1ucmtjsu8x","life":"90"},"type":"Feature","geometry":null},{"properties":{"month":"0","county":"Lycoming","year":"38","id":"aa1ucn2db9h3","life":"86"},"type":"Feature","geometry":null},{"properties":{"month":"0","county":"Snyder","year":"48","id":"aa1ucn285lva","life":"81"},"type":"Feature","geometry":null},{"properties":{"month":"0","county":"Juniata","year":"7","id":"aa1ucn12ua4l","life":"80"},"type":"Feature","geometry":null},{"properties":{"month":"0","county":"Clearfield","year":"25","id":"aa1ucn2s6los","life":"80"},"type":"Feature","geometry":null},{"properties":{"month":"51","county":"Erie","year":"80","id":"aa1ucmt2wzri","life":"80"},"type":"Feature","geometry":null},{"properties":{"month":"0","county":"Somerset","year":"78","id":"aa1ucn4ssk0p","life":"78"},"type":"Feature","geometry":null},{"properties":{"month":"39","county":"Warren","year":"56","id":"aa1ucn456318","life":"76"},"type":"Feature","geometry":null},{"properties":{"month":"0","county":"Philadelphia","year":"5","id":"aa1ucmvvgb8n","life":"71"},"type":"Feature","geometry":null},{"properties":{"month":"0","county":"Delaware","year":"0","id":"aa1ucmvlpsha","life":"70"},"type":"Feature","geometry":null},{"properties":{"month":"0","county":"Elk","year":"0","id":"aa1ucmx1ewne","life":"68"},"type":"Feature","geometry":null},{"properties":{"month":"0","county":"Indiana","year":"0","id":"aa1ucn4ordg6","life":"67"},"type":"Feature","geometry":null},{"properties":{"month":"0","county":"Union","year":"60","id":"aa1ucmu1q9cb","life":"61"},"type":"Feature","geometry":null},{"properties":{"month":"0","county":"Bucks","year":"13","id":"aa1ucn3ng64x","life":"61"},"type":"Feature","geometry":null},{"properties":{"month":"0","county":"Fayette","year":"0","id":"aa1ucmvfmn5x","life":"59"},"type":"Feature","geometry":null},{"properties":{"month":"0","county":"Lehigh","year":"0","id":"aa1ucn4tchh5","life":"58"},"type":"Feature","geometry":null},{"properties":{"month":"0","county":"Bradford","year":"0","id":"aa1ucn1p4sj9","life":"58"},"type":"Feature","geometry":null},{"properties":{"month":"0","county":"Mifflin","year":"19","id":"aa1ucmzpoztr","life":"52"},"type":"Feature","geometry":null},{"properties":{"month":"0","county":"Franklin","year":"44","id":"aa1ucmzay5ah","life":"52"},"type":"Feature","geometry":null},{"properties":{"month":"0","county":"Luzerne","year":"27","id":"aa1ucn6r4i9d","life":"45"},"type":"Feature","geometry":null},{"properties":{"month":"0","county":"Adams","year":"0","id":"aa1ucmzq9arl","life":"45"},"type":"Feature","geometry":null},{"properties":{"month":"0","county":"Cameron","year":"0","id":"aa1ucn1tst0r","life":"43"},"type":"Feature","geometry":null},{"properties":{"month":"0","county":"Carbon","year":"30","id":"aa1ucmzzos9t","life":"42"},"type":"Feature","geometry":null},{"properties":{"month":"0","county":"Sullivan","year":"42","id":"aa1ucn2ug516","life":"42"},"type":"Feature","geometry":null},{"properties":{"month":"0","county":"Clinton","year":"14","id":"aa1ucn4susc1","life":"40"},"type":"Feature","geometry":null},{"properties":{"month":"0","county":"McKean","year":"0","id":"aa1ucn0zjtcm","life":"40"},"type":"Feature","geometry":null},{"properties":{"month":"0","county":"Jefferson","year":"0","id":"aa1ucn7q5bpl","life":"38"},"type":"Feature","geometry":null},{"properties":{"month":"0","county":"Northampton","year":"0","id":"aa1ucn2rdh82","life":"37"},"type":"Feature","geometry":null},{"properties":{"month":"0","county":"Montgomery","year":"0","id":"aa1ucmrk0vcq","life":"35"},"type":"Feature","geometry":null},{"properties":{"month":"0","county":"Cambria","year":"0","id":"aa1ucn240nq7","life":"31"},"type":"Feature","geometry":null},{"properties":{"month":"0","county":"Fulton","year":"27","id":"aa1ucn3wxckx","life":"27"},"type":"Feature","geometry":null},{"properties":{"month":"0","county":"Blair","year":"26","id":"aa1ucmyr25v5","life":"26"},"type":"Feature","geometry":null},{"properties":{"month":"26","county":"Venango","year":"26","id":"aa1ucn281250","life":"26"},"type":"Feature","geometry":null},{"properties":{"month":"24","county":"Crawford","year":"24","id":"aa1ucmvbq0b7","life":"24"},"type":"Feature","geometry":null},{"properties":{"month":"0","county":"Wyoming","year":"19","id":"aa1ucn14aooi","life":"19"},"type":"Feature","geometry":null},{"properties":{"month":"6","county":"Forest","year":"11","id":"aa1ucms083v5","life":"11"},"type":"Feature","geometry":null},{"properties":{"month":"11","county":"Clarion","year":"11","id":"aa1ucmvkkp4o","life":"11"},"type":"Feature","geometry":null},{"properties":{"month":"0","county":"Mercer","year":"0","id":"aa1ucn0jc43a","life":"1"},"type":"Feature","geometry":null}],"is_temporal":false,"author":{"url":"","metadata":null,"contact_name":null,"contact_address":null,"source":null,"contact_phone":null},"source":"","pagination":{"sort":null,"start":0,"total":55,"limit":1000000},"state":"parsed","tags":"","published":"2014-08-14T22:21:03-04:00","id":206124}