{"type":"FeatureCollection","data_type":"Dataset","url_type":null,"permissions":[{"permissions":{"download":true,"view":true},"group_id":"everyone"}],"classification":null,"title":"CLEVELAND PUBLIC LIBRARY BRANCHES (corrected Glenville)","count":28,"stream_id":206651,"contributor":{"url":"http://geocommons.com/users/26281","name":"anastasiado"},"data_attributes":null,"calculation_params":null,"icon_link":null,"link":"http://geocommons.com/overlays/206651.json","extent":[-81.808,41.4341,-81.5609,41.5807],"geometry_types":["point"],"unique_name":null,"name":"CLEVELAND PUBLIC LIBRARY BRANCHES (corrected Glenville)","feature_count":28,"description":"","next_feature":null,"is_raster":false,"short_classification":"Y","stats":{},"features":[{"properties":{"geo_precision0":"range","city":"Cleveland","geo_score0":0.902,"zip":"44103-2635","geo_score":0.902,"branch":"Addison","id":"a62358jel52a","geo_precision":"range","address":"6901 Superior Ave."},"type":"Feature","geometry":{"type":"Point","coordinates":[-81.642376,41.518917]}},{"properties":{"geo_precision0":"range","city":"Cleveland","geo_score0":0.816,"zip":"44127-1508","geo_score":0.816,"branch":"Broadway","id":"a623588mjunh","geo_precision":"range","address":"5417 Broadway Ave."},"type":"Feature","geometry":{"type":"Point","coordinates":[-81.652626,41.468257]}},{"properties":{"geo_precision0":"range","city":"Cleveland","geo_score0":0.902,"zip":"44109-2703","geo_score":0.902,"branch":"Brooklyn","id":"a62358gzhxsj","geo_precision":"range","address":"3706 Pearl Rd."},"type":"Feature","geometry":{"type":"Point","coordinates":[-81.701293,41.454324]}},{"properties":{"geo_precision0":"range","city":"Cleveland","geo_score0":0.902,"zip":"44113-3346","geo_score":0.902,"branch":"Carnegie West","id":"a62358dxbv20","geo_precision":"range","address":"1900 Fulton Rd."},"type":"Feature","geometry":{"type":"Point","coordinates":[-81.7102,41.483486]}},{"properties":{"geo_precision0":"range","city":"Cleveland","geo_score0":0.834,"zip":"44110-3002","geo_score":0.834,"branch":"Collinwood","id":"a62358bx8fw6","geo_precision":"range","address":"856 East 152nd Street"},"type":"Feature","geometry":{"type":"Point","coordinates":[-81.575473,41.556307]}},{"properties":{"geo_precision0":"range","city":"Cleveland","geo_score0":0.82,"zip":"44120-4664","geo_score":0.82,"branch":"East 131","id":"a62358i5uqxm","geo_precision":"range","address":"3830 East 131st Street"},"type":"Feature","geometry":{"type":"Point","coordinates":[-81.591151,41.454395]}},{"properties":{"geo_precision0":"range","city":"Cleveland","geo_score0":0.902,"zip":"44111-5403","geo_score":0.902,"branch":"Eastman","id":"a62358ls0ha6","geo_precision":"range","address":"11602 Lorain Avenue"},"type":"Feature","geometry":{"type":"Point","coordinates":[-81.767682,41.462267]}},{"properties":{"geo_precision0":"range","city":"Cleveland","geo_score0":0.811,"zip":"44105-1446","geo_score":0.811,"branch":"Fleet","id":"a62358inrist","geo_precision":"range","address":"7224 Broadway Avenue"},"type":"Feature","geometry":{"type":"Point","coordinates":[-81.638426,41.457867]}},{"properties":{"geo_precision0":"range","city":"Cleveland","geo_score0":0.902,"zip":"44109-2357","geo_score":0.902,"branch":"Fulton","id":"a62358mnnvct","geo_precision":"range","address":"3545 Fulton Road"},"type":"Feature","geometry":{"type":"Point","coordinates":[-81.712987,41.458044]}},{"properties":{"geo_precision0":"range","city":"Cleveland","geo_score0":0.902,"zip":"44104-6149","geo_score":0.902,"branch":"Garden Valley","id":"a62358fe8bfz","geo_precision":"range","address":"7201 Kinsman Road"},"type":"Feature","geometry":{"type":"Point","coordinates":[-81.638285,41.479689]}},{"properties":{"geo_precision0":"range","city":"Cleveland","geo_score0":0.827,"zip":"44108","geo_score":0.827,"branch":"Glenville","id":"a62358fh6mx9","geo_precision":"range","address":"11900 Saint Clair Avenue"},"type":"Feature","geometry":{"type":"Point","coordinates":[-81.602518,41.541354]}},{"properties":{"geo_precision0":"range","city":"Cleveland","geo_score0":0.803,"zip":"44128-2210","geo_score":0.803,"branch":"Harvard-Lee","id":"a62358ghpjmq","geo_precision":"range","address":"16918 Harvard Avenue"},"type":"Feature","geometry":{"type":"Point","coordinates":[-81.561801,41.449794]}},{"properties":{"geo_precision0":"range","city":"Cleveland","geo_score0":0.902,"zip":"44106-1594","geo_score":0.902,"branch":"Hough","id":"a62358ks0lh0","geo_precision":"range","address":"1566 Crawford Road"},"type":"Feature","geometry":{"type":"Point","coordinates":[-81.622758,41.513978]}},{"properties":{"geo_precision0":"range","city":"Cleveland","geo_score0":0.902,"zip":"44113-4649","geo_score":0.902,"branch":"Jefferson","id":"a623589exsoa","geo_precision":"range","address":"850 Jefferson Avenue"},"type":"Feature","geometry":{"type":"Point","coordinates":[-81.684942,41.47919]}},{"properties":{"geo_precision0":"range","city":"Cleveland","geo_score0":0.902,"zip":"44106-1109","geo_score":0.902,"branch":"Langston Hughes","id":"a62358c5ia79","geo_precision":"range","address":"10200 Superior Avenue"},"type":"Feature","geometry":{"type":"Point","coordinates":[-81.61759,41.521488]}},{"properties":{"geo_precision0":"range","city":"Cleveland","geo_score0":0.902,"zip":"44102-4259","geo_score":0.902,"branch":"Lorain","id":"a62358hn5cni","geo_precision":"range","address":"8216 Lorain Avenue"},"type":"Feature","geometry":{"type":"Point","coordinates":[-81.741232,41.470913]}},{"properties":{"geo_precision0":"range","city":"Cleveland","geo_score0":0.902,"zip":"44106-2254","geo_score":0.902,"branch":"Martin Luther King, Jr.","id":"a62358m8mhso","geo_precision":"range","address":"1962 Stokes Boulevard"},"type":"Feature","geometry":{"type":"Point","coordinates":[-81.608605,41.502202]}},{"properties":{"geo_precision0":"range","city":"Cleveland","geo_score0":0.834,"zip":"44110-4006","geo_score":0.834,"branch":"Memorial-Nottingham","id":"a62358d6zpn8","geo_precision":"range","address":"17109 Lake Shore Boulevard"},"type":"Feature","geometry":{"type":"Point","coordinates":[-81.560858,41.580718]}},{"properties":{"geo_precision0":"range","city":"Cleveland","geo_score0":0.82,"zip":"44120-4821","geo_score":0.82,"branch":"Mt. Pleasant","id":"a62358a97271","geo_precision":"range","address":"14000 Kinsman Road"},"type":"Feature","geometry":{"type":"Point","coordinates":[-81.584662,41.464354]}},{"properties":{"geo_precision0":"range","city":"Cleveland","geo_score0":0.82,"zip":"44120-3804","geo_score":0.82,"branch":"Rice","id":"a62358g01tgl","geo_precision":"range","address":"2820 East 116th Street"},"type":"Feature","geometry":{"type":"Point","coordinates":[-81.602901,41.482204]}},{"properties":{"geo_precision0":"range","city":"Cleveland","geo_score0":0.816,"zip":"44135-2109","geo_score":0.816,"branch":"Rockport","id":"a62358b777fx","geo_precision":"range","address":"4421 West 140th Street"},"type":"Feature","geometry":{"type":"Point","coordinates":[-81.790671,41.434067]}},{"properties":{"geo_precision0":"range","city":"Cleveland","geo_score0":0.902,"zip":"44113-5340","geo_score":0.902,"branch":"South","id":"a62358n8n3u8","geo_precision":"range","address":"3096 Scranton Road"},"type":"Feature","geometry":{"type":"Point","coordinates":[-81.696933,41.469964]}},{"properties":{"geo_precision0":"range","city":"Cleveland","geo_score0":0.902,"zip":"44109-4203","geo_score":0.902,"branch":"South Brooklyn","id":"a62358khovw6","geo_precision":"range","address":"4303 Pearl Road"},"type":"Feature","geometry":{"type":"Point","coordinates":[-81.70697,41.438967]}},{"properties":{"geo_precision0":"range","city":"Cleveland","geo_score0":0.819,"zip":"44115-2918","geo_score":0.819,"branch":"Sterling","id":"a62358dxswf5","geo_precision":"range","address":"2200 East 30th Street"},"type":"Feature","geometry":{"type":"Point","coordinates":[-81.666537,41.498095]}},{"properties":{"geo_precision0":"range","city":"Cleveland","geo_score0":0.819,"zip":"44104-5251","geo_score":0.819,"branch":"Union","id":"a62358laa2n0","geo_precision":"range","address":"3463 East 93rd Street"},"type":"Feature","geometry":{"type":"Point","coordinates":[-81.62145,41.464606]}},{"properties":{"geo_precision0":"range","city":"Cleveland","geo_score0":0.902,"zip":"44102-2816","geo_score":0.902,"branch":"Walz","id":"a62358diiclu","geo_precision":"range","address":"7910 Detroit Avenue"},"type":"Feature","geometry":{"type":"Point","coordinates":[-81.740008,41.481506]}},{"properties":{"geo_precision0":"range","city":"Cleveland","geo_score0":0.902,"zip":"44111-5809","geo_score":0.902,"branch":"West Park","id":"a62358o2uq2p","geo_precision":"range","address":"3805 West 157th St."},"type":"Feature","geometry":{"type":"Point","coordinates":[-81.807965,41.451463]}},{"properties":{"geo_precision0":"range","city":"Cleveland","geo_score0":0.902,"zip":"44104-2743","geo_score":0.902,"branch":"Woodland","id":"a62358dqg2rw","geo_precision":"range","address":"5806 Woodland Avenue"},"type":"Feature","geometry":{"type":"Point","coordinates":[-81.649154,41.48802]}}],"is_temporal":false,"author":{"url":"","metadata":"","contact_name":"","contact_address":"","source":"","contact_phone":""},"source":"","pagination":{"sort":null,"start":0,"total":28,"limit":1000000},"state":"complete","tags":"library","published":"2012-02-19T16:57:54Z","id":206651}