{"type":"FeatureCollection","data_type":"Dataset","url_type":null,"permissions":[{"permissions":{"download":true,"view":true},"group_id":"everyone"}],"classification":null,"title":"Italy impressions","count":20,"stream_id":206894,"contributor":{"url":"http://geocommons.com/users/40440","name":"marccrowther"},"data_attributes":null,"calculation_params":null,"icon_link":null,"link":"http://geocommons.com/overlays/206894.json","extent":[7.68682,37.5021,16.8512,46.0619],"geometry_types":["point"],"unique_name":null,"name":"Italy impressions","feature_count":20,"description":"","next_feature":null,"is_raster":false,"short_classification":"Y","stats":{"impressions":{"max":263253,"mean":46260.4,"variance":5290741387.2,"stdev":72737.4826839643,"min":8436,"median":19248}},"features":[{"properties":{"city":"Milan, Italy","impressions":263253,"geo_score":0.929,"id":"a62a7edsus3n","geo_precision":"zip"},"type":"Feature","geometry":{"type":"Point","coordinates":[9.1895055770874,45.4642693810258]}},{"properties":{"city":"Rome, Italy","impressions":243975,"geo_score":0.921,"id":"a62a7ea60jsh","geo_precision":"zip"},"type":"Feature","geometry":{"type":"Point","coordinates":[12.4833333,41.9]}},{"properties":{"city":"Turin, Italy","impressions":61467,"geo_score":0.914,"id":"a62a7e9d0slc","geo_precision":"zip"},"type":"Feature","geometry":{"type":"Point","coordinates":[7.68682479858398,45.0704898496472]}},{"properties":{"city":"Naples, Italy","impressions":53387,"geo_score":0.909,"id":"a62a7e3wm437","geo_precision":"zip"},"type":"Feature","geometry":{"type":"Point","coordinates":[15.43799,38.051165]}},{"properties":{"city":"Florence, Italy","impressions":48802,"geo_score":0.945,"id":"a62a7ecv3dd3","geo_precision":"zip"},"type":"Feature","geometry":{"type":"Point","coordinates":[11.25,43.7666667]}},{"properties":{"city":"Bologna, Italy","impressions":40307,"geo_score":0.94,"id":"a62a7e7aycd1","geo_precision":"zip"},"type":"Feature","geometry":{"type":"Point","coordinates":[11.3387489318848,44.4938114812334]}},{"properties":{"city":"Padua, Italy","impressions":33161,"geo_score":0.9,"id":"a62a7dznvusm","geo_precision":"zip"},"type":"Feature","geometry":{"type":"Point","coordinates":[14.969579,38.146763]}},{"properties":{"city":"Genoa, Italy","impressions":21031,"geo_score":0.914,"id":"a62a7e844o7m","geo_precision":"zip"},"type":"Feature","geometry":{"type":"Point","coordinates":[15.43799,38.051165]}},{"properties":{"city":"Brescia, Italy","impressions":19309,"geo_score":0.94,"id":"a62a7e2430h9","geo_precision":"zip"},"type":"Feature","geometry":{"type":"Point","coordinates":[10.227269,45.524782]}},{"properties":{"city":"Palermo, Italy","impressions":19248,"geo_score":0.94,"id":"a62a7ecd3ph8","geo_precision":"zip"},"type":"Feature","geometry":{"type":"Point","coordinates":[13.3597612380981,38.115819808927]}},{"properties":{"city":"Catania, Italy","impressions":17111,"geo_score":0.94,"id":"a62a7ebb2pws","geo_precision":"zip"},"type":"Feature","geometry":{"type":"Point","coordinates":[15.0871896743774,37.5021339578821]}},{"properties":{"city":"Bergamo, Italy","impressions":17097,"geo_score":0.94,"id":"a62a7e0snd1a","geo_precision":"zip"},"type":"Feature","geometry":{"type":"Point","coordinates":[9.668953,45.697981]}},{"properties":{"city":"Verona, Italy","impressions":16601,"geo_score":0.935,"id":"a62a7eackvh2","geo_precision":"zip"},"type":"Feature","geometry":{"type":"Point","coordinates":[10.997788,45.434186]}},{"properties":{"city":"Cagliari, Italy","impressions":11605,"geo_score":0.945,"id":"a62a7ee5itoq","geo_precision":"zip"},"type":"Feature","geometry":{"type":"Point","coordinates":[9.13461685180664,39.2073839183411]}},{"properties":{"city":"Treviso, Italy","impressions":11029,"geo_score":0.94,"id":"a62a7eb2l82i","geo_precision":"zip"},"type":"Feature","geometry":{"type":"Point","coordinates":[12.245,45.6666667]}},{"properties":{"city":"Udine, Italy","impressions":11007,"geo_score":0.929,"id":"a62a7e2kw4wm","geo_precision":"zip"},"type":"Feature","geometry":{"type":"Point","coordinates":[13.2422222,46.0619444]}},{"properties":{"city":"Pescara, Italy","impressions":10221,"geo_score":0.94,"id":"a62a7e82v1uk","geo_precision":"zip"},"type":"Feature","geometry":{"type":"Point","coordinates":[14.210207,42.460244]}},{"properties":{"city":"Modena, Italy","impressions":9119,"geo_score":0.935,"id":"a62a7e58v8k6","geo_precision":"zip"},"type":"Feature","geometry":{"type":"Point","coordinates":[10.9253883361816,44.6478340072451]}},{"properties":{"city":"Reggio Emilia, Italy","impressions":9042,"geo_score":0.882,"id":"a62a7eegr0ep","geo_precision":"zip"},"type":"Feature","geometry":{"type":"Point","coordinates":[9.1435432434082,44.3622740351684]}},{"properties":{"city":"Bari, Italy","impressions":8436,"geo_score":0.921,"id":"a62a7e63ts4b","geo_precision":"zip"},"type":"Feature","geometry":{"type":"Point","coordinates":[16.851185,41.117734]}}],"is_temporal":false,"author":{"url":"","metadata":"","contact_name":"","contact_address":"","source":"","contact_phone":""},"source":"","pagination":{"sort":null,"start":0,"total":20,"limit":1000000},"state":"complete","tags":"","published":"2014-08-14T23:23:50-04:00","id":206894}