{"type":"FeatureCollection","data_type":"Dataset","url_type":null,"permissions":[{"permissions":{"download":true,"view":true},"group_id":"everyone"}],"classification":null,"title":"Assisted_Living - Hawaii","count":10,"stream_id":207794,"contributor":{"url":"http://geocommons.com/users/695","name":"Bill"},"data_attributes":null,"calculation_params":null,"icon_link":null,"link":"http://geocommons.com/overlays/207794.json","extent":[-159.386,19.6378,-155.987,21.9659],"geometry_types":["point"],"unique_name":"","name":"Assisted_Living - Hawaii","feature_count":10,"description":"All ALF Sites Points.  Assisted Living Facility locations - Oahu, Maui, Kauai, Hawaii","next_feature":null,"is_raster":false,"short_classification":"Y","stats":{"Capacity":{"max":431,"mean":174.4,"variance":10478.7111111111,"stdev":102.365575810968,"min":63,"median":153},"TMK":{"max":433003045,"mean":129018123.2,"variance":2.52945037861753e+16,"stdev":159042459.067305,"min":24005020,"median":45033003}},"features":[{"properties":{"Surveyor":"Krawchuk","Est_Date":"9/10/02","Name":"The Ponds at Punalu'u ALF, Inc.","Zip":"96717","Lic_Type":"P","Area":"Punalu'u","Lic_Num":"#5-ALF","Island":"Oahu","Phone":"293-1100","House":"53-594","Lic_Exp":"3/31/05","Capacity":153,"TMK":53009058,"Street":"Kamehameha Highway","MaxUnit":"101","owner":"UNITY HOUSE INC","id":"a63fqrkvyynh","hyphen_TMK":"5-3-09:058","Administra":"Pierce, Carl A. (Mr."},"type":"Feature","geometry":{"type":"Point","coordinates":[-157.895047943219,21.5862683911243]}},{"properties":{"Surveyor":null,"Est_Date":"6/5/03","Name":"Pohai Nani Good Samaritan","Zip":"96744","Lic_Type":null,"Area":"Kaneohe","Lic_Num":"#7-ALF","Island":"Oahu","Phone":"247-6211","House":"45-090","Lic_Exp":"5/31/07","Capacity":153,"TMK":45033003,"Street":"Namoku Street","MaxUnit":"134","owner":"POHAI NANI","id":"a63fqruuvct4","hyphen_TMK":"4-5-33:03","Administra":"Foos, Luann (Ms.)"},"type":"Feature","geometry":{"type":"Point","coordinates":[-157.783110642187,21.4006056665202]}},{"properties":{"Surveyor":"Tsuda","Est_Date":"5/5/04","Name":"The Plaza at Punchbowl","Zip":"96822","Lic_Type":"F","Area":"Honolulu","Lic_Num":"#8-ALF","Island":"Oahu","Phone":"792-8800","House":"918","Lic_Exp":"12/31/05","Capacity":147,"TMK":24014008,"Street":"Lunalilo Street","MaxUnit":"108","owner":"PUNCHBOWL RETIREMENT CTR LLC","id":"a63fqrlusy5u","hyphen_TMK":null,"Administra":"Medeiros, Tricia (Ms"},"type":"Feature","geometry":{"type":"Point","coordinates":[-157.848038745446,21.3060145773277]}},{"properties":{"Surveyor":null,"Est_Date":"1/2/01","Name":"Arcadia Retirement Residence","Zip":"96822","Lic_Type":null,"Area":"Honolulu","Lic_Num":"#1-ALF","Island":"Oahu","Phone":"941-0941","House":"1434 (3rd fl.)","Lic_Exp":"12/31/05","Capacity":431,"TMK":24008003,"Street":"Punahou Street","MaxUnit":"222","owner":"ARCADIA RETIREMENT RESIDENCE","id":"a63fqrnkq8ky","hyphen_TMK":"2-4-8:03","Administra":"Thorp, Karen (Mrs.)"},"type":"Feature","geometry":{"type":"Point","coordinates":[-157.834165609752,21.3021223591202]}},{"properties":{"Surveyor":null,"Est_Date":"8/8/02","Name":"One Kalakaua Senior Living","Zip":"96826","Lic_Type":"P","Area":"Makiki","Lic_Num":"#4-ALF","Island":"Oahu","Phone":"983-4400","House":"1314","Lic_Exp":"4/30/05","Capacity":220,"TMK":24005020,"Street":"Kalakaua Avenue","MaxUnit":"166","owner":"YOUNG,VIRGINIA N K TRUST","id":"a63fqrvj14zo","hyphen_TMK":"2-4-005:020","Administra":"Moscatello, Karen (M"},"type":"Feature","geometry":{"type":"Point","coordinates":[-157.837271917914,21.298736379113]}},{"properties":{"Surveyor":null,"Est_Date":"5/24/01","Name":"Hawaii Kai Retirement Comm Phase I and II","Zip":"96825","Lic_Type":"F","Area":"Honolulu","Lic_Num":"#2-ALF","Island":"Oahu","Phone":"395-9599","House":"428, 446","Lic_Exp":"4/30/06","Capacity":113,"TMK":39036001,"Street":"Kawaihae Street","MaxUnit":"I:43;II:38","owner":"B P BISHOP TRUST ESTATE","id":"a63fqrourkou","hyphen_TMK":"3-9-36:0","Administra":"Gray, Cheryl (Ms.)"},"type":"Feature","geometry":{"type":"Point","coordinates":[-157.715494825904,21.2925311165821]}},{"properties":{"Surveyor":null,"Est_Date":"8/1/05","Name":"Hi'olani Assisted Living Center at Kahala Nui","Zip":"96821","Lic_Type":"F","Area":"Kahala","Lic_Num":"#10-ALF","Island":"Oahu","Phone":"218-7000","House":"4389","Lic_Exp":"7/31/06","Capacity":63,"TMK":35017044,"Street":"Malia Street","MaxUnit":"63","owner":"ROMAN CATHOLIC CHURCH OF HI","id":"a63fqrp0ejp4","hyphen_TMK":"3-5-017:044","Administra":"Meiers, Cindy Lee (M"},"type":"Feature","geometry":{"type":"Point","coordinates":[-157.782558966915,21.2793031871218]}},{"properties":{"Surveyor":null,"Est_Date":"11/9/01","Name":"Regency at Hualalai","Zip":"96740","Lic_Type":"F","Area":"Kailua-Kona","Lic_Num":"#3-ALF","Island":"Hawaii","Phone":"329-7878","House":"75-181","Lic_Exp":"2/28/05","Capacity":220,"TMK":375010015,"Street":"Hualalai Road","MaxUnit":"129","owner":"REGENCY HUALALAI NAMAKUA","id":"a63fqro0smxf","hyphen_TMK":"7-5-10:15","Administra":"Lanning, Linda (Ms.)"},"type":"Feature","geometry":{"type":"Point","coordinates":[-155.987397506839,19.6378495631326]}},{"properties":{"Surveyor":null,"Est_Date":"5/3/04","Name":"Regency at Puakea","Zip":"96766","Lic_Type":null,"Area":"Lihue","Lic_Num":"#9-ALF","Island":"Kauai","Phone":"246-4449","House":"2130","Lic_Exp":"4/30/05","Capacity":100,"TMK":433003045,"Street":"Kaneka Street","MaxUnit":"82","owner":"REGENCY AT PUAKEA LLC","id":"a63fqrvkflom","hyphen_TMK":null,"Administra":"Davis, Karen (Ms.)"},"type":"Feature","geometry":{"type":"Point","coordinates":[-159.3863263269,21.9659317614191]}},{"properties":{"Surveyor":null,"Est_Date":"11/9/02","Name":"Alii Community Care dba Roselani Place","Zip":"96732","Lic_Type":null,"Area":"Wailuku","Lic_Num":"#6-ALF","Island":"Maui","Phone":"872-0800","House":"88","Lic_Exp":"10/31/05","Capacity":144,"TMK":238046035,"Street":"South Papa Street","MaxUnit":"98","owner":"ALA LANI UNITED METHODIST","id":"a63fqrjkrwgf","hyphen_TMK":"3-8-046:035","Administra":"Veverka, Don (Mr.)"},"type":"Feature","geometry":{"type":"Point","coordinates":[-156.484660973173,20.887013005926]}}],"is_temporal":false,"author":{"url":"","metadata":"","contact_name":"Glen Fukunaga","contact_address":", REQUIRED: The city of the address., REQUIRED: The state or province of the address., REQUIRED: The ZIP or other postal code of the address.","source":"Hawaii State Department of Health - Environmental Planning Office","contact_phone":"(808)586-4337"},"source":"","pagination":{"sort":null,"start":0,"total":10,"limit":1000000},"state":"complete","tags":"","published":"2014-08-15T01:03:13-04:00","id":207794}