{"type":"FeatureCollection","data_type":"Dataset","url_type":null,"permissions":[{"permissions":{"download":true,"view":true},"group_id":"everyone"}],"classification":null,"title":"Merge-Volunteers-Geocoded","count":299,"stream_id":207709,"contributor":{"url":"http://geocommons.com/users/39622","name":"tarnautovic"},"data_attributes":null,"calculation_params":null,"icon_link":null,"link":"http://geocommons.com/overlays/207709.json","extent":[-122.165,37.6945,-120.611,39.2531],"geometry_types":["point"],"unique_name":null,"name":"Merge-Volunteers-Geocoded","feature_count":299,"description":"","next_feature":null,"is_raster":false,"short_classification":"Y","stats":{"latitude":{"max":39.25306,"mean":38.582688541806,"variance":0.0185371364241752,"stdev":0.136151152856578,"min":37.69445,"median":38.574717},"longitude":{"max":-120.610865,"mean":-121.424379110368,"variance":0.0350532892933403,"stdev":0.187225236796059,"min":-122.164581,"median":-121.436159},"data":{"max":1,"mean":1.0,"variance":0.0,"stdev":0.0,"min":1,"median":1}},"features":[{"properties":{"city":"Lincoln","latitude":38.900432,"zip":"95648","street":"2874 Floradale Way","longitude":-121.330818,"id":"a6g5eds1n6jr","data":1,"state":"CA"},"type":"Feature","geometry":{"type":"Point","coordinates":[-121.330818,38.900432]}},{"properties":{"city":"Sacramento","latitude":38.568879,"zip":"95819","street":"937 45th Street","longitude":-121.446254,"id":"a6g5edtnjkfs","data":1,"state":"CA"},"type":"Feature","geometry":{"type":"Point","coordinates":[-121.446254,38.568879]}},{"properties":{"city":"Carmichael","latitude":38.591664,"zip":"95608","street":"5020 Keane Drive","longitude":-121.343946,"id":"a6g5ee11xi5q","data":1,"state":"CA"},"type":"Feature","geometry":{"type":"Point","coordinates":[-121.343946,38.591664]}},{"properties":{"city":"Antelope","latitude":38.720046,"zip":"95843","street":"8343 Rockbury Way","longitude":-121.360716,"id":"a6g5ee2fvyvw","data":1,"state":"CA"},"type":"Feature","geometry":{"type":"Point","coordinates":[-121.360716,38.720046]}},{"properties":{"city":"Sacramento","latitude":38.485365,"zip":"95831","street":"960 Sunwind Way","longitude":-121.524054,"id":"a6g5ee5wjklo","data":1,"state":"CA"},"type":"Feature","geometry":{"type":"Point","coordinates":[-121.524054,38.485365]}},{"properties":{"city":"Sacramento","latitude":38.574428,"zip":"95816","street":"2320 K St., Apt. D","longitude":-121.476018,"id":"a6g5edyd0hra","data":1,"state":"CA"},"type":"Feature","geometry":{"type":"Point","coordinates":[-121.476018,38.574428]}},{"properties":{"city":"Granite Bay","latitude":38.719423,"zip":"95746","street":"4030 Luxor Lane","longitude":-121.220788,"id":"a6g5ee0r9ovy","data":1,"state":"CA"},"type":"Feature","geometry":{"type":"Point","coordinates":[-121.220788,38.719423]}},{"properties":{"city":"Sacramento","latitude":38.580742,"zip":"95864","street":"4671 Chancery Way","longitude":-121.35083,"id":"a6g5ee46d1cw","data":1,"state":"CA"},"type":"Feature","geometry":{"type":"Point","coordinates":[-121.35083,38.580742]}},{"properties":{"city":"Rancho Cordova","latitude":38.546568,"zip":"95742","street":"4332 Mount Kisco Way","longitude":-121.237326,"id":"a6g5edv6gw2g","data":1,"state":"CA"},"type":"Feature","geometry":{"type":"Point","coordinates":[-121.237326,38.546568]}},{"properties":{"city":"Fair Oaks","latitude":38.648653,"zip":"95628","street":"9084 Leatham Avenue","longitude":-121.216962,"id":"a6g5eduts2g0","data":1,"state":"CA"},"type":"Feature","geometry":{"type":"Point","coordinates":[-121.216962,38.648653]}},{"properties":{"city":"Sacramento","latitude":38.557168,"zip":"95819","street":"6010 Sandlin Way","longitude":-121.431903,"id":"a6g5ee34u7pk","data":1,"state":"CA"},"type":"Feature","geometry":{"type":"Point","coordinates":[-121.431903,38.557168]}},{"properties":{"city":"Sacramento","latitude":38.465516,"zip":"95823","street":"10 Goodwin Circle","longitude":-121.444007,"id":"a6g5edzpck47","data":1,"state":"CA"},"type":"Feature","geometry":{"type":"Point","coordinates":[-121.444007,38.465516]}},{"properties":{"city":"Sacramento","latitude":38.572438,"zip":"95819","street":"5871 Shepard Ave","longitude":-121.426557,"id":"a6g5ee5pte3v","data":1,"state":"CA"},"type":"Feature","geometry":{"type":"Point","coordinates":[-121.426557,38.572438]}},{"properties":{"city":"Sacramento","latitude":38.510965,"zip":"95831","street":"6301 Longridge Way","longitude":-121.508271,"id":"a6g5ee4z4nqd","data":1,"state":"CA"},"type":"Feature","geometry":{"type":"Point","coordinates":[-121.508271,38.510965]}},{"properties":{"city":"Sacramento","latitude":38.579429,"zip":"95811","street":"805 18th Street #C","longitude":-121.481648,"id":"a6g5ee28ynjr","data":1,"state":"CA"},"type":"Feature","geometry":{"type":"Point","coordinates":[-121.481648,38.579429]}},{"properties":{"city":"Davis","latitude":38.550504,"zip":"95616","street":"807 Lake Terrace Circle","longitude":-121.788305,"id":"a6g5ee1b5chs","data":1,"state":"CA"},"type":"Feature","geometry":{"type":"Point","coordinates":[-121.788305,38.550504]}},{"properties":{"city":"Antelope","latitude":38.711162,"zip":"95843","street":"4520 Antelope Park Way","longitude":-121.359472,"id":"a6g5edziheag","data":1,"state":"CA"},"type":"Feature","geometry":{"type":"Point","coordinates":[-121.359472,38.711162]}},{"properties":{"city":"Sacramento","latitude":38.516662,"zip":"95822","street":"1207 42nd Avenue","longitude":-121.513384,"id":"a6g5edxrr4xf","data":1,"state":"CA"},"type":"Feature","geometry":{"type":"Point","coordinates":[-121.513384,38.516662]}},{"properties":{"city":"El Dorado Hills","latitude":38.6557,"zip":"95762","street":"2021 Old Bass Lake Rd.","longitude":-121.033757,"id":"a6g5ee75sapg","data":1,"state":"CA"},"type":"Feature","geometry":{"type":"Point","coordinates":[-121.033757,38.6557]}},{"properties":{"city":"Folsom","latitude":38.697297,"zip":"95630","street":"9824 Oakplace West","longitude":-121.178695,"id":"a6g5edw4vf9c","data":1,"state":"CA"},"type":"Feature","geometry":{"type":"Point","coordinates":[-121.178695,38.697297]}},{"properties":{"city":"Carmichael","latitude":38.587571,"zip":"95608","street":"1232 Beard Way","longitude":-121.338923,"id":"a6g5ee2yg2rg","data":1,"state":"CA"},"type":"Feature","geometry":{"type":"Point","coordinates":[-121.338923,38.587571]}},{"properties":{"city":"Sacramento","latitude":38.566551,"zip":"95827","street":"3093 Explorer Drive","longitude":-121.332813,"id":"a6g5edw1ikym","data":1,"state":"CA"},"type":"Feature","geometry":{"type":"Point","coordinates":[-121.332813,38.566551]}},{"properties":{"city":"Sacramento","latitude":38.578043,"zip":"95864","street":"731 La Sierra Drive","longitude":-121.380342,"id":"a6g5ee4kumar","data":1,"state":"CA"},"type":"Feature","geometry":{"type":"Point","coordinates":[-121.380342,38.578043]}},{"properties":{"city":"Sacramento","latitude":38.551386,"zip":"95817","street":"2632 Santa Cruz Way","longitude":-121.460333,"id":"a6g5ee4b5z5g","data":1,"state":"CA"},"type":"Feature","geometry":{"type":"Point","coordinates":[-121.460333,38.551386]}},{"properties":{"city":"Gold River","latitude":38.623953,"zip":"95670","street":"11473 Huntington Village Lane","longitude":-121.258142,"id":"a6g5ee2s5ytn","data":1,"state":"CA"},"type":"Feature","geometry":{"type":"Point","coordinates":[-121.258142,38.623953]}},{"properties":{"city":"Fair Oaks","latitude":38.666388,"zip":"95628","street":"8140 Maderia Port Lane","longitude":-121.260285,"id":"a6g5edukkg43","data":1,"state":"CA"},"type":"Feature","geometry":{"type":"Point","coordinates":[-121.260285,38.666388]}},{"properties":{"city":"Roseville","latitude":38.759261,"zip":"95661","street":"1937 Eagle Glen Drive","longitude":-121.237005,"id":"a6g5ee0gcaev","data":1,"state":"CA"},"type":"Feature","geometry":{"type":"Point","coordinates":[-121.237005,38.759261]}},{"properties":{"city":"Gold RIver","latitude":38.618142,"zip":"95670","street":"2339 New Eureka Way","longitude":-121.25856,"id":"a6g5edwo1es0","data":1,"state":"CA"},"type":"Feature","geometry":{"type":"Point","coordinates":[-121.25856,38.618142]}},{"properties":{"city":"Alta","latitude":39.25306,"zip":"95701","street":"PO Box 1023","longitude":-120.744548,"id":"a6g5ee6d8oze","data":1,"state":"CA"},"type":"Feature","geometry":{"type":"Point","coordinates":[-120.744548,39.25306]}},{"properties":{"city":"Sacramento","latitude":38.596051,"zip":"95864","street":"1710 Cathay Way","longitude":-121.367683,"id":"a6g5ee15ttfq","data":1,"state":"CA"},"type":"Feature","geometry":{"type":"Point","coordinates":[-121.367683,38.596051]}},{"properties":{"city":"Sacramento","latitude":38.576479,"zip":"95819","street":"4424 B Street","longitude":-121.444577,"id":"a6g5edwmp7xy","data":1,"state":"CA"},"type":"Feature","geometry":{"type":"Point","coordinates":[-121.444577,38.576479]}},{"properties":{"city":"Sacramento","latitude":38.602939,"zip":"95815","street":"520 Southgate Road","longitude":-121.455358,"id":"a6g5edwzypan","data":1,"state":"CA"},"type":"Feature","geometry":{"type":"Point","coordinates":[-121.455358,38.602939]}},{"properties":{"city":"sacramento","latitude":38.569252,"zip":"95811","street":"1007  T st.","longitude":-121.498025,"id":"a6g5ee5dgqyb","data":1,"state":"CA"},"type":"Feature","geometry":{"type":"Point","coordinates":[-121.498025,38.569252]}},{"properties":{"city":"Sacramento","latitude":38.664191,"zip":"95841","street":"4954 Summerwood Circle","longitude":-121.349173,"id":"a6g5edwmlvdn","data":1,"state":"CA"},"type":"Feature","geometry":{"type":"Point","coordinates":[-121.349173,38.664191]}},{"properties":{"city":"Davis","latitude":38.574282,"zip":"95616","street":"242 Sandpiper Drive","longitude":-121.748767,"id":"a6g5edwc8dlo","data":1,"state":"CA"},"type":"Feature","geometry":{"type":"Point","coordinates":[-121.748767,38.574282]}},{"properties":{"city":"Sacramento","latitude":38.481422,"zip":"95831","street":"15 Paisan Court","longitude":-121.515321,"id":"a6g5ee1ff4nv","data":1,"state":"CA"},"type":"Feature","geometry":{"type":"Point","coordinates":[-121.515321,38.481422]}},{"properties":{"city":"Sacramento","latitude":38.513397,"zip":"95831","street":"11 Ripple Court","longitude":-121.540699,"id":"a6g5edsl9fkj","data":1,"state":"CA"},"type":"Feature","geometry":{"type":"Point","coordinates":[-121.540699,38.513397]}},{"properties":{"city":"Sacramento","latitude":38.480533,"zip":"95831","street":"975 Cobble Shores Drive","longitude":-121.524129,"id":"a6g5edzsbj2w","data":1,"state":"CA"},"type":"Feature","geometry":{"type":"Point","coordinates":[-121.524129,38.480533]}},{"properties":{"city":"Woodland","latitude":38.663921,"zip":"95776","street":"1020 Farnham Ave.","longitude":-121.730752,"id":"a6g5eds60yn1","data":1,"state":"CA"},"type":"Feature","geometry":{"type":"Point","coordinates":[-121.730752,38.663921]}},{"properties":{"city":"Sacramento","latitude":38.559787,"zip":"95819","street":"1624 49th Street","longitude":-121.445781,"id":"a6g5ee5kdhc3","data":1,"state":"CA"},"type":"Feature","geometry":{"type":"Point","coordinates":[-121.445781,38.559787]}},{"properties":{"city":"Sacramento","latitude":38.55153,"zip":"95826","street":"3421 Grenoble Wway","longitude":-121.358651,"id":"a6g5edzr3x2d","data":1,"state":"CA"},"type":"Feature","geometry":{"type":"Point","coordinates":[-121.358651,38.55153]}},{"properties":{"city":"Lincoln","latitude":38.86288,"zip":"95648","street":"1860 Homewood Lane","longitude":-121.267086,"id":"a6g5ee53gs8c","data":1,"state":"CA"},"type":"Feature","geometry":{"type":"Point","coordinates":[-121.267086,38.86288]}},{"properties":{"city":"Medesto","latitude":37.69445,"zip":"95357","street":"3706 Roselle Sve","longitude":-120.939839,"id":"a6g5edzuw2re","data":1,"state":"CA"},"type":"Feature","geometry":{"type":"Point","coordinates":[-120.939839,37.69445]}},{"properties":{"city":"Sacramento","latitude":38.568326,"zip":"95825","street":"11 Colby Court","longitude":-121.410519,"id":"a6g5edz8x3c9","data":1,"state":"CA"},"type":"Feature","geometry":{"type":"Point","coordinates":[-121.410519,38.568326]}},{"properties":{"city":"Lincoln","latitude":38.86288,"zip":"95648","street":"1860 Homewood Lane","longitude":-121.267086,"id":"a6g5edtpz1py","data":1,"state":"CA"},"type":"Feature","geometry":{"type":"Point","coordinates":[-121.267086,38.86288]}},{"properties":{"city":"Folsom","latitude":38.686541,"zip":"95630","street":"175 Briggs Ranch Drive","longitude":-121.134147,"id":"a6g5edxcjftl","data":1,"state":"CA"},"type":"Feature","geometry":{"type":"Point","coordinates":[-121.134147,38.686541]}},{"properties":{"city":"Sacramento","latitude":38.568061,"zip":"95816","street":"3146 N Street","longitude":-121.466194,"id":"a6g5edwyi2rj","data":1,"state":"CA"},"type":"Feature","geometry":{"type":"Point","coordinates":[-121.466194,38.568061]}},{"properties":{"city":"Carmichael","latitude":38.643055,"zip":"95608","street":"4244 Callanan Court","longitude":-121.316933,"id":"a6g5edw4itu4","data":1,"state":"CA"},"type":"Feature","geometry":{"type":"Point","coordinates":[-121.316933,38.643055]}},{"properties":{"city":"Orangevale","latitude":38.682521,"zip":"95662","street":"6438 Innsbrock Way","longitude":-121.248043,"id":"a6g5edrwj68d","data":1,"state":"CA"},"type":"Feature","geometry":{"type":"Point","coordinates":[-121.248043,38.682521]}},{"properties":{"city":"Rancho Murieta","latitude":38.506705,"zip":"95683","street":"6611 Camino Del Lago","longitude":-121.076541,"id":"a6g5ee31uole","data":1,"state":"CA"},"type":"Feature","geometry":{"type":"Point","coordinates":[-121.076541,38.506705]}},{"properties":{"city":"Rancho Cordova","latitude":38.578153,"zip":"95670","street":"3401 Durello Circle","longitude":-121.27721,"id":"a6g5ee2i4kbm","data":1,"state":"CA"},"type":"Feature","geometry":{"type":"Point","coordinates":[-121.27721,38.578153]}},{"properties":{"city":"Rancho Cordova","latitude":38.578153,"zip":"95670","street":"3401 Durello Circle","longitude":-121.27721,"id":"a6g5ee07gknl","data":1,"state":"CA"},"type":"Feature","geometry":{"type":"Point","coordinates":[-121.27721,38.578153]}},{"properties":{"city":"Sacramento","latitude":38.579869,"zip":"95864","street":"811 La Goleta Way","longitude":-121.374563,"id":"a6g5ee373act","data":1,"state":"CA"},"type":"Feature","geometry":{"type":"Point","coordinates":[-121.374563,38.579869]}},{"properties":{"city":"Folsom","latitude":38.688723,"zip":"95630","street":"105 Crow Canyon Drive","longitude":-121.187468,"id":"a6g5edy9dsbr","data":1,"state":"CA"},"type":"Feature","geometry":{"type":"Point","coordinates":[-121.187468,38.688723]}},{"properties":{"city":"Carmichael","latitude":38.641354,"zip":"95608","street":"4221 Tyrone Way","longitude":-121.344059,"id":"a6g5edyoox0w","data":1,"state":"CA"},"type":"Feature","geometry":{"type":"Point","coordinates":[-121.344059,38.641354]}},{"properties":{"city":"Sacramento","latitude":38.566731,"zip":"95819","street":"PO Box 19260","longitude":-121.437093,"id":"a6g5ee7f8ywv","data":1,"state":"CA"},"type":"Feature","geometry":{"type":"Point","coordinates":[-121.437093,38.566731]}},{"properties":{"city":"Fair Oaks","latitude":38.634743,"zip":"95628","street":"3950 Oakhurst Circle","longitude":-121.273046,"id":"a6g5edyr0b2v","data":1,"state":"CA"},"type":"Feature","geometry":{"type":"Point","coordinates":[-121.273046,38.634743]}},{"properties":{"city":"Elk Grove","latitude":38.414987,"zip":"95758","street":"4945 St. Augustine Drive","longitude":-121.445012,"id":"a6g5ee30q0tv","data":1,"state":"CA"},"type":"Feature","geometry":{"type":"Point","coordinates":[-121.445012,38.414987]}},{"properties":{"city":"Roseville","latitude":38.757798,"zip":"95747","street":"1519 Whitstable Drive","longitude":-121.343088,"id":"a6g5edtwcojf","data":1,"state":"CA"},"type":"Feature","geometry":{"type":"Point","coordinates":[-121.343088,38.757798]}},{"properties":{"city":"Sacramento","latitude":38.504384,"zip":"95822","street":"6719 Middlecoff Way","longitude":-121.488497,"id":"a6g5edvwne24","data":1,"state":"CA"},"type":"Feature","geometry":{"type":"Point","coordinates":[-121.488497,38.504384]}},{"properties":{"city":"Sacramento","latitude":38.680077,"zip":"95835","street":"5705 Northborough Drive","longitude":-121.51624,"id":"a6g5edwpcmyk","data":1,"state":"CA"},"type":"Feature","geometry":{"type":"Point","coordinates":[-121.51624,38.680077]}},{"properties":{"city":"Rancho Murieta","latitude":38.505963,"zip":"95683","street":"14701 Guadalupe Drive","longitude":-121.090115,"id":"a6g5edsy0whu","data":1,"state":"CA"},"type":"Feature","geometry":{"type":"Point","coordinates":[-121.090115,38.505963]}},{"properties":{"city":"Sacramento","latitude":38.514749,"zip":"95831","street":"703 Rivercrest Drive","longitude":-121.535343,"id":"a6g5ee212x5j","data":1,"state":"CA"},"type":"Feature","geometry":{"type":"Point","coordinates":[-121.535343,38.514749]}},{"properties":{"city":"Sacramento","latitude":38.545777,"zip":"95818","street":"1940 9th Avenue","longitude":-121.492765,"id":"a6g5ee7bqg8x","data":1,"state":"CA"},"type":"Feature","geometry":{"type":"Point","coordinates":[-121.492765,38.545777]}},{"properties":{"city":"Sacramento","latitude":38.60143,"zip":"95815","street":"178 Baxter Avenue","longitude":-121.461301,"id":"a6g5ee7f19sc","data":1,"state":"CA"},"type":"Feature","geometry":{"type":"Point","coordinates":[-121.461301,38.60143]}},{"properties":{"city":"Elk Grove","latitude":38.431079,"zip":"95624","street":"8873 White Peacock ct.","longitude":-121.387179,"id":"a6g5ee63vhfv","data":1,"state":"CA"},"type":"Feature","geometry":{"type":"Point","coordinates":[-121.387179,38.431079]}},{"properties":{"city":"Sacramento","latitude":38.577369,"zip":"95816","street":"2423 H Street","longitude":-121.473236,"id":"a6g5edtcvsk1","data":1,"state":"CA"},"type":"Feature","geometry":{"type":"Point","coordinates":[-121.473236,38.577369]}},{"properties":{"city":"El Dorado Hills","latitude":38.668357,"zip":"95762","street":"4910 Alondra court","longitude":-121.071311,"id":"a6g5edzj3gtl","data":1,"state":"CA"},"type":"Feature","geometry":{"type":"Point","coordinates":[-121.071311,38.668357]}},{"properties":{"city":"Sacramento","latitude":38.481601,"zip":"95831","street":"5 Trotter Court","longitude":-121.539316,"id":"a6g5ee7jho2n","data":1,"state":"CA"},"type":"Feature","geometry":{"type":"Point","coordinates":[-121.539316,38.481601]}},{"properties":{"city":"Davis","latitude":38.537297,"zip":"95618","street":"1642 La Habra Court","longitude":-121.721702,"id":"a6g5ee6usbji","data":1,"state":"CA"},"type":"Feature","geometry":{"type":"Point","coordinates":[-121.721702,38.537297]}},{"properties":{"city":"North Highlands","latitude":38.652445,"zip":"95660","street":"3810 Donna Circle","longitude":-121.375795,"id":"a6g5ee0pv0ad","data":1,"state":"CA"},"type":"Feature","geometry":{"type":"Point","coordinates":[-121.375795,38.652445]}},{"properties":{"city":"Sacramento","latitude":38.563715,"zip":"95825","street":"213 Elmhurst","longitude":-121.415307,"id":"a6g5edub2cne","data":1,"state":"CA"},"type":"Feature","geometry":{"type":"Point","coordinates":[-121.415307,38.563715]}},{"properties":{"city":"Folsom","latitude":38.68979,"zip":"95630","street":"100 Coffee Berry Court","longitude":-121.187041,"id":"a6g5ee7u010h","data":1,"state":"CA"},"type":"Feature","geometry":{"type":"Point","coordinates":[-121.187041,38.68979]}},{"properties":{"city":"Sacramento","latitude":38.589785,"zip":"95864","street":"1372 Fitch Way","longitude":-121.366291,"id":"a6g5ee6gkutd","data":1,"state":"CA"},"type":"Feature","geometry":{"type":"Point","coordinates":[-121.366291,38.589785]}},{"properties":{"city":"Elk Grove","latitude":38.401183,"zip":"95624","street":"8667 Corte Del Sol Ct.","longitude":-121.381538,"id":"a6g5ee0kwo1e","data":1,"state":"CA"},"type":"Feature","geometry":{"type":"Point","coordinates":[-121.381538,38.401183]}},{"properties":{"city":"Sacramento","latitude":38.551408,"zip":"95826","street":"8224 Cedar Crest Way","longitude":-121.402254,"id":"a6g5edw9pwui","data":1,"state":"CA"},"type":"Feature","geometry":{"type":"Point","coordinates":[-121.402254,38.551408]}},{"properties":{"city":"Sacramento","latitude":38.675493,"zip":"95835","street":"100 Mahonia Circle","longitude":-121.510104,"id":"a6g5edry544t","data":1,"state":"CA"},"type":"Feature","geometry":{"type":"Point","coordinates":[-121.510104,38.675493]}},{"properties":{"city":"Sacramento","latitude":38.536828,"zip":"95820","street":"4210 62nd Street","longitude":-121.432741,"id":"a6g5ee0pfx84","data":1,"state":"CA"},"type":"Feature","geometry":{"type":"Point","coordinates":[-121.432741,38.536828]}},{"properties":{"city":"Sacramento","latitude":38.580715,"zip":"95864","street":"2870 Azalea Road","longitude":-121.395945,"id":"a6g5edzxaloh","data":1,"state":"CA"},"type":"Feature","geometry":{"type":"Point","coordinates":[-121.395945,38.580715]}},{"properties":{"city":"Sacramento","latitude":38.544247,"zip":"95818","street":"3665 W. Lincoln Avenue","longitude":-121.496446,"id":"a6g5ee0rah4j","data":1,"state":"CA"},"type":"Feature","geometry":{"type":"Point","coordinates":[-121.496446,38.544247]}},{"properties":{"city":"Sacramento","latitude":38.574631,"zip":"95816","street":"701 34th Street","longitude":-121.45924,"id":"a6g5edwsiw10","data":1,"state":"CA"},"type":"Feature","geometry":{"type":"Point","coordinates":[-121.45924,38.574631]}},{"properties":{"city":"Sacramento","latitude":38.683318,"zip":"95835","street":"2271 Bay Horse Lane","longitude":-121.511982,"id":"a6g5ee6qvt9t","data":1,"state":"CA"},"type":"Feature","geometry":{"type":"Point","coordinates":[-121.511982,38.683318]}},{"properties":{"city":"Sacramento","latitude":38.497191,"zip":"95831","street":"7064 Lazy River Way","longitude":-121.550762,"id":"a6g5ee39yz5c","data":1,"state":"CA"},"type":"Feature","geometry":{"type":"Point","coordinates":[-121.550762,38.497191]}},{"properties":{"city":"Elk Grove","latitude":38.433814,"zip":"95758","street":"8921 Willowspring Court","longitude":-121.432873,"id":"a6g5ee21q24m","data":1,"state":"CA"},"type":"Feature","geometry":{"type":"Point","coordinates":[-121.432873,38.433814]}},{"properties":{"city":"Sacramento","latitude":38.536631,"zip":"95822","street":"4401 Riverside Blvd.","longitude":-121.514476,"id":"a6g5ee2mo3fe","data":1,"state":"CA"},"type":"Feature","geometry":{"type":"Point","coordinates":[-121.514476,38.536631]}},{"properties":{"city":"Fairfield","latitude":38.268706,"zip":"94534","street":"119 Brogon Court","longitude":-122.064126,"id":"a6g5edss2iyh","data":1,"state":"CA"},"type":"Feature","geometry":{"type":"Point","coordinates":[-122.064126,38.268706]}},{"properties":{"city":"Elk Grove","latitude":38.415996,"zip":"95758","street":"9408 Bowmont Way","longitude":-121.416963,"id":"a6g5edy9q71b","data":1,"state":"CA"},"type":"Feature","geometry":{"type":"Point","coordinates":[-121.416963,38.415996]}},{"properties":{"city":"Carmichael","latitude":38.654534,"zip":"95608","street":"6266 Heathcliff Drive","longitude":-121.318155,"id":"a6g5ee34y9z6","data":1,"state":"CA"},"type":"Feature","geometry":{"type":"Point","coordinates":[-121.318155,38.654534]}},{"properties":{"city":"Sacramento","latitude":38.544416,"zip":"95818","street":"1897 11Th Ave.","longitude":-121.493675,"id":"a6g5ee1h4ib8","data":1,"state":"CA"},"type":"Feature","geometry":{"type":"Point","coordinates":[-121.493675,38.544416]}},{"properties":{"city":"Davis","latitude":38.552828,"zip":"95616","street":"850 Linden Lane","longitude":-121.760148,"id":"a6g5ee1g5qyi","data":1,"state":"CA"},"type":"Feature","geometry":{"type":"Point","coordinates":[-121.760148,38.552828]}},{"properties":{"city":"Elk Grove","latitude":38.410421,"zip":"95758","street":"8233 New Gateway Lane","longitude":-121.403218,"id":"a6g5ee5dsbrq","data":1,"state":"CA"},"type":"Feature","geometry":{"type":"Point","coordinates":[-121.403218,38.410421]}},{"properties":{"city":"Woodland","latitude":38.658909,"zip":"95695","street":"1617 Spruce Drive","longitude":-121.778765,"id":"a6g5ee8b310g","data":1,"state":"CA"},"type":"Feature","geometry":{"type":"Point","coordinates":[-121.778765,38.658909]}},{"properties":{"city":"Oakland","latitude":37.779302,"zip":"94605","street":"6256 Boulder Lane","longitude":-122.164581,"id":"a6g5ee5ownyz","data":1,"state":"CA"},"type":"Feature","geometry":{"type":"Point","coordinates":[-122.164581,37.779302]}},{"properties":{"city":"Citrus Heights","latitude":38.697906,"zip":"95610","street":"8064 Alma Mesa Way","longitude":-121.26547,"id":"a6g5ee2iv894","data":1,"state":"CA"},"type":"Feature","geometry":{"type":"Point","coordinates":[-121.26547,38.697906]}},{"properties":{"city":"Davis","latitude":38.557001,"zip":"95616","street":"1242 Fordham Drive","longitude":-121.762808,"id":"a6g5edy732di","data":1,"state":"CA"},"type":"Feature","geometry":{"type":"Point","coordinates":[-121.762808,38.557001]}},{"properties":{"city":"Sacramento","latitude":38.579355,"zip":"95825","street":"653 Woodside Sierra #1","longitude":-121.407324,"id":"a6g5ee0av5y8","data":1,"state":"CA"},"type":"Feature","geometry":{"type":"Point","coordinates":[-121.407324,38.579355]}},{"properties":{"city":"Sacramento","latitude":38.683496,"zip":"95835","street":"5945 Country Manor Place","longitude":-121.517741,"id":"a6g5ee7wqudu","data":1,"state":"CA"},"type":"Feature","geometry":{"type":"Point","coordinates":[-121.517741,38.683496]}},{"properties":{"city":"Sacramento","latitude":38.625674,"zip":"95815","street":"3170 Callecita St","longitude":-121.436878,"id":"a6g5ee280z17","data":1,"state":"CA"},"type":"Feature","geometry":{"type":"Point","coordinates":[-121.436878,38.625674]}},{"properties":{"city":"Fair Oaks","latitude":38.656194,"zip":"95628","street":"4924 Papaya Drive","longitude":-121.3016,"id":"a6g5ee6n5tor","data":1,"state":"CA"},"type":"Feature","geometry":{"type":"Point","coordinates":[-121.3016,38.656194]}},{"properties":{"city":"Granite Bay","latitude":38.719471,"zip":"95746","street":"5056 Westbury Circle","longitude":-121.206387,"id":"a6g5ee2yctai","data":1,"state":"CA"},"type":"Feature","geometry":{"type":"Point","coordinates":[-121.206387,38.719471]}},{"properties":{"city":"Carmichael","latitude":38.670438,"zip":"95608","street":"6107 Sylvester Wy","longitude":-121.321761,"id":"a6g5edubwmmi","data":1,"state":"CA"},"type":"Feature","geometry":{"type":"Point","coordinates":[-121.321761,38.670438]}},{"properties":{"city":"Carmichael","latitude":38.605139,"zip":"95608","street":"78 Covered Bridge","longitude":-121.322991,"id":"a6g5edzq531l","data":1,"state":"CA"},"type":"Feature","geometry":{"type":"Point","coordinates":[-121.322991,38.605139]}},{"properties":{"city":"Sacramento","latitude":38.56411,"zip":"95819","street":"4100 Folsom Blvd.","longitude":-121.453746,"id":"a6g5ee4hdn52","data":1,"state":"CA"},"type":"Feature","geometry":{"type":"Point","coordinates":[-121.453746,38.56411]}},{"properties":{"city":"Sacramento","latitude":38.546314,"zip":"95818","street":"1551 Tenth Avenue","longitude":-121.499171,"id":"a6g5edugb99r","data":1,"state":"CA"},"type":"Feature","geometry":{"type":"Point","coordinates":[-121.499171,38.546314]}},{"properties":{"city":"Sacramento","latitude":38.512698,"zip":"95831","street":"42 Quay Court, #54","longitude":-121.53146,"id":"a6g5ee08d7kn","data":1,"state":"CA"},"type":"Feature","geometry":{"type":"Point","coordinates":[-121.53146,38.512698]}},{"properties":{"city":"Sacramento","latitude":38.577966,"zip":"95814","street":"1431 3rd Street #16","longitude":-121.504855,"id":"a6g5ee1zcv8h","data":1,"state":"CA"},"type":"Feature","geometry":{"type":"Point","coordinates":[-121.504855,38.577966]}},{"properties":{"city":"Gold River","latitude":38.631919,"zip":"95670","street":"1957 Empire Oaks Court","longitude":-121.248813,"id":"a6g5ee6wjfml","data":1,"state":"CA"},"type":"Feature","geometry":{"type":"Point","coordinates":[-121.248813,38.631919]}},{"properties":{"city":"West Sacramento","latitude":38.542916,"zip":"95691","street":"2812 Clicker Court","longitude":-121.552995,"id":"a6g5edypz2ck","data":1,"state":"CA"},"type":"Feature","geometry":{"type":"Point","coordinates":[-121.552995,38.542916]}},{"properties":{"city":"Sacramento","latitude":38.662453,"zip":"95835","street":"4850 Natomas Blvd. #225","longitude":-121.510204,"id":"a6g5ee2iheil","data":1,"state":"CA"},"type":"Feature","geometry":{"type":"Point","coordinates":[-121.510204,38.662453]}},{"properties":{"city":"El Dorado Hills","latitude":38.682279,"zip":"95762","street":"5007 Skellig Rock Way","longitude":-121.040782,"id":"a6g5ee0liu7h","data":1,"state":"CA"},"type":"Feature","geometry":{"type":"Point","coordinates":[-121.040782,38.682279]}},{"properties":{"city":"Antelope","latitude":38.716839,"zip":"95843","street":"3600 North Loop Blvd","longitude":-121.374184,"id":"a6g5edy2yf97","data":1,"state":"CA"},"type":"Feature","geometry":{"type":"Point","coordinates":[-121.374184,38.716839]}},{"properties":{"city":"Sacramento","latitude":38.534986,"zip":"95822","street":"4421 Moss Drive","longitude":-121.506264,"id":"a6g5edyen7jt","data":1,"state":"CA"},"type":"Feature","geometry":{"type":"Point","coordinates":[-121.506264,38.534986]}},{"properties":{"city":"Davis","latitude":38.544539,"zip":"95618","street":"2724 Brentwood Pl.","longitude":-121.719356,"id":"a6g5edzkql8o","data":1,"state":"CA"},"type":"Feature","geometry":{"type":"Point","coordinates":[-121.719356,38.544539]}},{"properties":{"city":"Sacramento","latitude":38.518908,"zip":"95831","street":"5953 Riverside Blvd. #126","longitude":-121.523922,"id":"a6g5edvj2can","data":1,"state":"CA"},"type":"Feature","geometry":{"type":"Point","coordinates":[-121.523922,38.518908]}},{"properties":{"city":"Sacramento","latitude":38.502008,"zip":"95831","street":"1233 Monte Vista Way","longitude":-121.512173,"id":"a6g5ee0zihzn","data":1,"state":"CA"},"type":"Feature","geometry":{"type":"Point","coordinates":[-121.512173,38.502008]}},{"properties":{"city":"Sacramento","latitude":38.583169,"zip":"95816","street":"215 25Th St.","longitude":-121.469651,"id":"a6g5edverq6h","data":1,"state":"CA"},"type":"Feature","geometry":{"type":"Point","coordinates":[-121.469651,38.583169]}},{"properties":{"city":"Sacramento","latitude":38.553664,"zip":"95818","street":"1385 Vallejo Way","longitude":-121.498397,"id":"a6g5edugbe9x","data":1,"state":"CA"},"type":"Feature","geometry":{"type":"Point","coordinates":[-121.498397,38.553664]}},{"properties":{"city":"Gold River","latitude":38.62017,"zip":"95670","street":"11946 Prospect Hill Drive","longitude":-121.250889,"id":"a6g5ee4da6ns","data":1,"state":"CA"},"type":"Feature","geometry":{"type":"Point","coordinates":[-121.250889,38.62017]}},{"properties":{"city":"Davis","latitude":38.560072,"zip":"95616","street":"1905 Anderson Road","longitude":-121.758567,"id":"a6g5edyo6sek","data":1,"state":"CA"},"type":"Feature","geometry":{"type":"Point","coordinates":[-121.758567,38.560072]}},{"properties":{"city":"Sacramento","latitude":38.672939,"zip":"95835","street":"5350 Dunlay Dr","longitude":-121.51414,"id":"a6g5edz9pmwb","data":1,"state":"CA"},"type":"Feature","geometry":{"type":"Point","coordinates":[-121.51414,38.672939]}},{"properties":{"city":"Pollock Pines","latitude":38.71057,"zip":"95726","street":"5624 Daisy Circle","longitude":-120.610865,"id":"a6g5ee0ut389","data":1,"state":"CA"},"type":"Feature","geometry":{"type":"Point","coordinates":[-120.610865,38.71057]}},{"properties":{"city":"Elk Grove","latitude":38.394295,"zip":"95624","street":"9317 Trebbiano Cr.","longitude":-121.348864,"id":"a6g5ee5n8e80","data":1,"state":"CA"},"type":"Feature","geometry":{"type":"Point","coordinates":[-121.348864,38.394295]}},{"properties":{"city":"Sacramento","latitude":38.57649,"zip":"95814","street":"200 P St.","longitude":-121.506892,"id":"a6g5ee0dymbk","data":1,"state":"CA"},"type":"Feature","geometry":{"type":"Point","coordinates":[-121.506892,38.57649]}},{"properties":{"city":"Lincoln","latitude":38.851245,"zip":"95648","street":"100 Sage Hill Lane","longitude":-121.265617,"id":"a6g5ee870b1m","data":1,"state":"CA"},"type":"Feature","geometry":{"type":"Point","coordinates":[-121.265617,38.851245]}},{"properties":{"city":"Woodland","latitude":38.66775,"zip":"95695","street":"1013 Cleveland Street","longitude":-121.779447,"id":"a6g5ee0iwvon","data":1,"state":"CA"},"type":"Feature","geometry":{"type":"Point","coordinates":[-121.779447,38.66775]}},{"properties":{"city":"Sacramento","latitude":38.54538,"zip":"95818","street":"1640 11th Ave.","longitude":-121.49862,"id":"a6g5ee0d95je","data":1,"state":"CA"},"type":"Feature","geometry":{"type":"Point","coordinates":[-121.49862,38.54538]}},{"properties":{"city":"Sacramento","latitude":38.544602,"zip":"95818","street":"1611 12th Avenue","longitude":-121.499052,"id":"a6g5ee5j3q7x","data":1,"state":"CA"},"type":"Feature","geometry":{"type":"Point","coordinates":[-121.499052,38.544602]}},{"properties":{"city":"Sacramento","latitude":38.600327,"zip":"85818","street":"1956 Middleberry Rd.","longitude":-121.422239,"id":"a6g5edtzh9lk","data":1,"state":"CA"},"type":"Feature","geometry":{"type":"Point","coordinates":[-121.422239,38.600327]}},{"properties":{"city":"Citrus Heights","latitude":38.710621,"zip":"95610","street":"8094 forest Glen Way","longitude":-121.262134,"id":"a6g5edyfjoxe","data":1,"state":"CA"},"type":"Feature","geometry":{"type":"Point","coordinates":[-121.262134,38.710621]}},{"properties":{"city":"Sacramento","latitude":38.498519,"zip":"95831","street":"9 Capay Court","longitude":-121.530617,"id":"a6g5ee44723n","data":1,"state":"CA"},"type":"Feature","geometry":{"type":"Point","coordinates":[-121.530617,38.498519]}},{"properties":{"city":"Davis","latitude":38.546699,"zip":"95617","street":"P. O. Box 707","longitude":-121.744576,"id":"a6g5ee0sslk8","data":1,"state":"CA"},"type":"Feature","geometry":{"type":"Point","coordinates":[-121.744576,38.546699]}},{"properties":{"city":"Sacramento","latitude":38.554809,"zip":"95818","street":"2790 Land Park Drive","longitude":-121.496364,"id":"a6g5edxwdp1s","data":1,"state":"CA"},"type":"Feature","geometry":{"type":"Point","coordinates":[-121.496364,38.554809]}},{"properties":{"city":"Sacramento","latitude":38.541575,"zip":"95820","street":"5955 12th Avenue","longitude":-121.436159,"id":"a6g5ee7dxqyz","data":1,"state":"CA"},"type":"Feature","geometry":{"type":"Point","coordinates":[-121.436159,38.541575]}},{"properties":{"city":"Sacramento","latitude":38.49525,"zip":"95831","street":"39 Riverstar Circle","longitude":-121.528261,"id":"a6g5ee8dzwcq","data":1,"state":"CA"},"type":"Feature","geometry":{"type":"Point","coordinates":[-121.528261,38.49525]}},{"properties":{"city":"El Dorado Hills","latitude":38.634378,"zip":"95762","street":"3072 Four Seasons Drive","longitude":-121.075367,"id":"a6g5edyrbi9e","data":1,"state":"CA"},"type":"Feature","geometry":{"type":"Point","coordinates":[-121.075367,38.634378]}},{"properties":{"city":"Sacramento","latitude":38.579065,"zip":"95865","street":"P.O. Box 255753","longitude":-121.491014,"id":"a6g5ee1pf68b","data":1,"state":"CA"},"type":"Feature","geometry":{"type":"Point","coordinates":[-121.491014,38.579065]}},{"properties":{"city":"Sacramento","latitude":38.564895,"zip":"95816","street":"2517 S Street #10","longitude":-121.477219,"id":"a6g5ee08mqn7","data":1,"state":"CA"},"type":"Feature","geometry":{"type":"Point","coordinates":[-121.477219,38.564895]}},{"properties":{"city":"Davis","latitude":38.566608,"zip":"95618","street":"1804 Titian Place","longitude":-121.726088,"id":"a6g5edusf3kf","data":1,"state":"CA"},"type":"Feature","geometry":{"type":"Point","coordinates":[-121.726088,38.566608]}},{"properties":{"city":"Sacramento","latitude":38.615853,"zip":"95815","street":"1307 Shobar Avenue","longitude":-121.437156,"id":"a6g5ee1nqnzm","data":1,"state":"CA"},"type":"Feature","geometry":{"type":"Point","coordinates":[-121.437156,38.615853]}},{"properties":{"city":"Fair Oaks","latitude":38.661796,"zip":"95628","street":"8743 Tondella Way","longitude":-121.232382,"id":"a6g5ee77e2n2","data":1,"state":"CA"},"type":"Feature","geometry":{"type":"Point","coordinates":[-121.232382,38.661796]}},{"properties":{"city":"Carmichael","latitude":38.635156,"zip":"95608","street":"6412 B Solitary Ln","longitude":-121.316154,"id":"a6g5ee4z1j5w","data":1,"state":"CA"},"type":"Feature","geometry":{"type":"Point","coordinates":[-121.316154,38.635156]}},{"properties":{"city":"Sacramento","latitude":38.633807,"zip":"95821","street":"4472 Edison Avenue","longitude":-121.358721,"id":"a6g5edynkjtc","data":1,"state":"CA"},"type":"Feature","geometry":{"type":"Point","coordinates":[-121.358721,38.633807]}},{"properties":{"city":"Davis","latitude":38.558615,"zip":"95616","street":"3427 Oyster Bay Avenue","longitude":-121.793148,"id":"a6g5ee5l6yef","data":1,"state":"CA"},"type":"Feature","geometry":{"type":"Point","coordinates":[-121.793148,38.558615]}},{"properties":{"city":"Fair Oaks","latitude":38.659591,"zip":"95628","street":"7904 Willowcrest Way","longitude":-121.266685,"id":"a6g5edtirqcu","data":1,"state":"CA"},"type":"Feature","geometry":{"type":"Point","coordinates":[-121.266685,38.659591]}},{"properties":{"city":"Citrus Heights","latitude":38.674108,"zip":"95610","street":"5863 Our Way","longitude":-121.283433,"id":"a6g5edrytje1","data":1,"state":"CA"},"type":"Feature","geometry":{"type":"Point","coordinates":[-121.283433,38.674108]}},{"properties":{"city":"Sacramento","latitude":38.618788,"zip":"95833","street":"2923 Baronet Way","longitude":-121.511545,"id":"a6g5ee3fez9i","data":1,"state":"CA"},"type":"Feature","geometry":{"type":"Point","coordinates":[-121.511545,38.618788]}},{"properties":{"city":"Rancho Cordova","latitude":38.553722,"zip":"95742","street":"11766 Bagota Way","longitude":-121.239573,"id":"a6g5ee100z0y","data":1,"state":"CA"},"type":"Feature","geometry":{"type":"Point","coordinates":[-121.239573,38.553722]}},{"properties":{"city":"Fair Oaks","latitude":38.643342,"zip":"95628","street":"4300 Winding Woods Way","longitude":-121.238686,"id":"a6g5edsfykrq","data":1,"state":"CA"},"type":"Feature","geometry":{"type":"Point","coordinates":[-121.238686,38.643342]}},{"properties":{"city":"Elk Grove","latitude":38.41013,"zip":"95758","street":"9588 Lakepoint Drive","longitude":-121.465921,"id":"a6g5edxox10w","data":1,"state":"CA"},"type":"Feature","geometry":{"type":"Point","coordinates":[-121.465921,38.41013]}},{"properties":{"city":"Elk Grove","latitude":38.432073,"zip":"95758","street":"5123 Surreyglen Way","longitude":-121.444765,"id":"a6g5ee373yqj","data":1,"state":"CA"},"type":"Feature","geometry":{"type":"Point","coordinates":[-121.444765,38.432073]}},{"properties":{"city":"Roseville","latitude":38.763204,"zip":"95661","street":"1425 Falcon Pointe Ln","longitude":-121.2434,"id":"a6g5ee844xrl","data":1,"state":"CA"},"type":"Feature","geometry":{"type":"Point","coordinates":[-121.2434,38.763204]}},{"properties":{"city":"Sacramento","latitude":38.601975,"zip":"95815","street":"506 Garden Street","longitude":-121.455716,"id":"a6g5edvk97u9","data":1,"state":"CA"},"type":"Feature","geometry":{"type":"Point","coordinates":[-121.455716,38.601975]}},{"properties":{"city":"Davis","latitude":38.555142,"zip":"95616","street":"2820 Ottowa Ave.","longitude":-121.78506,"id":"a6g5edsefhvo","data":1,"state":"CA"},"type":"Feature","geometry":{"type":"Point","coordinates":[-121.78506,38.555142]}},{"properties":{"city":"West Sacramento","latitude":38.53817,"zip":"95691","street":"3252 Hornby Island Street","longitude":-121.579191,"id":"a6g5ee4dswut","data":1,"state":"CA"},"type":"Feature","geometry":{"type":"Point","coordinates":[-121.579191,38.53817]}},{"properties":{"city":"Sacramento","latitude":38.579895,"zip":"95864","street":"815 El Chorro Way","longitude":-121.369254,"id":"a6g5ee4pdd4i","data":1,"state":"CA"},"type":"Feature","geometry":{"type":"Point","coordinates":[-121.369254,38.579895]}},{"properties":{"city":"Sacramento","latitude":38.546708,"zip":"95818","street":"2761 Montgomery Way","longitude":-121.476642,"id":"a6g5edz65b6s","data":1,"state":"CA"},"type":"Feature","geometry":{"type":"Point","coordinates":[-121.476642,38.546708]}},{"properties":{"city":"Sacramento","latitude":38.500929,"zip":"95831","street":"749 Westlite Circle","longitude":-121.533719,"id":"a6g5ee04ztp5","data":1,"state":"CA"},"type":"Feature","geometry":{"type":"Point","coordinates":[-121.533719,38.500929]}},{"properties":{"city":"Sacramento","latitude":38.500929,"zip":"95831","street":"749 Westlite Circle","longitude":-121.533719,"id":"a6g5edsj71if","data":1,"state":"CA"},"type":"Feature","geometry":{"type":"Point","coordinates":[-121.533719,38.500929]}},{"properties":{"city":"Fair Oaks","latitude":38.655965,"zip":"95628","street":"4965 Daru Way","longitude":-121.229618,"id":"a6g5edwc1fxz","data":1,"state":"CA"},"type":"Feature","geometry":{"type":"Point","coordinates":[-121.229618,38.655965]}},{"properties":{"city":"Sacramento","latitude":38.567417,"zip":"95811","street":"1809 S St, Ste 101153","longitude":-121.486449,"id":"a6g5ee52wlvm","data":1,"state":"CA"},"type":"Feature","geometry":{"type":"Point","coordinates":[-121.486449,38.567417]}},{"properties":{"city":"Sacramento","latitude":38.554412,"zip":"95818","street":"2743 2nd Ave.# 2","longitude":-121.478386,"id":"a6g5ee0tdhov","data":1,"state":"CA"},"type":"Feature","geometry":{"type":"Point","coordinates":[-121.478386,38.554412]}},{"properties":{"city":"Antelope","latitude":38.7153,"zip":"95843","street":"5013 Beryl Place","longitude":-121.348003,"id":"a6g5edxfds74","data":1,"state":"CA"},"type":"Feature","geometry":{"type":"Point","coordinates":[-121.348003,38.7153]}},{"properties":{"city":"Elk Grove","latitude":38.41328,"zip":"95758","street":"2904 Granite Park Ln","longitude":-121.472704,"id":"a6g5edxhfcby","data":1,"state":"CA"},"type":"Feature","geometry":{"type":"Point","coordinates":[-121.472704,38.41328]}},{"properties":{"city":"Sacramento","latitude":38.542577,"zip":"95822","street":"1242 14th Avenue","longitude":-121.505675,"id":"a6g5edx6w0b4","data":1,"state":"CA"},"type":"Feature","geometry":{"type":"Point","coordinates":[-121.505675,38.542577]}},{"properties":{"city":"Carmichael","latitude":38.636585,"zip":"95608","street":"3939 Walnut Ave #123","longitude":-121.345967,"id":"a6g5edsv9wzc","data":1,"state":"CA"},"type":"Feature","geometry":{"type":"Point","coordinates":[-121.345967,38.636585]}},{"properties":{"city":"Davis","latitude":38.564235,"zip":"95616","street":"2504 Bueno Drive","longitude":-121.746149,"id":"a6g5ee77u1j4","data":1,"state":"CA"},"type":"Feature","geometry":{"type":"Point","coordinates":[-121.746149,38.564235]}},{"properties":{"city":"West Sacramento","latitude":38.544817,"zip":"95691","street":"2829 Almond Street","longitude":-121.521049,"id":"a6g5edvtenls","data":1,"state":"CA"},"type":"Feature","geometry":{"type":"Point","coordinates":[-121.521049,38.544817]}},{"properties":{"city":"Sacramento","latitude":38.565372,"zip":"95825","street":"2016 University Park Drive","longitude":-121.406636,"id":"a6g5ee0zmfls","data":1,"state":"CA"},"type":"Feature","geometry":{"type":"Point","coordinates":[-121.406636,38.565372]}},{"properties":{"city":"Davis","latitude":38.564062,"zip":"95616","street":"2477 Sycamore Lane #j4","longitude":-121.765731,"id":"a6g5ee5xd2ct","data":1,"state":"CA"},"type":"Feature","geometry":{"type":"Point","coordinates":[-121.765731,38.564062]}},{"properties":{"city":"Sacramento","latitude":38.551672,"zip":"95818","street":"600 6Th Avenue","longitude":-121.50971,"id":"a6g5edttzo0v","data":1,"state":"CA"},"type":"Feature","geometry":{"type":"Point","coordinates":[-121.50971,38.551672]}},{"properties":{"city":"Fair Oaks","latitude":38.655723,"zip":"95628","street":"7782 Greenridge Way","longitude":-121.278783,"id":"a6g5ee2ijkuk","data":1,"state":"CA"},"type":"Feature","geometry":{"type":"Point","coordinates":[-121.278783,38.655723]}},{"properties":{"city":"Carmichael","latitude":38.619417,"zip":"95608","street":"3016 Garfield Avenue","longitude":-121.336758,"id":"a6g5ee5i6b8i","data":1,"state":"CA"},"type":"Feature","geometry":{"type":"Point","coordinates":[-121.336758,38.619417]}},{"properties":{"city":"Elk Grove","latitude":38.409734,"zip":"95624","street":"9586 Dapple Gray Place","longitude":-121.340603,"id":"a6g5ee5nkzts","data":1,"state":"CA"},"type":"Feature","geometry":{"type":"Point","coordinates":[-121.340603,38.409734]}},{"properties":{"city":"Sacramento","latitude":38.500349,"zip":"95831","street":"1 Kimmie Court","longitude":-121.526203,"id":"a6g5ee1ylsy6","data":1,"state":"CA"},"type":"Feature","geometry":{"type":"Point","coordinates":[-121.526203,38.500349]}},{"properties":{"city":"Fair Oaks","latitude":38.657494,"zip":"95628","street":"9156 Shady Hollow Way","longitude":-121.213793,"id":"a6g5ee25127v","data":1,"state":"CA"},"type":"Feature","geometry":{"type":"Point","coordinates":[-121.213793,38.657494]}},{"properties":{"city":"Lincoln","latitude":38.869296,"zip":"95648","street":"816 Castleberry Lane","longitude":-121.286535,"id":"a6g5edswmdd6","data":1,"state":"CA"},"type":"Feature","geometry":{"type":"Point","coordinates":[-121.286535,38.869296]}},{"properties":{"city":"Lodi","latitude":38.13615,"zip":"95240","street":"139 North Crescent Avenue","longitude":-121.283161,"id":"a6g5edzu3lol","data":1,"state":"CA"},"type":"Feature","geometry":{"type":"Point","coordinates":[-121.283161,38.13615]}},{"properties":{"city":"Sacramento","latitude":38.546141,"zip":"95818","street":"3225 Freeport Blvd. #313","longitude":-121.490316,"id":"a6g5edzliytw","data":1,"state":"CA"},"type":"Feature","geometry":{"type":"Point","coordinates":[-121.490316,38.546141]}},{"properties":{"city":"Carmichael","latitude":38.585339,"zip":"95608","street":"5209 Yorkville Place","longitude":-121.343609,"id":"a6g5ee4o52er","data":1,"state":"CA"},"type":"Feature","geometry":{"type":"Point","coordinates":[-121.343609,38.585339]}},{"properties":{"city":"Sacramento","latitude":38.589759,"zip":"95825","street":"1329 Howe Ave.","longitude":-121.415477,"id":"a6g5ee662tws","data":1,"state":"CA"},"type":"Feature","geometry":{"type":"Point","coordinates":[-121.415477,38.589759]}},{"properties":{"city":"Sacramento","latitude":38.496148,"zip":"95831","street":"933 Florin Road","longitude":-121.52434,"id":"a6g5edsve646","data":1,"state":"CA"},"type":"Feature","geometry":{"type":"Point","coordinates":[-121.52434,38.496148]}},{"properties":{"city":"Citrus Heights","latitude":38.671633,"zip":"95610","street":"5801 Birdcage St","longitude":-121.275069,"id":"a6g5ee7p92sy","data":1,"state":"CA"},"type":"Feature","geometry":{"type":"Point","coordinates":[-121.275069,38.671633]}},{"properties":{"city":"Sacramento","latitude":38.577273,"zip":"95816","street":"396 36th Way","longitude":-121.454391,"id":"a6g5ee3zplvd","data":1,"state":"CA"},"type":"Feature","geometry":{"type":"Point","coordinates":[-121.454391,38.577273]}},{"properties":{"city":"Granite Bay","latitude":38.725663,"zip":"95746","street":"4910 Knightswood Way","longitude":-121.217669,"id":"a6g5edunskz7","data":1,"state":"CA"},"type":"Feature","geometry":{"type":"Point","coordinates":[-121.217669,38.725663]}},{"properties":{"city":"Sacramento","latitude":38.574074,"zip":"95816","street":"2110 L Street Apt. 211","longitude":-121.479269,"id":"a6g5eds2qe7p","data":1,"state":"CA"},"type":"Feature","geometry":{"type":"Point","coordinates":[-121.479269,38.574074]}},{"properties":{"city":"Sacramento","latitude":38.579491,"zip":"95811","street":"1827 H St","longitude":-121.48117,"id":"a6g5ee7m1hwk","data":1,"state":"CA"},"type":"Feature","geometry":{"type":"Point","coordinates":[-121.48117,38.579491]}},{"properties":{"city":"Roseville","latitude":38.753832,"zip":"95747","street":"1750 Chilton Drive","longitude":-121.324553,"id":"a6g5edry7wki","data":1,"state":"CA"},"type":"Feature","geometry":{"type":"Point","coordinates":[-121.324553,38.753832]}},{"properties":{"city":"Lincoln","latitude":38.849966,"zip":"95648","street":"2260 Lamplight Lane","longitude":-121.275837,"id":"a6g5ee26pmpy","data":1,"state":"CA"},"type":"Feature","geometry":{"type":"Point","coordinates":[-121.275837,38.849966]}},{"properties":{"city":"Sacramento","latitude":38.599877,"zip":"95864","street":"1910 Cathay Way","longitude":-121.367681,"id":"a6g5ee3u0dcm","data":1,"state":"CA"},"type":"Feature","geometry":{"type":"Point","coordinates":[-121.367681,38.599877]}},{"properties":{"city":"Sacramento","latitude":38.567014,"zip":"95819","street":"1100 45th Street","longitude":-121.447778,"id":"a6g5edxshpnu","data":1,"state":"CA"},"type":"Feature","geometry":{"type":"Point","coordinates":[-121.447778,38.567014]}},{"properties":{"city":"Williams","latitude":39.141459,"zip":"95987","street":"2449 Engrahm Road","longitude":-122.15638,"id":"a6g5ee53vqch","data":1,"state":"CA"},"type":"Feature","geometry":{"type":"Point","coordinates":[-122.15638,39.141459]}},{"properties":{"city":"Sacramento","latitude":38.551596,"zip":"95818","street":"2926 24th Street","longitude":-121.483572,"id":"a6g5edzvfu9s","data":1,"state":"CA"},"type":"Feature","geometry":{"type":"Point","coordinates":[-121.483572,38.551596]}},{"properties":{"city":"Sacramento","latitude":38.594244,"zip":"95864","street":"1648 El Nido Way","longitude":-121.379849,"id":"a6g5edx2rzt6","data":1,"state":"CA"},"type":"Feature","geometry":{"type":"Point","coordinates":[-121.379849,38.594244]}},{"properties":{"city":"Carmichael","latitude":38.590223,"zip":"95608","street":"4981 Keane Dr","longitude":-121.344582,"id":"a6g5edsya237","data":1,"state":"CA"},"type":"Feature","geometry":{"type":"Point","coordinates":[-121.344582,38.590223]}},{"properties":{"city":"Sacramento","latitude":38.513208,"zip":"95831","street":"5 Kathy Court","longitude":-121.544589,"id":"a6g5ee2tqe2r","data":1,"state":"CA"},"type":"Feature","geometry":{"type":"Point","coordinates":[-121.544589,38.513208]}},{"properties":{"city":"Sacramento","latitude":38.523828,"zip":"95822","street":"5700 Lonsdale Dr","longitude":-121.518132,"id":"a6g5ee2bh8m2","data":1,"state":"CA"},"type":"Feature","geometry":{"type":"Point","coordinates":[-121.518132,38.523828]}},{"properties":{"city":"Sacramento","latitude":38.488317,"zip":"95823","street":"4931 J Parkway","longitude":-121.442497,"id":"a6g5ee4kg8e4","data":1,"state":"CA"},"type":"Feature","geometry":{"type":"Point","coordinates":[-121.442497,38.488317]}},{"properties":{"city":"Sacramento","latitude":38.532887,"zip":"95822","street":"1435 Sherwood Avenue","longitude":-121.503074,"id":"a6g5edvo1pyf","data":1,"state":"CA"},"type":"Feature","geometry":{"type":"Point","coordinates":[-121.503074,38.532887]}},{"properties":{"city":"Sacramento","latitude":38.579613,"zip":"95816","street":"2400 F Street Suite A","longitude":-121.472532,"id":"a6g5ee0hlp5l","data":1,"state":"CA"},"type":"Feature","geometry":{"type":"Point","coordinates":[-121.472532,38.579613]}},{"properties":{"city":"Sacramento","latitude":38.604554,"zip":"95864","street":"2025 Maryal Drive","longitude":-121.375356,"id":"a6g5ee130cej","data":1,"state":"CA"},"type":"Feature","geometry":{"type":"Point","coordinates":[-121.375356,38.604554]}},{"properties":{"city":"Roseville","latitude":38.767677,"zip":"95747","street":"901 Thoreau Ct","longitude":-121.316053,"id":"a6g5ee0omv0r","data":1,"state":"CA"},"type":"Feature","geometry":{"type":"Point","coordinates":[-121.316053,38.767677]}},{"properties":{"city":"Sacramento","latitude":38.60473,"zip":"95864","street":"1930 Maryal Dr.","longitude":-121.379146,"id":"a6g5ee84sbfx","data":1,"state":"CA"},"type":"Feature","geometry":{"type":"Point","coordinates":[-121.379146,38.60473]}},{"properties":{"city":"Sacramento","latitude":38.57573,"zip":"95814","street":"1500 7Th St","longitude":-121.499929,"id":"a6g5ee68jd9s","data":1,"state":"CA"},"type":"Feature","geometry":{"type":"Point","coordinates":[-121.499929,38.57573]}},{"properties":{"city":"Carmichael","latitude":38.633276,"zip":"95608","street":"3757 Kimberly Way","longitude":-121.349874,"id":"a6g5ee0kfe5f","data":1,"state":"CA"},"type":"Feature","geometry":{"type":"Point","coordinates":[-121.349874,38.633276]}},{"properties":{"city":"Sacramento","latitude":38.577607,"zip":"95819","street":"88 Fallon Lane","longitude":-121.43946,"id":"a6g5edzlp0uh","data":1,"state":"CA"},"type":"Feature","geometry":{"type":"Point","coordinates":[-121.43946,38.577607]}},{"properties":{"city":"Elk Grove","latitude":38.45199,"zip":"95624","street":"8413 Serafino Court","longitude":-121.355859,"id":"a6g5ee00o9n4","data":1,"state":"CA"},"type":"Feature","geometry":{"type":"Point","coordinates":[-121.355859,38.45199]}},{"properties":{"city":"El Dorado Hills","latitude":38.666993,"zip":"95762","street":"5029 Mertola Drive","longitude":-121.063727,"id":"a6g5ee8bbleb","data":1,"state":"CA"},"type":"Feature","geometry":{"type":"Point","coordinates":[-121.063727,38.666993]}},{"properties":{"city":"Sacramento","latitude":38.627044,"zip":"95821","street":"3430 Concetta Way","longitude":-121.359132,"id":"a6g5ee4zlg6j","data":1,"state":"CA"},"type":"Feature","geometry":{"type":"Point","coordinates":[-121.359132,38.627044]}},{"properties":{"city":"Sacramento","latitude":38.623179,"zip":"95821","street":"3842 Thornwood Drive","longitude":-121.375901,"id":"a6g5edzkyoou","data":1,"state":"CA"},"type":"Feature","geometry":{"type":"Point","coordinates":[-121.375901,38.623179]}},{"properties":{"city":"Acampo","latitude":38.215148,"zip":"95220","street":"24995 N. Jack Tone Road","longitude":-121.152545,"id":"a6g5ee003uvs","data":1,"state":"CA"},"type":"Feature","geometry":{"type":"Point","coordinates":[-121.152545,38.215148]}},{"properties":{"city":"Sacramento","latitude":38.580596,"zip":"95811","street":"1810 G Street #3","longitude":-121.480883,"id":"a6g5edwtg07n","data":1,"state":"CA"},"type":"Feature","geometry":{"type":"Point","coordinates":[-121.480883,38.580596]}},{"properties":{"city":"Granite Bay","latitude":38.751113,"zip":"95746","street":"8020 Morningside Drive","longitude":-121.162612,"id":"a6g5ee1uzmq9","data":1,"state":"CA"},"type":"Feature","geometry":{"type":"Point","coordinates":[-121.162612,38.751113]}},{"properties":{"city":"Roseville","latitude":38.762828,"zip":"95678","street":"1333 Harrison Drive","longitude":-121.303667,"id":"a6g5ee48w94q","data":1,"state":"CA"},"type":"Feature","geometry":{"type":"Point","coordinates":[-121.303667,38.762828]}},{"properties":{"city":"Granite Bay","latitude":38.757964,"zip":"95746","street":"7550 Memory Lane","longitude":-121.197728,"id":"a6g5ee6dyrk4","data":1,"state":"CA"},"type":"Feature","geometry":{"type":"Point","coordinates":[-121.197728,38.757964]}},{"properties":{"city":"Woodland","latitude":38.688409,"zip":"95695","street":"86 West Woodland Avenue","longitude":-121.787113,"id":"a6g5ee5tbn79","data":1,"state":"CA"},"type":"Feature","geometry":{"type":"Point","coordinates":[-121.787113,38.688409]}},{"properties":{"city":"Roseville","latitude":38.767706,"zip":"95747","street":"912 Thoreau Court","longitude":-121.316104,"id":"a6g5ee0csc7u","data":1,"state":"CA"},"type":"Feature","geometry":{"type":"Point","coordinates":[-121.316104,38.767706]}},{"properties":{"city":"Davis","latitude":38.564845,"zip":"95618","street":"1906 Manet Place","longitude":-121.727357,"id":"a6g5edsmjol7","data":1,"state":"CA"},"type":"Feature","geometry":{"type":"Point","coordinates":[-121.727357,38.564845]}},{"properties":{"city":"Davis","latitude":38.564845,"zip":"95618","street":"1906 Manet Place","longitude":-121.727357,"id":"a6g5ee6ks9iq","data":1,"state":"CA"},"type":"Feature","geometry":{"type":"Point","coordinates":[-121.727357,38.564845]}},{"properties":{"city":"Davis","latitude":38.558222,"zip":"95616","street":"1314 Hemlock Lane","longitude":-121.736223,"id":"a6g5ee8263rs","data":1,"state":"CA"},"type":"Feature","geometry":{"type":"Point","coordinates":[-121.736223,38.558222]}},{"properties":{"city":"Fair Oaks","latitude":38.64953,"zip":"95628","street":"4621 Oak Glen Way","longitude":-121.252727,"id":"a6g5edwwp6fw","data":1,"state":"CA"},"type":"Feature","geometry":{"type":"Point","coordinates":[-121.252727,38.64953]}},{"properties":{"city":"Sacramento","latitude":38.563039,"zip":"95818","street":"2423 U Street","longitude":-121.479443,"id":"a6g5ee3ihzmf","data":1,"state":"CA"},"type":"Feature","geometry":{"type":"Point","coordinates":[-121.479443,38.563039]}},{"properties":{"city":"Sacramento","latitude":38.513006,"zip":"95831","street":"1263 Norfolk Way","longitude":-121.511284,"id":"a6g5ee7ku31c","data":1,"state":"CA"},"type":"Feature","geometry":{"type":"Point","coordinates":[-121.511284,38.513006]}},{"properties":{"city":"Sacramento","latitude":38.574717,"zip":"95816","street":"911 - 28Th Street, #1","longitude":-121.468829,"id":"a6g5ee5rbo1d","data":1,"state":"CA"},"type":"Feature","geometry":{"type":"Point","coordinates":[-121.468829,38.574717]}},{"properties":{"city":"Sacramento","latitude":38.620532,"zip":"95833","street":"1945 Oak Bluff Way","longitude":-121.504985,"id":"a6g5ee76r93o","data":1,"state":"CA"},"type":"Feature","geometry":{"type":"Point","coordinates":[-121.504985,38.620532]}},{"properties":{"city":"Sacramento","latitude":38.577971,"zip":"95816","street":"810 22nd Street","longitude":-121.476395,"id":"a6g5ee69irip","data":1,"state":"CA"},"type":"Feature","geometry":{"type":"Point","coordinates":[-121.476395,38.577971]}},{"properties":{"city":"Sacramento","latitude":38.55839,"zip":"95826","street":"8156 La Riviera Drive","longitude":-121.402627,"id":"a6g5edwvwbcy","data":1,"state":"CA"},"type":"Feature","geometry":{"type":"Point","coordinates":[-121.402627,38.55839]}},{"properties":{"city":"Elk Grove","latitude":38.43672,"zip":"95758","street":"6030 Steadman Place","longitude":-121.433299,"id":"a6g5ee0riwja","data":1,"state":"CA"},"type":"Feature","geometry":{"type":"Point","coordinates":[-121.433299,38.43672]}},{"properties":{"city":"Sacramento","latitude":38.502463,"zip":"95831","street":"6812 Havenside drive","longitude":-121.529621,"id":"a6g5edz0vl80","data":1,"state":"CA"},"type":"Feature","geometry":{"type":"Point","coordinates":[-121.529621,38.502463]}},{"properties":{"city":"Sacramento","latitude":38.563929,"zip":"95819","street":"1516 41St Street","longitude":-121.454446,"id":"a6g5edxs6yg2","data":1,"state":"CA"},"type":"Feature","geometry":{"type":"Point","coordinates":[-121.454446,38.563929]}},{"properties":{"city":"Elk Grove","latitude":38.447031,"zip":"95758","street":"7841 Jacinto Rd","longitude":-121.410809,"id":"a6g5edynrbih","data":1,"state":"CA"},"type":"Feature","geometry":{"type":"Point","coordinates":[-121.410809,38.447031]}},{"properties":{"city":"Davis","latitude":38.561203,"zip":"95618","street":"3032 Donato Lane","longitude":-121.711011,"id":"a6g5ee1anywv","data":1,"state":"CA"},"type":"Feature","geometry":{"type":"Point","coordinates":[-121.711011,38.561203]}},{"properties":{"city":"Folsom","latitude":38.7121,"zip":"95630","street":"381 Willowood Way","longitude":-121.178197,"id":"a6g5ee03mn7h","data":1,"state":"CA"},"type":"Feature","geometry":{"type":"Point","coordinates":[-121.178197,38.7121]}},{"properties":{"city":"Sacramento","latitude":38.571793,"zip":"95811","street":"1215 Q Street","longitude":-121.493789,"id":"a6g5edrv8sm4","data":1,"state":"CA"},"type":"Feature","geometry":{"type":"Point","coordinates":[-121.493789,38.571793]}},{"properties":{"city":"Sacramento","latitude":38.573857,"zip":"95819","street":"5823 Callister Avenue","longitude":-121.426208,"id":"a6g5edv6n880","data":1,"state":"CA"},"type":"Feature","geometry":{"type":"Point","coordinates":[-121.426208,38.573857]}},{"properties":{"city":"Walnut Creek","latitude":37.889182,"zip":"94595","street":"1221 South Villa Way","longitude":-122.070697,"id":"a6g5ee4z1wcz","data":1,"state":"CA"},"type":"Feature","geometry":{"type":"Point","coordinates":[-122.070697,37.889182]}},{"properties":{"city":"Elk Grove","latitude":38.415644,"zip":"95758","street":"3305 Yosemite Park Way","longitude":-121.467207,"id":"a6g5ee71upx1","data":1,"state":"CA"},"type":"Feature","geometry":{"type":"Point","coordinates":[-121.467207,38.415644]}},{"properties":{"city":"Sacramento","latitude":38.495065,"zip":"95831","street":"110 Portina Circle","longitude":-121.55453,"id":"a6g5edz90vl3","data":1,"state":"CA"},"type":"Feature","geometry":{"type":"Point","coordinates":[-121.55453,38.495065]}},{"properties":{"city":"Fair Oaks","latitude":38.648621,"zip":"95628","street":"4560 Olivegate Drive","longitude":-121.294458,"id":"a6g5ee3acgr2","data":1,"state":"CA"},"type":"Feature","geometry":{"type":"Point","coordinates":[-121.294458,38.648621]}},{"properties":{"city":"Fair Oaks","latitude":38.636615,"zip":"95628","street":"7852 Magnolia","longitude":-121.275414,"id":"a6g5edy1vgl6","data":1,"state":"CA"},"type":"Feature","geometry":{"type":"Point","coordinates":[-121.275414,38.636615]}},{"properties":{"city":"Sacramento","latitude":38.57319,"zip":"95816","street":"906 33rd Street","longitude":-121.462054,"id":"a6g5ee7z8mwg","data":1,"state":"CA"},"type":"Feature","geometry":{"type":"Point","coordinates":[-121.462054,38.57319]}},{"properties":{"city":"West Sacramento","latitude":38.551647,"zip":"95691","street":"1510 Redding Road","longitude":-121.522949,"id":"a6g5ee5tl8rh","data":1,"state":"CA"},"type":"Feature","geometry":{"type":"Point","coordinates":[-121.522949,38.551647]}},{"properties":{"city":"Folsom","latitude":38.690026,"zip":"95630","street":"122 Darrington Drive","longitude":-121.134852,"id":"a6g5ee75h26e","data":1,"state":"CA"},"type":"Feature","geometry":{"type":"Point","coordinates":[-121.134852,38.690026]}},{"properties":{"city":"Sacramento","latitude":38.536828,"zip":"95820","street":"4210 62nd Street","longitude":-121.432741,"id":"a6g5ee4av00h","data":1,"state":"CA"},"type":"Feature","geometry":{"type":"Point","coordinates":[-121.432741,38.536828]}},{"properties":{"city":"Elk Grove","latitude":38.40902,"zip":"95759","street":"P.O. Box 2258","longitude":-121.365619,"id":"a6g5edtqmr98","data":1,"state":"CA"},"type":"Feature","geometry":{"type":"Point","coordinates":[-121.365619,38.40902]}},{"properties":{"city":"Citrus Heights","latitude":38.667267,"zip":"95610","street":"5533 Wildwood Way","longitude":-121.278092,"id":"a6g5edtlz3io","data":1,"state":"CA"},"type":"Feature","geometry":{"type":"Point","coordinates":[-121.278092,38.667267]}},{"properties":{"city":"Sacramento","latitude":38.558857,"zip":"95818","street":"600 Flint Way","longitude":-121.507669,"id":"a6g5ee6qn69o","data":1,"state":"CA"},"type":"Feature","geometry":{"type":"Point","coordinates":[-121.507669,38.558857]}},{"properties":{"city":"Sacramento","latitude":38.576996,"zip":"95816","street":"2531 H Street","longitude":-121.471818,"id":"a6g5ee7j6kcg","data":1,"state":"CA"},"type":"Feature","geometry":{"type":"Point","coordinates":[-121.471818,38.576996]}},{"properties":{"city":"El Macero","latitude":38.5403,"zip":"95618","street":"44489 South El Macero Drive","longitude":-121.685935,"id":"a6g5edvq73fx","data":1,"state":"CA"},"type":"Feature","geometry":{"type":"Point","coordinates":[-121.685935,38.5403]}},{"properties":{"city":"Sacramento","latitude":38.664662,"zip":"95841","street":"5737 Raybel Avenue","longitude":-121.330605,"id":"a6g5edufa1jb","data":1,"state":"CA"},"type":"Feature","geometry":{"type":"Point","coordinates":[-121.330605,38.664662]}},{"properties":{"city":"Auburn","latitude":38.961443,"zip":"95602","street":"12900 Windsong Court","longitude":-121.088513,"id":"a6g5ee02v4d4","data":1,"state":"CA"},"type":"Feature","geometry":{"type":"Point","coordinates":[-121.088513,38.961443]}},{"properties":{"city":"Carmichael","latitude":38.622156,"zip":"95608","street":"3101 Steinbrenner Court","longitude":-121.353098,"id":"a6g5ee4dwhnw","data":1,"state":"CA"},"type":"Feature","geometry":{"type":"Point","coordinates":[-121.353098,38.622156]}},{"properties":{"city":"Sacramento","latitude":38.564693,"zip":"95825","street":"201 Dunbarton Circle","longitude":-121.411064,"id":"a6g5ee3g0w8q","data":1,"state":"CA"},"type":"Feature","geometry":{"type":"Point","coordinates":[-121.411064,38.564693]}},{"properties":{"city":"Sacramento","latitude":38.555579,"zip":"95818","street":"1612 Markham Way","longitude":-121.494756,"id":"a6g5ee5uiour","data":1,"state":"CA"},"type":"Feature","geometry":{"type":"Point","coordinates":[-121.494756,38.555579]}},{"properties":{"city":"Sacramento","latitude":38.566387,"zip":"95816","street":"2716 Q Street, Unit 1","longitude":-121.473611,"id":"a6g5ee5pv0n2","data":1,"state":"CA"},"type":"Feature","geometry":{"type":"Point","coordinates":[-121.473611,38.566387]}},{"properties":{"city":"Sacramento","latitude":38.614869,"zip":"95821","street":"3828 Duran Circle","longitude":-121.374613,"id":"a6g5ee17guxt","data":1,"state":"CA"},"type":"Feature","geometry":{"type":"Point","coordinates":[-121.374613,38.614869]}},{"properties":{"city":"West Sacramento","latitude":38.548254,"zip":"95691","street":"2562 Lagoon Lane","longitude":-121.548034,"id":"a6g5ee7zl0c5","data":1,"state":"CA"},"type":"Feature","geometry":{"type":"Point","coordinates":[-121.548034,38.548254]}},{"properties":{"city":"Sacramento","latitude":38.559574,"zip":"95818","street":"2665 13th Street","longitude":-121.497455,"id":"a6g5ee523afe","data":1,"state":"CA"},"type":"Feature","geometry":{"type":"Point","coordinates":[-121.497455,38.559574]}},{"properties":{"city":"Sacramento","latitude":38.582457,"zip":"95816","street":"400 22nd Street","longitude":-121.474481,"id":"a6g5eds6ghdg","data":1,"state":"CA"},"type":"Feature","geometry":{"type":"Point","coordinates":[-121.474481,38.582457]}},{"properties":{"city":"Citrus Heights","latitude":38.697002,"zip":"95610","street":"7870 Casa Bella Way","longitude":-121.274521,"id":"a6g5ee0fc15r","data":1,"state":"CA"},"type":"Feature","geometry":{"type":"Point","coordinates":[-121.274521,38.697002]}},{"properties":{"city":"Sacramento","latitude":38.486721,"zip":"95831","street":"136 Fountain Oaks Circle","longitude":-121.513499,"id":"a6g5edylug1h","data":1,"state":"CA"},"type":"Feature","geometry":{"type":"Point","coordinates":[-121.513499,38.486721]}},{"properties":{"city":"Sacramento","latitude":38.62714,"zip":"95821","street":"4311 Lockwood Way","longitude":-121.363452,"id":"a6g5edx4xz1q","data":1,"state":"CA"},"type":"Feature","geometry":{"type":"Point","coordinates":[-121.363452,38.62714]}},{"properties":{"city":"Gold River","latitude":38.626763,"zip":"95670","street":"2078 Granite Bar WAy","longitude":-121.23788,"id":"a6g5edu6orf2","data":1,"state":"CA"},"type":"Feature","geometry":{"type":"Point","coordinates":[-121.23788,38.626763]}},{"properties":{"city":"Sacramento","latitude":38.544575,"zip":"95818","street":"2549 8th Avenue","longitude":-121.480725,"id":"a6g5ee6xh9b6","data":1,"state":"CA"},"type":"Feature","geometry":{"type":"Point","coordinates":[-121.480725,38.544575]}},{"properties":{"city":"Sacramento","latitude":38.585879,"zip":"95864","street":"1131 Rivara Cir","longitude":-121.399906,"id":"a6g5ee3yccox","data":1,"state":"CA"},"type":"Feature","geometry":{"type":"Point","coordinates":[-121.399906,38.585879]}},{"properties":{"city":"Gold River","latitude":38.627438,"zip":"95670","street":"2079  Willow Bar Crt.","longitude":-121.239121,"id":"a6g5ee2vb39q","data":1,"state":"CA"},"type":"Feature","geometry":{"type":"Point","coordinates":[-121.239121,38.627438]}},{"properties":{"city":"Sacramento","latitude":38.555604,"zip":"95818","street":"1108 3rd Avenue","longitude":-121.502381,"id":"a6g5ee6dsavk","data":1,"state":"CA"},"type":"Feature","geometry":{"type":"Point","coordinates":[-121.502381,38.555604]}},{"properties":{"city":"Rancho Cordova","latitude":38.585777,"zip":"95670","street":"10285 A McCracken Dr","longitude":-121.308243,"id":"a6g5edw3uca4","data":1,"state":"CA"},"type":"Feature","geometry":{"type":"Point","coordinates":[-121.308243,38.585777]}},{"properties":{"city":"Rancho Cordova","latitude":38.585777,"zip":"95670","street":"10285A McCracken Dr","longitude":-121.308243,"id":"a6g5ee08pt4d","data":1,"state":"CA"},"type":"Feature","geometry":{"type":"Point","coordinates":[-121.308243,38.585777]}},{"properties":{"city":"Orangevale","latitude":38.683204,"zip":"95662","street":"6426 Spring Rain Way","longitude":-121.259511,"id":"a6g5ee82kn4r","data":1,"state":"CA"},"type":"Feature","geometry":{"type":"Point","coordinates":[-121.259511,38.683204]}},{"properties":{"city":"Sacramento","latitude":38.54466,"zip":"95818","street":"1851 11th Avenue","longitude":-121.494822,"id":"a6g5edw4qkuu","data":1,"state":"CA"},"type":"Feature","geometry":{"type":"Point","coordinates":[-121.494822,38.54466]}},{"properties":{"city":"Sacramento","latitude":38.485768,"zip":"95831","street":"1187 Spruce Tree Circle","longitude":-121.515266,"id":"a6g5ee4gb0yi","data":1,"state":"CA"},"type":"Feature","geometry":{"type":"Point","coordinates":[-121.515266,38.485768]}},{"properties":{"city":"Davis","latitude":38.556992,"zip":"95616","street":"3305 Chesapeake Bay","longitude":-121.791683,"id":"a6g5edyv6dj0","data":1,"state":"CA"},"type":"Feature","geometry":{"type":"Point","coordinates":[-121.791683,38.556992]}},{"properties":{"city":"Elk Grove","latitude":38.43611,"zip":"95758","street":"8848 Gemwood Way","longitude":-121.441927,"id":"a6g5edtspqlr","data":1,"state":"CA"},"type":"Feature","geometry":{"type":"Point","coordinates":[-121.441927,38.43611]}},{"properties":{"city":"Elk Grove","latitude":38.40334,"zip":"95757","street":"9735 Terrapin Court","longitude":-121.430354,"id":"a6g5ee53mi9c","data":1,"state":"CA"},"type":"Feature","geometry":{"type":"Point","coordinates":[-121.430354,38.40334]}},{"properties":{"city":"Davis","latitude":38.539847,"zip":"95616","street":"2020 Cowell Blvd","longitude":-121.726647,"id":"a6g5eduee8vy","data":1,"state":"CA"},"type":"Feature","geometry":{"type":"Point","coordinates":[-121.726647,38.539847]}},{"properties":{"city":"Granite Bay","latitude":38.721541,"zip":"95746","street":"9825 Village Center Dr.","longitude":-121.211151,"id":"a6g5ee5wg3ra","data":1,"state":"CA"},"type":"Feature","geometry":{"type":"Point","coordinates":[-121.211151,38.721541]}},{"properties":{"city":"El Dorado Hills","latitude":38.724135,"zip":"95762","street":"2316 Abbotsford Place","longitude":-121.082258,"id":"a6g5eduzzxc0","data":1,"state":"CA"},"type":"Feature","geometry":{"type":"Point","coordinates":[-121.082258,38.724135]}},{"properties":{"city":"Sacramento","latitude":38.57649,"zip":"95814","street":"200 P Street #B35","longitude":-121.506892,"id":"a6g5edwjmvfr","data":1,"state":"CA"},"type":"Feature","geometry":{"type":"Point","coordinates":[-121.506892,38.57649]}},{"properties":{"city":"Fair Oaks","latitude":38.650062,"zip":"95628","street":"9134 River Look Lane","longitude":-121.214816,"id":"a6g5edtujgoi","data":1,"state":"CA"},"type":"Feature","geometry":{"type":"Point","coordinates":[-121.214816,38.650062]}},{"properties":{"city":"Vacaville,","latitude":38.345105,"zip":"95687","street":"673 Forest Ridge Ln","longitude":-121.935229,"id":"a6g5edxvl1rk","data":1,"state":"CA"},"type":"Feature","geometry":{"type":"Point","coordinates":[-121.935229,38.345105]}},{"properties":{"city":"Sacramento","latitude":38.572054,"zip":"95825","street":"334 Rio Del Oro Lane","longitude":-121.407509,"id":"a6g5ee2oxx1i","data":1,"state":"CA"},"type":"Feature","geometry":{"type":"Point","coordinates":[-121.407509,38.572054]}},{"properties":{"city":"Orangevale","latitude":38.670943,"zip":"95662","street":"8753 Baxter Way","longitude":-121.233624,"id":"a6g5edt8i0au","data":1,"state":"CA"},"type":"Feature","geometry":{"type":"Point","coordinates":[-121.233624,38.670943]}},{"properties":{"city":"Elk Grove","latitude":38.442707,"zip":"95624","street":"10776 Bradley Ranch Rd.","longitude":-121.283924,"id":"a6g5eduzphvt","data":1,"state":"CA"},"type":"Feature","geometry":{"type":"Point","coordinates":[-121.283924,38.442707]}},{"properties":{"city":"Sacramento","latitude":38.562534,"zip":"95825","street":"1110 Dunbarton Circle","longitude":-121.41147,"id":"a6g5ee13bf6x","data":1,"state":"CA"},"type":"Feature","geometry":{"type":"Point","coordinates":[-121.41147,38.562534]}},{"properties":{"city":"Fair Oaks","latitude":38.641321,"zip":"95628","street":"8044 Sierra Street","longitude":-121.266185,"id":"a6g5ee11gjkq","data":1,"state":"CA"},"type":"Feature","geometry":{"type":"Point","coordinates":[-121.266185,38.641321]}},{"properties":{"city":"Sacramento","latitude":38.548909,"zip":"95817","street":"6024 Tahoe Way","longitude":-121.435037,"id":"a6g5edvlmk75","data":1,"state":"CA"},"type":"Feature","geometry":{"type":"Point","coordinates":[-121.435037,38.548909]}},{"properties":{"city":"Sacramento","latitude":38.546472,"zip":"95818","street":"1981 8Th Avenue","longitude":-121.492047,"id":"a6g5ee6n8nyz","data":1,"state":"CA"},"type":"Feature","geometry":{"type":"Point","coordinates":[-121.492047,38.546472]}},{"properties":{"city":"Sacramento","latitude":38.502094,"zip":"95823","street":"4936 Sky Park Way","longitude":-121.448127,"id":"a6g5ee7zy8kd","data":1,"state":"CA"},"type":"Feature","geometry":{"type":"Point","coordinates":[-121.448127,38.502094]}},{"properties":{"city":"Sacramento","latitude":38.524287,"zip":"95824","street":"6301 33Rd Ave","longitude":-121.430604,"id":"a6g5ee5mgvi4","data":1,"state":"CA"},"type":"Feature","geometry":{"type":"Point","coordinates":[-121.430604,38.524287]}},{"properties":{"city":"Orangevale","latitude":38.681941,"zip":"95662","street":"8461 Whisperingg Oak Lane","longitude":-121.245093,"id":"a6g5edry6xel","data":1,"state":"CA"},"type":"Feature","geometry":{"type":"Point","coordinates":[-121.245093,38.681941]}},{"properties":{"city":"Sacramento","latitude":38.585128,"zip":"95825","street":"2476 Larkspur Lane #167","longitude":-121.403321,"id":"a6g5ee4jep7g","data":1,"state":"CA"},"type":"Feature","geometry":{"type":"Point","coordinates":[-121.403321,38.585128]}},{"properties":{"city":"Carmichael","latitude":38.605548,"zip":"95608","street":"51 Covered Bridge Road","longitude":-121.324086,"id":"a6g5ee2fr7gl","data":1,"state":"CA"},"type":"Feature","geometry":{"type":"Point","coordinates":[-121.324086,38.605548]}},{"properties":{"city":"Sacramento","latitude":38.530588,"zip":"95822","street":"4804 Crestwood Way","longitude":-121.506817,"id":"a6g5ee37sd85","data":1,"state":"CA"},"type":"Feature","geometry":{"type":"Point","coordinates":[-121.506817,38.530588]}},{"properties":{"city":"Sacramento","latitude":38.571193,"zip":"95816","street":"2600 Capitol Avenue","longitude":-121.47322,"id":"a6g5ee141ome","data":1,"state":"CA"},"type":"Feature","geometry":{"type":"Point","coordinates":[-121.47322,38.571193]}},{"properties":{"city":"Sacramento","latitude":38.508295,"zip":"95831","street":"1116 Silver Lake Drive","longitude":-121.51805,"id":"a6g5ee2gw88a","data":1,"state":"CA"},"type":"Feature","geometry":{"type":"Point","coordinates":[-121.51805,38.508295]}},{"properties":{"city":"Sacramento","latitude":38.551501,"zip":"95817","street":"2501 54th Street","longitude":-121.442527,"id":"a6g5ee6al7v5","data":1,"state":"CA"},"type":"Feature","geometry":{"type":"Point","coordinates":[-121.442527,38.551501]}},{"properties":{"city":"Woodland","latitude":38.663359,"zip":"95776","street":"1029 Powers Circle","longitude":-121.746319,"id":"a6g5edyc02tp","data":1,"state":"CA"},"type":"Feature","geometry":{"type":"Point","coordinates":[-121.746319,38.663359]}},{"properties":{"city":"Sacramento","latitude":38.668645,"zip":"95835","street":"2408 Maybrook Drive","longitude":-121.514207,"id":"a6g5ee5p8qki","data":1,"state":"CA"},"type":"Feature","geometry":{"type":"Point","coordinates":[-121.514207,38.668645]}},{"properties":{"city":"Davis","latitude":38.559781,"zip":"95616","street":"955 Cranbrook Court","longitude":-121.73948,"id":"a6g5eduoaryx","data":1,"state":"CA"},"type":"Feature","geometry":{"type":"Point","coordinates":[-121.73948,38.559781]}}],"is_temporal":false,"author":{"url":"","metadata":null,"contact_name":null,"contact_address":null,"source":null,"contact_phone":null},"source":"","pagination":{"sort":null,"start":0,"total":299,"limit":1000000},"state":"complete","tags":"","published":"2014-08-15T00:51:38-04:00","id":207709}