{"type":"FeatureCollection","data_type":"Dataset","url_type":null,"permissions":[{"permissions":{"download":true,"view":true},"group_id":"everyone"}],"classification":null,"title":"hospitals - Hawaii","count":30,"stream_id":207817,"contributor":{"url":"http://geocommons.com/users/695","name":"Bill"},"data_attributes":null,"calculation_params":null,"icon_link":null,"link":"http://geocommons.com/overlays/207817.json","extent":[-159.671,19.1981,-155.111,22.0875],"geometry_types":["point"],"unique_name":"","name":"hospitals - Hawaii","feature_count":30,"description":"Abstract: Locations of hospitals in the State of Hawaii.\r\nPurpose: A general-purpose hospitals database designed to support Geographic Information Systems applications.\r\nSupplemental Information: FEMA Multi-Hazard Mapping Initiative (MMI): http://www.hazardmaps.gov/vision.php FEMA/MMI Emergency Response Facilities Database: http://www.hazardmaps.gov/StateDatasets.php?selState=HI","next_feature":null,"is_raster":false,"short_classification":"Y","stats":{"LONGITUDE":{"max":-155.111378,"mean":-157.415279933333,"variance":1.38798068486951,"stdev":1.17812592063392,"min":-159.670636,"median":-157.835378},"NUM_BEDS":{"max":496,"mean":135.0,"variance":12619.1034482759,"stdev":112.334782895931,"min":0,"median":105},"LATITUDE":{"max":22.087542,"mean":21.0295049,"variance":0.572656623210645,"stdev":0.756740789974114,"min":19.198133,"median":21.321399},"ID":{"max":29,"mean":14.5,"variance":77.5,"stdev":8.8034084308295,"min":0,"median":15},"COUNTY":{"max":15009,"mean":15003.8,"variance":6.78620689655172,"stdev":2.60503491273183,"min":15001,"median":15003}},"features":[{"properties":{"CITY":"KEALAKEKUA","NAME":"KONA COMMUNITY HOSPITAL","PHONE":"(808) 322-4429","ZIPCODE":"96750","LONGITUDE":-155.91848,"ID_":"HI000001","NUM_BEDS":75,"LATITUDE":19.519491,"ID":0,"FUNCTION":"Hospital","CLASS":"EFHM","id":"a63fqqlspo9a","COMMENT":"0006950070","ADDRESS":"79-1019 HAUKAPILA STREET","COUNTY":15001},"type":"Feature","geometry":{"type":"Point","coordinates":[-155.918480344769,19.5194914339465]}},{"properties":{"CITY":"KOHALA","NAME":"KOHALA HOSPITAL","PHONE":"(808) 889-6211","ZIPCODE":"96755","LONGITUDE":-155.79667,"ID_":"HI000002","NUM_BEDS":26,"LATITUDE":19.519491,"ID":1,"FUNCTION":"Hospital","CLASS":"EFHS","id":"a63fqqgrnm2t","COMMENT":"0006950080","ADDRESS":"54-383 HOSPITAL ROAD","COUNTY":15001},"type":"Feature","geometry":{"type":"Point","coordinates":[-155.796670358835,20.2323211190893]}},{"properties":{"CITY":"PAHALA","NAME":"KAU HOSPITAL","PHONE":"(808) 928-8331","ZIPCODE":"96777","LONGITUDE":-155.479701,"ID_":"HI000003","NUM_BEDS":21,"LATITUDE":19.198133,"ID":2,"FUNCTION":"Hospital","CLASS":"EFHS","id":"a63fqq9qmw13","COMMENT":"0006950130","ADDRESS":"1 KAMANI STREET","COUNTY":15001},"type":"Feature","geometry":{"type":"Point","coordinates":[-155.479700994535,19.1981333955382]}},{"properties":{"CITY":"HONOKAA","NAME":"HAMAKUA HEALTH CENTER INC","PHONE":"(808) 775-7204","ZIPCODE":"96727","LONGITUDE":-155.46967,"ID_":"HI000004","NUM_BEDS":0,"LATITUDE":20.07696,"ID":3,"FUNCTION":"Clinic","CLASS":"EFMC","id":"a63fqqgjc4nd","COMMENT":"Rural Clinic (Non Profit - Corpora)","ADDRESS":"45-549 PLUMERIA ROAD/P O BOX 509","COUNTY":15001},"type":"Feature","geometry":{"type":"Point","coordinates":[-155.46967045717,20.0769599239719]}},{"properties":{"CITY":"HILO","NAME":"HILO MEDICAL CENTER","PHONE":"(808) 974-4743","ZIPCODE":"96720-2095","LONGITUDE":-155.111378,"ID_":"HI000005","NUM_BEDS":274,"LATITUDE":19.718192,"ID":4,"FUNCTION":"Hospital","CLASS":"EFHL","id":"a63fqqjpiy98","COMMENT":"0006950050","ADDRESS":"1190 WAIANUENUE AVENUE","COUNTY":15001},"type":"Feature","geometry":{"type":"Point","coordinates":[-155.111378415802,19.7181916387853]}},{"properties":{"CITY":"EWA BEACH","NAME":"KAHI MOHALA","PHONE":"(808) 671-8511","ZIPCODE":"96706","LONGITUDE":-158.025232,"ID_":"HI000006","NUM_BEDS":88,"LATITUDE":21.338799,"ID":5,"FUNCTION":"Hospital","CLASS":"EFHM","id":"a63fqqca323z","COMMENT":"0006950305","ADDRESS":"91-2301 FORT WEAVER ROAD","COUNTY":15003},"type":"Feature","geometry":{"type":"Point","coordinates":[-158.025232007129,21.33879914788]}},{"properties":{"CITY":"HONOLULU","NAME":"KAISER FOUNDATION HOSPITAL","PHONE":"(808) 834-5333","ZIPCODE":"96819","LONGITUDE":-157.899695,"ID_":"HI000007","NUM_BEDS":198,"LATITUDE":21.363247,"ID":6,"FUNCTION":"Hospital","CLASS":"EFHL","id":"a63fqqgd5vip","COMMENT":"0006950330","ADDRESS":"3288 MOANALUA ROAD","COUNTY":15003},"type":"Feature","geometry":{"type":"Point","coordinates":[-157.89969453911,21.3632466859006]}},{"properties":{"CITY":"HONOLULU","NAME":"KAPIOLANI MED CTR FOR WOMEN","PHONE":"(808) 983-6000","ZIPCODE":"96826-1032","LONGITUDE":-157.833607,"ID_":"HI000008","NUM_BEDS":276,"LATITUDE":21.299718,"ID":7,"FUNCTION":"Hospital","CLASS":"EFHL","id":"a63fqqbntcvn","COMMENT":"0006950335","ADDRESS":"1319 PUNAHOU STREET","COUNTY":15003},"type":"Feature","geometry":{"type":"Point","coordinates":[-157.833607027982,21.2997177800664]}},{"properties":{"CITY":"HONOLULU","NAME":"REHAB HOSPITAL OF THE PACIFIC","PHONE":"(808) 531-3511","ZIPCODE":"96817-9881","LONGITUDE":-157.854474,"ID_":"HI000009","NUM_BEDS":86,"LATITUDE":21.321399,"ID":8,"FUNCTION":"Hospital","CLASS":"EFHM","id":"a63fqqaaa4yk","COMMENT":"0006950355","ADDRESS":"226 NORTH KUAKINI STREET","COUNTY":15003},"type":"Feature","geometry":{"type":"Point","coordinates":[-157.854474449644,21.3213991369905]}},{"properties":{"CITY":"HONOLULU","NAME":"KUAKINI MEDICAL CENTER","PHONE":"(808) 536-2236","ZIPCODE":"96817-2381","LONGITUDE":-157.85684,"ID_":"HI000010","NUM_BEDS":189,"LATITUDE":21.322094,"ID":9,"FUNCTION":"Hospital","CLASS":"EFHL","id":"a63fqqedfkwp","COMMENT":"0006950360","ADDRESS":"347 NORTH KUAKINI STREET","COUNTY":15003},"type":"Feature","geometry":{"type":"Point","coordinates":[-157.856840394402,21.3220940474106]}},{"properties":{"CITY":"HONOLULU","NAME":"LEAHI HOSPITAL","PHONE":"(808) 733-8000","ZIPCODE":"96816","LONGITUDE":-157.801666,"ID_":"HI000011","NUM_BEDS":192,"LATITUDE":21.272905,"ID":10,"FUNCTION":"Hospital","CLASS":"EFHL","id":"a63fqq724rz8","COMMENT":"0006950370","ADDRESS":"3675 KILAUEA AVENUE","COUNTY":15003},"type":"Feature","geometry":{"type":"Point","coordinates":[-157.801665802607,21.2729052919071]}},{"properties":{"CITY":"HONOLULU","NAME":"QUEEN'S MEDICAL CENTER","PHONE":"(808) 538-9011","ZIPCODE":"96813","LONGITUDE":-157.853543,"ID_":"HI000012","NUM_BEDS":496,"LATITUDE":21.308021,"ID":11,"FUNCTION":"Hospital","CLASS":"EFHL","id":"a63fqqdrfdxu","COMMENT":"0006950380","ADDRESS":"1301 PUNCHBOWL STREET","COUNTY":15003},"type":"Feature","geometry":{"type":"Point","coordinates":[-157.853543079012,21.3080209819348]}},{"properties":{"CITY":"HONOLULU","NAME":"ST FRANCIS MEDICAL CENTER","PHONE":"(808) 547-6011","ZIPCODE":"96817-9979","LONGITUDE":-157.852435,"ID_":"HI000013","NUM_BEDS":221,"LATITUDE":21.329558,"ID":12,"FUNCTION":"Hospital","CLASS":"EFHL","id":"a63fqq9s7t5f","COMMENT":"0006950390","ADDRESS":"2230 LILIHA STREET","COUNTY":15003},"type":"Feature","geometry":{"type":"Point","coordinates":[-157.852434621509,21.3295577868264]}},{"properties":{"CITY":"HONOLULU","NAME":"SHRINERS HOSPS FOR CHILDREN","PHONE":"(808) 941-4466","ZIPCODE":"96826-1099","LONGITUDE":-157.835378,"ID_":"HI000014","NUM_BEDS":40,"LATITUDE":21.300479,"ID":13,"FUNCTION":"Hospital","CLASS":"EFHS","id":"a63fqqb6r3it","COMMENT":"0006950400","ADDRESS":"1310 PUNAHOU STREET","COUNTY":15003},"type":"Feature","geometry":{"type":"Point","coordinates":[-157.835377965998,21.3004794086366]}},{"properties":{"CITY":"HONOLULU","NAME":"STRAUB CLINIC AND HOSPITAL","PHONE":"(808) 522-4000","ZIPCODE":"96813","LONGITUDE":-157.850489,"ID_":"HI000015","NUM_BEDS":139,"LATITUDE":21.302473,"ID":14,"FUNCTION":"Hospital","CLASS":"EFHM","id":"a63fqqcpdha7","COMMENT":"0006950405","ADDRESS":"888 SOUTH KING STREET","COUNTY":15003},"type":"Feature","geometry":{"type":"Point","coordinates":[-157.850489366795,21.3024726315118]}},{"properties":{"CITY":"HONOLULU","NAME":"TRIPLER ARMY MEDICAL CENTER","PHONE":"(808) 433-6661","ZIPCODE":"96859-5000","LONGITUDE":-157.889794,"ID_":"HI000016","NUM_BEDS":354,"LATITUDE":21.359473,"ID":15,"FUNCTION":"Hospital","CLASS":"EFHL","id":"a63fqqiy542k","COMMENT":"0006950410","ADDRESS":"1 JARRETT WHITE ROAD","COUNTY":15003},"type":"Feature","geometry":{"type":"Point","coordinates":[-157.889793512968,21.359472900731]}},{"properties":{"CITY":"KAHUKU","NAME":"KAHUKU HOSPITAL","PHONE":"(808) 293-9221","ZIPCODE":"96731","LONGITUDE":-157.949689,"ID_":"HI000017","NUM_BEDS":24,"LATITUDE":21.678789,"ID":16,"FUNCTION":"Hospital","CLASS":"EFHS","id":"a63fqqc81rbu","COMMENT":"0006950420","ADDRESS":"56-117 PUALALEA","COUNTY":15003},"type":"Feature","geometry":{"type":"Point","coordinates":[-157.949689060797,21.6787889806809]}},{"properties":{"CITY":"KAILUA","NAME":"CASTLE MEDICAL CENTER","PHONE":"(808) 263-5500","ZIPCODE":"96734-4498","LONGITUDE":-157.757658,"ID_":"HI000018","NUM_BEDS":150,"LATITUDE":21.38052,"ID":17,"FUNCTION":"Hospital","CLASS":"EFHM","id":"a63fqqh2c3pj","COMMENT":"0006950425","ADDRESS":"640 ULUKAHIKI STREET","COUNTY":15003},"type":"Feature","geometry":{"type":"Point","coordinates":[-157.75765781571,21.3805200029097]}},{"properties":{"CITY":"KANEOHE","NAME":"HAWAII STATE HOSPITAL","PHONE":"(808) 236-8237","ZIPCODE":"96744-3597","LONGITUDE":-157.815887,"ID_":"HI000019","NUM_BEDS":167,"LATITUDE":21.405146,"ID":18,"FUNCTION":"Hospital","CLASS":"EFHL","id":"a63fqq69i0sv","COMMENT":"0006950430","ADDRESS":"45-710 KEAAHALA ROAD","COUNTY":15003},"type":"Feature","geometry":{"type":"Point","coordinates":[-157.81588716635,21.405145946275]}},{"properties":{"CITY":"WAHIAWA","NAME":"WAHIAWA GENERAL HOSPITAL","PHONE":"(808) 621-8411","ZIPCODE":"96786","LONGITUDE":-158.02606,"ID_":"HI000020","NUM_BEDS":162,"LATITUDE":21.498749,"ID":19,"FUNCTION":"Hospital","CLASS":"EFHL","id":"a63fqqk7ijv4","COMMENT":"0006950445","ADDRESS":"128 LEHUA STREET","COUNTY":15003},"type":"Feature","geometry":{"type":"Point","coordinates":[-158.026060445002,21.4987486383628]}},{"properties":{"CITY":"AIEA","NAME":"KAPIOLANI MED CTR AT PALI MOMI","PHONE":"() -","ZIPCODE":"96701-4713","LONGITUDE":-157.945,"ID_":"HI000021","NUM_BEDS":75,"LATITUDE":21.3878,"ID":20,"FUNCTION":"Hospital","CLASS":"EFHM","id":"a63fqqcb6smy","COMMENT":"0006950001","ADDRESS":"98-1079 MOANALUA ROAD","COUNTY":15003},"type":"Feature","geometry":{"type":"Point","coordinates":[-157.945,21.3877999999996]}},{"properties":{"CITY":"EWA BEACH","NAME":"ST FRANCIS MEDICAL CENTER-WEST","PHONE":"(808) 678-7000","ZIPCODE":"96706","LONGITUDE":-158.0357,"ID_":"HI000022","NUM_BEDS":87,"LATITUDE":21.3666,"ID":21,"FUNCTION":"Hospital","CLASS":"EFHM","id":"a63fqq8p1vp9","COMMENT":"0006950002","ADDRESS":"91-2141 FORT WEAVER ROAD","COUNTY":15003},"type":"Feature","geometry":{"type":"Point","coordinates":[-158.0357,21.3665999999996]}},{"properties":{"CITY":"LIHUE","NAME":"WILCOX MEM HOSPITAL","PHONE":"(808) 245-1100","ZIPCODE":"96766","LONGITUDE":-159.364818,"ID_":"HI000023","NUM_BEDS":177,"LATITUDE":21.986139,"ID":22,"FUNCTION":"Hospital","CLASS":"EFHL","id":"a63fqq6iqei7","COMMENT":"0006950190","ADDRESS":"3420 KUHIO HIGHWAY","COUNTY":15007},"type":"Feature","geometry":{"type":"Point","coordinates":[-159.364817707968,21.9861388479946]}},{"properties":{"CITY":"WAIMEA","NAME":"KAUAI VETERANS MEM HOSPITAL","PHONE":"(808) 338-9431","ZIPCODE":"96796","LONGITUDE":-159.670636,"ID_":"HI000024","NUM_BEDS":49,"LATITUDE":21.960687,"ID":23,"FUNCTION":"Hospital","CLASS":"EFHS","id":"a63fqqk6n1r6","COMMENT":"0006950200","ADDRESS":"WAIMEA CANYON ROAD","COUNTY":15007},"type":"Feature","geometry":{"type":"Point","coordinates":[-159.670635663708,21.9606866400991]}},{"properties":{"CITY":"KAPAA","NAME":"SAMUEL MAHELONA MEMORIAL HOSP","PHONE":"(808) 822-4961","ZIPCODE":"96746-1998","LONGITUDE":-159.312887,"ID_":"HI000025","NUM_BEDS":82,"LATITUDE":22.087542,"ID":24,"FUNCTION":"Hospital","CLASS":"EFHM","id":"a63fqqdig8nc","COMMENT":"0006950170","ADDRESS":"4800 KAWAIHAU ROAD","COUNTY":15007},"type":"Feature","geometry":{"type":"Point","coordinates":[-159.312886582239,22.0875416949765]}},{"properties":{"CITY":"KULA","NAME":"KULA HOSPITAL","PHONE":"(808) 878-1221","ZIPCODE":"96790-9499","LONGITUDE":-156.357379,"ID_":"HI000026","NUM_BEDS":105,"LATITUDE":20.701205,"ID":25,"FUNCTION":"Hospital","CLASS":"EFHM","id":"a63fqqdhlvwx","COMMENT":"0006950275","ADDRESS":"204 KULA HIGHWAY","COUNTY":15009},"type":"Feature","geometry":{"type":"Point","coordinates":[-156.357378725665,20.7012051242239]}},{"properties":{"CITY":"WAILUKU","NAME":"MAUI MEMORIAL HOSPITAL","PHONE":"(808) 244-9056","ZIPCODE":"96793-2581","LONGITUDE":-156.489545,"ID_":"HI000027","NUM_BEDS":203,"LATITUDE":20.884676,"ID":26,"FUNCTION":"Hospital","CLASS":"EFHL","id":"a63fqqggy4wg","COMMENT":"0006950290","ADDRESS":"221 MAHALANI STREET","COUNTY":15009},"type":"Feature","geometry":{"type":"Point","coordinates":[-156.489545439096,20.8846764597328]}},{"properties":{"CITY":"KAUNAKAKAI","NAME":"MOLOKAI GENERAL HOSPITAL","PHONE":"(808) 553-5331","ZIPCODE":"96748","LONGITUDE":-157.017306,"ID_":"HI000028","NUM_BEDS":30,"LATITUDE":21.093861,"ID":27,"FUNCTION":"Hospital","CLASS":"EFHS","id":"a63fqqh0lwm5","COMMENT":"0006950295","ADDRESS":"280-A PUALI STREET","COUNTY":15009},"type":"Feature","geometry":{"type":"Point","coordinates":[-157.017305656239,21.0938606572556]}},{"properties":{"CITY":"LANAI CITY","NAME":"LANAI COMMUNITY HOSPITAL","PHONE":"(808) 565-6411","ZIPCODE":"96763-0797","LONGITUDE":-156.917111,"ID_":"HI000029","NUM_BEDS":14,"LATITUDE":20.82604,"ID":28,"FUNCTION":"Hospital","CLASS":"EFHS","id":"a63fqq90qp38","COMMENT":"0006950240","ADDRESS":"628 SEVENTH STREET","COUNTY":15009},"type":"Feature","geometry":{"type":"Point","coordinates":[-156.917111197481,20.8260397655344]}},{"properties":{"CITY":"HONOKAA","NAME":"HONOKAA HOSPITAL","PHONE":"(808) 775-7211","ZIPCODE":"96727-0237","LONGITUDE":-155.46967,"ID_":"HI000030","NUM_BEDS":50,"LATITUDE":20.07696,"ID":29,"FUNCTION":"Hospital","CLASS":"EFHM","id":"a63fqq7ky820","COMMENT":"0006950055","ADDRESS":"45-547 PLUMERIA STREET","COUNTY":15001},"type":"Feature","geometry":{"type":"Point","coordinates":[-155.46967045717,20.0769599239719]}}],"is_temporal":false,"author":{"url":"","metadata":"","contact_name":"Director","contact_address":"590 Lipoa Pkwy, Suite 259, Kihei, Hawaii, 96753","source":"Pacific Disaster Center","contact_phone":"808-891-0525 "},"source":"","pagination":{"sort":null,"start":0,"total":30,"limit":1000000},"state":"complete","tags":"hawaii,health,hospitals,infrastructure","published":"2003-04-01T17:00:00Z","id":207817}