{"type":"FeatureCollection","data_type":"Dataset","url_type":null,"permissions":[{"permissions":{"download":true,"view":true},"group_id":"everyone"}],"classification":null,"title":"Sacramento Organizations and Indivs. Geocommons","count":27,"stream_id":208292,"contributor":{"url":"http://geocommons.com/users/34351","name":"ACTA"},"data_attributes":null,"calculation_params":null,"icon_link":null,"link":"http://geocommons.com/overlays/208292.json","extent":[-121.5,38.4805,-121.349,38.5667],"geometry_types":["point"],"unique_name":null,"name":"Sacramento Organizations and Indivs. Geocommons","feature_count":27,"description":"","next_feature":null,"is_raster":false,"short_classification":"Y","stats":{"number":{"max":27,"mean":14.0,"variance":63.0,"stdev":7.93725393319377,"min":1,"median":14}},"features":[{"properties":{"city":"Sacramento","number":1,"geo_score":0.902,"zip code":"95818","street address":"2415 First Avenue","organization":"DMV Spirit Record","id":"a6g0iwf1fupt","geo_precision":"range","state":"CA"},"type":"Feature","geometry":{"type":"Point","coordinates":[-121.482339,38.556962]}},{"properties":{"city":"Sacramento","number":2,"geo_score":0.902,"zip code":"95822","street address":"7367 19th Street","organization":"Ebo Okokan","id":"a6g0iwk5b6ie","geo_precision":"range","state":"CA"},"type":"Feature","geometry":{"type":"Point","coordinates":[-121.494863,38.490693]}},{"properties":{"city":"Sacramento","number":3,"geo_score":0.922,"zip code":"95828","street address":"8609 Birch Leaf Court","organization":"Florin Kodomo Taiko / Buddist Church of Florin","id":"a6g0iwb4patl","geo_precision":"range","state":"CA"},"type":"Feature","geometry":{"type":"Point","coordinates":[-121.385965,38.48049]}},{"properties":{"city":"Sacramento","number":4,"geo_score":0.902,"zip code":"95820","street address":"5072 8th Avenue","organization":"Folklorico Nacional Mexicano de Elena Robles","id":"a6g0iwjrmkdb","geo_precision":"range","state":"CA"},"type":"Feature","geometry":{"type":"Point","coordinates":[-121.447188,38.544495]}},{"properties":{"city":"Sacramento","number":5,"geo_score":0.922,"zip code":"95828","street address":"7350 Palmer House Drive","organization":"James Rutter Middle School Multicultural Dancers","id":"a6g0iwfgbl3m","geo_precision":"range","state":"CA"},"type":"Feature","geometry":{"type":"Point","coordinates":[-121.414834,38.492342]}},{"properties":{"city":"Sacramento","number":6,"geo_score":1.0,"zip code":"95818","street address":"2600 V Street","organization":"Jones &amp; Stokes","id":"a6g0iw8jfeu6","geo_precision":"range","state":"CA"},"type":"Feature","geometry":{"type":"Point","coordinates":[-121.477615,38.561349]}},{"properties":{"city":"Sacramento","number":7,"geo_score":0.902,"zip code":"95820","street address":"5072 8th Avenue","organization":"La Monica","id":"a6g0iw6zcwm9","geo_precision":"range","state":"CA"},"type":"Feature","geometry":{"type":"Point","coordinates":[-121.447188,38.544495]}},{"properties":{"city":"Sacramento","number":8,"geo_score":0.927,"zip code":"95826","street address":"3338 Irish Mist Way","organization":"Le Sy Dong","id":"a6g0iw9md2u6","geo_precision":"range","state":"CA"},"type":"Feature","geometry":{"type":"Point","coordinates":[-121.348578,38.557326]}},{"properties":{"city":"Sacramento","number":9,"geo_score":1.0,"zip code":"95818","street address":"1400 U Street","organization":"Northern California Koyosan Temple","id":"a6g0iwkhhynl","geo_precision":"range","state":"CA"},"type":"Feature","geometry":{"type":"Point","coordinates":[-121.493134,38.566713]}},{"properties":{"city":"Sacramento","number":10,"geo_score":1.0,"zip code":"95822","street address":"3835 Freeport Boulevard","organization":"Sacramento City College - Student Center","id":"a6g0iwm23kah","geo_precision":"range","state":"CA"},"type":"Feature","geometry":{"type":"Point","coordinates":[-121.491895,38.541158]}},{"properties":{"city":"Sacramento","number":11,"geo_score":0.727,"zip code":"95817","street address":"451 X Street","organization":"UC Davis Cancer Center","id":"a6g0iwfoa2nq","geo_precision":"street","state":"CA"},"type":"Feature","geometry":{"type":"Point","coordinates":[-121.472549,38.557525]}},{"properties":{"city":"Sacramento","number":12,"geo_score":1.0,"zip code":"95824","street address":"P.O. Box 246958","organization":"Vietnamese Amateur Poets Society","id":"a6g0iwbsclir","geo_precision":"zip","state":"CA"},"type":"Feature","geometry":{"type":"Point","coordinates":[-121.440764,38.517256]}},{"properties":{"city":"Sacramento","number":13,"geo_score":0.916,"zip code":"95824","street address":"4301 42nd Avenue","organization":"Wailaki","id":"a6g0iwjk36by","geo_precision":"range","state":"CA"},"type":"Feature","geometry":{"type":"Point","coordinates":[-121.457094,38.515166]}},{"properties":{"city":"Sacramento","number":14,"geo_score":0.902,"zip code":"95822","street address":"7367 19th Street","organization":"Beatriz Godinez-Muniz","id":"a6g0iweeuc4b","geo_precision":"range","state":"CA"},"type":"Feature","geometry":{"type":"Point","coordinates":[-121.494863,38.490693]}},{"properties":{"city":"Sacramento","number":15,"geo_score":0.902,"zip code":"95818","street address":"2415 First Avenue","organization":"Bill Gengler","id":"a6g0iwlbquay","geo_precision":"range","state":"CA"},"type":"Feature","geometry":{"type":"Point","coordinates":[-121.482339,38.556962]}},{"properties":{"city":"Sacramento","number":16,"geo_score":0.922,"zip code":"95828","street address":"7407 Bruno Way","organization":"Chia Her","id":"a6g0iwdqkst2","geo_precision":"range","state":"CA"},"type":"Feature","geometry":{"type":"Point","coordinates":[-121.416202,38.488182]}},{"properties":{"city":"Sacramento","number":17,"geo_score":1.0,"zip code":"95818","street address":"2600 V Street","organization":"Dana McGowan","id":"a6g0iwfo75fs","geo_precision":"range","state":"CA"},"type":"Feature","geometry":{"type":"Point","coordinates":[-121.477615,38.561349]}},{"properties":{"city":"Sacramento","number":18,"geo_score":1.0,"zip code":"95818","street address":"2600 V Street","organization":"David S. Byrd","id":"a6g0iwl4bk2e","geo_precision":"range","state":"CA"},"type":"Feature","geometry":{"type":"Point","coordinates":[-121.477615,38.561349]}},{"properties":{"city":"Sacramento","number":19,"geo_score":0.927,"zip code":"95826","street address":"7729 Collegetown Drive","organization":"Dominic Garcia","id":"a6g0iw9ytdp7","geo_precision":"range","state":"CA"},"type":"Feature","geometry":{"type":"Point","coordinates":[-121.413975,38.554169]}},{"properties":{"city":"Sacramento","number":20,"geo_score":0.902,"zip code":"95822","street address":"7367 19th Street","organization":"Harold Muniz","id":"a6g0iwbaqroz","geo_precision":"range","state":"CA"},"type":"Feature","geometry":{"type":"Point","coordinates":[-121.494863,38.490693]}},{"properties":{"city":"Sacramento","number":21,"geo_score":0.916,"zip code":"95824","street address":"4301 42nd Avenue","organization":"Ira Hoaglen","id":"a6g0iwi0nylp","geo_precision":"range","state":"CA"},"type":"Feature","geometry":{"type":"Point","coordinates":[-121.457094,38.515166]}},{"properties":{"city":"Sacramento","number":22,"geo_score":0.916,"zip code":"95820","street address":"5073 11th Avenue","organization":"Nafeesa Mahmood","id":"a6g0iw82ques","geo_precision":"range","state":"CA"},"type":"Feature","geometry":{"type":"Point","coordinates":[-121.447224,38.541788]}},{"properties":{"city":"Sacramento","number":23,"geo_score":0.922,"zip code":"95828","street address":"7320 Nomad Way","organization":"Sylvia Romero","id":"a6g0iwalkqn4","geo_precision":"range","state":"CA"},"type":"Feature","geometry":{"type":"Point","coordinates":[-121.417786,38.494168]}},{"properties":{"city":"Sacramento","number":24,"geo_score":0.916,"zip code":"95818","street address":"1520 12th Avenue","organization":"Tatiana Latour","id":"a6g0iwksqkwz","geo_precision":"range","state":"CA"},"type":"Feature","geometry":{"type":"Point","coordinates":[-121.500316,38.544835]}},{"properties":{"city":"Sacramento","number":25,"geo_score":0.902,"zip code":"95820","street address":"4115 57th Street","organization":"Tere Cruz-Romo","id":"a6g0iwklbn0r","geo_precision":"range","state":"CA"},"type":"Feature","geometry":{"type":"Point","coordinates":[-121.440037,38.537333]}},{"properties":{"city":"Sacramento","number":26,"geo_score":0.902,"zip code":"95820","street address":"5072 8th Avenue","organization":"Yolanda Colosio","id":"a6g0iwia8v17","geo_precision":"range","state":"CA"},"type":"Feature","geometry":{"type":"Point","coordinates":[-121.447188,38.544495]}},{"properties":{"city":"Sacramento","number":27,"geo_score":0.902,"zip code":"95820","street address":"5072 8th Avenue","organization":"Yolanda Ramos","id":"a6g0iw7pr3si","geo_precision":"range","state":"CA"},"type":"Feature","geometry":{"type":"Point","coordinates":[-121.447188,38.544495]}}],"is_temporal":false,"author":{"url":"","metadata":"","contact_name":"","contact_address":"","source":"","contact_phone":""},"source":"","pagination":{"sort":null,"start":0,"total":27,"limit":1000000},"state":"complete","tags":"","published":"2014-08-15T01:41:59-04:00","id":208292}