{"type":"FeatureCollection","data_type":"Dataset","url_type":null,"permissions":[{"permissions":{"download":true,"view":true},"group_id":"everyone"}],"classification":null,"title":"Long Beach Organizations Geocommons","count":16,"stream_id":208229,"contributor":{"url":"http://geocommons.com/users/34351","name":"ACTA"},"data_attributes":null,"calculation_params":null,"icon_link":null,"link":"http://geocommons.com/overlays/208229.json","extent":[-118.215,33.7652,-118.183,33.8169],"geometry_types":["point"],"unique_name":null,"name":"Long Beach Organizations Geocommons","feature_count":16,"description":"","next_feature":null,"is_raster":false,"short_classification":"Y","stats":{"number":{"max":16,"mean":8.5,"variance":22.6666666666667,"stdev":4.76095228569523,"min":1,"median":9}},"features":[{"properties":{"city":"Long Beach","number":1,"geo_score":0.643,"zip code":"90802","street address":"350 E. 3rd Street","organization":"Al's Fingerprint Gallery","id":"a6iaczsqtgw0","geo_precision":"street","state":"CA"},"type":"Feature","geometry":{"type":"Point","coordinates":[-118.191733,33.770503]}},{"properties":{"city":"Long Beach","number":2,"geo_score":0.614,"zip code":"90802","street address":"110 W. Ocean Boulevard","organization":"Arts Council for Long Beach","id":"a6iaczojzoa4","geo_precision":"street","state":"CA"},"type":"Feature","geometry":{"type":"Point","coordinates":[-118.192379,33.76708]}},{"properties":{"city":"Long Beach","number":3,"geo_score":0.912,"zip code":"90806","street address":"2194 Pasadena Avenue","organization":"Cambodian Art Preservation Group","id":"a6iaczq3tn16","geo_precision":"range","state":"CA"},"type":"Feature","geometry":{"type":"Point","coordinates":[-118.187187,33.797041]}},{"properties":{"city":"Long Beach","number":4,"geo_score":0.718,"zip code":"90806","street address":"2390 Pacific Avenue","organization":"Cambodian Association of America","id":"a6iacznuguk2","geo_precision":"street","state":"CA"},"type":"Feature","geometry":{"type":"Point","coordinates":[-118.193703,33.797117]}},{"properties":{"city":"Long Beach","number":5,"geo_score":1.0,"zip code":"90813","street address":"818 E Anaheim Street","organization":"Cambodian Business &amp; Economic Develop Corp","id":"a6iaczoyziyh","geo_precision":"range","state":"CA"},"type":"Feature","geometry":{"type":"Point","coordinates":[-118.182538,33.7826]}},{"properties":{"city":"Long Beach","number":6,"geo_score":1.0,"zip code":"90802","street address":"400 Golden Shore Street","organization":"CSU, Long Beach Office of the Chancellor","id":"a6iaczloyqem","geo_precision":"range","state":"CA"},"type":"Feature","geometry":{"type":"Point","coordinates":[-118.201843,33.765205]}},{"properties":{"city":"Long Beach","number":7,"geo_score":0.619,"zip code":"90802","street address":"249 E. Ocean Boulevard","organization":"Dramatic Results","id":"a6iacznt827a","geo_precision":"street","state":"CA"},"type":"Feature","geometry":{"type":"Point","coordinates":[-118.196393,33.765873]}},{"properties":{"city":"Long Beach","number":8,"geo_score":0.619,"zip code":"90802","street address":"100 W. Broadway","organization":"Earth Tech","id":"a6iaczkilxzg","geo_precision":"street","state":"CA"},"type":"Feature","geometry":{"type":"Point","coordinates":[-118.193038,33.769298]}},{"properties":{"city":"Long Beach","number":9,"geo_score":0.633,"zip code":"90813","street address":"533 E. 16th Street","organization":"Garifuna American Heritage","id":"a6iaczmbpxws","geo_precision":"street","state":"CA"},"type":"Feature","geometry":{"type":"Point","coordinates":[-118.192377,33.787137]}},{"properties":{"city":"Long Beach","number":10,"geo_score":0.912,"zip code":"90806","street address":"3307 Oregon Avenue","organization":"Kutturan Chamoru Performers","id":"a6iaczpbity7","geo_precision":"range","state":"CA"},"type":"Feature","geometry":{"type":"Point","coordinates":[-118.201309,33.816931]}},{"properties":{"city":"Long Beach","number":11,"geo_score":0.93,"zip code":"90810","street address":"2360 Santa Fe Avenue","organization":"Long Beach Buddhist Church","id":"a6iaczxiww71","geo_precision":"range","state":"CA"},"type":"Feature","geometry":{"type":"Point","coordinates":[-118.215438,33.800044]}},{"properties":{"city":"Long Beach","number":12,"geo_score":0.643,"zip code":"90813","street address":"1020 E. 7th Street","organization":"Pacific Island Ethnic Art Museum","id":"a6iaczo9jwlx","geo_precision":"street","state":"CA"},"type":"Feature","geometry":{"type":"Point","coordinates":[-118.191724,33.77534]}},{"properties":{"city":"Long Beach","number":13,"geo_score":0.912,"zip code":"90806","street address":"2240 Atlantic Avenue","organization":"Pan African Art","id":"a6iaczt0nn9v","geo_precision":"range","state":"CA"},"type":"Feature","geometry":{"type":"Point","coordinates":[-118.185013,33.797859]}},{"properties":{"city":"Long Beach","number":14,"geo_score":0.614,"zip code":"90802","street address":"110 W. Ocean Boulevard","organization":"Public Corporation for the Arts","id":"a6iaczmamwyy","geo_precision":"street","state":"CA"},"type":"Feature","geometry":{"type":"Point","coordinates":[-118.192379,33.76708]}},{"properties":{"city":"Long Beach","number":15,"geo_score":0.93,"zip code":"90810","street address":"2125 Santa Fe Avenue","organization":"Queens Historical Society","id":"a6iaczrhfl2v","geo_precision":"range","state":"CA"},"type":"Feature","geometry":{"type":"Point","coordinates":[-118.215437,33.795752]}},{"properties":{"city":"Long Beach","number":16,"geo_score":1.0,"zip code":"90802","street address":"655 Cedar Avenue","organization":"Tafesilafa'I Inc","id":"a6iaczps4v8f","geo_precision":"range","state":"CA"},"type":"Feature","geometry":{"type":"Point","coordinates":[-118.195047,33.774948]}}],"is_temporal":false,"author":{"url":"","metadata":"","contact_name":"","contact_address":"","source":"","contact_phone":""},"source":"","pagination":{"sort":null,"start":0,"total":16,"limit":1000000},"state":"complete","tags":"","published":"2014-08-15T01:38:31-04:00","id":208229}