{"type":"FeatureCollection","data_type":"Dataset","url_type":null,"permissions":[{"permissions":{"download":true,"view":true},"group_id":"everyone"}],"classification":null,"title":"Long Beach Individuals Geocommons","count":17,"stream_id":208231,"contributor":{"url":"http://geocommons.com/users/34351","name":"ACTA"},"data_attributes":null,"calculation_params":null,"icon_link":null,"link":"http://geocommons.com/overlays/208231.json","extent":[-118.215,33.7659,-118.141,33.9015],"geometry_types":["point"],"unique_name":null,"name":"Long Beach Individuals Geocommons","feature_count":17,"description":"","next_feature":null,"is_raster":false,"short_classification":"Y","stats":{"number":{"max":17,"mean":9.0,"variance":25.5,"stdev":5.04975246918104,"min":1,"median":9}},"features":[{"properties":{"city":"Long Beach","number":1,"geo_score":0.912,"zip code":"90806","street address":"2240 Atlantic Avenue","organization":"Akinsanya Kambon","id":"a6iaczchbg6j","geo_precision":"range","state":"CA"},"type":"Feature","geometry":{"type":"Point","coordinates":[-118.185013,33.797859]}},{"properties":{"city":"Long Beach","number":2,"geo_score":1.0,"zip code":"90802","street address":"115 Pine Avenue","organization":"Alan Lowenthal","id":"a6iaczenrets","geo_precision":"range","state":"CA"},"type":"Feature","geometry":{"type":"Point","coordinates":[-118.192384,33.768617]}},{"properties":{"city":"Long Beach","number":3,"geo_score":1.0,"zip code":"90813","street address":"1036 Gardenia Avenue","organization":"Andrew Yinn","id":"a6iaczfa9so5","geo_precision":"range","state":"CA"},"type":"Feature","geometry":{"type":"Point","coordinates":[-118.16872,33.779638]}},{"properties":{"city":"Long Beach","number":4,"geo_score":0.912,"zip code":"90806","street address":"2256 Magnolia Avenue","organization":"Bernie Pearl","id":"a6iacz4ojhqo","geo_precision":"range","state":"CA"},"type":"Feature","geometry":{"type":"Point","coordinates":[-118.198055,33.798158]}},{"properties":{"city":"Long Beach","number":5,"geo_score":0.619,"zip code":"90802","street address":"100 W. Broadway","organization":"Chase Frank","id":"a6iacz6x9bvy","geo_precision":"street","state":"CA"},"type":"Feature","geometry":{"type":"Point","coordinates":[-118.193038,33.769298]}},{"properties":{"city":"Long Beach","number":6,"geo_score":0.619,"zip code":"90802","street address":"249 E. Ocean Boulevard","organization":"Christi Wilkins","id":"a6iacz2pt31c","geo_precision":"street","state":"CA"},"type":"Feature","geometry":{"type":"Point","coordinates":[-118.196393,33.765873]}},{"properties":{"city":"Long Beach","number":7,"geo_score":0.912,"zip code":"90806","street address":"2661 Magnolia Avenue","organization":"Gertrude Jackson","id":"a6iaczbwuujo","geo_precision":"range","state":"CA"},"type":"Feature","geometry":{"type":"Point","coordinates":[-118.198071,33.805497]}},{"properties":{"city":"Long Beach","number":8,"geo_score":0.912,"zip code":"90806","street address":"3307 Oregon Avenue","organization":"Heidi C. Quenga","id":"a6iacz42dxgc","geo_precision":"range","state":"CA"},"type":"Feature","geometry":{"type":"Point","coordinates":[-118.201309,33.816931]}},{"properties":{"city":"Long Beach","number":9,"geo_score":0.93,"zip code":"90810","street address":"2125 Santa Fe Avenue","organization":"Ingrid Thomas","id":"a6iacze1x2y4","geo_precision":"range","state":"CA"},"type":"Feature","geometry":{"type":"Point","coordinates":[-118.215437,33.795752]}},{"properties":{"city":"Long Beach","number":10,"geo_score":0.912,"zip code":"90806","street address":"2661 Magnolia Avenue","organization":"Keechar Broadnax","id":"a6iaczepa9jd","geo_precision":"range","state":"CA"},"type":"Feature","geometry":{"type":"Point","coordinates":[-118.198071,33.805497]}},{"properties":{"city":"Long Beach","number":11,"geo_score":0.393,"zip code":"90755","street address":"1944 St. Louis Avenue","organization":"Khannia Ok","id":"a6iaczhhgu68","geo_precision":"street","state":"CA"},"type":"Feature","geometry":{"type":"Point","coordinates":[-118.141142,33.901458]}},{"properties":{"city":"Long Beach","number":12,"geo_score":0.912,"zip code":"90806","street address":"2194 Pasadena Avenue","organization":"Lang Hang","id":"a6iacz9fbfwc","geo_precision":"range","state":"CA"},"type":"Feature","geometry":{"type":"Point","coordinates":[-118.187187,33.797041]}},{"properties":{"city":"Long Beach","number":13,"geo_score":0.643,"zip code":"90802","street address":"350 E. 3rd Street","organization":"Maria Gonzales","id":"a6iacz94p73m","geo_precision":"street","state":"CA"},"type":"Feature","geometry":{"type":"Point","coordinates":[-118.191733,33.770503]}},{"properties":{"city":"Long Beach","number":14,"geo_score":0.854,"zip code":"90806","street address":"3179 San Francisco","organization":"Michael Archuleta","id":"a6iaczepkju7","geo_precision":"range","state":"CA"},"type":"Feature","geometry":{"type":"Point","coordinates":[-118.203486,33.814897]}},{"properties":{"city":"Long Beach","number":15,"geo_score":1.0,"zip code":"90813","street address":"1131 Mahanna Avenue","organization":"Prumsodun Ok","id":"a6iacz6ggtgf","geo_precision":"range","state":"CA"},"type":"Feature","geometry":{"type":"Point","coordinates":[-118.174886,33.78106]}},{"properties":{"city":"Long Beach","number":16,"geo_score":0.93,"zip code":"90810","street address":"2360 Santa Fe Avenue","organization":"Roy Kokuzo","id":"a6iaczg2mib7","geo_precision":"range","state":"CA"},"type":"Feature","geometry":{"type":"Point","coordinates":[-118.215438,33.800044]}},{"properties":{"city":"Long Beach","number":17,"geo_score":0.93,"zip code":"90810","street address":"2545 Adriatic Avenue","organization":"Wang L Xiong","id":"a6iacz2lj7gi","geo_precision":"range","state":"CA"},"type":"Feature","geometry":{"type":"Point","coordinates":[-118.214352,33.803261]}}],"is_temporal":false,"author":{"url":"","metadata":"","contact_name":"","contact_address":"","source":"","contact_phone":""},"source":"","pagination":{"sort":null,"start":0,"total":17,"limit":1000000},"state":"complete","tags":"","published":"2014-08-15T01:38:31-04:00","id":208231}