{"type":"FeatureCollection","data_type":"Dataset","url_type":null,"permissions":[{"permissions":{"download":true,"view":true},"group_id":"everyone"}],"classification":null,"title":"azCelebrates","count":44,"stream_id":208531,"contributor":{"url":"http://geocommons.com/users/40737","name":"cartoJada"},"data_attributes":null,"calculation_params":null,"icon_link":null,"link":"http://geocommons.com/overlays/208531.json","extent":[-114.624,31.3444,-109.105,36.9086],"geometry_types":["point"],"unique_name":null,"name":"azCelebrates","feature_count":44,"description":"","next_feature":null,"is_raster":false,"short_classification":"Y","stats":{"latitude":{"max":36.90861,"mean":33.5465656818182,"variance":1.49798253397394,"stdev":1.22392096720905,"min":31.34444,"median":33.43556},"longitude":{"max":-109.10472,"mean":-111.609886818182,"variance":2.22224832280359,"stdev":1.49072073937528,"min":-114.62361,"median":-111.65056}},"features":[{"properties":{"city":"Apache Junction","latitude":33.415,"county":"Pinal","media":"","longitude":-111.54889,"id":"a73fh0ij9d16"},"type":"Feature","geometry":{"type":"Point","coordinates":[-111.54889,33.415]}},{"properties":{"city":"Avondale","latitude":33.43556,"county":"Maricopa","media":"","longitude":-112.34889,"id":"a73fh0jchdz4"},"type":"Feature","geometry":{"type":"Point","coordinates":[-112.34889,33.43556]}},{"properties":{"city":"Benson","latitude":31.96778,"county":"Cochise","media":"","longitude":-110.29389,"id":"a73fh0dbtqkd"},"type":"Feature","geometry":{"type":"Point","coordinates":[-110.29389,31.96778]}},{"properties":{"city":"Bisbee","latitude":31.44806,"county":"Cochise","media":"","longitude":-109.92778,"id":"a73fh0eaox7e"},"type":"Feature","geometry":{"type":"Point","coordinates":[-109.92778,31.44806]}},{"properties":{"city":"Buckeye","latitude":33.37028,"county":"Maricopa","media":"","longitude":-112.58306,"id":"a73fh0g3u858"},"type":"Feature","geometry":{"type":"Point","coordinates":[-112.58306,33.37028]}},{"properties":{"city":"Bullhead City","latitude":35.14778,"county":"Mohave","media":"","longitude":-114.5675,"id":"a73fh0pra4kl"},"type":"Feature","geometry":{"type":"Point","coordinates":[-114.5675,35.14778]}},{"properties":{"city":"Camp Verde","latitude":34.56361,"county":"Yavapai","media":"","longitude":-111.85361,"id":"a73fh0e7x2yn"},"type":"Feature","geometry":{"type":"Point","coordinates":[-111.85361,34.56361]}},{"properties":{"city":"Casa Grande","latitude":32.87944,"county":"Pinal","media":"","longitude":-111.75667,"id":"a73fh0osgmoj"},"type":"Feature","geometry":{"type":"Point","coordinates":[-111.75667,32.87944]}},{"properties":{"city":"Chandler","latitude":33.30611,"county":"Maricopa","media":"","longitude":-111.84056,"id":"a73fh0mq22sa"},"type":"Feature","geometry":{"type":"Point","coordinates":[-111.84056,33.30611]}},{"properties":{"city":"Coolidge","latitude":32.97778,"county":"Pinal","media":"","longitude":-111.51694,"id":"a73fh0e90nah"},"type":"Feature","geometry":{"type":"Point","coordinates":[-111.51694,32.97778]}},{"properties":{"city":"Cottonwood","latitude":34.73917,"county":"Yavapai","media":"","longitude":-112.00917,"id":"a73fh0mbw61j"},"type":"Feature","geometry":{"type":"Point","coordinates":[-112.00917,34.73917]}},{"properties":{"city":"Douglas","latitude":31.34444,"county":"Cochise","media":"","longitude":-109.54472,"id":"a73fh0nzjs1p"},"type":"Feature","geometry":{"type":"Point","coordinates":[-109.54472,31.34444]}},{"properties":{"city":"Duncan","latitude":32.72139,"county":"Greenlee","media":"","longitude":-109.10472,"id":"a73fh0e4ao1a"},"type":"Feature","geometry":{"type":"Point","coordinates":[-109.10472,32.72139]}},{"properties":{"city":"Flagstaff","latitude":35.19806,"county":"Coconino","media":"","longitude":-111.65056,"id":"a73fh0irse15"},"type":"Feature","geometry":{"type":"Point","coordinates":[-111.65056,35.19806]}},{"properties":{"city":"Gila Bend","latitude":32.94778,"county":"Maricopa","media":"","longitude":-112.71611,"id":"a73fh0pqz7m4"},"type":"Feature","geometry":{"type":"Point","coordinates":[-112.71611,32.94778]}},{"properties":{"city":"Globe","latitude":33.39417,"county":"Gila","media":"","longitude":-110.78583,"id":"a73fh0q9gw1b"},"type":"Feature","geometry":{"type":"Point","coordinates":[-110.78583,33.39417]}},{"properties":{"city":"Goodyear","latitude":33.43528,"county":"Maricopa","media":"","longitude":-112.3575,"id":"a73fh0ed6z6r"},"type":"Feature","geometry":{"type":"Point","coordinates":[-112.3575,33.43528]}},{"properties":{"city":"Holbrook","latitude":34.90222,"county":"Navajo","media":"","longitude":-110.1575,"id":"a73fh0nh2rgz"},"type":"Feature","geometry":{"type":"Point","coordinates":[-110.1575,34.90222]}},{"properties":{"city":"Kingman","latitude":35.18944,"county":"Mohave","media":"","longitude":-114.05222,"id":"a73fh0hreup6"},"type":"Feature","geometry":{"type":"Point","coordinates":[-114.05222,35.18944]}},{"properties":{"city":"Lake Havasu City","latitude":34.48389,"county":"Mohave","media":"","longitude":-114.32167,"id":"a73fh0ksed2h"},"type":"Feature","geometry":{"type":"Point","coordinates":[-114.32167,34.48389]}},{"properties":{"city":"Litchfield Park","latitude":33.49333,"county":"Maricopa","media":"","longitude":-112.35722,"id":"a73fh0jf0gt3"},"type":"Feature","geometry":{"type":"Point","coordinates":[-112.35722,33.49333]}},{"properties":{"city":"Miami","latitude":33.39917,"county":"Gila","media":"","longitude":-110.86806,"id":"a73fh0g6s1y2"},"type":"Feature","geometry":{"type":"Point","coordinates":[-110.86806,33.39917]}},{"properties":{"city":"Page","latitude":36.90861,"county":"Coconino","media":"","longitude":-111.47278,"id":"a73fh0hmblri"},"type":"Feature","geometry":{"type":"Point","coordinates":[-111.47278,36.90861]}},{"properties":{"city":"Parker","latitude":34.15,"county":"La Paz","media":"","longitude":-114.28833,"id":"a73fh0rj5bhb"},"type":"Feature","geometry":{"type":"Point","coordinates":[-114.28833,34.15]}},{"properties":{"city":"Payson","latitude":34.23083,"county":"Gila","media":"","longitude":-111.32444,"id":"a73fh0oro9cg"},"type":"Feature","geometry":{"type":"Point","coordinates":[-111.32444,34.23083]}},{"properties":{"city":"Phoenix","latitude":33.44833,"county":"Maricopa","media":"","longitude":-112.07333,"id":"a73fh0hfi0y9"},"type":"Feature","geometry":{"type":"Point","coordinates":[-112.07333,33.44833]}},{"properties":{"city":"Prescott","latitude":34.54,"county":"Yavapai","media":"","longitude":-112.46778,"id":"a73fh0p83cuh"},"type":"Feature","geometry":{"type":"Point","coordinates":[-112.46778,34.54]}},{"properties":{"city":"Quartzsite","latitude":33.66389,"county":"La Paz","media":"","longitude":-114.22917,"id":"a73fh0g43or2"},"type":"Feature","geometry":{"type":"Point","coordinates":[-114.22917,33.66389]}},{"properties":{"city":"Safford","latitude":32.83389,"county":"Graham","media":"","longitude":-109.70694,"id":"a73fh0sebnfk"},"type":"Feature","geometry":{"type":"Point","coordinates":[-109.70694,32.83389]}},{"properties":{"city":"Saint Johns","latitude":34.50583,"county":"Apache","media":"","longitude":-109.36028,"id":"a73fh0jtum41"},"type":"Feature","geometry":{"type":"Point","coordinates":[-109.36028,34.50583]}},{"properties":{"city":"Scottsdale","latitude":33.50917,"county":"Maricopa","media":"","longitude":-111.89833,"id":"a73fh0h2carp"},"type":"Feature","geometry":{"type":"Point","coordinates":[-111.89833,33.50917]}},{"properties":{"city":"Sedona","latitude":34.86972,"county":"Yavapai","media":"","longitude":-111.76028,"id":"a73fh0ixhvxl"},"type":"Feature","geometry":{"type":"Point","coordinates":[-111.76028,34.86972]}},{"properties":{"city":"Sierra Vista","latitude":31.55444,"county":"Cochise","media":"","longitude":-110.30306,"id":"a73fh0pyi6op"},"type":"Feature","geometry":{"type":"Point","coordinates":[-110.30306,31.55444]}},{"properties":{"city":"Springerville","latitude":34.13333,"county":"Apache","media":"","longitude":-109.28528,"id":"a73fh0jxrwtx"},"type":"Feature","geometry":{"type":"Point","coordinates":[-109.28528,34.13333]}},{"properties":{"city":"Superior","latitude":33.29389,"county":"Pinal","media":"","longitude":-111.09556,"id":"a73fh0ha4wbw"},"type":"Feature","geometry":{"type":"Point","coordinates":[-111.09556,33.29389]}},{"properties":{"city":"Tempe","latitude":33.41472,"county":"Maricopa","media":"","longitude":-111.90861,"id":"a73fh0l0ql69"},"type":"Feature","geometry":{"type":"Point","coordinates":[-111.90861,33.41472]}},{"properties":{"city":"Tombstone","latitude":31.71278,"county":"Cochise","media":"","longitude":-110.06694,"id":"a73fh0s11h8f"},"type":"Feature","geometry":{"type":"Point","coordinates":[-110.06694,31.71278]}},{"properties":{"city":"Tubac","latitude":31.6125,"county":"Santa Cruz","media":"","longitude":-111.04528,"id":"a73fh0sjmhw4"},"type":"Feature","geometry":{"type":"Point","coordinates":[-111.04528,31.6125]}},{"properties":{"city":"Tumacacori","latitude":31.56861,"county":"Santa Cruz","media":"","longitude":-111.05167,"id":"a73fh0rnl2mv"},"type":"Feature","geometry":{"type":"Point","coordinates":[-111.05167,31.56861]}},{"properties":{"city":"White Mountains","latitude":34.1425,"county":"Navajo","media":"","longitude":-109.95972,"id":"a73fh0p97u76"},"type":"Feature","geometry":{"type":"Point","coordinates":[-109.95972,34.1425]}},{"properties":{"city":"Wickenburg","latitude":33.96861,"county":"Maricopa","media":"","longitude":-112.72889,"id":"a73fh0p1yr04"},"type":"Feature","geometry":{"type":"Point","coordinates":[-112.72889,33.96861]}},{"properties":{"city":"Willcox","latitude":32.25278,"county":"Cochise","media":"","longitude":-109.83139,"id":"a73fh0njf8g2"},"type":"Feature","geometry":{"type":"Point","coordinates":[-109.83139,32.25278]}},{"properties":{"city":"Williams","latitude":35.24944,"county":"Coconino","media":"","longitude":-112.19028,"id":"a73fh0tatg1r"},"type":"Feature","geometry":{"type":"Point","coordinates":[-112.19028,35.24944]}},{"properties":{"city":"Yuma","latitude":32.72528,"county":"Yuma","media":"","longitude":-114.62361,"id":"a73fh0ejda1z"},"type":"Feature","geometry":{"type":"Point","coordinates":[-114.62361,32.72528]}}],"is_temporal":false,"author":{"url":"","metadata":"","contact_name":"","contact_address":"","source":"","contact_phone":""},"source":"","pagination":{"sort":null,"start":0,"total":44,"limit":1000000},"state":"complete","tags":"","published":"2014-08-15T01:58:32-04:00","id":208531}