{"type":"FeatureCollection","data_type":"Dataset","url_type":null,"permissions":[{"permissions":{"download":true,"view":true},"group_id":"everyone"}],"classification":null,"title":"mortgage_brokers","count":51,"stream_id":209933,"contributor":{"url":"http://geocommons.com/users/40951","name":"sam.felipe2"},"data_attributes":null,"calculation_params":null,"icon_link":null,"link":"http://geocommons.com/overlays/209933.json","extent":[-118.727,33.7673,-117.831,35.1206],"geometry_types":["point"],"unique_name":null,"name":"mortgage_brokers","feature_count":51,"description":"","next_feature":null,"is_raster":false,"short_classification":"Y","stats":{"rep (1 for yes, 0 for no)":{"max":1,"mean":0.431372549019608,"variance":0.250196078431373,"stdev":0.500196039999691,"min":0,"median":0}},"features":[{"properties":{"city":"LONG BEACH","zip":"90802","geo_score":1.0,"id":"a67fs9edbqb1","geo_precision":"range","address":"400 WEST OCEAN BOULEVARD #801","rep (1 for yes, 0 for no)":1,"state":"California"},"type":"Feature","geometry":{"type":"Point","coordinates":[-118.20184,33.767322]}},{"properties":{"city":"Palmdale","zip":"93551","geo_score":0.913,"id":"a67fs9jaover","geo_precision":"range","address":"40040 Palmetto Drive","rep (1 for yes, 0 for no)":1,"state":"California"},"type":"Feature","geometry":{"type":"Point","coordinates":[-118.186273,34.610224]}},{"properties":{"city":"LOS ANGELES","zip":"93551","geo_score":0.779,"id":"a67fs9h7mtmn","geo_precision":"street","address":"40045 Valle View Lane, Leona Valley Area","rep (1 for yes, 0 for no)":1,"state":"California"},"type":"Feature","geometry":{"type":"Point","coordinates":[-118.260711,34.612625]}},{"properties":{"city":"LEONA VALLEY","zip":"93551","geo_score":0.828,"id":"a67fs9qpnzsh","geo_precision":"range","address":"40053 97TH ST WEST","rep (1 for yes, 0 for no)":1,"state":"California"},"type":"Feature","geometry":{"type":"Point","coordinates":[-118.301976,34.613131]}},{"properties":{"city":"Los Angeles","zip":"90016","geo_score":1.0,"id":"a67fs9rqxz6r","geo_precision":"range","address":"4007 Exposition Blvd","rep (1 for yes, 0 for no)":1,"state":"California"},"type":"Feature","geometry":{"type":"Point","coordinates":[-118.339509,34.023363]}},{"properties":{"city":"Lawndale","zip":"90260","geo_score":0.805,"id":"a67fs9t9nfhp","geo_precision":"street","address":"4011 West 160th Street","rep (1 for yes, 0 for no)":1,"state":"California"},"type":"Feature","geometry":{"type":"Point","coordinates":[-118.35479,33.885464]}},{"properties":{"city":"PALMDALE","zip":"93591","geo_score":0.963,"id":"a67fs9p3k9ef","geo_precision":"range","address":"40185 167TH STREET","rep (1 for yes, 0 for no)":1,"state":"California"},"type":"Feature","geometry":{"type":"Point","coordinates":[-117.831227,34.611694]}},{"properties":{"city":"Palmdale","zip":"93551","geo_score":0.913,"id":"a67fs9qt8696","geo_precision":"range","address":"40209 Wyngate Ct","rep (1 for yes, 0 for no)":1,"state":"California"},"type":"Feature","geometry":{"type":"Point","coordinates":[-118.20802,34.613009]}},{"properties":{"city":"Palmdale","zip":"93550","geo_score":0.54,"id":"a67fs9h6q7nv","geo_precision":"street","address":"40249 Reata Rd","rep (1 for yes, 0 for no)":1,"state":"California"},"type":"Feature","geometry":{"type":"Point","coordinates":[-118.096644,34.578222]}},{"properties":{"city":"LOS ANGELES","zip":"90018","geo_score":0.916,"id":"a67fs9mpop8l","geo_precision":"range","address":"4029 WEST 21ST STREET","rep (1 for yes, 0 for no)":1,"state":"California"},"type":"Feature","geometry":{"type":"Point","coordinates":[-118.328518,34.037615]}},{"properties":{"city":"Palmdale","zip":"93591","geo_score":0.927,"id":"a67fs9dklhky","geo_precision":"range","address":"40254 East 161st Street","rep (1 for yes, 0 for no)":1,"state":"California"},"type":"Feature","geometry":{"type":"Point","coordinates":[-117.84366,34.613532]}},{"properties":{"city":"Palmdale","zip":"93550","geo_score":0.45,"id":"a67fs9sncezs","geo_precision":"street","address":"40333 Maravilla Drive","rep (1 for yes, 0 for no)":1,"state":"California"},"type":"Feature","geometry":{"type":"Point","coordinates":[-118.481135,35.120578]}},{"properties":{"city":"PALMDALE","zip":"93591","geo_score":0.927,"id":"a67fs9rkq79l","geo_precision":"range","address":"40335 EAST 165TH STREET","rep (1 for yes, 0 for no)":1,"state":"California"},"type":"Feature","geometry":{"type":"Point","coordinates":[-117.837055,34.612311]}},{"properties":{"city":"PALMDALE","zip":"93552","geo_score":0.537,"id":"a67fs9gvybnf","geo_precision":"street","address":"4040 LARIAT DRIVE","rep (1 for yes, 0 for no)":1,"state":"California"},"type":"Feature","geometry":{"type":"Point","coordinates":[-118.197701,34.499658]}},{"properties":{"city":"LOS ANGELES","zip":"90062","geo_score":0.911,"id":"a67fs9idlm99","geo_precision":"range","address":"4051 HALLDALE AVENUE","rep (1 for yes, 0 for no)":1,"state":"California"},"type":"Feature","geometry":{"type":"Point","coordinates":[-118.302338,34.010019]}},{"properties":{"city":"Palmdale","zip":"93551","geo_score":0.596,"id":"a67fs9phxpms","geo_precision":"zip","address":"40742 Brookhollow Ct","rep (1 for yes, 0 for no)":1,"state":"California"},"type":"Feature","geometry":{"type":"Point","coordinates":[-118.298662,33.786594]}},{"properties":{"city":"Agoura Hills","zip":"91301","geo_score":0.938,"id":"a67fs9q3kyd5","geo_precision":"range","address":"4085 Yankee Drive","rep (1 for yes, 0 for no)":1,"state":"California"},"type":"Feature","geometry":{"type":"Point","coordinates":[-118.726614,34.134114]}},{"properties":{"city":"Palmdale","zip":"93551","geo_score":0.83,"id":"a67fs9oshxt9","geo_precision":"range","address":"41052 17th Street West","rep (1 for yes, 0 for no)":1,"state":"California"},"type":"Feature","geometry":{"type":"Point","coordinates":[-118.160905,34.628412]}},{"properties":{"city":"Los Angeles","zip":"90063","geo_score":0.464,"id":"a67fs9rq3r9m","geo_precision":"street","address":"415 North Brannick Avenue #A","rep (1 for yes, 0 for no)":1,"state":"California"},"type":"Feature","geometry":{"type":"Point","coordinates":[-118.177959,34.04099]}},{"properties":{"city":"Lancaster","zip":"93536","geo_score":0.757,"id":"a67fs9l0rej4","geo_precision":"range","address":"41606 West 47th Street","rep (1 for yes, 0 for no)":1,"state":"California"},"type":"Feature","geometry":{"type":"Point","coordinates":[-118.214486,34.638335]}},{"properties":{"city":"Los Angeles","zip":"91340","geo_score":0.81,"id":"a67fs9on7vph","geo_precision":"range","address":"417 Harps Ave","rep (1 for yes, 0 for no)":1,"state":"California"},"type":"Feature","geometry":{"type":"Point","coordinates":[-118.438906,34.288788]}},{"properties":{"city":"Los Angeles","zip":"91340","geo_score":0.81,"id":"a67fs9qh35be","geo_precision":"range","address":"417 Harps Ave","rep (1 for yes, 0 for no)":1,"state":"California"},"type":"Feature","geometry":{"type":"Point","coordinates":[-118.438906,34.288788]}},{"properties":{"city":"Los Angeles","zip":"90003","geo_score":0.916,"id":"a67fs9ipuum9","geo_precision":"range","address":"418 East 98th Street","rep (1 for yes, 0 for no)":0,"state":"California"},"type":"Feature","geometry":{"type":"Point","coordinates":[-118.266998,33.947256]}},{"properties":{"city":"Los Angeles","zip":"90013","geo_score":1.0,"id":"a67fs9kkyuay","geo_precision":"range","address":"420 S San Pedro St","rep (1 for yes, 0 for no)":0,"state":"California"},"type":"Feature","geometry":{"type":"Point","coordinates":[-118.243245,34.045252]}},{"properties":{"city":"Los Angeles","zip":"90013","geo_score":1.0,"id":"a67fs9ossnwc","geo_precision":"range","address":"420 S SAN PEDRO ST # 529","rep (1 for yes, 0 for no)":0,"state":"California"},"type":"Feature","geometry":{"type":"Point","coordinates":[-118.244197,34.043641]}},{"properties":{"city":"Los Angeles","zip":"90013","geo_score":0.897,"id":"a67fs9r90isd","geo_precision":"range","address":"420 S San Pedro St Apt 621","rep (1 for yes, 0 for no)":0,"state":"California"},"type":"Feature","geometry":{"type":"Point","coordinates":[-118.243245,34.045252]}},{"properties":{"city":"Los Angeles","zip":"90013","geo_score":0.973,"id":"a67fs9fzpbsn","geo_precision":"range","address":"420 San Pedro Street","rep (1 for yes, 0 for no)":0,"state":"California"},"type":"Feature","geometry":{"type":"Point","coordinates":[-118.243245,34.045252]}},{"properties":{"city":"Los Angeles","zip":"90013","geo_score":0.947,"id":"a67fs9fsupvc","geo_precision":"range","address":"420 South San Pedro","rep (1 for yes, 0 for no)":0,"state":"California"},"type":"Feature","geometry":{"type":"Point","coordinates":[-118.243245,34.045252]}},{"properties":{"city":"LOS ANGELES","zip":"90013","geo_score":0.886,"id":"a67fs9g9acgo","geo_precision":"range","address":"420 SOUTH SAN PEDRO STREET UNIT 305","rep (1 for yes, 0 for no)":0,"state":"California"},"type":"Feature","geometry":{"type":"Point","coordinates":[-118.243245,34.045252]}},{"properties":{"city":"Glendale","zip":"91204","geo_score":0.976,"id":"a67fs9rfjtpy","geo_precision":"range","address":"422 Hawthorne Street 6","rep (1 for yes, 0 for no)":0,"state":"California"},"type":"Feature","geometry":{"type":"Point","coordinates":[-118.26146,34.14503]}},{"properties":{"city":"Studio City","zip":"91604","geo_score":0.805,"id":"a67fs9pfiv80","geo_precision":"street","address":"4220 Colfax Ave #104","rep (1 for yes, 0 for no)":0,"state":"California"},"type":"Feature","geometry":{"type":"Point","coordinates":[-118.387708,34.141262]}},{"properties":{"city":"Lancaster","zip":"93536","geo_score":0.729,"id":"a67fs9odj9vo","geo_precision":"street","address":"4237 Vahan Court","rep (1 for yes, 0 for no)":0,"state":"California"},"type":"Feature","geometry":{"type":"Point","coordinates":[-118.183384,34.681623]}},{"properties":{"city":"Long Beach","zip":"90804","geo_score":0.916,"id":"a67fs9pkj16e","geo_precision":"range","address":"4240 E 15th St","rep (1 for yes, 0 for no)":0,"state":"California"},"type":"Feature","geometry":{"type":"Point","coordinates":[-118.143704,33.785763]}},{"properties":{"city":"Lancaster","zip":"93536","geo_score":0.757,"id":"a67fs9ttchh2","geo_precision":"range","address":"42425 West 62nd Street","rep (1 for yes, 0 for no)":0,"state":"California"},"type":"Feature","geometry":{"type":"Point","coordinates":[-118.240646,34.653804]}},{"properties":{"city":"CARSON","zip":"90745","geo_score":1.0,"id":"a67fs9it0gb5","geo_precision":"range","address":"425 E 211TH STREET","rep (1 for yes, 0 for no)":0,"state":"California"},"type":"Feature","geometry":{"type":"Point","coordinates":[-118.269579,33.838088]}},{"properties":{"city":"Los Angeles","zip":"90003","geo_score":1.0,"id":"a67fs9f652ic","geo_precision":"range","address":"426 East 104th Street","rep (1 for yes, 0 for no)":0,"state":"California"},"type":"Feature","geometry":{"type":"Point","coordinates":[-118.267092,33.941924]}},{"properties":{"city":"Los Angeles","zip":"90061","geo_score":1.0,"id":"a67fs9nu5j7v","geo_precision":"range","address":"426 West 111th  Street","rep (1 for yes, 0 for no)":0,"state":"California"},"type":"Feature","geometry":{"type":"Point","coordinates":[-118.281239,33.934755]}},{"properties":{"city":"Lancaster","zip":"93536","geo_score":0.924,"id":"a67fs9f7ejm2","geo_precision":"range","address":"42963 Sachs Drive","rep (1 for yes, 0 for no)":0,"state":"California"},"type":"Feature","geometry":{"type":"Point","coordinates":[-118.188888,34.662942]}},{"properties":{"city":"LANCASTER","zip":"93536","geo_score":0.924,"id":"a67fs9m7r17v","geo_precision":"range","address":"43035 ALEXO DRIVE","rep (1 for yes, 0 for no)":0,"state":"California"},"type":"Feature","geometry":{"type":"Point","coordinates":[-118.196345,34.664714]}},{"properties":{"city":"Lancaster","zip":"93536","geo_score":0.743,"id":"a67fs9qgg5h7","geo_precision":"street","address":"43038 22nd Street West","rep (1 for yes, 0 for no)":0,"state":"California"},"type":"Feature","geometry":{"type":"Point","coordinates":[-118.169647,34.664629]}},{"properties":{"city":"LOS ANGELES","zip":"90020","geo_score":0.897,"id":"a67fs9qr83ur","geo_precision":"range","address":"431 S KINGSLEY DR APT 302","rep (1 for yes, 0 for no)":0,"state":"California"},"type":"Feature","geometry":{"type":"Point","coordinates":[-118.302852,34.066635]}},{"properties":{"city":"Lancaster","zip":"93536","geo_score":0.563,"id":"a67fs9ge0ssi","geo_precision":"street","address":"43130 W 28th St","rep (1 for yes, 0 for no)":0,"state":"California"},"type":"Feature","geometry":{"type":"Point","coordinates":[-118.180779,34.669835]}},{"properties":{"city":"LANCASTER","zip":"93536","geo_score":0.563,"id":"a67fs9fdaq9f","geo_precision":"street","address":"43130 WEST 28TH STREET","rep (1 for yes, 0 for no)":0,"state":"California"},"type":"Feature","geometry":{"type":"Point","coordinates":[-118.180779,34.669835]}},{"properties":{"city":"ROSEMEAD","zip":"91770","geo_score":0.922,"id":"a67fs9eb5w63","geo_precision":"range","address":"4315 WALNUT GROVE AVENUE","rep (1 for yes, 0 for no)":0,"state":"California"},"type":"Feature","geometry":{"type":"Point","coordinates":[-118.082083,34.083885]}},{"properties":{"city":"Los Angeles","zip":"90032","geo_score":0.922,"id":"a67fs9hkcvlt","geo_precision":"range","address":"4316 Guardia Avenue","rep (1 for yes, 0 for no)":0,"state":"California"},"type":"Feature","geometry":{"type":"Point","coordinates":[-118.167441,34.095786]}},{"properties":{"city":"PICO RIVERA","zip":"90660","geo_score":0.519,"id":"a67fs9nu6o41","geo_precision":"street","address":"4317 PARAMOUNT BOULEVARD #D","rep (1 for yes, 0 for no)":0,"state":"California"},"type":"Feature","geometry":{"type":"Point","coordinates":[-118.084668,34.016753]}},{"properties":{"city":"Inglewood","zip":"90301","geo_score":0.89,"id":"a67fs9f3wqa2","geo_precision":"range","address":"432 East Spruce  Avenue Unit 84","rep (1 for yes, 0 for no)":0,"state":"California"},"type":"Feature","geometry":{"type":"Point","coordinates":[-118.348632,33.959933]}},{"properties":{"city":"INGLEWOOD","zip":"90301","geo_score":0.89,"id":"a67fs9sg709q","geo_precision":"range","address":"432 EAST SPRUCE AVENUE UNIT 84","rep (1 for yes, 0 for no)":0,"state":"California"},"type":"Feature","geometry":{"type":"Point","coordinates":[-118.348632,33.959933]}},{"properties":{"city":"Inglewood","zip":"90301","geo_score":0.941,"id":"a67fs9e34aj4","geo_precision":"range","address":"432 East Spurce Avenue","rep (1 for yes, 0 for no)":0,"state":"California"},"type":"Feature","geometry":{"type":"Point","coordinates":[-118.348632,33.959933]}},{"properties":{"city":"Glendale","zip":"91206","geo_score":1.0,"id":"a67fs9jhb8sh","geo_precision":"range","address":"432 N Kenwood St # 212","rep (1 for yes, 0 for no)":0,"state":"California"},"type":"Feature","geometry":{"type":"Point","coordinates":[-118.251363,34.148356]}},{"properties":{"city":"LANCASTER","zip":"93534","geo_score":0.93,"id":"a67fs9mbhg5s","geo_precision":"range","address":"433 WEST AVENUE J-12","rep (1 for yes, 0 for no)":0,"state":"California"},"type":"Feature","geometry":{"type":"Point","coordinates":[-118.138919,34.678208]}}],"is_temporal":false,"author":{"url":"","metadata":null,"contact_name":null,"contact_address":null,"source":null,"contact_phone":null},"source":"","pagination":{"sort":null,"start":0,"total":51,"limit":1000000},"state":"complete","tags":"","published":"2014-08-15T04:01:11-04:00","id":209933}