{"type":"FeatureCollection","data_type":"Dataset","url_type":null,"permissions":[{"permissions":{"download":true,"view":true},"group_id":"everyone"}],"classification":null,"title":"Fortant Kosher Cabernet Sauvignon","count":50,"stream_id":21026,"contributor":{"url":"http://geocommons.com/users/2024","name":"kunisawa"},"data_attributes":null,"calculation_params":null,"icon_link":null,"link":"http://geocommons.com/overlays/21026.json","extent":[-159.31,18.4581,-66.7327,48.719],"geometry_types":["point"],"unique_name":null,"name":"Fortant Kosher Cabernet Sauvignon","feature_count":50,"description":"","next_feature":null,"is_raster":false,"short_classification":"Y","stats":{"geo_score":{"max":1.0,"mean":0.96224,"variance":0.00321104326530612,"stdev":0.0566660680240488,"min":0.857,"median":1.0},"num_searches":{"max":5.0,"mean":1.26,"variance":0.441224489795918,"stdev":0.664247310717867,"min":1.0,"median":1.0}},"features":[{"properties":{"city":"Thida","geo_score":1.0,"description":"Fortant Cabernet Sauvignon","num_searches":1.0,"id":"a6fxp99pvvkp","geo_precision":"zip","source":"grappos.com","zipid":"72165","state":"AR"},"type":"Feature","geometry":{"type":"Point","coordinates":[-91.453861,35.576231]}},{"properties":{"city":"San Francisco","geo_score":1.0,"description":"Fortant Cabernet Sauvignon","num_searches":5.0,"id":"a6fxp9fbfqa0","geo_precision":"zip","source":"grappos.com","zipid":"94109","state":"CA"},"type":"Feature","geometry":{"type":"Point","coordinates":[-122.420782,37.795219]}},{"properties":{"city":"Cardiff By The Sea","geo_score":1.0,"description":"Fortant Cabernet Sauvignon","num_searches":1.0,"id":"a6fxp9ap99p4","geo_precision":"zip","source":"grappos.com","zipid":"92007","state":"CA"},"type":"Feature","geometry":{"type":"Point","coordinates":[-117.274469,33.023042]}},{"properties":{"city":"Richmond","geo_score":1.0,"description":"Fortant Cabernet Sauvignon","num_searches":1.0,"id":"a6fxp9cgt3zf","geo_precision":"zip","source":"grappos.com","zipid":"94804","state":"CA"},"type":"Feature","geometry":{"type":"Point","coordinates":[-122.344381,37.925174]}},{"properties":{"city":"San Jose","geo_score":1.0,"description":"Fortant Cabernet Sauvignon","num_searches":1.0,"id":"a6fxp9df3cqa","geo_precision":"zip","source":"grappos.com","zipid":"95115","state":"CA"},"type":"Feature","geometry":{"type":"Point","coordinates":[-121.705327,37.189396]}},{"properties":{"city":"Holt","geo_score":1.0,"description":"Fortant Cabernet Sauvignon","num_searches":1.0,"id":"a6fxp9j8ao5t","geo_precision":"zip","source":"grappos.com","zipid":"95234","state":"CA"},"type":"Feature","geometry":{"type":"Point","coordinates":[-121.253872,37.889849]}},{"properties":{"city":"Vacaville","geo_score":1.0,"description":"Fortant Cabernet Sauvignon","num_searches":1.0,"id":"a6fxp9fffctq","geo_precision":"zip","source":"grappos.com","zipid":"95687","state":"CA"},"type":"Feature","geometry":{"type":"Point","coordinates":[-121.912773,38.35056]}},{"properties":{"city":"Sacramento","geo_score":1.0,"description":"Fortant Cabernet Sauvignon","num_searches":1.0,"id":"a6fxp97xmxyk","geo_precision":"zip","source":"grappos.com","zipid":"95822","state":"CA"},"type":"Feature","geometry":{"type":"Point","coordinates":[-121.497716,38.511356]}},{"properties":{"city":"Vina","geo_score":1.0,"description":"Fortant Cabernet Sauvignon","num_searches":1.0,"id":"a6fxp96s95xo","geo_precision":"zip","source":"grappos.com","zipid":"96092","state":"CA"},"type":"Feature","geometry":{"type":"Point","coordinates":[-122.025047,39.927203]}},{"properties":{"city":"South Lake Tahoe","geo_score":1.0,"description":"Fortant Cabernet Sauvignon","num_searches":1.0,"id":"a6fxp9ktc1vl","geo_precision":"zip","source":"grappos.com","zipid":"96154","state":"CA"},"type":"Feature","geometry":{"type":"Point","coordinates":[-120.0188,38.87529]}},{"properties":{"city":"Aurora","geo_score":0.857,"description":"Fortant Cabernet Sauvignon","num_searches":1.0,"id":"a6fxp9ho1mzl","geo_precision":"zip","source":"grappos.com","zipid":"80016","state":"CO"},"type":"Feature","geometry":{"type":"Point","coordinates":[-104.792475,39.591655]}},{"properties":{"city":"Brooklyn","geo_score":1.0,"description":"Fortant Cabernet Sauvignon","num_searches":1.0,"id":"a6fxp9b1n3rw","geo_precision":"zip","source":"grappos.com","zipid":"6234","state":"CT"},"type":"Feature","geometry":{"type":"Point","coordinates":[-71.983412,41.847758]}},{"properties":{"city":"Kealia","geo_score":0.875,"description":"Fortant Cabernet Sauvignon","num_searches":1.0,"id":"a6fxp9hicpqc","geo_precision":"zip","source":"grappos.com","zipid":"96751","state":"HI"},"type":"Feature","geometry":{"type":"Point","coordinates":[-159.31,22.110833]}},{"properties":{"city":"Paia","geo_score":0.881,"description":"Fortant Cabernet Sauvignon","num_searches":1.0,"id":"a6fxp9dpmjgc","geo_precision":"zip","source":"grappos.com","zipid":"96779","state":"HI"},"type":"Feature","geometry":{"type":"Point","coordinates":[-156.374167,20.906667]}},{"properties":{"city":"Chicago","geo_score":0.857,"description":"Fortant Cabernet Sauvignon","num_searches":2.0,"id":"a6fxp9igbh72","geo_precision":"city","source":"grappos.com","zipid":"60290","state":"IL"},"type":"Feature","geometry":{"type":"Point","coordinates":[-87.650052,41.850033]}},{"properties":{"city":"Naperville","geo_score":0.857,"description":"Fortant Cabernet Sauvignon","num_searches":1.0,"id":"a6fxp99knsrw","geo_precision":"zip","source":"grappos.com","zipid":"60540","state":"IL"},"type":"Feature","geometry":{"type":"Point","coordinates":[-88.232846,41.744752]}},{"properties":{"city":"Hillsdale","geo_score":1.0,"description":"Fortant Cabernet Sauvignon","num_searches":1.0,"id":"a6fxp9jvys2r","geo_precision":"zip","source":"grappos.com","zipid":"66036","state":"KS"},"type":"Feature","geometry":{"type":"Point","coordinates":[-94.852061,38.658068]}},{"properties":{"city":"Ozawkie","geo_score":1.0,"description":"Fortant Cabernet Sauvignon","num_searches":1.0,"id":"a6fxp9acp7kv","geo_precision":"zip","source":"grappos.com","zipid":"66070","state":"KS"},"type":"Feature","geometry":{"type":"Point","coordinates":[-95.456501,39.17715]}},{"properties":{"city":"Wichita","geo_score":0.889,"description":"Fortant Cabernet Sauvignon","num_searches":1.0,"id":"a6fxp9bzba7s","geo_precision":"zip","source":"grappos.com","zipid":"67204","state":"KS"},"type":"Feature","geometry":{"type":"Point","coordinates":[-97.350044,37.775846]}},{"properties":{"city":"Simpson","geo_score":1.0,"description":"Fortant Cabernet Sauvignon","num_searches":1.0,"id":"a6fxp9a1xmtf","geo_precision":"zip","source":"grappos.com","zipid":"67478","state":"KS"},"type":"Feature","geometry":{"type":"Point","coordinates":[-97.932764,39.385112]}},{"properties":{"city":"Millers Falls","geo_score":1.0,"description":"Fortant Cabernet Sauvignon","num_searches":1.0,"id":"a6fxp9dns459","geo_precision":"zip","source":"grappos.com","zipid":"1349","state":"MA"},"type":"Feature","geometry":{"type":"Point","coordinates":[-72.492588,42.582031]}},{"properties":{"city":"Fayville","geo_score":0.857,"description":"Fortant Cabernet Sauvignon","num_searches":1.0,"id":"a6fxp95b9bma","geo_precision":"zip","source":"grappos.com","zipid":"1745","state":"MA"},"type":"Feature","geometry":{"type":"Point","coordinates":[-71.524509,42.30565]}},{"properties":{"city":"North Marshfield","geo_score":1.0,"description":"Fortant Cabernet Sauvignon","num_searches":1.0,"id":"a6fxp955g1ki","geo_precision":"zip","source":"grappos.com","zipid":"2059","state":"MA"},"type":"Feature","geometry":{"type":"Point","coordinates":[-70.701357,41.970474]}},{"properties":{"city":"Boston","geo_score":1.0,"description":"Fortant Cabernet Sauvignon","num_searches":1.0,"id":"a6fxp9cjc4z5","geo_precision":"zip","source":"grappos.com","zipid":"2205","state":"MA"},"type":"Feature","geometry":{"type":"Point","coordinates":[-71.053877,42.350334]}},{"properties":{"city":"Willard","geo_score":1.0,"description":"Fortant Cabernet Sauvignon","num_searches":2.0,"id":"a6fxp9bnm5dn","geo_precision":"zip","source":"grappos.com","zipid":"65781","state":"MO"},"type":"Feature","geometry":{"type":"Point","coordinates":[-93.315876,37.348973]}},{"properties":{"city":"Eminence","geo_score":0.952,"description":"Fortant Cabernet Sauvignon","num_searches":1.0,"id":"a6fxp9jdzuj5","geo_precision":"zip","source":"grappos.com","zipid":"65466","state":"MO"},"type":"Feature","geometry":{"type":"Point","coordinates":[-91.37458,37.140327]}},{"properties":{"city":"Solo","geo_score":1.0,"description":"Fortant Cabernet Sauvignon","num_searches":1.0,"id":"a6fxp9ctm5wy","geo_precision":"zip","source":"grappos.com","zipid":"65564","state":"MO"},"type":"Feature","geometry":{"type":"Point","coordinates":[-91.962351,37.242824]}},{"properties":{"city":"South Greenfield","geo_score":0.876,"description":"Fortant Cabernet Sauvignon","num_searches":1.0,"id":"a6fxp97nd3sk","geo_precision":"zip","source":"grappos.com","zipid":"65752","state":"MO"},"type":"Feature","geometry":{"type":"Point","coordinates":[-93.834099,37.327272]}},{"properties":{"city":"Springfield","geo_score":1.0,"description":"Fortant Cabernet Sauvignon","num_searches":1.0,"id":"a6fxp952fwti","geo_precision":"zip","source":"grappos.com","zipid":"65899","state":"MO"},"type":"Feature","geometry":{"type":"Point","coordinates":[-93.259586,37.181498]}},{"properties":{"city":"Southern Pines","geo_score":0.868,"description":"Fortant Cabernet Sauvignon","num_searches":1.0,"id":"a6fxp956vrpe","geo_precision":"zip","source":"grappos.com","zipid":"28387","state":"NC"},"type":"Feature","geometry":{"type":"Point","coordinates":[-79.355585,35.20738]}},{"properties":{"city":"Elmwood","geo_score":1.0,"description":"Fortant Cabernet Sauvignon","num_searches":2.0,"id":"a6fxp9i4txc7","geo_precision":"zip","source":"grappos.com","zipid":"68349","state":"NE"},"type":"Feature","geometry":{"type":"Point","coordinates":[-96.323714,40.834419]}},{"properties":{"city":"Wilmot","geo_score":0.943,"description":"Fortant Cabernet Sauvignon","num_searches":1.0,"id":"a6fxp9cqsfgy","geo_precision":"zip","source":"grappos.com","zipid":"3287","state":"NH"},"type":"Feature","geometry":{"type":"Point","coordinates":[-71.895082,43.417853]}},{"properties":{"city":"Georges Mills","geo_score":1.0,"description":"Fortant Cabernet Sauvignon","num_searches":1.0,"id":"a6fxp9bx57ui","geo_precision":"zip","source":"grappos.com","zipid":"3751","state":"NH"},"type":"Feature","geometry":{"type":"Point","coordinates":[-72.063675,43.44872]}},{"properties":{"city":"Alton","geo_score":0.937,"description":"Fortant Cabernet Sauvignon","num_searches":1.0,"id":"a6fxp9hm1uql","geo_precision":"zip","source":"grappos.com","zipid":"3809","state":"NH"},"type":"Feature","geometry":{"type":"Point","coordinates":[-71.19979,43.518135]}},{"properties":{"city":"Hachita","geo_score":1.0,"description":"Fortant Cabernet Sauvignon","num_searches":1.0,"id":"a6fxp9g0i4p8","geo_precision":"zip","source":"grappos.com","zipid":"88040","state":"NM"},"type":"Feature","geometry":{"type":"Point","coordinates":[-108.331605,31.890411]}},{"properties":{"city":"Las Vegas","geo_score":1.0,"description":"Fortant Cabernet Sauvignon","num_searches":1.0,"id":"a6fxp9hvx383","geo_precision":"zip","source":"grappos.com","zipid":"89147","state":"NV"},"type":"Feature","geometry":{"type":"Point","coordinates":[-115.243814,36.159421]}},{"properties":{"city":"Portland","geo_score":1.0,"description":"Fortant Cabernet Sauvignon","num_searches":2.0,"id":"a6fxp9gz5e1x","geo_precision":"zip","source":"grappos.com","zipid":"97210","state":"OR"},"type":"Feature","geometry":{"type":"Point","coordinates":[-122.732358,45.547339]}},{"properties":{"city":"Dayville","geo_score":1.0,"description":"Fortant Cabernet Sauvignon","num_searches":1.0,"id":"a6fxp9dcqnpc","geo_precision":"zip","source":"grappos.com","zipid":"97825","state":"OR"},"type":"Feature","geometry":{"type":"Point","coordinates":[-119.533402,44.465268]}},{"properties":{"city":"Arecibo","geo_score":1.0,"description":"Fortant Cabernet Sauvignon","num_searches":2.0,"id":"a6fxp9fi83rm","geo_precision":"zip","source":"grappos.com","zipid":"613","state":"PR"},"type":"Feature","geometry":{"type":"Point","coordinates":[-66.732732,18.458093]}},{"properties":{"city":"Daisetta","geo_score":1.0,"description":"Fortant Cabernet Sauvignon","num_searches":2.0,"id":"a6fxp9egjg96","geo_precision":"zip","source":"grappos.com","zipid":"77533","state":"TX"},"type":"Feature","geometry":{"type":"Point","coordinates":[-94.856128,30.105083]}},{"properties":{"city":"Bellingham","geo_score":0.952,"description":"Fortant Cabernet Sauvignon","num_searches":2.0,"id":"a6fxp9fl85s8","geo_precision":"zip","source":"grappos.com","zipid":"98225","state":"WA"},"type":"Feature","geometry":{"type":"Point","coordinates":[-122.489892,48.718997]}},{"properties":{"city":"Silverdale","geo_score":0.87,"description":"Fortant Cabernet Sauvignon","num_searches":2.0,"id":"a6fxp9gttsou","geo_precision":"zip","source":"grappos.com","zipid":"98383","state":"WA"},"type":"Feature","geometry":{"type":"Point","coordinates":[-122.740432,47.693982]}},{"properties":{"city":"Chattaroy","geo_score":0.873,"description":"Fortant Cabernet Sauvignon","num_searches":2.0,"id":"a6fxp9c48a3n","geo_precision":"zip","source":"grappos.com","zipid":"99003","state":"WA"},"type":"Feature","geometry":{"type":"Point","coordinates":[-117.331606,47.96684]}},{"properties":{"city":"Federal Way","geo_score":1.0,"description":"Fortant Cabernet Sauvignon","num_searches":1.0,"id":"a6fxp9co0frl","geo_precision":"zip","source":"grappos.com","zipid":"98023","state":"WA"},"type":"Feature","geometry":{"type":"Point","coordinates":[-122.240337,47.775627]}},{"properties":{"city":"Federal Way","geo_score":1.0,"description":"Fortant Cabernet Sauvignon","num_searches":1.0,"id":"a6fxp998gsz1","geo_precision":"zip","source":"grappos.com","zipid":"98093","state":"WA"},"type":"Feature","geometry":{"type":"Point","coordinates":[-122.113791,47.311041]}},{"properties":{"city":"Seattle","geo_score":1.0,"description":"Fortant Cabernet Sauvignon","num_searches":1.0,"id":"a6fxp9cyzkvl","geo_precision":"zip","source":"grappos.com","zipid":"98129","state":"WA"},"type":"Feature","geometry":{"type":"Point","coordinates":[-121.803388,47.432251]}},{"properties":{"city":"Sedro Woolley","geo_score":0.893,"description":"Fortant Cabernet Sauvignon","num_searches":1.0,"id":"a6fxp964mopd","geo_precision":"zip","source":"grappos.com","zipid":"98284","state":"WA"},"type":"Feature","geometry":{"type":"Point","coordinates":[-122.280714,48.492052]}},{"properties":{"city":"Glenwood","geo_score":0.875,"description":"Fortant Cabernet Sauvignon","num_searches":1.0,"id":"a6fxp9cj2cv1","geo_precision":"zip","source":"grappos.com","zipid":"98619","state":"WA"},"type":"Feature","geometry":{"type":"Point","coordinates":[-121.380078,45.944011]}},{"properties":{"city":"Cowiche","geo_score":1.0,"description":"Fortant Cabernet Sauvignon","num_searches":1.0,"id":"a6fxp97udpgb","geo_precision":"zip","source":"grappos.com","zipid":"98923","state":"WA"},"type":"Feature","geometry":{"type":"Point","coordinates":[-120.753007,46.678192]}},{"properties":{"city":"Tumtum","geo_score":1.0,"description":"Fortant Cabernet Sauvignon","num_searches":1.0,"id":"a6fxp9c349te","geo_precision":"zip","source":"grappos.com","zipid":"99034","state":"WA"},"type":"Feature","geometry":{"type":"Point","coordinates":[-117.753629,47.894108]}}],"is_temporal":false,"author":{"url":"","metadata":"","contact_name":"","contact_address":"","source":"","contact_phone":""},"source":"","pagination":{"sort":null,"start":0,"total":50,"limit":1000000},"state":"complete","tags":"","published":"2014-08-10T12:31:16-04:00","id":21026}