{"type":"FeatureCollection","data_type":"Dataset","url_type":null,"permissions":[{"permissions":{"download":true,"view":true},"group_id":"everyone"}],"classification":null,"title":"Maison Bouachon Gigondas Duc de Montfort Red","count":36,"stream_id":21033,"contributor":{"url":"http://geocommons.com/users/2024","name":"kunisawa"},"data_attributes":null,"calculation_params":null,"icon_link":null,"link":"http://geocommons.com/overlays/21033.json","extent":[-123.703,18.1133,-66.8548,48.0751],"geometry_types":["point"],"unique_name":null,"name":"Maison Bouachon Gigondas Duc de Montfort Red","feature_count":36,"description":"","next_feature":null,"is_raster":false,"short_classification":"Y","stats":{"geo_score":{"max":1.0,"mean":0.957805555555556,"variance":0.0038750753968254,"stdev":0.0622501035888728,"min":0.857,"median":1.0},"num_searches":{"max":4.0,"mean":1.27777777777778,"variance":0.549206349206349,"stdev":0.741084576284212,"min":1.0,"median":1.0}},"features":[{"properties":{"city":"Torrance","geo_score":0.875,"description":"Maison Bouachon Gigondas Duc de Montfort Red","num_searches":1.0,"id":"a66jpajt7mdq","geo_precision":"zip","source":"grappos.com","zipid":"90503","state":"CA"},"type":"Feature","geometry":{"type":"Point","coordinates":[-118.210348,33.846406]}},{"properties":{"city":"San Francisco","geo_score":1.0,"description":"Maison Bouachon Gigondas Duc de Montfort Red","num_searches":1.0,"id":"a66jpaa6eabg","geo_precision":"zip","source":"grappos.com","zipid":"94109","state":"CA"},"type":"Feature","geometry":{"type":"Point","coordinates":[-122.420782,37.795219]}},{"properties":{"city":"Redwood Valley","geo_score":1.0,"description":"Maison Bouachon Gigondas Duc de Montfort Red","num_searches":1.0,"id":"a66jpa9lx0pw","geo_precision":"zip","source":"grappos.com","zipid":"95470","state":"CA"},"type":"Feature","geometry":{"type":"Point","coordinates":[-123.462532,39.302446]}},{"properties":{"city":"Bucyrus","geo_score":0.857,"description":"Maison Bouachon Gigondas Duc de Montfort Red","num_searches":1.0,"id":"a66jpahr0067","geo_precision":"zip","source":"grappos.com","zipid":"66013","state":"KS"},"type":"Feature","geometry":{"type":"Point","coordinates":[-94.666901,38.715288]}},{"properties":{"city":"Lawrence","geo_score":1.0,"description":"Maison Bouachon Gigondas Duc de Montfort Red","num_searches":1.0,"id":"a66jpadf0705","geo_precision":"zip","source":"grappos.com","zipid":"66045","state":"KS"},"type":"Feature","geometry":{"type":"Point","coordinates":[-95.275623,38.952526]}},{"properties":{"city":"Princeton","geo_score":1.0,"description":"Maison Bouachon Gigondas Duc de Montfort Red","num_searches":1.0,"id":"a66jpafls3r9","geo_precision":"zip","source":"grappos.com","zipid":"66078","state":"KS"},"type":"Feature","geometry":{"type":"Point","coordinates":[-95.258362,38.470428]}},{"properties":{"city":"Wichita","geo_score":1.0,"description":"Maison Bouachon Gigondas Duc de Montfort Red","num_searches":1.0,"id":"a66jpa6p5o37","geo_precision":"zip","source":"grappos.com","zipid":"67211","state":"KS"},"type":"Feature","geometry":{"type":"Point","coordinates":[-97.312573,37.661]}},{"properties":{"city":"Alexandria","geo_score":0.886,"description":"Maison Bouachon Gigondas Duc de Montfort Red","num_searches":1.0,"id":"a66jpa56h3cu","geo_precision":"zip","source":"grappos.com","zipid":"71303","state":"LA"},"type":"Feature","geometry":{"type":"Point","coordinates":[-92.560697,31.311848]}},{"properties":{"city":"Stockbridge","geo_score":1.0,"description":"Maison Bouachon Gigondas Duc de Montfort Red","num_searches":1.0,"id":"a66jpaeyoegh","geo_precision":"zip","source":"grappos.com","zipid":"1263","state":"MA"},"type":"Feature","geometry":{"type":"Point","coordinates":[-73.228483,42.3929]}},{"properties":{"city":"Worcester","geo_score":1.0,"description":"Maison Bouachon Gigondas Duc de Montfort Red","num_searches":1.0,"id":"a66jpa4bgsdh","geo_precision":"zip","source":"grappos.com","zipid":"1614","state":"MA"},"type":"Feature","geometry":{"type":"Point","coordinates":[-71.896868,42.364807]}},{"properties":{"city":"Haverhill","geo_score":1.0,"description":"Maison Bouachon Gigondas Duc de Montfort Red","num_searches":1.0,"id":"a66jpa63zi4g","geo_precision":"zip","source":"grappos.com","zipid":"1831","state":"MA"},"type":"Feature","geometry":{"type":"Point","coordinates":[-71.122054,42.771095]}},{"properties":{"city":"Duxbury","geo_score":0.948,"description":"Maison Bouachon Gigondas Duc de Montfort Red","num_searches":1.0,"id":"a66jpa8bm6ua","geo_precision":"zip","source":"grappos.com","zipid":"2332","state":"MA"},"type":"Feature","geometry":{"type":"Point","coordinates":[-70.774484,42.056491]}},{"properties":{"city":"Taunton","geo_score":1.0,"description":"Maison Bouachon Gigondas Duc de Montfort Red","num_searches":1.0,"id":"a66jpagqf0xh","geo_precision":"zip","source":"grappos.com","zipid":"2783","state":"MA"},"type":"Feature","geometry":{"type":"Point","coordinates":[-71.067062,41.756214]}},{"properties":{"city":"Wesley","geo_score":1.0,"description":"Maison Bouachon Gigondas Duc de Montfort Red","num_searches":1.0,"id":"a66jpa5qt39m","geo_precision":"zip","source":"grappos.com","zipid":"4686","state":"ME"},"type":"Feature","geometry":{"type":"Point","coordinates":[-67.495548,45.002969]}},{"properties":{"city":"Tecumseh","geo_score":0.857,"description":"Maison Bouachon Gigondas Duc de Montfort Red","num_searches":2.0,"id":"a66jpa56xg3m","geo_precision":"zip","source":"grappos.com","zipid":"65760","state":"MO"},"type":"Feature","geometry":{"type":"Point","coordinates":[-92.276825,36.610062]}},{"properties":{"city":"Pomona","geo_score":1.0,"description":"Maison Bouachon Gigondas Duc de Montfort Red","num_searches":2.0,"id":"a66jpagurezy","geo_precision":"zip","source":"grappos.com","zipid":"65789","state":"MO"},"type":"Feature","geometry":{"type":"Point","coordinates":[-91.895914,36.876581]}},{"properties":{"city":"Newtown","geo_score":1.0,"description":"Maison Bouachon Gigondas Duc de Montfort Red","num_searches":1.0,"id":"a66jpakf67mq","geo_precision":"zip","source":"grappos.com","zipid":"64667","state":"MO"},"type":"Feature","geometry":{"type":"Point","coordinates":[-93.288613,40.23408]}},{"properties":{"city":"Bruner","geo_score":1.0,"description":"Maison Bouachon Gigondas Duc de Montfort Red","num_searches":1.0,"id":"a66jpacgkq74","geo_precision":"zip","source":"grappos.com","zipid":"65620","state":"MO"},"type":"Feature","geometry":{"type":"Point","coordinates":[-92.951702,37.011657]}},{"properties":{"city":"Kimberling City","geo_score":1.0,"description":"Maison Bouachon Gigondas Duc de Montfort Red","num_searches":1.0,"id":"a66jpa860fij","geo_precision":"zip","source":"grappos.com","zipid":"65686","state":"MO"},"type":"Feature","geometry":{"type":"Point","coordinates":[-93.432117,36.638577]}},{"properties":{"city":"Lebanon","geo_score":0.879,"description":"Maison Bouachon Gigondas Duc de Montfort Red","num_searches":1.0,"id":"a66jpa6jm43i","geo_precision":"zip","source":"grappos.com","zipid":"3766","state":"NH"},"type":"Feature","geometry":{"type":"Point","coordinates":[-72.130921,43.528962]}},{"properties":{"city":"Moapa","geo_score":0.857,"description":"Maison Bouachon Gigondas Duc de Montfort Red","num_searches":1.0,"id":"a66jpa7a7nti","geo_precision":"city","source":"grappos.com","zipid":"89037","state":"NV"},"type":"Feature","geometry":{"type":"Point","coordinates":[-114.651381,36.691647]}},{"properties":{"city":"Bronx","geo_score":1.0,"description":"Maison Bouachon Gigondas Duc de Montfort Red","num_searches":4.0,"id":"a66jpaf04q3s","geo_precision":"zip","source":"grappos.com","zipid":"10451","state":"NY"},"type":"Feature","geometry":{"type":"Point","coordinates":[-73.920355,40.819329]}},{"properties":{"city":"Drain","geo_score":0.881,"description":"Maison Bouachon Gigondas Duc de Montfort Red","num_searches":1.0,"id":"a66jpa4q36oc","geo_precision":"zip","source":"grappos.com","zipid":"97435","state":"OR"},"type":"Feature","geometry":{"type":"Point","coordinates":[-123.223697,43.710954]}},{"properties":{"city":"Spray","geo_score":1.0,"description":"Maison Bouachon Gigondas Duc de Montfort Red","num_searches":1.0,"id":"a66jpa5gy035","geo_precision":"zip","source":"grappos.com","zipid":"97874","state":"OR"},"type":"Feature","geometry":{"type":"Point","coordinates":[-119.914072,44.780103]}},{"properties":{"city":"Camuy","geo_score":1.0,"description":"Maison Bouachon Gigondas Duc de Montfort Red","num_searches":4.0,"id":"a66jpahda10a","geo_precision":"zip","source":"grappos.com","zipid":"627","state":"PR"},"type":"Feature","geometry":{"type":"Point","coordinates":[-66.85477,18.477891]}},{"properties":{"city":"San German","geo_score":1.0,"description":"Maison Bouachon Gigondas Duc de Montfort Red","num_searches":1.0,"id":"a66jpadpryq1","geo_precision":"zip","source":"grappos.com","zipid":"683","state":"PR"},"type":"Feature","geometry":{"type":"Point","coordinates":[-67.039706,18.113284]}},{"properties":{"city":"Houston","geo_score":1.0,"description":"Maison Bouachon Gigondas Duc de Montfort Red","num_searches":1.0,"id":"a66jpa5zun2b","geo_precision":"zip","source":"grappos.com","zipid":"77218","state":"TX"},"type":"Feature","geometry":{"type":"Point","coordinates":[-95.434241,29.83399]}},{"properties":{"city":"Lummi Island","geo_score":0.857,"description":"Maison Bouachon Gigondas Duc de Montfort Red","num_searches":2.0,"id":"a66jpaalclv5","geo_precision":"zip","source":"grappos.com","zipid":"98262","state":"WA"},"type":"Feature","geometry":{"type":"Point","coordinates":[-123.702974,48.075088]}},{"properties":{"city":"Fox Island","geo_score":1.0,"description":"Maison Bouachon Gigondas Duc de Montfort Red","num_searches":2.0,"id":"a66jpa77h8oj","geo_precision":"zip","source":"grappos.com","zipid":"98333","state":"WA"},"type":"Feature","geometry":{"type":"Point","coordinates":[-122.628989,47.248013]}},{"properties":{"city":"Kent","geo_score":0.857,"description":"Maison Bouachon Gigondas Duc de Montfort Red","num_searches":1.0,"id":"a66jpadlcwd8","geo_precision":"zip","source":"grappos.com","zipid":"98030","state":"WA"},"type":"Feature","geometry":{"type":"Point","coordinates":[-122.195982,47.366428]}},{"properties":{"city":"Seattle","geo_score":1.0,"description":"Maison Bouachon Gigondas Duc de Montfort Red","num_searches":1.0,"id":"a66jpa7mv9d5","geo_precision":"zip","source":"grappos.com","zipid":"98101","state":"WA"},"type":"Feature","geometry":{"type":"Point","coordinates":[-121.803388,47.432251]}},{"properties":{"city":"Seattle","geo_score":1.0,"description":"Maison Bouachon Gigondas Duc de Montfort Red","num_searches":1.0,"id":"a66jpajltjlx","geo_precision":"zip","source":"grappos.com","zipid":"98139","state":"WA"},"type":"Feature","geometry":{"type":"Point","coordinates":[-122.332071,47.60621]}},{"properties":{"city":"Startup","geo_score":1.0,"description":"Maison Bouachon Gigondas Duc de Montfort Red","num_searches":1.0,"id":"a66jpacuc0gm","geo_precision":"zip","source":"grappos.com","zipid":"98293","state":"WA"},"type":"Feature","geometry":{"type":"Point","coordinates":[-121.76849,47.870275]}},{"properties":{"city":"Tacoma","geo_score":0.87,"description":"Maison Bouachon Gigondas Duc de Montfort Red","num_searches":1.0,"id":"a66jpa523o18","geo_precision":"zip","source":"grappos.com","zipid":"98422","state":"WA"},"type":"Feature","geometry":{"type":"Point","coordinates":[-122.441236,47.300377]}},{"properties":{"city":"Fairfield","geo_score":0.857,"description":"Maison Bouachon Gigondas Duc de Montfort Red","num_searches":1.0,"id":"a66jpaa6vjwc","geo_precision":"zip","source":"grappos.com","zipid":"99012","state":"WA"},"type":"Feature","geometry":{"type":"Point","coordinates":[-117.216862,47.449341]}},{"properties":{"city":"Almira","geo_score":1.0,"description":"Maison Bouachon Gigondas Duc de Montfort Red","num_searches":1.0,"id":"a66jpa4wceey","geo_precision":"zip","source":"grappos.com","zipid":"99103","state":"WA"},"type":"Feature","geometry":{"type":"Point","coordinates":[-118.599193,47.529705]}}],"is_temporal":false,"author":{"url":"","metadata":"","contact_name":"","contact_address":"","source":"","contact_phone":""},"source":"","pagination":{"sort":null,"start":0,"total":36,"limit":1000000},"state":"complete","tags":"","published":"2014-08-10T12:31:21-04:00","id":21033}