{"type":"FeatureCollection","data_type":"Dataset","url_type":null,"permissions":[{"permissions":{"download":true,"view":true},"group_id":"everyone"}],"classification":null,"title":"Maison Bouachon Vacqueyras Pierrelongue Red","count":40,"stream_id":21035,"contributor":{"url":"http://geocommons.com/users/2024","name":"kunisawa"},"data_attributes":null,"calculation_params":null,"icon_link":null,"link":"http://geocommons.com/overlays/21035.json","extent":[-156.136,18.103,-66.0115,47.9359],"geometry_types":["point"],"unique_name":null,"name":"Maison Bouachon Vacqueyras Pierrelongue Red","feature_count":40,"description":"","next_feature":null,"is_raster":false,"short_classification":"Y","stats":{"geo_score":{"max":1.0,"mean":0.9474,"variance":0.00368465641025641,"stdev":0.0607013707444602,"min":0.857,"median":1.0},"num_searches":{"max":3.0,"mean":1.125,"variance":0.163461538461538,"stdev":0.40430377003132,"min":1.0,"median":1.0}},"features":[{"properties":{"city":"Malibu","geo_score":0.881,"description":"Maison Bouachon Vacqueyras Pierrelongue Red","num_searches":1.0,"id":"a66uoywh7r9p","geo_precision":"zip","source":"grappos.com","zipid":"90265","state":"CA"},"type":"Feature","geometry":{"type":"Point","coordinates":[-118.579527,34.040009]}},{"properties":{"city":"Granada Hills","geo_score":1.0,"description":"Maison Bouachon Vacqueyras Pierrelongue Red","num_searches":1.0,"id":"a66uoylsi10g","geo_precision":"zip","source":"grappos.com","zipid":"91394","state":"CA"},"type":"Feature","geometry":{"type":"Point","coordinates":[-118.298662,33.786594]}},{"properties":{"city":"Van Nuys","geo_score":1.0,"description":"Maison Bouachon Vacqueyras Pierrelongue Red","num_searches":1.0,"id":"a66uoyubi6rs","geo_precision":"zip","source":"grappos.com","zipid":"91499","state":"CA"},"type":"Feature","geometry":{"type":"Point","coordinates":[-118.298662,33.786594]}},{"properties":{"city":"San Francisco","geo_score":1.0,"description":"Maison Bouachon Vacqueyras Pierrelongue Red","num_searches":1.0,"id":"a66uoyt3omk7","geo_precision":"zip","source":"grappos.com","zipid":"94109","state":"CA"},"type":"Feature","geometry":{"type":"Point","coordinates":[-122.420782,37.795219]}},{"properties":{"city":"Belvedere Tiburon","geo_score":0.884,"description":"Maison Bouachon Vacqueyras Pierrelongue Red","num_searches":1.0,"id":"a66uoyy9hykz","geo_precision":"zip","source":"grappos.com","zipid":"94920","state":"CA"},"type":"Feature","geometry":{"type":"Point","coordinates":[-122.471917,37.884093]}},{"properties":{"city":"Victor","geo_score":1.0,"description":"Maison Bouachon Vacqueyras Pierrelongue Red","num_searches":1.0,"id":"a66uoyy1jtpa","geo_precision":"zip","source":"grappos.com","zipid":"95253","state":"CA"},"type":"Feature","geometry":{"type":"Point","coordinates":[-121.203656,38.114669]}},{"properties":{"city":"Ukiah","geo_score":0.869,"description":"Maison Bouachon Vacqueyras Pierrelongue Red","num_searches":1.0,"id":"a66uoyv7x8bn","geo_precision":"zip","source":"grappos.com","zipid":"95482","state":"CA"},"type":"Feature","geometry":{"type":"Point","coordinates":[-123.158059,39.166837]}},{"properties":{"city":"Somes Bar","geo_score":1.0,"description":"Maison Bouachon Vacqueyras Pierrelongue Red","num_searches":1.0,"id":"a66uoyt4yt8d","geo_precision":"zip","source":"grappos.com","zipid":"95568","state":"CA"},"type":"Feature","geometry":{"type":"Point","coordinates":[-123.467024,41.451129]}},{"properties":{"city":"Hyampom","geo_score":1.0,"description":"Maison Bouachon Vacqueyras Pierrelongue Red","num_searches":1.0,"id":"a66uoyxw4rik","geo_precision":"zip","source":"grappos.com","zipid":"96046","state":"CA"},"type":"Feature","geometry":{"type":"Point","coordinates":[-123.448823,40.613736]}},{"properties":{"city":"Haiku","geo_score":0.929,"description":"Maison Bouachon Vacqueyras Pierrelongue Red","num_searches":1.0,"id":"a66uoylhpzty","geo_precision":"zip","source":"grappos.com","zipid":"96708","state":"HI"},"type":"Feature","geometry":{"type":"Point","coordinates":[-156.136389,20.848611]}},{"properties":{"city":"Edna","geo_score":1.0,"description":"Maison Bouachon Vacqueyras Pierrelongue Red","num_searches":2.0,"id":"a66uoyvbuhx7","geo_precision":"zip","source":"grappos.com","zipid":"67342","state":"KS"},"type":"Feature","geometry":{"type":"Point","coordinates":[-95.347225,37.071835]}},{"properties":{"city":"Linwood","geo_score":0.898,"description":"Maison Bouachon Vacqueyras Pierrelongue Red","num_searches":1.0,"id":"a66uoyq04sne","geo_precision":"zip","source":"grappos.com","zipid":"66052","state":"KS"},"type":"Feature","geometry":{"type":"Point","coordinates":[-94.9508,38.997226]}},{"properties":{"city":"Valley Falls","geo_score":0.883,"description":"Maison Bouachon Vacqueyras Pierrelongue Red","num_searches":1.0,"id":"a66uoypbb4ul","geo_precision":"zip","source":"grappos.com","zipid":"66088","state":"KS"},"type":"Feature","geometry":{"type":"Point","coordinates":[-95.497476,39.405832]}},{"properties":{"city":"Shawnee","geo_score":1.0,"description":"Maison Bouachon Vacqueyras Pierrelongue Red","num_searches":1.0,"id":"a66uoynmqf7g","geo_precision":"zip","source":"grappos.com","zipid":"66203","state":"KS"},"type":"Feature","geometry":{"type":"Point","coordinates":[-94.720238,39.041672]}},{"properties":{"city":"Wichita","geo_score":1.0,"description":"Maison Bouachon Vacqueyras Pierrelongue Red","num_searches":1.0,"id":"a66uoyk3ksbc","geo_precision":"zip","source":"grappos.com","zipid":"67218","state":"KS"},"type":"Feature","geometry":{"type":"Point","coordinates":[-97.280784,37.668282]}},{"properties":{"city":"Garden City","geo_score":1.0,"description":"Maison Bouachon Vacqueyras Pierrelongue Red","num_searches":1.0,"id":"a66uoyrooqh5","geo_precision":"zip","source":"grappos.com","zipid":"70540","state":"LA"},"type":"Feature","geometry":{"type":"Point","coordinates":[-91.466962,29.76327]}},{"properties":{"city":"Framingham","geo_score":1.0,"description":"Maison Bouachon Vacqueyras Pierrelongue Red","num_searches":2.0,"id":"a66uoyrf554m","geo_precision":"zip","source":"grappos.com","zipid":"1703","state":"MA"},"type":"Feature","geometry":{"type":"Point","coordinates":[-71.459405,42.446396]}},{"properties":{"city":"Westminster","geo_score":0.896,"description":"Maison Bouachon Vacqueyras Pierrelongue Red","num_searches":1.0,"id":"a66uoyk0660q","geo_precision":"zip","source":"grappos.com","zipid":"1473","state":"MA"},"type":"Feature","geometry":{"type":"Point","coordinates":[-71.877297,42.52509]}},{"properties":{"city":"Sudbury","geo_score":0.857,"description":"Maison Bouachon Vacqueyras Pierrelongue Red","num_searches":1.0,"id":"a66uoyk0vmk1","geo_precision":"zip","source":"grappos.com","zipid":"1776","state":"MA"},"type":"Feature","geometry":{"type":"Point","coordinates":[-71.437006,42.388983]}},{"properties":{"city":"Hanson","geo_score":0.875,"description":"Maison Bouachon Vacqueyras Pierrelongue Red","num_searches":1.0,"id":"a66uoympb2ua","geo_precision":"zip","source":"grappos.com","zipid":"2341","state":"MA"},"type":"Feature","geometry":{"type":"Point","coordinates":[-70.866153,42.065379]}},{"properties":{"city":"Whitman","geo_score":0.857,"description":"Maison Bouachon Vacqueyras Pierrelongue Red","num_searches":1.0,"id":"a66uoyqd46r6","geo_precision":"zip","source":"grappos.com","zipid":"2382","state":"MA"},"type":"Feature","geometry":{"type":"Point","coordinates":[-70.963377,42.069545]}},{"properties":{"city":"Topsfield","geo_score":1.0,"description":"Maison Bouachon Vacqueyras Pierrelongue Red","num_searches":1.0,"id":"a66uoyuv09ak","geo_precision":"zip","source":"grappos.com","zipid":"4490","state":"ME"},"type":"Feature","geometry":{"type":"Point","coordinates":[-67.495548,45.002969]}},{"properties":{"city":"Round Pond","geo_score":1.0,"description":"Maison Bouachon Vacqueyras Pierrelongue Red","num_searches":1.0,"id":"a66uoysiag42","geo_precision":"zip","source":"grappos.com","zipid":"4564","state":"ME"},"type":"Feature","geometry":{"type":"Point","coordinates":[-69.468052,43.932449]}},{"properties":{"city":"Jefferson City","geo_score":0.868,"description":"Maison Bouachon Vacqueyras Pierrelongue Red","num_searches":1.0,"id":"a66uoyy3gmrv","geo_precision":"zip","source":"grappos.com","zipid":"65101","state":"MO"},"type":"Feature","geometry":{"type":"Point","coordinates":[-92.33713,38.594199]}},{"properties":{"city":"Mansfield","geo_score":0.873,"description":"Maison Bouachon Vacqueyras Pierrelongue Red","num_searches":1.0,"id":"a66uoyje5zij","geo_precision":"zip","source":"grappos.com","zipid":"65704","state":"MO"},"type":"Feature","geometry":{"type":"Point","coordinates":[-92.519611,37.027276]}},{"properties":{"city":"Winchester","geo_score":0.9,"description":"Maison Bouachon Vacqueyras Pierrelongue Red","num_searches":1.0,"id":"a66uoyuo2o5a","geo_precision":"zip","source":"grappos.com","zipid":"3470","state":"NH"},"type":"Feature","geometry":{"type":"Point","coordinates":[-72.347586,42.841749]}},{"properties":{"city":"Orford","geo_score":0.935,"description":"Maison Bouachon Vacqueyras Pierrelongue Red","num_searches":1.0,"id":"a66uoyz40bga","geo_precision":"zip","source":"grappos.com","zipid":"3777","state":"NH"},"type":"Feature","geometry":{"type":"Point","coordinates":[-72.102311,43.883402]}},{"properties":{"city":"Redrock","geo_score":1.0,"description":"Maison Bouachon Vacqueyras Pierrelongue Red","num_searches":1.0,"id":"a66uoytmodfj","geo_precision":"zip","source":"grappos.com","zipid":"88055","state":"NM"},"type":"Feature","geometry":{"type":"Point","coordinates":[-108.327898,32.53667]}},{"properties":{"city":"Tillamook","geo_score":0.867,"description":"Maison Bouachon Vacqueyras Pierrelongue Red","num_searches":1.0,"id":"a66uoytwdm4m","geo_precision":"zip","source":"grappos.com","zipid":"97141","state":"OR"},"type":"Feature","geometry":{"type":"Point","coordinates":[-123.804009,45.365384]}},{"properties":{"city":"Cayey","geo_score":1.0,"description":"Maison Bouachon Vacqueyras Pierrelongue Red","num_searches":1.0,"id":"a66uoyxlw8hb","geo_precision":"zip","source":"grappos.com","zipid":"736","state":"PR"},"type":"Feature","geometry":{"type":"Point","coordinates":[-66.139274,18.102967]}},{"properties":{"city":"San Juan","geo_score":1.0,"description":"Maison Bouachon Vacqueyras Pierrelongue Red","num_searches":1.0,"id":"a66uoytwhyck","geo_precision":"zip","source":"grappos.com","zipid":"924","state":"PR"},"type":"Feature","geometry":{"type":"Point","coordinates":[-66.01146,18.396392]}},{"properties":{"city":"Bayamon","geo_score":1.0,"description":"Maison Bouachon Vacqueyras Pierrelongue Red","num_searches":1.0,"id":"a66uoyyubh8l","geo_precision":"zip","source":"grappos.com","zipid":"960","state":"PR"},"type":"Feature","geometry":{"type":"Point","coordinates":[-66.166014,18.34487]}},{"properties":{"city":"Poulsbo","geo_score":0.857,"description":"Maison Bouachon Vacqueyras Pierrelongue Red","num_searches":3.0,"id":"a66uoyuwgk3p","geo_precision":"zip","source":"grappos.com","zipid":"98370","state":"WA"},"type":"Feature","geometry":{"type":"Point","coordinates":[-122.637368,47.707317]}},{"properties":{"city":"Indianola","geo_score":1.0,"description":"Maison Bouachon Vacqueyras Pierrelongue Red","num_searches":2.0,"id":"a66uoyult0ei","geo_precision":"zip","source":"grappos.com","zipid":"98342","state":"WA"},"type":"Feature","geometry":{"type":"Point","coordinates":[-122.566561,47.753544]}},{"properties":{"city":"Everett","geo_score":0.889,"description":"Maison Bouachon Vacqueyras Pierrelongue Red","num_searches":1.0,"id":"a66uoyltyp52","geo_precision":"zip","source":"grappos.com","zipid":"98203","state":"WA"},"type":"Feature","geometry":{"type":"Point","coordinates":[-122.205689,47.93593]}},{"properties":{"city":"Monroe","geo_score":0.878,"description":"Maison Bouachon Vacqueyras Pierrelongue Red","num_searches":1.0,"id":"a66uoyymzfdh","geo_precision":"zip","source":"grappos.com","zipid":"98272","state":"WA"},"type":"Feature","geometry":{"type":"Point","coordinates":[-121.984566,47.708989]}},{"properties":{"city":"Tacoma","geo_score":1.0,"description":"Maison Bouachon Vacqueyras Pierrelongue Red","num_searches":1.0,"id":"a66uoyxelbx7","geo_precision":"zip","source":"grappos.com","zipid":"98442","state":"WA"},"type":"Feature","geometry":{"type":"Point","coordinates":[-122.418495,47.308061]}},{"properties":{"city":"Wilson Creek","geo_score":1.0,"description":"Maison Bouachon Vacqueyras Pierrelongue Red","num_searches":1.0,"id":"a66uoylfjasm","geo_precision":"zip","source":"grappos.com","zipid":"98860","state":"WA"},"type":"Feature","geometry":{"type":"Point","coordinates":[-119.18473,47.473874]}},{"properties":{"city":"Roslyn","geo_score":1.0,"description":"Maison Bouachon Vacqueyras Pierrelongue Red","num_searches":1.0,"id":"a66uoyllump7","geo_precision":"zip","source":"grappos.com","zipid":"98941","state":"WA"},"type":"Feature","geometry":{"type":"Point","coordinates":[-121.002513,47.223287]}},{"properties":{"city":"Marshall","geo_score":1.0,"description":"Maison Bouachon Vacqueyras Pierrelongue Red","num_searches":1.0,"id":"a66uoyuyhsa7","geo_precision":"zip","source":"grappos.com","zipid":"99020","state":"WA"},"type":"Feature","geometry":{"type":"Point","coordinates":[-117.592591,47.617665]}}],"is_temporal":false,"author":{"url":"","metadata":"","contact_name":"","contact_address":"","source":"","contact_phone":""},"source":"","pagination":{"sort":null,"start":0,"total":40,"limit":1000000},"state":"complete","tags":"","published":"2014-08-10T12:31:22-04:00","id":21035}