{"type":"FeatureCollection","data_type":"Dataset","url_type":null,"permissions":[{"permissions":{"download":true,"view":true},"group_id":"everyone"}],"classification":null,"title":"Maison Bouachon Tavel Rose","count":30,"stream_id":21034,"contributor":{"url":"http://geocommons.com/users/2024","name":"kunisawa"},"data_attributes":null,"calculation_params":null,"icon_link":null,"link":"http://geocommons.com/overlays/21034.json","extent":[-157.943,18.2065,-65.9018,47.4323],"geometry_types":["point"],"unique_name":null,"name":"Maison Bouachon Tavel Rose","feature_count":30,"description":"","next_feature":null,"is_raster":false,"short_classification":"Y","stats":{"geo_score":{"max":1.0,"mean":0.960633333333333,"variance":0.00301824022988506,"stdev":0.0549385131750492,"min":0.857,"median":1.0},"num_searches":{"max":2.0,"mean":1.13333333333333,"variance":0.119540229885057,"stdev":0.34574590364176,"min":1.0,"median":1.0}},"features":[{"properties":{"city":"Scotts Valley","geo_score":1.0,"description":"Maison Bouachon Tavel Rose","num_searches":2.0,"id":"a66up40q6t5q","geo_precision":"zip","source":"grappos.com","zipid":"95066","state":"CA"},"type":"Feature","geometry":{"type":"Point","coordinates":[-122.006276,37.071387]}},{"properties":{"city":"San Francisco","geo_score":1.0,"description":"Maison Bouachon Tavel Rose","num_searches":1.0,"id":"a66up3vnmg6w","geo_precision":"zip","source":"grappos.com","zipid":"94109","state":"CA"},"type":"Feature","geometry":{"type":"Point","coordinates":[-122.420782,37.795219]}},{"properties":{"city":"Novato","geo_score":0.898,"description":"Maison Bouachon Tavel Rose","num_searches":1.0,"id":"a66up3qmvru8","geo_precision":"zip","source":"grappos.com","zipid":"94947","state":"CA"},"type":"Feature","geometry":{"type":"Point","coordinates":[-122.53859,38.070199]}},{"properties":{"city":"Redway","geo_score":1.0,"description":"Maison Bouachon Tavel Rose","num_searches":1.0,"id":"a66up401d6zr","geo_precision":"zip","source":"grappos.com","zipid":"95560","state":"CA"},"type":"Feature","geometry":{"type":"Point","coordinates":[-123.812063,40.505478]}},{"properties":{"city":"Denver","geo_score":1.0,"description":"Maison Bouachon Tavel Rose","num_searches":1.0,"id":"a66up3ywdd0p","geo_precision":"zip","source":"grappos.com","zipid":"80201","state":"CO"},"type":"Feature","geometry":{"type":"Point","coordinates":[-104.856808,39.726303]}},{"properties":{"city":"Denver","geo_score":1.0,"description":"Maison Bouachon Tavel Rose","num_searches":1.0,"id":"a66up3x0aqic","geo_precision":"zip","source":"grappos.com","zipid":"80202","state":"CO"},"type":"Feature","geometry":{"type":"Point","coordinates":[-104.996553,39.760189]}},{"properties":{"city":"Aiea","geo_score":0.918,"description":"Maison Bouachon Tavel Rose","num_searches":1.0,"id":"a66up3q1d8y8","geo_precision":"zip","source":"grappos.com","zipid":"96701","state":"HI"},"type":"Feature","geometry":{"type":"Point","coordinates":[-157.943333,21.404722]}},{"properties":{"city":"Centerville","geo_score":0.922,"description":"Maison Bouachon Tavel Rose","num_searches":1.0,"id":"a66up3szcutd","geo_precision":"zip","source":"grappos.com","zipid":"66014","state":"KS"},"type":"Feature","geometry":{"type":"Point","coordinates":[-94.853852,38.233358]}},{"properties":{"city":"Lawrence","geo_score":1.0,"description":"Maison Bouachon Tavel Rose","num_searches":1.0,"id":"a66up3xpwr3k","geo_precision":"zip","source":"grappos.com","zipid":"66046","state":"KS"},"type":"Feature","geometry":{"type":"Point","coordinates":[-95.315453,38.878682]}},{"properties":{"city":"Kansas City","geo_score":1.0,"description":"Maison Bouachon Tavel Rose","num_searches":1.0,"id":"a66up3v2lwmo","geo_precision":"zip","source":"grappos.com","zipid":"66117","state":"KS"},"type":"Feature","geometry":{"type":"Point","coordinates":[-94.749538,39.096551]}},{"properties":{"city":"Hope","geo_score":0.857,"description":"Maison Bouachon Tavel Rose","num_searches":1.0,"id":"a66up417ry59","geo_precision":"zip","source":"grappos.com","zipid":"67451","state":"KS"},"type":"Feature","geometry":{"type":"Point","coordinates":[-97.230023,38.684171]}},{"properties":{"city":"Jefferson","geo_score":1.0,"description":"Maison Bouachon Tavel Rose","num_searches":1.0,"id":"a66up3uoslda","geo_precision":"zip","source":"grappos.com","zipid":"1522","state":"MA"},"type":"Feature","geometry":{"type":"Point","coordinates":[-71.795442,42.264629]}},{"properties":{"city":"Westport","geo_score":0.933,"description":"Maison Bouachon Tavel Rose","num_searches":1.0,"id":"a66up3qj7rhz","geo_precision":"zip","source":"grappos.com","zipid":"2790","state":"MA"},"type":"Feature","geometry":{"type":"Point","coordinates":[-71.049486,41.638992]}},{"properties":{"city":"Columbia","geo_score":1.0,"description":"Maison Bouachon Tavel Rose","num_searches":1.0,"id":"a66up3ybvsr9","geo_precision":"zip","source":"grappos.com","zipid":"65218","state":"MO"},"type":"Feature","geometry":{"type":"Point","coordinates":[-92.102153,38.903318]}},{"properties":{"city":"Forsyth","geo_score":0.886,"description":"Maison Bouachon Tavel Rose","num_searches":1.0,"id":"a66up3myvlma","geo_precision":"zip","source":"grappos.com","zipid":"65653","state":"MO"},"type":"Feature","geometry":{"type":"Point","coordinates":[-93.13879,36.658951]}},{"properties":{"city":"Ponce De Leon","geo_score":1.0,"description":"Maison Bouachon Tavel Rose","num_searches":1.0,"id":"a66up3mcl39h","geo_precision":"zip","source":"grappos.com","zipid":"65728","state":"MO"},"type":"Feature","geometry":{"type":"Point","coordinates":[-93.458626,36.747083]}},{"properties":{"city":"Fremont","geo_score":0.879,"description":"Maison Bouachon Tavel Rose","num_searches":1.0,"id":"a66up3kxbaii","geo_precision":"zip","source":"grappos.com","zipid":"3044","state":"NH"},"type":"Feature","geometry":{"type":"Point","coordinates":[-71.113393,42.945643]}},{"properties":{"city":"Chocorua","geo_score":1.0,"description":"Maison Bouachon Tavel Rose","num_searches":1.0,"id":"a66up3l5em5f","geo_precision":"zip","source":"grappos.com","zipid":"3817","state":"NH"},"type":"Feature","geometry":{"type":"Point","coordinates":[-71.089796,43.74858]}},{"properties":{"city":"Conchas Dam","geo_score":0.87,"description":"Maison Bouachon Tavel Rose","num_searches":1.0,"id":"a66up3qlfqbm","geo_precision":"zip","source":"grappos.com","zipid":"88416","state":"NM"},"type":"Feature","geometry":{"type":"Point","coordinates":[-104.217755,35.37616]}},{"properties":{"city":"Bronx","geo_score":1.0,"description":"Maison Bouachon Tavel Rose","num_searches":1.0,"id":"a66up40h149f","geo_precision":"zip","source":"grappos.com","zipid":"10451","state":"NY"},"type":"Feature","geometry":{"type":"Point","coordinates":[-73.920355,40.819329]}},{"properties":{"city":"Christmas Valley","geo_score":1.0,"description":"Maison Bouachon Tavel Rose","num_searches":2.0,"id":"a66up3xrwbr1","geo_precision":"zip","source":"grappos.com","zipid":"97641","state":"OR"},"type":"Feature","geometry":{"type":"Point","coordinates":[-120.724397,43.157855]}},{"properties":{"city":"Winston","geo_score":0.857,"description":"Maison Bouachon Tavel Rose","num_searches":1.0,"id":"a66up3nnxbxl","geo_precision":"zip","source":"grappos.com","zipid":"97496","state":"OR"},"type":"Feature","geometry":{"type":"Point","coordinates":[-123.455352,43.109005]}},{"properties":{"city":"New Paris","geo_score":0.881,"description":"Maison Bouachon Tavel Rose","num_searches":1.0,"id":"a66up40mbr1l","geo_precision":"zip","source":"grappos.com","zipid":"15554","state":"PA"},"type":"Feature","geometry":{"type":"Point","coordinates":[-78.557517,40.147579]}},{"properties":{"city":"Castaner","geo_score":1.0,"description":"Maison Bouachon Tavel Rose","num_searches":2.0,"id":"a66up3ydv77u","geo_precision":"zip","source":"grappos.com","zipid":"631","state":"PR"},"type":"Feature","geometry":{"type":"Point","coordinates":[-66.864993,18.269187]}},{"properties":{"city":"San Sebastian","geo_score":1.0,"description":"Maison Bouachon Tavel Rose","num_searches":1.0,"id":"a66up3uwsh4o","geo_precision":"zip","source":"grappos.com","zipid":"685","state":"PR"},"type":"Feature","geometry":{"type":"Point","coordinates":[-66.972227,18.3236]}},{"properties":{"city":"Juncos","geo_score":1.0,"description":"Maison Bouachon Tavel Rose","num_searches":1.0,"id":"a66up3y1cteh","geo_precision":"zip","source":"grappos.com","zipid":"777","state":"PR"},"type":"Feature","geometry":{"type":"Point","coordinates":[-65.901774,18.206489]}},{"properties":{"city":"San Juan","geo_score":1.0,"description":"Maison Bouachon Tavel Rose","num_searches":1.0,"id":"a66up3m3xsx8","geo_precision":"zip","source":"grappos.com","zipid":"918","state":"PR"},"type":"Feature","geometry":{"type":"Point","coordinates":[-66.062319,18.419069]}},{"properties":{"city":"Tacoma","geo_score":0.918,"description":"Maison Bouachon Tavel Rose","num_searches":2.0,"id":"a66up3llev3z","geo_precision":"zip","source":"grappos.com","zipid":"98424","state":"WA"},"type":"Feature","geometry":{"type":"Point","coordinates":[-122.394567,47.240655]}},{"properties":{"city":"Seattle","geo_score":1.0,"description":"Maison Bouachon Tavel Rose","num_searches":1.0,"id":"a66up3o2bdun","geo_precision":"zip","source":"grappos.com","zipid":"98191","state":"WA"},"type":"Feature","geometry":{"type":"Point","coordinates":[-121.803388,47.432251]}},{"properties":{"city":"Mabton","geo_score":1.0,"description":"Maison Bouachon Tavel Rose","num_searches":1.0,"id":"a66up3uq1p33","geo_precision":"zip","source":"grappos.com","zipid":"98935","state":"WA"},"type":"Feature","geometry":{"type":"Point","coordinates":[-120.050377,46.165237]}}],"is_temporal":false,"author":{"url":"","metadata":"","contact_name":"","contact_address":"","source":"","contact_phone":""},"source":"","pagination":{"sort":null,"start":0,"total":30,"limit":1000000},"state":"complete","tags":"","published":"2014-08-10T12:31:22-04:00","id":21034}