{"type":"FeatureCollection","data_type":"Dataset","url_type":null,"permissions":[{"permissions":{"download":true,"view":true},"group_id":"everyone"}],"classification":null,"title":"Clos Poggiale","count":46,"stream_id":21049,"contributor":{"url":"http://geocommons.com/users/2024","name":"kunisawa"},"data_attributes":null,"calculation_params":null,"icon_link":null,"link":"http://geocommons.com/overlays/21049.json","extent":[-168.022,17.9725,-66.7226,48.0238],"geometry_types":["point"],"unique_name":null,"name":"Clos Poggiale","feature_count":46,"description":"","next_feature":null,"is_raster":false,"short_classification":"Y","stats":{"geo_score":{"max":1.0,"mean":0.952695652173913,"variance":0.00405146086956522,"stdev":0.0636510869472409,"min":0.81,"median":1.0},"num_searches":{"max":81.0,"mean":3.15217391304348,"variance":141.02077294686,"stdev":11.8752167536791,"min":1.0,"median":1.0}},"features":[{"properties":{"city":"Searcy","zip":"72149","geo_score":1.0,"description":"Clos Poggiale Syrah Sangiovese","num_searches":1.0,"id":"a6aeaz4n996w","geo_precision":"zip","source":"grappos.com","state":"AR"},"type":"Feature","geometry":{"type":"Point","coordinates":[-91.73139,35.247376]}},{"properties":{"city":"North Little Rock","zip":"72198","geo_score":0.81,"description":"Clos Poggiale Syrah Sangiovese","num_searches":1.0,"id":"a6aeaz79fs3i","geo_precision":"city","source":"grappos.com","state":"AR"},"type":"Feature","geometry":{"type":"Point","coordinates":[-92.289595,34.746481]}},{"properties":{"city":"San Francisco","zip":"94101","geo_score":1.0,"description":"Clos Poggiale Syrah Sangiovese","num_searches":81.0,"id":"a6aeazc5m7c7","geo_precision":"zip","source":"grappos.com","state":"CA"},"type":"Feature","geometry":{"type":"Point","coordinates":[-122.727802,37.784827]}},{"properties":{"city":"Beverly Hills","zip":"90209","geo_score":1.0,"description":"Clos Poggiale Syrah Sangiovese","num_searches":13.0,"id":"a6aeaza5wedq","geo_precision":"zip","source":"grappos.com","state":"CA"},"type":"Feature","geometry":{"type":"Point","coordinates":[-118.298662,33.786594]}},{"properties":{"city":"San Francisco","zip":"94109","geo_score":1.0,"description":"Clos Poggiale Syrah Sangiovese","num_searches":3.0,"id":"a6aeaz4mh2pb","geo_precision":"zip","source":"grappos.com","state":"CA"},"type":"Feature","geometry":{"type":"Point","coordinates":[-122.420782,37.795219]}},{"properties":{"city":"Bolinas","zip":"94924","geo_score":1.0,"description":"Clos Poggiale Syrah Sangiovese","num_searches":1.0,"id":"a6aeazeno3q3","geo_precision":"zip","source":"grappos.com","state":"CA"},"type":"Feature","geometry":{"type":"Point","coordinates":[-122.77915,38.001976]}},{"properties":{"city":"San Jose","zip":"95132","geo_score":0.896,"description":"Clos Poggiale Syrah Sangiovese","num_searches":1.0,"id":"a6aeazen592d","geo_precision":"zip","source":"grappos.com","state":"CA"},"type":"Feature","geometry":{"type":"Point","coordinates":[-121.721615,37.198833]}},{"properties":{"city":"Twain Harte","zip":"95383","geo_score":1.0,"description":"Clos Poggiale Syrah Sangiovese","num_searches":1.0,"id":"a6aeazgk4z83","geo_precision":"zip","source":"grappos.com","state":"CA"},"type":"Feature","geometry":{"type":"Point","coordinates":[-120.176042,38.085837]}},{"properties":{"city":"Lakeport","zip":"95453","geo_score":1.0,"description":"Clos Poggiale Syrah Sangiovese","num_searches":1.0,"id":"a6aeaz6r3sd4","geo_precision":"zip","source":"grappos.com","state":"CA"},"type":"Feature","geometry":{"type":"Point","coordinates":[-122.919291,39.05345]}},{"properties":{"city":"Roseville","zip":"95678","geo_score":0.889,"description":"Clos Poggiale Syrah Sangiovese","num_searches":1.0,"id":"a6aeaz5frq06","geo_precision":"zip","source":"grappos.com","state":"CA"},"type":"Feature","geometry":{"type":"Point","coordinates":[-121.329951,38.708236]}},{"properties":{"city":"Denver","zip":"80201","geo_score":1.0,"description":"Clos Poggiale Syrah Sangiovese","num_searches":1.0,"id":"a6aeaz773bfe","geo_precision":"zip","source":"grappos.com","state":"CO"},"type":"Feature","geometry":{"type":"Point","coordinates":[-104.856808,39.726303]}},{"properties":{"city":"Orlando","zip":"32802","geo_score":0.878,"description":"Clos Poggiale Syrah Sangiovese","num_searches":1.0,"id":"a6aeazd7afjn","geo_precision":"zip","source":"grappos.com","state":"FL"},"type":"Feature","geometry":{"type":"Point","coordinates":[-81.565907,28.388619]}},{"properties":{"city":"Tampa","zip":"33601","geo_score":1.0,"description":"Clos Poggiale Syrah Sangiovese","num_searches":1.0,"id":"a6aeaz6nz4os","geo_precision":"zip","source":"grappos.com","state":"FL"},"type":"Feature","geometry":{"type":"Point","coordinates":[-82.582035,27.996097]}},{"properties":{"city":"Makaweli","zip":"96769","geo_score":0.893,"description":"Clos Poggiale Syrah Sangiovese","num_searches":1.0,"id":"a6aeaz91p90z","geo_precision":"zip","source":"grappos.com","state":"HI"},"type":"Feature","geometry":{"type":"Point","coordinates":[-160.194167,21.902222]}},{"properties":{"city":"Honolulu","zip":"96827","geo_score":1.0,"description":"Clos Poggiale Syrah Sangiovese","num_searches":1.0,"id":"a6aeaz7rxdq7","geo_precision":"zip","source":"grappos.com","state":"HI"},"type":"Feature","geometry":{"type":"Point","coordinates":[-168.021815,24.859832]}},{"properties":{"city":"New Orleans","zip":"70118","geo_score":0.886,"description":"Clos Poggiale Syrah Sangiovese","num_searches":1.0,"id":"a6aeaz2tark3","geo_precision":"zip","source":"grappos.com","state":"LA"},"type":"Feature","geometry":{"type":"Point","coordinates":[-90.130074,29.947427]}},{"properties":{"city":"Northbridge","zip":"1534","geo_score":0.896,"description":"Clos Poggiale Syrah Sangiovese","num_searches":1.0,"id":"a6aeazfujs2u","geo_precision":"zip","source":"grappos.com","state":"MA"},"type":"Feature","geometry":{"type":"Point","coordinates":[-71.639233,42.138429]}},{"properties":{"city":"Village Of Nagog Woods","zip":"1718","geo_score":1.0,"description":"Clos Poggiale Syrah Sangiovese","num_searches":1.0,"id":"a6aeaz5qydcv","geo_precision":"zip","source":"grappos.com","state":"MA"},"type":"Feature","geometry":{"type":"Point","coordinates":[-71.459405,42.446396]}},{"properties":{"city":"Boston","zip":"2284","geo_score":1.0,"description":"Clos Poggiale Syrah Sangiovese","num_searches":1.0,"id":"a6aeazgi906i","geo_precision":"zip","source":"grappos.com","state":"MA"},"type":"Feature","geometry":{"type":"Point","coordinates":[-70.919635,42.338947]}},{"properties":{"city":"Dennysville","zip":"4628","geo_score":0.87,"description":"Clos Poggiale Syrah Sangiovese","num_searches":1.0,"id":"a6aeaz28tm4f","geo_precision":"zip","source":"grappos.com","state":"ME"},"type":"Feature","geometry":{"type":"Point","coordinates":[-67.316934,44.878411]}},{"properties":{"city":"Erskine","zip":"56535","geo_score":1.0,"description":"Clos Poggiale Syrah Sangiovese","num_searches":1.0,"id":"a6aeazbp3kx6","geo_precision":"zip","source":"grappos.com","state":"MN"},"type":"Feature","geometry":{"type":"Point","coordinates":[-95.99807,47.665688]}},{"properties":{"city":"Jameson","zip":"64647","geo_score":1.0,"description":"Clos Poggiale Syrah Sangiovese","num_searches":1.0,"id":"a6aeazc0oy3z","geo_precision":"zip","source":"grappos.com","state":"MO"},"type":"Feature","geometry":{"type":"Point","coordinates":[-93.93515,40.023245]}},{"properties":{"city":"La Monte","zip":"65337","geo_score":0.878,"description":"Clos Poggiale Syrah Sangiovese","num_searches":1.0,"id":"a6aeazgd9zg8","geo_precision":"zip","source":"grappos.com","state":"MO"},"type":"Feature","geometry":{"type":"Point","coordinates":[-93.469655,38.83946]}},{"properties":{"city":"Montier","zip":"65546","geo_score":1.0,"description":"Clos Poggiale Syrah Sangiovese","num_searches":1.0,"id":"a6aeaz6mef7t","geo_precision":"zip","source":"grappos.com","state":"MO"},"type":"Feature","geometry":{"type":"Point","coordinates":[-91.337506,37.153294]}},{"properties":{"city":"Ash Grove","zip":"65604","geo_score":1.0,"description":"Clos Poggiale Syrah Sangiovese","num_searches":1.0,"id":"a6aeaz4mtl86","geo_precision":"zip","source":"grappos.com","state":"MO"},"type":"Feature","geometry":{"type":"Point","coordinates":[-93.578642,37.311381]}},{"properties":{"city":"Walnut Shade","zip":"65771","geo_score":1.0,"description":"Clos Poggiale Syrah Sangiovese","num_searches":1.0,"id":"a6aeaz6tba6a","geo_precision":"zip","source":"grappos.com","state":"MO"},"type":"Feature","geometry":{"type":"Point","coordinates":[-93.222445,36.772257]}},{"properties":{"city":"Hebron","zip":"68370","geo_score":1.0,"description":"Clos Poggiale Syrah Sangiovese","num_searches":2.0,"id":"a6aeaz9hnvky","geo_precision":"zip","source":"grappos.com","state":"NE"},"type":"Feature","geometry":{"type":"Point","coordinates":[-97.64485,40.240562]}},{"properties":{"city":"Deshler","zip":"68340","geo_score":1.0,"description":"Clos Poggiale Syrah Sangiovese","num_searches":1.0,"id":"a6aeazgc2pra","geo_precision":"zip","source":"grappos.com","state":"NE"},"type":"Feature","geometry":{"type":"Point","coordinates":[-97.723461,40.139448]}},{"properties":{"city":"Las Cruces","zip":"88001","geo_score":0.876,"description":"Clos Poggiale Syrah Sangiovese","num_searches":1.0,"id":"a6aeaz7pzj1t","geo_precision":"zip","source":"grappos.com","state":"NM"},"type":"Feature","geometry":{"type":"Point","coordinates":[-106.854065,32.41467]}},{"properties":{"city":"Pahrump","zip":"89048","geo_score":0.857,"description":"Clos Poggiale Syrah Sangiovese","num_searches":1.0,"id":"a6aeazcvcxwh","geo_precision":"zip","source":"grappos.com","state":"NV"},"type":"Feature","geometry":{"type":"Point","coordinates":[-116.167536,36.491623]}},{"properties":{"city":"Portland","zip":"97210","geo_score":1.0,"description":"Clos Poggiale Syrah Sangiovese","num_searches":4.0,"id":"a6aeazg60dfy","geo_precision":"zip","source":"grappos.com","state":"OR"},"type":"Feature","geometry":{"type":"Point","coordinates":[-122.732358,45.547339]}},{"properties":{"city":"Portland","zip":"97222","geo_score":0.874,"description":"Clos Poggiale Syrah Sangiovese","num_searches":1.0,"id":"a6aeazdi7qa3","geo_precision":"zip","source":"grappos.com","state":"OR"},"type":"Feature","geometry":{"type":"Point","coordinates":[-122.635927,45.458175]}},{"properties":{"city":"Silverton","zip":"97381","geo_score":0.857,"description":"Clos Poggiale Syrah Sangiovese","num_searches":1.0,"id":"a6aeaz9mk1dp","geo_precision":"zip","source":"grappos.com","state":"OR"},"type":"Feature","geometry":{"type":"Point","coordinates":[-122.873426,45.031232]}},{"properties":{"city":"John Day","zip":"97845","geo_score":1.0,"description":"Clos Poggiale Syrah Sangiovese","num_searches":1.0,"id":"a6aeazb6axkp","geo_precision":"zip","source":"grappos.com","state":"OR"},"type":"Feature","geometry":{"type":"Point","coordinates":[-118.914774,44.550033]}},{"properties":{"city":"Guanica","zip":"653","geo_score":1.0,"description":"Clos Poggiale Syrah Sangiovese","num_searches":2.0,"id":"a6aeazgkqx2q","geo_precision":"zip","source":"grappos.com","state":"PR"},"type":"Feature","geometry":{"type":"Point","coordinates":[-66.898661,17.972468]}},{"properties":{"city":"Adjuntas","zip":"601","geo_score":1.0,"description":"Clos Poggiale Syrah Sangiovese","num_searches":1.0,"id":"a6aeaz8cxhho","geo_precision":"zip","source":"grappos.com","state":"PR"},"type":"Feature","geometry":{"type":"Point","coordinates":[-66.722583,18.165273]}},{"properties":{"city":"Middletown","zip":"2842","geo_score":1.0,"description":"Clos Poggiale Syrah Sangiovese","num_searches":1.0,"id":"a6aeaz39m2nl","geo_precision":"zip","source":"grappos.com","state":"RI"},"type":"Feature","geometry":{"type":"Point","coordinates":[-71.273101,41.519757]}},{"properties":{"city":"Dallas","zip":"75202","geo_score":1.0,"description":"Clos Poggiale Syrah Sangiovese","num_searches":1.0,"id":"a6aeaz1qlfk3","geo_precision":"zip","source":"grappos.com","state":"TX"},"type":"Feature","geometry":{"type":"Point","coordinates":[-96.777626,32.767268]}},{"properties":{"city":"Seattle","zip":"98160","geo_score":0.868,"description":"Clos Poggiale Syrah Sangiovese","num_searches":1.0,"id":"a6aeazf15w7s","geo_precision":"zip","source":"grappos.com","state":"WA"},"type":"Feature","geometry":{"type":"Point","coordinates":[-122.390131,47.769542]}},{"properties":{"city":"Bremerton","zip":"98312","geo_score":0.87,"description":"Clos Poggiale Syrah Sangiovese","num_searches":1.0,"id":"a6aeaz1w3lb9","geo_precision":"zip","source":"grappos.com","state":"WA"},"type":"Feature","geometry":{"type":"Point","coordinates":[-122.766816,47.604538]}},{"properties":{"city":"Tacoma","zip":"98445","geo_score":1.0,"description":"Clos Poggiale Syrah Sangiovese","num_searches":1.0,"id":"a6aeaz90x6yd","geo_precision":"zip","source":"grappos.com","state":"WA"},"type":"Feature","geometry":{"type":"Point","coordinates":[-122.409355,47.129145]}},{"properties":{"city":"Olympia","zip":"98506","geo_score":1.0,"description":"Clos Poggiale Syrah Sangiovese","num_searches":1.0,"id":"a6aeaz5o7j3p","geo_precision":"zip","source":"grappos.com","state":"WA"},"type":"Feature","geometry":{"type":"Point","coordinates":[-122.870043,47.104227]}},{"properties":{"city":"Vancouver","zip":"98683","geo_score":1.0,"description":"Clos Poggiale Syrah Sangiovese","num_searches":1.0,"id":"a6aeaz9f72i6","geo_precision":"zip","source":"grappos.com","state":"WA"},"type":"Feature","geometry":{"type":"Point","coordinates":[-122.513318,45.603216]}},{"properties":{"city":"Yakima","zip":"98902","geo_score":0.857,"description":"Clos Poggiale Syrah Sangiovese","num_searches":1.0,"id":"a6aeaz0lgnay","geo_precision":"zip","source":"grappos.com","state":"WA"},"type":"Feature","geometry":{"type":"Point","coordinates":[-120.667292,46.632625]}},{"properties":{"city":"Mica","zip":"99023","geo_score":1.0,"description":"Clos Poggiale Syrah Sangiovese","num_searches":1.0,"id":"a6aeazag33a7","geo_precision":"zip","source":"grappos.com","state":"WA"},"type":"Feature","geometry":{"type":"Point","coordinates":[-117.183637,47.557733]}},{"properties":{"city":"Coulee Dam","zip":"99116","geo_score":0.869,"description":"Clos Poggiale Syrah Sangiovese","num_searches":1.0,"id":"a6aeazbovjol","geo_precision":"zip","source":"grappos.com","state":"WA"},"type":"Feature","geometry":{"type":"Point","coordinates":[-118.951133,48.023765]}}],"is_temporal":false,"author":{"url":"","metadata":"","contact_name":"","contact_address":"","source":"","contact_phone":""},"source":"","pagination":{"sort":null,"start":0,"total":46,"limit":1000000},"state":"complete","tags":"","published":"2014-08-10T12:31:49-04:00","id":21049}