{"type":"FeatureCollection","data_type":"Dataset","url_type":null,"permissions":[{"permissions":{"download":true,"view":true},"group_id":"everyone"}],"classification":null,"title":"St. Supery Moscato","count":155,"stream_id":21045,"contributor":{"url":"http://geocommons.com/users/2024","name":"kunisawa"},"data_attributes":null,"calculation_params":null,"icon_link":null,"link":"http://geocommons.com/overlays/21045.json","extent":[-157.922,18.1455,-65.6291,47.979],"geometry_types":["point"],"unique_name":null,"name":"St. Supery Moscato","feature_count":155,"description":"","next_feature":null,"is_raster":false,"short_classification":"Y","stats":{"geo_score":{"max":1.0,"mean":0.950490322580645,"variance":0.00371270607457058,"stdev":0.060931979079713,"min":0.755,"median":1.0},"num_searches":{"max":13.0,"mean":1.66451612903226,"variance":2.54905739421869,"stdev":1.5965767736688,"min":1.0,"median":1.0}},"features":[{"properties":{"city":"Shirley","geo_score":0.878,"description":"St. Supery Moscato","num_searches":1.0,"id":"a66undwuwx22","geo_precision":"zip","source":"grappos.com","zipid":"72153","state":"AR"},"type":"Feature","geometry":{"type":"Point","coordinates":[-92.264599,35.735355]}},{"properties":{"city":"Mesa","geo_score":0.857,"description":"St. Supery Moscato","num_searches":1.0,"id":"a66undxflb3e","geo_precision":"zip","source":"grappos.com","zipid":"85207","state":"AZ"},"type":"Feature","geometry":{"type":"Point","coordinates":[-111.651247,33.413381]}},{"properties":{"city":"Tucson","geo_score":0.886,"description":"St. Supery Moscato","num_searches":1.0,"id":"a66unds3nrnn","geo_precision":"zip","source":"grappos.com","zipid":"85706","state":"AZ"},"type":"Feature","geometry":{"type":"Point","coordinates":[-111.060649,31.902583]}},{"properties":{"city":"Tucson","geo_score":1.0,"description":"St. Supery Moscato","num_searches":1.0,"id":"a66undr4arih","geo_precision":"zip","source":"grappos.com","zipid":"85743","state":"AZ"},"type":"Feature","geometry":{"type":"Point","coordinates":[-111.065869,32.333438]}},{"properties":{"city":"Hercules","geo_score":1.0,"description":"St. Supery Moscato","num_searches":3.0,"id":"a66undlvo65u","geo_precision":"zip","source":"grappos.com","zipid":"94547","state":"CA"},"type":"Feature","geometry":{"type":"Point","coordinates":[-122.262101,38.008343]}},{"properties":{"city":"Ontario","geo_score":1.0,"description":"St. Supery Moscato","num_searches":2.0,"id":"a66undn4seng","geo_precision":"zip","source":"grappos.com","zipid":"91762","state":"CA"},"type":"Feature","geometry":{"type":"Point","coordinates":[-115.967051,34.839964]}},{"properties":{"city":"Diamond Bar","geo_score":1.0,"description":"St. Supery Moscato","num_searches":2.0,"id":"a66undy2mglw","geo_precision":"zip","source":"grappos.com","zipid":"91765","state":"CA"},"type":"Feature","geometry":{"type":"Point","coordinates":[-118.298662,33.786594]}},{"properties":{"city":"El Cerrito","geo_score":1.0,"description":"St. Supery Moscato","num_searches":2.0,"id":"a66undqyemts","geo_precision":"zip","source":"grappos.com","zipid":"94530","state":"CA"},"type":"Feature","geometry":{"type":"Point","coordinates":[-122.30248,37.918024]}},{"properties":{"city":"Napa","geo_score":0.883,"description":"St. Supery Moscato","num_searches":2.0,"id":"a66undn9mb9m","geo_precision":"zip","source":"grappos.com","zipid":"94558","state":"CA"},"type":"Feature","geometry":{"type":"Point","coordinates":[-122.224975,38.535185]}},{"properties":{"city":"San Anselmo","geo_score":1.0,"description":"St. Supery Moscato","num_searches":2.0,"id":"a66undugmwu7","geo_precision":"zip","source":"grappos.com","zipid":"94960","state":"CA"},"type":"Feature","geometry":{"type":"Point","coordinates":[-122.59184,37.986473]}},{"properties":{"city":"Modesto","geo_score":1.0,"description":"St. Supery Moscato","num_searches":2.0,"id":"a66undkvm5j2","geo_precision":"zip","source":"grappos.com","zipid":"95354","state":"CA"},"type":"Feature","geometry":{"type":"Point","coordinates":[-121.090835,37.533682]}},{"properties":{"city":"Rancho Palos Verdes","geo_score":1.0,"description":"St. Supery Moscato","num_searches":1.0,"id":"a66une0dg56p","geo_precision":"zip","source":"grappos.com","zipid":"90275","state":"CA"},"type":"Feature","geometry":{"type":"Point","coordinates":[-118.298662,33.786594]}},{"properties":{"city":"Long Beach","geo_score":1.0,"description":"St. Supery Moscato","num_searches":1.0,"id":"a66undvzdmf3","geo_precision":"zip","source":"grappos.com","zipid":"90835","state":"CA"},"type":"Feature","geometry":{"type":"Point","coordinates":[-118.199401,33.767817]}},{"properties":{"city":"Huntington Beach","geo_score":1.0,"description":"St. Supery Moscato","num_searches":1.0,"id":"a66undwch9yw","geo_precision":"zip","source":"grappos.com","zipid":"92646","state":"CA"},"type":"Feature","geometry":{"type":"Point","coordinates":[-117.769442,33.640302]}},{"properties":{"city":"Millbrae","geo_score":0.933,"description":"St. Supery Moscato","num_searches":1.0,"id":"a66undqpk9zp","geo_precision":"zip","source":"grappos.com","zipid":"94030","state":"CA"},"type":"Feature","geometry":{"type":"Point","coordinates":[-122.417195,37.602158]}},{"properties":{"city":"Sunnyvale","geo_score":1.0,"description":"St. Supery Moscato","num_searches":1.0,"id":"a66undki7qtc","geo_precision":"zip","source":"grappos.com","zipid":"94089","state":"CA"},"type":"Feature","geometry":{"type":"Point","coordinates":[-121.705327,37.189396]}},{"properties":{"city":"San Francisco","geo_score":1.0,"description":"St. Supery Moscato","num_searches":1.0,"id":"a66undsxcsfh","geo_precision":"zip","source":"grappos.com","zipid":"94101","state":"CA"},"type":"Feature","geometry":{"type":"Point","coordinates":[-122.727802,37.784827]}},{"properties":{"city":"San Francisco","geo_score":1.0,"description":"St. Supery Moscato","num_searches":1.0,"id":"a66une0a5wz8","geo_precision":"zip","source":"grappos.com","zipid":"94103","state":"CA"},"type":"Feature","geometry":{"type":"Point","coordinates":[-122.412131,37.775678]}},{"properties":{"city":"San Francisco","geo_score":1.0,"description":"St. Supery Moscato","num_searches":1.0,"id":"a66undwtscrw","geo_precision":"zip","source":"grappos.com","zipid":"94104","state":"CA"},"type":"Feature","geometry":{"type":"Point","coordinates":[-122.401732,37.790728]}},{"properties":{"city":"San Francisco","geo_score":1.0,"description":"St. Supery Moscato","num_searches":1.0,"id":"a66undy66quf","geo_precision":"zip","source":"grappos.com","zipid":"94109","state":"CA"},"type":"Feature","geometry":{"type":"Point","coordinates":[-122.420782,37.795219]}},{"properties":{"city":"San Francisco","geo_score":1.0,"description":"St. Supery Moscato","num_searches":1.0,"id":"a66undts5pyp","geo_precision":"zip","source":"grappos.com","zipid":"94131","state":"CA"},"type":"Feature","geometry":{"type":"Point","coordinates":[-122.443182,37.74363]}},{"properties":{"city":"San Francisco","geo_score":1.0,"description":"St. Supery Moscato","num_searches":1.0,"id":"a66undqz6fvb","geo_precision":"zip","source":"fbapp","zipid":"94134","state":"CA"},"type":"Feature","geometry":{"type":"Point","coordinates":[-122.410832,37.72168]}},{"properties":{"city":"San Leandro","geo_score":1.0,"description":"St. Supery Moscato","num_searches":1.0,"id":"a66undl650pg","geo_precision":"zip","source":"grappos.com","zipid":"94577","state":"CA"},"type":"Feature","geometry":{"type":"Point","coordinates":[-122.158621,37.715629]}},{"properties":{"city":"Campbell","geo_score":1.0,"description":"St. Supery Moscato","num_searches":1.0,"id":"a66undwrk3vo","geo_precision":"zip","source":"grappos.com","zipid":"95011","state":"CA"},"type":"Feature","geometry":{"type":"Point","coordinates":[-121.705327,37.189396]}},{"properties":{"city":"Tracy","geo_score":0.755,"description":"St. Supery Moscato","num_searches":1.0,"id":"a66undwrvpo5","geo_precision":"city","source":"grappos.com","zipid":"95391","state":"CA"},"type":"Feature","geometry":{"type":"Point","coordinates":[-119.253446,36.417728]}},{"properties":{"city":"Santa Rosa","geo_score":0.889,"description":"St. Supery Moscato","num_searches":1.0,"id":"a66undpumcw9","geo_precision":"zip","source":"grappos.com","zipid":"95401","state":"CA"},"type":"Feature","geometry":{"type":"Point","coordinates":[-122.851937,38.48519]}},{"properties":{"city":"Piercy","geo_score":1.0,"description":"St. Supery Moscato","num_searches":1.0,"id":"a66undxtugm8","geo_precision":"zip","source":"grappos.com","zipid":"95587","state":"CA"},"type":"Feature","geometry":{"type":"Point","coordinates":[-123.686938,39.947575]}},{"properties":{"city":"Live Oak","geo_score":0.871,"description":"St. Supery Moscato","num_searches":1.0,"id":"a66undv6hn3s","geo_precision":"zip","source":"grappos.com","zipid":"95953","state":"CA"},"type":"Feature","geometry":{"type":"Point","coordinates":[-121.793306,39.291]}},{"properties":{"city":"Boulder","geo_score":1.0,"description":"St. Supery Moscato","num_searches":2.0,"id":"a66undprblfs","geo_precision":"zip","source":"grappos.com","zipid":"80304","state":"CO"},"type":"Feature","geometry":{"type":"Point","coordinates":[-105.369797,40.114114]}},{"properties":{"city":"Washington","geo_score":0.868,"description":"St. Supery Moscato","num_searches":1.0,"id":"a66undyfl91h","geo_precision":"zip","source":"grappos.com","zipid":"20008","state":"DC"},"type":"Feature","geometry":{"type":"Point","coordinates":[-77.065533,38.936222]}},{"properties":{"city":"Middletown","geo_score":1.0,"description":"St. Supery Moscato","num_searches":2.0,"id":"a66undlimg9h","geo_precision":"zip","source":"grappos.com","zipid":"19709","state":"DE"},"type":"Feature","geometry":{"type":"Point","coordinates":[-75.677535,39.485721]}},{"properties":{"city":"Hallandale","geo_score":1.0,"description":"St. Supery Moscato","num_searches":5.0,"id":"a66undu5zgtl","geo_precision":"zip","source":"grappos.com","zipid":"33008","state":"FL"},"type":"Feature","geometry":{"type":"Point","coordinates":[-80.448254,26.145724]}},{"properties":{"city":"Orlando","geo_score":0.905,"description":"St. Supery Moscato","num_searches":2.0,"id":"a66undrlb1om","geo_precision":"zip","source":"grappos.com","zipid":"32811","state":"FL"},"type":"Feature","geometry":{"type":"Point","coordinates":[-81.460349,28.538336]}},{"properties":{"city":"Shalimar","geo_score":0.857,"description":"St. Supery Moscato","num_searches":1.0,"id":"a66undug3m8b","geo_precision":"zip","source":"grappos.com","zipid":"32579","state":"FL"},"type":"Feature","geometry":{"type":"Point","coordinates":[-86.588564,30.460754]}},{"properties":{"city":"Orlando","geo_score":1.0,"description":"St. Supery Moscato","num_searches":1.0,"id":"a66undz1lvbp","geo_precision":"zip","source":"grappos.com","zipid":"32826","state":"FL"},"type":"Feature","geometry":{"type":"Point","coordinates":[-81.34349,28.510802]}},{"properties":{"city":"Acworth","geo_score":0.857,"description":"St. Supery Moscato","num_searches":2.0,"id":"a66undrh1j9y","geo_precision":"zip","source":"grappos.com","zipid":"30101","state":"GA"},"type":"Feature","geometry":{"type":"Point","coordinates":[-84.716048,33.979546]}},{"properties":{"city":"Canton","geo_score":1.0,"description":"St. Supery Moscato","num_searches":1.0,"id":"a66undm6ngkf","geo_precision":"zip","source":"grappos.com","zipid":"30115","state":"GA"},"type":"Feature","geometry":{"type":"Point","coordinates":[-84.419935,34.199345]}},{"properties":{"city":"Atlanta","geo_score":1.0,"description":"St. Supery Moscato","num_searches":1.0,"id":"a66undlraqde","geo_precision":"zip","source":"grappos.com","zipid":"30301","state":"GA"},"type":"Feature","geometry":{"type":"Point","coordinates":[-84.47405,33.844371]}},{"properties":{"city":"Atlanta","geo_score":0.94,"description":"St. Supery Moscato","num_searches":1.0,"id":"a66undzp551l","geo_precision":"zip","source":"grappos.com","zipid":"30319","state":"GA"},"type":"Feature","geometry":{"type":"Point","coordinates":[-84.336592,33.865103]}},{"properties":{"city":"Kaneohe","geo_score":0.898,"description":"St. Supery Moscato","num_searches":1.0,"id":"a66undzpu25x","geo_precision":"zip","source":"grappos.com","zipid":"96744","state":"HI"},"type":"Feature","geometry":{"type":"Point","coordinates":[-157.855,21.500556]}},{"properties":{"city":"Honolulu","geo_score":1.0,"description":"St. Supery Moscato","num_searches":1.0,"id":"a66une0mbcef","geo_precision":"zip","source":"grappos.com","zipid":"96817","state":"HI"},"type":"Feature","geometry":{"type":"Point","coordinates":[-157.922303,21.65098]}},{"properties":{"city":"West Des Moines","geo_score":0.879,"description":"St. Supery Moscato","num_searches":1.0,"id":"a66undqso9ou","geo_precision":"zip","source":"grappos.com","zipid":"50265","state":"IA"},"type":"Feature","geometry":{"type":"Point","coordinates":[-93.764667,41.538879]}},{"properties":{"city":"Godfrey","geo_score":0.857,"description":"St. Supery Moscato","num_searches":6.0,"id":"a66undz73web","geo_precision":"zip","source":"grappos.com","zipid":"62035","state":"IL"},"type":"Feature","geometry":{"type":"Point","coordinates":[-90.245945,38.936992]}},{"properties":{"city":"Saint Charles","geo_score":1.0,"description":"St. Supery Moscato","num_searches":2.0,"id":"a66une0lrfgj","geo_precision":"zip","source":"grappos.com","zipid":"60175","state":"IL"},"type":"Feature","geometry":{"type":"Point","coordinates":[-88.386905,41.943171]}},{"properties":{"city":"Alton","geo_score":0.929,"description":"St. Supery Moscato","num_searches":2.0,"id":"a66undwuvtdf","geo_precision":"zip","source":"grappos.com","zipid":"62002","state":"IL"},"type":"Feature","geometry":{"type":"Point","coordinates":[-90.196499,38.92227]}},{"properties":{"city":"Libertyville","geo_score":0.881,"description":"St. Supery Moscato","num_searches":1.0,"id":"a66undwjqpjw","geo_precision":"zip","source":"grappos.com","zipid":"60048","state":"IL"},"type":"Feature","geometry":{"type":"Point","coordinates":[-87.925906,42.233357]}},{"properties":{"city":"Joliet","geo_score":0.888,"description":"St. Supery Moscato","num_searches":1.0,"id":"a66undkyg23o","geo_precision":"zip","source":"grappos.com","zipid":"60431","state":"IL"},"type":"Feature","geometry":{"type":"Point","coordinates":[-88.081724,41.491698]}},{"properties":{"city":"Plainfield","geo_score":0.871,"description":"St. Supery Moscato","num_searches":1.0,"id":"a66une0e2qf7","geo_precision":"zip","source":"grappos.com","zipid":"60544","state":"IL"},"type":"Feature","geometry":{"type":"Point","coordinates":[-88.181452,41.590308]}},{"properties":{"city":"Naperville","geo_score":1.0,"description":"St. Supery Moscato","num_searches":1.0,"id":"a66undw0ojs4","geo_precision":"zip","source":"grappos.com","zipid":"60564","state":"IL"},"type":"Feature","geometry":{"type":"Point","coordinates":[-88.201424,41.681479]}},{"properties":{"city":"Chicago","geo_score":1.0,"description":"St. Supery Moscato","num_searches":1.0,"id":"a66unds55k6f","geo_precision":"zip","source":"grappos.com","zipid":"60622","state":"IL"},"type":"Feature","geometry":{"type":"Point","coordinates":[-87.68732,41.811929]}},{"properties":{"city":"Chicago","geo_score":1.0,"description":"St. Supery Moscato","num_searches":1.0,"id":"a66undmhenet","geo_precision":"zip","source":"grappos.com","zipid":"60628","state":"IL"},"type":"Feature","geometry":{"type":"Point","coordinates":[-87.68732,41.811929]}},{"properties":{"city":"Manteno","geo_score":0.878,"description":"St. Supery Moscato","num_searches":1.0,"id":"a66undy0c8wv","geo_precision":"zip","source":"grappos.com","zipid":"60950","state":"IL"},"type":"Feature","geometry":{"type":"Point","coordinates":[-87.974494,41.249476]}},{"properties":{"city":"Fairview Heights","geo_score":0.886,"description":"St. Supery Moscato","num_searches":1.0,"id":"a66undxwogvy","geo_precision":"zip","source":"grappos.com","zipid":"62208","state":"IL"},"type":"Feature","geometry":{"type":"Point","coordinates":[-90.050106,38.600328]}},{"properties":{"city":"Springfield","geo_score":1.0,"description":"St. Supery Moscato","num_searches":1.0,"id":"a66undtuen9y","geo_precision":"zip","source":"grappos.com","zipid":"62701","state":"IL"},"type":"Feature","geometry":{"type":"Point","coordinates":[-89.598978,39.820839]}},{"properties":{"city":"West Lafayette","geo_score":0.879,"description":"St. Supery Moscato","num_searches":6.0,"id":"a66undlo4bo9","geo_precision":"zip","source":"grappos.com","zipid":"47906","state":"IN"},"type":"Feature","geometry":{"type":"Point","coordinates":[-86.910844,40.449202]}},{"properties":{"city":"Indianapolis","geo_score":0.882,"description":"St. Supery Moscato","num_searches":2.0,"id":"a66undv7pjke","geo_precision":"zip","source":"grappos.com","zipid":"46227","state":"IN"},"type":"Feature","geometry":{"type":"Point","coordinates":[-86.13443,39.704767]}},{"properties":{"city":"Indianapolis","geo_score":0.895,"description":"St. Supery Moscato","num_searches":1.0,"id":"a66undmns0qc","geo_precision":"zip","source":"grappos.com","zipid":"46217","state":"IN"},"type":"Feature","geometry":{"type":"Point","coordinates":[-86.211099,39.688101]}},{"properties":{"city":"Decatur","geo_score":0.857,"description":"St. Supery Moscato","num_searches":1.0,"id":"a66undngzk7e","geo_precision":"zip","source":"grappos.com","zipid":"46733","state":"IN"},"type":"Feature","geometry":{"type":"Point","coordinates":[-84.975245,40.918937]}},{"properties":{"city":"Fort Leavenworth","geo_score":1.0,"description":"St. Supery Moscato","num_searches":1.0,"id":"a66une0cih65","geo_precision":"zip","source":"grappos.com","zipid":"66027","state":"KS"},"type":"Feature","geometry":{"type":"Point","coordinates":[-94.931329,39.346798]}},{"properties":{"city":"Olathe","geo_score":0.881,"description":"St. Supery Moscato","num_searches":1.0,"id":"a66undvp4xyu","geo_precision":"zip","source":"grappos.com","zipid":"66061","state":"KS"},"type":"Feature","geometry":{"type":"Point","coordinates":[-94.723848,38.850286]}},{"properties":{"city":"Emporia","geo_score":0.875,"description":"St. Supery Moscato","num_searches":1.0,"id":"a66undqbo5ei","geo_precision":"zip","source":"grappos.com","zipid":"66801","state":"KS"},"type":"Feature","geometry":{"type":"Point","coordinates":[-96.332222,38.413903]}},{"properties":{"city":"Liberty","geo_score":1.0,"description":"St. Supery Moscato","num_searches":1.0,"id":"a66undztoda2","geo_precision":"zip","source":"grappos.com","zipid":"67351","state":"KS"},"type":"Feature","geometry":{"type":"Point","coordinates":[-95.583588,37.09922]}},{"properties":{"city":"Morganville","geo_score":1.0,"description":"St. Supery Moscato","num_searches":1.0,"id":"a66undkj7g1i","geo_precision":"zip","source":"grappos.com","zipid":"67468","state":"KS"},"type":"Feature","geometry":{"type":"Point","coordinates":[-97.164888,39.328382]}},{"properties":{"city":"Lafayette","geo_score":1.0,"description":"St. Supery Moscato","num_searches":1.0,"id":"a66undmimsx5","geo_precision":"zip","source":"grappos.com","zipid":"70508","state":"LA"},"type":"Feature","geometry":{"type":"Point","coordinates":[-92.026859,30.181866]}},{"properties":{"city":"Braintree","geo_score":0.949,"description":"St. Supery Moscato","num_searches":13.0,"id":"a66undq769du","geo_precision":"zip","source":"grappos.com","zipid":"2184","state":"MA"},"type":"Feature","geometry":{"type":"Point","coordinates":[-70.999492,42.2001]}},{"properties":{"city":"Braintree","geo_score":1.0,"description":"St. Supery Moscato","num_searches":3.0,"id":"a66undkoj5qu","geo_precision":"zip","source":"grappos.com","zipid":"2185","state":"MA"},"type":"Feature","geometry":{"type":"Point","coordinates":[-71.08923,42.180048]}},{"properties":{"city":"North Oxford","geo_score":0.883,"description":"St. Supery Moscato","num_searches":2.0,"id":"a66undtabpnv","geo_precision":"zip","source":"grappos.com","zipid":"1537","state":"MA"},"type":"Feature","geometry":{"type":"Point","coordinates":[-71.892295,42.165372]}},{"properties":{"city":"Ayer","geo_score":1.0,"description":"St. Supery Moscato","num_searches":1.0,"id":"a66undp2dug2","geo_precision":"zip","source":"grappos.com","zipid":"1432","state":"MA"},"type":"Feature","geometry":{"type":"Point","coordinates":[-71.459405,42.446396]}},{"properties":{"city":"Ashland","geo_score":1.0,"description":"St. Supery Moscato","num_searches":1.0,"id":"a66une0hwpsh","geo_precision":"zip","source":"grappos.com","zipid":"1721","state":"MA"},"type":"Feature","geometry":{"type":"Point","coordinates":[-71.459405,42.446396]}},{"properties":{"city":"Woburn","geo_score":1.0,"description":"St. Supery Moscato","num_searches":1.0,"id":"a66undvaxj4a","geo_precision":"zip","source":"grappos.com","zipid":"1806","state":"MA"},"type":"Feature","geometry":{"type":"Point","coordinates":[-71.459405,42.446396]}},{"properties":{"city":"Boston","geo_score":1.0,"description":"St. Supery Moscato","num_searches":1.0,"id":"a66undm770ix","geo_precision":"zip","source":"grappos.com","zipid":"2108","state":"MA"},"type":"Feature","geometry":{"type":"Point","coordinates":[-71.102446,42.353806]}},{"properties":{"city":"Brockton","geo_score":1.0,"description":"St. Supery Moscato","num_searches":1.0,"id":"a66undyljin2","geo_precision":"zip","source":"fbapp","zipid":"2301","state":"MA"},"type":"Feature","geometry":{"type":"Point","coordinates":[-71.03999,42.079399]}},{"properties":{"city":"Hyannis Port","geo_score":1.0,"description":"St. Supery Moscato","num_searches":1.0,"id":"a66undsat2z7","geo_precision":"zip","source":"grappos.com","zipid":"2647","state":"MA"},"type":"Feature","geometry":{"type":"Point","coordinates":[-70.306336,41.635004]}},{"properties":{"city":"Chartley","geo_score":1.0,"description":"St. Supery Moscato","num_searches":1.0,"id":"a66undwujfgn","geo_precision":"zip","source":"grappos.com","zipid":"2712","state":"MA"},"type":"Feature","geometry":{"type":"Point","coordinates":[-71.067062,41.756214]}},{"properties":{"city":"Accokeek","geo_score":0.857,"description":"St. Supery Moscato","num_searches":4.0,"id":"a66undoztjmb","geo_precision":"zip","source":"grappos.com","zipid":"20607","state":"MD"},"type":"Feature","geometry":{"type":"Point","coordinates":[-76.988864,38.686228]}},{"properties":{"city":"Silver Spring","geo_score":0.881,"description":"St. Supery Moscato","num_searches":3.0,"id":"a66undk9uyjf","geo_precision":"zip","source":"grappos.com","zipid":"20906","state":"MD"},"type":"Feature","geometry":{"type":"Point","coordinates":[-77.041089,39.095386]}},{"properties":{"city":"Fort Washington","geo_score":1.0,"description":"St. Supery Moscato","num_searches":1.0,"id":"a66undqbhr6r","geo_precision":"zip","source":"grappos.com","zipid":"20749","state":"MD"},"type":"Feature","geometry":{"type":"Point","coordinates":[-76.877743,38.833563]}},{"properties":{"city":"Milford","geo_score":1.0,"description":"St. Supery Moscato","num_searches":1.0,"id":"a66undtr7j0e","geo_precision":"zip","source":"grappos.com","zipid":"4461","state":"ME"},"type":"Feature","geometry":{"type":"Point","coordinates":[-68.595946,45.0542]}},{"properties":{"city":"Canton","geo_score":1.0,"description":"St. Supery Moscato","num_searches":1.0,"id":"a66une0na33l","geo_precision":"zip","source":"grappos.com","zipid":"48188","state":"MI"},"type":"Feature","geometry":{"type":"Point","coordinates":[-83.485776,42.291734]}},{"properties":{"city":"Afton","geo_score":1.0,"description":"St. Supery Moscato","num_searches":3.0,"id":"a66undqbgyuh","geo_precision":"zip","source":"grappos.com","zipid":"55001","state":"MN"},"type":"Feature","geometry":{"type":"Point","coordinates":[-92.816193,44.90717]}},{"properties":{"city":"Marshall","geo_score":0.896,"description":"St. Supery Moscato","num_searches":3.0,"id":"a66undt4pdq1","geo_precision":"zip","source":"grappos.com","zipid":"56258","state":"MN"},"type":"Feature","geometry":{"type":"Point","coordinates":[-95.757243,44.526903]}},{"properties":{"city":"Kandiyohi","geo_score":1.0,"description":"St. Supery Moscato","num_searches":2.0,"id":"a66une0ctlkn","geo_precision":"zip","source":"grappos.com","zipid":"56251","state":"MN"},"type":"Feature","geometry":{"type":"Point","coordinates":[-94.918264,45.142577]}},{"properties":{"city":"Saint Paul","geo_score":1.0,"description":"St. Supery Moscato","num_searches":1.0,"id":"a66undo6c4lj","geo_precision":"zip","source":"fbapp","zipid":"55105","state":"MN"},"type":"Feature","geometry":{"type":"Point","coordinates":[-93.16097,44.934515]}},{"properties":{"city":"Minneapolis","geo_score":1.0,"description":"St. Supery Moscato","num_searches":1.0,"id":"a66undpsusq5","geo_precision":"zip","source":"grappos.com","zipid":"55437","state":"MN"},"type":"Feature","geometry":{"type":"Point","coordinates":[-93.353791,44.826064]}},{"properties":{"city":"Minneapolis","geo_score":1.0,"description":"St. Supery Moscato","num_searches":1.0,"id":"a66undrkva7o","geo_precision":"zip","source":"grappos.com","zipid":"55447","state":"MN"},"type":"Feature","geometry":{"type":"Point","coordinates":[-93.487482,45.003335]}},{"properties":{"city":"Saint Louis","geo_score":0.871,"description":"St. Supery Moscato","num_searches":2.0,"id":"a66une03my9e","geo_precision":"zip","source":"grappos.com","zipid":"63147","state":"MO"},"type":"Feature","geometry":{"type":"Point","coordinates":[-90.230112,38.705606]}},{"properties":{"city":"Festus","geo_score":0.881,"description":"St. Supery Moscato","num_searches":1.0,"id":"a66undvniiw3","geo_precision":"zip","source":"grappos.com","zipid":"63028","state":"MO"},"type":"Feature","geometry":{"type":"Point","coordinates":[-90.341509,38.149776]}},{"properties":{"city":"Saint Peters","geo_score":0.902,"description":"St. Supery Moscato","num_searches":1.0,"id":"a66undn4wm41","geo_precision":"zip","source":"grappos.com","zipid":"63376","state":"MO"},"type":"Feature","geometry":{"type":"Point","coordinates":[-90.661514,38.760608]}},{"properties":{"city":"Excello","geo_score":0.889,"description":"St. Supery Moscato","num_searches":1.0,"id":"a66undmns6y2","geo_precision":"zip","source":"grappos.com","zipid":"65247","state":"MO"},"type":"Feature","geometry":{"type":"Point","coordinates":[-92.336293,39.620313]}},{"properties":{"city":"Mountain Grove","geo_score":0.89,"description":"St. Supery Moscato","num_searches":1.0,"id":"a66undodysql","geo_precision":"zip","source":"grappos.com","zipid":"65711","state":"MO"},"type":"Feature","geometry":{"type":"Point","coordinates":[-92.366831,37.380048]}},{"properties":{"city":"Springfield","geo_score":1.0,"description":"St. Supery Moscato","num_searches":1.0,"id":"a66undrrsgsg","geo_precision":"zip","source":"grappos.com","zipid":"65810","state":"MO"},"type":"Feature","geometry":{"type":"Point","coordinates":[-93.31318,37.122249]}},{"properties":{"city":"Kiln","geo_score":1.0,"description":"St. Supery Moscato","num_searches":1.0,"id":"a66undyvbcxv","geo_precision":"zip","source":"grappos.com","zipid":"39556","state":"MS"},"type":"Feature","geometry":{"type":"Point","coordinates":[-89.418722,30.487498]}},{"properties":{"city":"Mooresville","geo_score":1.0,"description":"St. Supery Moscato","num_searches":2.0,"id":"a66undnrg05j","geo_precision":"zip","source":"grappos.com","zipid":"28117","state":"NC"},"type":"Feature","geometry":{"type":"Point","coordinates":[-80.868463,35.583962]}},{"properties":{"city":"Greensboro","geo_score":1.0,"description":"St. Supery Moscato","num_searches":1.0,"id":"a66undksizb1","geo_precision":"zip","source":"grappos.com","zipid":"27403","state":"NC"},"type":"Feature","geometry":{"type":"Point","coordinates":[-79.823336,36.089396]}},{"properties":{"city":"Fuquay Varina","geo_score":0.869,"description":"St. Supery Moscato","num_searches":1.0,"id":"a66undri5g3s","geo_precision":"zip","source":"grappos.com","zipid":"27526","state":"NC"},"type":"Feature","geometry":{"type":"Point","coordinates":[-78.836957,35.597656]}},{"properties":{"city":"Fort Bragg","geo_score":1.0,"description":"St. Supery Moscato","num_searches":1.0,"id":"a66undxass82","geo_precision":"zip","source":"grappos.com","zipid":"28307","state":"NC"},"type":"Feature","geometry":{"type":"Point","coordinates":[-78.987942,35.140193]}},{"properties":{"city":"Papillion","geo_score":0.889,"description":"St. Supery Moscato","num_searches":1.0,"id":"a66undy0od2y","geo_precision":"zip","source":"grappos.com","zipid":"68046","state":"NE"},"type":"Feature","geometry":{"type":"Point","coordinates":[-96.150297,41.183888]}},{"properties":{"city":"Bellevue","geo_score":0.893,"description":"St. Supery Moscato","num_searches":1.0,"id":"a66undlu166x","geo_precision":"zip","source":"grappos.com","zipid":"68123","state":"NE"},"type":"Feature","geometry":{"type":"Point","coordinates":[-95.923622,41.074721]}},{"properties":{"city":"Scottsbluff","geo_score":0.857,"description":"St. Supery Moscato","num_searches":1.0,"id":"a66undwvr9o4","geo_precision":"zip","source":"grappos.com","zipid":"69361","state":"NE"},"type":"Feature","geometry":{"type":"Point","coordinates":[-103.603554,41.861634]}},{"properties":{"city":"Nashua","geo_score":0.878,"description":"St. Supery Moscato","num_searches":1.0,"id":"a66undpd9cao","geo_precision":"zip","source":"grappos.com","zipid":"3060","state":"NH"},"type":"Feature","geometry":{"type":"Point","coordinates":[-71.555069,42.80481]}},{"properties":{"city":"Hackensack","geo_score":1.0,"description":"St. Supery Moscato","num_searches":2.0,"id":"a66undm7829x","geo_precision":"zip","source":"grappos.com","zipid":"7601","state":"NJ"},"type":"Feature","geometry":{"type":"Point","coordinates":[-74.001623,40.913482]}},{"properties":{"city":"Las Vegas","geo_score":1.0,"description":"St. Supery Moscato","num_searches":1.0,"id":"a66undtfs4m9","geo_precision":"zip","source":"grappos.com","zipid":"89130","state":"NV"},"type":"Feature","geometry":{"type":"Point","coordinates":[-115.222064,36.246153]}},{"properties":{"city":"Sparks","geo_score":1.0,"description":"St. Supery Moscato","num_searches":1.0,"id":"a66undz5fiam","geo_precision":"zip","source":"grappos.com","zipid":"89436","state":"NV"},"type":"Feature","geometry":{"type":"Point","coordinates":[-119.659053,39.651879]}},{"properties":{"city":"Staten Island","geo_score":0.857,"description":"St. Supery Moscato","num_searches":8.0,"id":"a66undwayoqr","geo_precision":"zip","source":"grappos.com","zipid":"10301","state":"NY"},"type":"Feature","geometry":{"type":"Point","coordinates":[-74.138476,40.60316]}},{"properties":{"city":"New York","geo_score":1.0,"description":"St. Supery Moscato","num_searches":3.0,"id":"a66undpsa90z","geo_precision":"zip","source":"grappos.com","zipid":"10029","state":"NY"},"type":"Feature","geometry":{"type":"Point","coordinates":[-73.943517,40.791884]}},{"properties":{"city":"Mount Vernon","geo_score":0.883,"description":"St. Supery Moscato","num_searches":1.0,"id":"a66undq16pq7","geo_precision":"zip","source":"grappos.com","zipid":"10552","state":"NY"},"type":"Feature","geometry":{"type":"Point","coordinates":[-73.835967,40.925099]}},{"properties":{"city":"White Plains","geo_score":0.879,"description":"St. Supery Moscato","num_searches":1.0,"id":"a66undyyaekb","geo_precision":"zip","source":"grappos.com","zipid":"10603","state":"NY"},"type":"Feature","geometry":{"type":"Point","coordinates":[-73.750965,41.069264]}},{"properties":{"city":"Brooklyn","geo_score":1.0,"description":"St. Supery Moscato","num_searches":1.0,"id":"a66undo9ncn0","geo_precision":"zip","source":"grappos.com","zipid":"11217","state":"NY"},"type":"Feature","geometry":{"type":"Point","coordinates":[-73.980613,40.684948]}},{"properties":{"city":"Brooklyn","geo_score":0.886,"description":"St. Supery Moscato","num_searches":1.0,"id":"a66une0fyr3e","geo_precision":"zip","source":"grappos.com","zipid":"11222","state":"NY"},"type":"Feature","geometry":{"type":"Point","coordinates":[-73.950971,40.723713]}},{"properties":{"city":"Valley Stream","geo_score":0.958,"description":"St. Supery Moscato","num_searches":1.0,"id":"a66une0f4j30","geo_precision":"zip","source":"grappos.com","zipid":"11580","state":"NY"},"type":"Feature","geometry":{"type":"Point","coordinates":[-73.701798,40.685103]}},{"properties":{"city":"Central Islip","geo_score":0.886,"description":"St. Supery Moscato","num_searches":1.0,"id":"a66undqpw6iy","geo_precision":"zip","source":"grappos.com","zipid":"11722","state":"NY"},"type":"Feature","geometry":{"type":"Point","coordinates":[-73.169836,40.747321]}},{"properties":{"city":"Dayton","geo_score":1.0,"description":"St. Supery Moscato","num_searches":1.0,"id":"a66undqxqcmj","geo_precision":"zip","source":"grappos.com","zipid":"45401","state":"OH"},"type":"Feature","geometry":{"type":"Point","coordinates":[-84.268593,39.750471]}},{"properties":{"city":"Dayton","geo_score":1.0,"description":"St. Supery Moscato","num_searches":1.0,"id":"a66undy5ltjv","geo_precision":"zip","source":"grappos.com","zipid":"45449","state":"OH"},"type":"Feature","geometry":{"type":"Point","coordinates":[-84.24009,39.665109]}},{"properties":{"city":"Springfield","geo_score":0.896,"description":"St. Supery Moscato","num_searches":1.0,"id":"a66undqr0dre","geo_precision":"zip","source":"grappos.com","zipid":"45502","state":"OH"},"type":"Feature","geometry":{"type":"Point","coordinates":[-83.849374,39.903949]}},{"properties":{"city":"Broken Arrow","geo_score":1.0,"description":"St. Supery Moscato","num_searches":2.0,"id":"a66undry16gq","geo_precision":"zip","source":"grappos.com","zipid":"74011","state":"OK"},"type":"Feature","geometry":{"type":"Point","coordinates":[-95.818064,35.986399]}},{"properties":{"city":"Lake Oswego","geo_score":0.871,"description":"St. Supery Moscato","num_searches":4.0,"id":"a66undypl7k0","geo_precision":"zip","source":"grappos.com","zipid":"97034","state":"OR"},"type":"Feature","geometry":{"type":"Point","coordinates":[-122.660372,45.424286]}},{"properties":{"city":"Camp Sherman","geo_score":1.0,"description":"St. Supery Moscato","num_searches":2.0,"id":"a66undw66o2x","geo_precision":"zip","source":"grappos.com","zipid":"97730","state":"OR"},"type":"Feature","geometry":{"type":"Point","coordinates":[-121.659909,44.443474]}},{"properties":{"city":"Portland","geo_score":1.0,"description":"St. Supery Moscato","num_searches":1.0,"id":"a66undqsbnel","geo_precision":"zip","source":"grappos.com","zipid":"97201","state":"OR"},"type":"Feature","geometry":{"type":"Point","coordinates":[-122.693157,45.498931]}},{"properties":{"city":"Cheshire","geo_score":1.0,"description":"St. Supery Moscato","num_searches":1.0,"id":"a66undr6imx4","geo_precision":"zip","source":"grappos.com","zipid":"97419","state":"OR"},"type":"Feature","geometry":{"type":"Point","coordinates":[-123.368242,44.210177]}},{"properties":{"city":"Lakeside","geo_score":1.0,"description":"St. Supery Moscato","num_searches":1.0,"id":"a66undnlw3pd","geo_precision":"zip","source":"grappos.com","zipid":"97449","state":"OR"},"type":"Feature","geometry":{"type":"Point","coordinates":[-124.122749,43.583767]}},{"properties":{"city":"Pittsburgh","geo_score":1.0,"description":"St. Supery Moscato","num_searches":1.0,"id":"a66undrycb8f","geo_precision":"zip","source":"grappos.com","zipid":"15222","state":"PA"},"type":"Feature","geometry":{"type":"Point","coordinates":[-80.024817,40.434436]}},{"properties":{"city":"Media","geo_score":0.89,"description":"St. Supery Moscato","num_searches":1.0,"id":"a66undpgzx9w","geo_precision":"zip","source":"grappos.com","zipid":"19063","state":"PA"},"type":"Feature","geometry":{"type":"Point","coordinates":[-75.421029,39.945944]}},{"properties":{"city":"Hormigueros","geo_score":1.0,"description":"St. Supery Moscato","num_searches":3.0,"id":"a66undqgao6a","geo_precision":"zip","source":"grappos.com","zipid":"660","state":"PR"},"type":"Feature","geometry":{"type":"Point","coordinates":[-67.135323,18.145486]}},{"properties":{"city":"Roosevelt Roads","geo_score":0.791,"description":"St. Supery Moscato","num_searches":2.0,"id":"a66undw80e8l","geo_precision":"city","source":"grappos.com","zipid":"742","state":"PR"},"type":"Feature","geometry":{"type":"Point","coordinates":[-65.629103,18.234978]}},{"properties":{"city":"San Juan","geo_score":1.0,"description":"St. Supery Moscato","num_searches":2.0,"id":"a66undv4sq1e","geo_precision":"zip","source":"grappos.com","zipid":"901","state":"PR"},"type":"Feature","geometry":{"type":"Point","coordinates":[-66.103568,18.465901]}},{"properties":{"city":"Aguadilla","geo_score":1.0,"description":"St. Supery Moscato","num_searches":1.0,"id":"a66undoc79rb","geo_precision":"zip","source":"grappos.com","zipid":"604","state":"PR"},"type":"Feature","geometry":{"type":"Point","coordinates":[-67.135883,18.49352]}},{"properties":{"city":"Cranston","geo_score":0.886,"description":"St. Supery Moscato","num_searches":1.0,"id":"a66undlyfd7x","geo_precision":"zip","source":"grappos.com","zipid":"2920","state":"RI"},"type":"Feature","geometry":{"type":"Point","coordinates":[-71.451725,41.762323]}},{"properties":{"city":"Myrtle Beach","geo_score":1.0,"description":"St. Supery Moscato","num_searches":1.0,"id":"a66undn05u2u","geo_precision":"zip","source":"grappos.com","zipid":"29579","state":"SC"},"type":"Feature","geometry":{"type":"Point","coordinates":[-78.978653,33.737697]}},{"properties":{"city":"Greenville","geo_score":0.882,"description":"St. Supery Moscato","num_searches":1.0,"id":"a66undlbz0e6","geo_precision":"zip","source":"grappos.com","zipid":"29611","state":"SC"},"type":"Feature","geometry":{"type":"Point","coordinates":[-82.459013,34.860951]}},{"properties":{"city":"Aberdeen","geo_score":0.893,"description":"St. Supery Moscato","num_searches":5.0,"id":"a66undyr3pbt","geo_precision":"zip","source":"grappos.com","zipid":"57401","state":"SD"},"type":"Feature","geometry":{"type":"Point","coordinates":[-98.412041,45.578584]}},{"properties":{"city":"Brookings","geo_score":1.0,"description":"St. Supery Moscato","num_searches":3.0,"id":"a66undrgrs1f","geo_precision":"zip","source":"grappos.com","zipid":"57006","state":"SD"},"type":"Feature","geometry":{"type":"Point","coordinates":[-96.762102,44.355091]}},{"properties":{"city":"Sioux Falls","geo_score":0.959,"description":"St. Supery Moscato","num_searches":1.0,"id":"a66undyaahb5","geo_precision":"zip","source":"grappos.com","zipid":"57101","state":"SD"},"type":"Feature","geometry":{"type":"Point","coordinates":[-96.608657,43.526919]}},{"properties":{"city":"Hermitage","geo_score":0.949,"description":"St. Supery Moscato","num_searches":2.0,"id":"a66undkxrpb8","geo_precision":"zip","source":"grappos.com","zipid":"37076","state":"TN"},"type":"Feature","geometry":{"type":"Point","coordinates":[-86.633052,36.201444]}},{"properties":{"city":"Antioch","geo_score":1.0,"description":"St. Supery Moscato","num_searches":1.0,"id":"a66undthg4sf","geo_precision":"zip","source":"grappos.com","zipid":"37011","state":"TN"},"type":"Feature","geometry":{"type":"Point","coordinates":[-86.8825,36.170556]}},{"properties":{"city":"Dallas","geo_score":1.0,"description":"St. Supery Moscato","num_searches":1.0,"id":"a66undm3u6ks","geo_precision":"zip","source":"grappos.com","zipid":"75229","state":"TX"},"type":"Feature","geometry":{"type":"Point","coordinates":[-96.777626,32.767268]}},{"properties":{"city":"Missouri City","geo_score":1.0,"description":"St. Supery Moscato","num_searches":1.0,"id":"a66undskqw6q","geo_precision":"zip","source":"grappos.com","zipid":"77459","state":"TX"},"type":"Feature","geometry":{"type":"Point","coordinates":[-95.649939,29.323965]}},{"properties":{"city":"Sugar Land","geo_score":1.0,"description":"St. Supery Moscato","num_searches":1.0,"id":"a66undnnu89n","geo_precision":"zip","source":"grappos.com","zipid":"77487","state":"TX"},"type":"Feature","geometry":{"type":"Point","coordinates":[-95.756462,29.525461]}},{"properties":{"city":"El Paso","geo_score":1.0,"description":"St. Supery Moscato","num_searches":1.0,"id":"a66une0r69hv","geo_precision":"zip","source":"grappos.com","zipid":"88562","state":"TX"},"type":"Feature","geometry":{"type":"Point","coordinates":[-106.299987,31.694842]}},{"properties":{"city":"Arlington","geo_score":1.0,"description":"St. Supery Moscato","num_searches":2.0,"id":"a66undw8nm6q","geo_precision":"zip","source":"fbapp","zipid":"22204","state":"VA"},"type":"Feature","geometry":{"type":"Point","coordinates":[-77.100868,38.860335]}},{"properties":{"city":"Arlington","geo_score":1.0,"description":"St. Supery Moscato","num_searches":1.0,"id":"a66undxetd55","geo_precision":"zip","source":"grappos.com","zipid":"22201","state":"VA"},"type":"Feature","geometry":{"type":"Point","coordinates":[-77.099113,38.885484]}},{"properties":{"city":"Arlington","geo_score":0.961,"description":"St. Supery Moscato","num_searches":1.0,"id":"a66undr1cb1u","geo_precision":"zip","source":"grappos.com","zipid":"22206","state":"VA"},"type":"Feature","geometry":{"type":"Point","coordinates":[-77.088312,38.841779]}},{"properties":{"city":"Roanoke","geo_score":0.886,"description":"St. Supery Moscato","num_searches":1.0,"id":"a66undq0blcc","geo_precision":"zip","source":"grappos.com","zipid":"24014","state":"VA"},"type":"Feature","geometry":{"type":"Point","coordinates":[-79.92837,37.231805]}},{"properties":{"city":"Issaquah","geo_score":0.857,"description":"St. Supery Moscato","num_searches":6.0,"id":"a66undnb0upk","geo_precision":"zip","source":"grappos.com","zipid":"98027","state":"WA"},"type":"Feature","geometry":{"type":"Point","coordinates":[-121.907615,47.505102]}},{"properties":{"city":"Redmond","geo_score":0.905,"description":"St. Supery Moscato","num_searches":2.0,"id":"a66une0m732z","geo_precision":"zip","source":"grappos.com","zipid":"98052","state":"WA"},"type":"Feature","geometry":{"type":"Point","coordinates":[-122.150402,47.693432]}},{"properties":{"city":"Seattle","geo_score":0.875,"description":"St. Supery Moscato","num_searches":2.0,"id":"a66undytv9j2","geo_precision":"zip","source":"grappos.com","zipid":"98115","state":"WA"},"type":"Feature","geometry":{"type":"Point","coordinates":[-122.295682,47.686765]}},{"properties":{"city":"Everett","geo_score":1.0,"description":"St. Supery Moscato","num_searches":2.0,"id":"a66undxv7xx6","geo_precision":"zip","source":"grappos.com","zipid":"98213","state":"WA"},"type":"Feature","geometry":{"type":"Point","coordinates":[-122.202079,47.978985]}},{"properties":{"city":"Tacoma","geo_score":1.0,"description":"St. Supery Moscato","num_searches":2.0,"id":"a66undszdtqo","geo_precision":"zip","source":"grappos.com","zipid":"98406","state":"WA"},"type":"Feature","geometry":{"type":"Point","coordinates":[-122.509235,47.259216]}},{"properties":{"city":"Otis Orchards","geo_score":0.939,"description":"St. Supery Moscato","num_searches":2.0,"id":"a66undui68xz","geo_precision":"zip","source":"grappos.com","zipid":"99027","state":"WA"},"type":"Feature","geometry":{"type":"Point","coordinates":[-117.08548,47.702971]}},{"properties":{"city":"Kirkland","geo_score":0.905,"description":"St. Supery Moscato","num_searches":1.0,"id":"a66undz30w96","geo_precision":"zip","source":"grappos.com","zipid":"98034","state":"WA"},"type":"Feature","geometry":{"type":"Point","coordinates":[-122.179569,47.727043]}},{"properties":{"city":"Seattle","geo_score":1.0,"description":"St. Supery Moscato","num_searches":1.0,"id":"a66undx36r36","geo_precision":"zip","source":"grappos.com","zipid":"98101","state":"WA"},"type":"Feature","geometry":{"type":"Point","coordinates":[-121.803388,47.432251]}},{"properties":{"city":"Seattle","geo_score":1.0,"description":"St. Supery Moscato","num_searches":1.0,"id":"a66undsxtccj","geo_precision":"zip","source":"grappos.com","zipid":"98165","state":"WA"},"type":"Feature","geometry":{"type":"Point","coordinates":[-122.332071,47.60621]}},{"properties":{"city":"Yakima","geo_score":1.0,"description":"St. Supery Moscato","num_searches":1.0,"id":"a66undsrd719","geo_precision":"zip","source":"grappos.com","zipid":"98907","state":"WA"},"type":"Feature","geometry":{"type":"Point","coordinates":[-120.573967,46.628757]}},{"properties":{"city":"Toppenish","geo_score":1.0,"description":"St. Supery Moscato","num_searches":1.0,"id":"a66undon8z7a","geo_precision":"zip","source":"grappos.com","zipid":"98948","state":"WA"},"type":"Feature","geometry":{"type":"Point","coordinates":[-120.370257,46.328522]}},{"properties":{"city":"Rhinelander","geo_score":0.857,"description":"St. Supery Moscato","num_searches":10.0,"id":"a66undm3cynn","geo_precision":"zip","source":"grappos.com","zipid":"54501","state":"WI"},"type":"Feature","geometry":{"type":"Point","coordinates":[-89.554302,45.607458]}},{"properties":{"city":"Delavan","geo_score":0.875,"description":"St. Supery Moscato","num_searches":2.0,"id":"a66undq5wxk3","geo_precision":"zip","source":"grappos.com","zipid":"53115","state":"WI"},"type":"Feature","geometry":{"type":"Point","coordinates":[-88.749273,42.714734]}}],"is_temporal":false,"author":{"url":"","metadata":"","contact_name":"","contact_address":"","source":"","contact_phone":""},"source":"","pagination":{"sort":null,"start":0,"total":155,"limit":1000000},"state":"complete","tags":"","published":"2014-08-10T12:31:40-04:00","id":21045}