{"type":"FeatureCollection","data_type":"Dataset","url_type":null,"permissions":[{"permissions":{"download":true,"view":true},"group_id":"everyone"}],"classification":null,"title":"Robert Skalli","count":135,"stream_id":21052,"contributor":{"url":"http://geocommons.com/users/2024","name":"kunisawa"},"data_attributes":null,"calculation_params":null,"icon_link":null,"link":"http://geocommons.com/overlays/21052.json","extent":[-124.198,18.2795,-65.8313,48.0904],"geometry_types":["point"],"unique_name":null,"name":"Robert Skalli","feature_count":135,"description":"","next_feature":null,"is_raster":false,"short_classification":"Y","stats":{"geo_score":{"max":1.0,"mean":0.963562962962963,"variance":0.00308047175234937,"stdev":0.0555019977329588,"min":0.857,"median":1.0},"num_searches":{"max":8.0,"mean":1.43703703703704,"variance":1.0538419016031,"stdev":1.02656802093339,"min":1.0,"median":1.0}},"features":[{"properties":{"city":"Santa Monica","zip":"90401","geo_score":1.0,"description":"Robert Skalli Cabernet Sauvignon","num_searches":2.0,"id":"a66rmyal8jem","geo_precision":"zip","source":"grappos.com","state":"CA"},"type":"Feature","geometry":{"type":"Point","coordinates":[-118.298662,33.786594]}},{"properties":{"city":"Nice","zip":"95464","geo_score":1.0,"description":"Robert Skalli Cabernet Sauvignon","num_searches":2.0,"id":"a66rmy6sd4a1","geo_precision":"zip","source":"grappos.com","state":"CA"},"type":"Feature","geometry":{"type":"Point","coordinates":[-122.868266,39.276878]}},{"properties":{"city":"Los Angeles","zip":"90096","geo_score":1.0,"description":"Robert Skalli Cabernet Sauvignon","num_searches":1.0,"id":"a66rmy7nl951","geo_precision":"zip","source":"grappos.com","state":"CA"},"type":"Feature","geometry":{"type":"Point","coordinates":[-118.298662,33.786594]}},{"properties":{"city":"Bellflower","zip":"90706","geo_score":1.0,"description":"Robert Skalli Cabernet Sauvignon","num_searches":1.0,"id":"a66rmyepjw14","geo_precision":"zip","source":"grappos.com","state":"CA"},"type":"Feature","geometry":{"type":"Point","coordinates":[-118.12965,33.888014]}},{"properties":{"city":"Bethel Island","zip":"94511","geo_score":1.0,"description":"Robert Skalli Cabernet Sauvignon","num_searches":1.0,"id":"a66rmyewowik","geo_precision":"zip","source":"grappos.com","state":"CA"},"type":"Feature","geometry":{"type":"Point","coordinates":[-121.642463,38.02662]}},{"properties":{"city":"Oakland","zip":"94622","geo_score":1.0,"description":"Robert Skalli Cabernet Sauvignon","num_searches":1.0,"id":"a66rmy9odwbg","geo_precision":"zip","source":"grappos.com","state":"CA"},"type":"Feature","geometry":{"type":"Point","coordinates":[-122.270803,37.804372]}},{"properties":{"city":"Richmond","zip":"94805","geo_score":1.0,"description":"Robert Skalli Cabernet Sauvignon","num_searches":1.0,"id":"a66rmyh32o81","geo_precision":"zip","source":"grappos.com","state":"CA"},"type":"Feature","geometry":{"type":"Point","coordinates":[-122.30093,37.929123]}},{"properties":{"city":"Linden","zip":"95236","geo_score":0.857,"description":"Robert Skalli Cabernet Sauvignon","num_searches":1.0,"id":"a66rmy81vqdd","geo_precision":"zip","source":"grappos.com","state":"CA"},"type":"Feature","geometry":{"type":"Point","coordinates":[-121.047997,37.980757]}},{"properties":{"city":"Catheys Valley","zip":"95306","geo_score":1.0,"description":"Robert Skalli Cabernet Sauvignon","num_searches":1.0,"id":"a66rmy5nr0yv","geo_precision":"zip","source":"grappos.com","state":"CA"},"type":"Feature","geometry":{"type":"Point","coordinates":[-120.122715,37.408643]}},{"properties":{"city":"Portola","zip":"96122","geo_score":0.857,"description":"Robert Skalli Cabernet Sauvignon","num_searches":1.0,"id":"a66rmy7x70o4","geo_precision":"zip","source":"grappos.com","state":"CA"},"type":"Feature","geometry":{"type":"Point","coordinates":[-120.497993,39.80879]}},{"properties":{"city":"Kincaid","zip":"66039","geo_score":0.878,"description":"Robert Skalli Cabernet Sauvignon","num_searches":1.0,"id":"a66rmyhggzdd","geo_precision":"zip","source":"grappos.com","state":"KS"},"type":"Feature","geometry":{"type":"Point","coordinates":[-95.123307,38.13475]}},{"properties":{"city":"Kansas City","zip":"66106","geo_score":0.883,"description":"Robert Skalli Cabernet Sauvignon","num_searches":1.0,"id":"a66rmyep2ck0","geo_precision":"zip","source":"grappos.com","state":"KS"},"type":"Feature","geometry":{"type":"Point","coordinates":[-94.776628,39.040283]}},{"properties":{"city":"Solomon","zip":"67480","geo_score":0.857,"description":"Robert Skalli Cabernet Sauvignon","num_searches":1.0,"id":"a66rmy8zg21b","geo_precision":"zip","source":"grappos.com","state":"KS"},"type":"Feature","geometry":{"type":"Point","coordinates":[-97.503085,38.991666]}},{"properties":{"city":"Metairie","zip":"70003","geo_score":1.0,"description":"Robert Skalli Cabernet Sauvignon","num_searches":1.0,"id":"a66rmyjxgmu8","geo_precision":"zip","source":"grappos.com","state":"LA"},"type":"Feature","geometry":{"type":"Point","coordinates":[-90.20733,30.005653]}},{"properties":{"city":"Mermentau","zip":"70556","geo_score":0.871,"description":"Robert Skalli Cabernet Sauvignon","num_searches":1.0,"id":"a66rmy86ia9b","geo_precision":"zip","source":"grappos.com","state":"LA"},"type":"Feature","geometry":{"type":"Point","coordinates":[-92.597917,30.189651]}},{"properties":{"city":"Shrewsbury","zip":"1546","geo_score":1.0,"description":"Robert Skalli Cabernet Sauvignon","num_searches":1.0,"id":"a66rmy6v1svv","geo_precision":"zip","source":"grappos.com","state":"MA"},"type":"Feature","geometry":{"type":"Point","coordinates":[-71.896868,42.364807]}},{"properties":{"city":"Holliston","zip":"1746","geo_score":0.857,"description":"Robert Skalli Cabernet Sauvignon","num_searches":1.0,"id":"a66rmyeab3w0","geo_precision":"zip","source":"grappos.com","state":"MA"},"type":"Feature","geometry":{"type":"Point","coordinates":[-71.445339,42.18343]}},{"properties":{"city":"North Pembroke","zip":"2358","geo_score":1.0,"description":"Robert Skalli Cabernet Sauvignon","num_searches":1.0,"id":"a66rmy5zih79","geo_precision":"zip","source":"grappos.com","state":"MA"},"type":"Feature","geometry":{"type":"Point","coordinates":[-70.713109,41.95351]}},{"properties":{"city":"Newton","zip":"2458","geo_score":1.0,"description":"Robert Skalli Cabernet Sauvignon","num_searches":1.0,"id":"a66rmyh87mb2","geo_precision":"zip","source":"grappos.com","state":"MA"},"type":"Feature","geometry":{"type":"Point","coordinates":[-71.208399,42.385096]}},{"properties":{"city":"Georgetown","zip":"56546","geo_score":1.0,"description":"Robert Skalli Cabernet Sauvignon","num_searches":1.0,"id":"a66rmygnj96n","geo_precision":"zip","source":"grappos.com","state":"MN"},"type":"Feature","geometry":{"type":"Point","coordinates":[-96.506156,46.890034]}},{"properties":{"city":"Blackduck","zip":"56630","geo_score":0.857,"description":"Robert Skalli Cabernet Sauvignon","num_searches":1.0,"id":"a66rmyfq696e","geo_precision":"zip","source":"grappos.com","state":"MN"},"type":"Feature","geometry":{"type":"Point","coordinates":[-94.699698,47.882457]}},{"properties":{"city":"Isabella","zip":"65676","geo_score":1.0,"description":"Robert Skalli Cabernet Sauvignon","num_searches":1.0,"id":"a66rmy3r59si","geo_precision":"zip","source":"grappos.com","state":"MO"},"type":"Feature","geometry":{"type":"Point","coordinates":[-92.442341,36.651607]}},{"properties":{"city":"Endicott","zip":"68350","geo_score":1.0,"description":"Robert Skalli Cabernet Sauvignon","num_searches":1.0,"id":"a66rmy6vp2ly","geo_precision":"zip","source":"grappos.com","state":"NE"},"type":"Feature","geometry":{"type":"Point","coordinates":[-97.081254,40.049596]}},{"properties":{"city":"Las Cruces","zip":"88006","geo_score":1.0,"description":"Robert Skalli Cabernet Sauvignon","num_searches":1.0,"id":"a66rmyab3442","geo_precision":"zip","source":"grappos.com","state":"NM"},"type":"Feature","geometry":{"type":"Point","coordinates":[-106.786259,32.305193]}},{"properties":{"city":"New York","zip":"10010","geo_score":1.0,"description":"Robert Skalli Cabernet Sauvignon","num_searches":2.0,"id":"a66rmyicc19f","geo_precision":"zip","source":"grappos.com","state":"NY"},"type":"Feature","geometry":{"type":"Point","coordinates":[-73.983542,40.739024]}},{"properties":{"city":"Albert","zip":"73001","geo_score":1.0,"description":"Robert Skalli Cabernet Sauvignon","num_searches":3.0,"id":"a66rmy5gbqt6","geo_precision":"zip","source":"grappos.com","state":"OK"},"type":"Feature","geometry":{"type":"Point","coordinates":[-98.357423,35.203206]}},{"properties":{"city":"Portland","zip":"97206","geo_score":0.875,"description":"Robert Skalli Cabernet Sauvignon","num_searches":1.0,"id":"a66rmyhiickf","geo_precision":"zip","source":"grappos.com","state":"OR"},"type":"Feature","geometry":{"type":"Point","coordinates":[-122.578981,45.464286]}},{"properties":{"city":"Moca","zip":"676","geo_score":1.0,"description":"Robert Skalli Cabernet Sauvignon","num_searches":3.0,"id":"a66rmydpu14o","geo_precision":"zip","source":"grappos.com","state":"PR"},"type":"Feature","geometry":{"type":"Point","coordinates":[-67.080799,18.383727]}},{"properties":{"city":"Arecibo","zip":"614","geo_score":1.0,"description":"Robert Skalli Cabernet Sauvignon","num_searches":1.0,"id":"a66rmy9tk4hb","geo_precision":"zip","source":"grappos.com","state":"PR"},"type":"Feature","geometry":{"type":"Point","coordinates":[-66.674506,18.429675]}},{"properties":{"city":"Palmer","zip":"721","geo_score":0.873,"description":"Robert Skalli Cabernet Sauvignon","num_searches":1.0,"id":"a66rmyiekadm","geo_precision":"zip","source":"grappos.com","state":"PR"},"type":"Feature","geometry":{"type":"Point","coordinates":[-65.831275,18.380227]}},{"properties":{"city":"Cumberland","zip":"2864","geo_score":0.883,"description":"Robert Skalli Cabernet Sauvignon","num_searches":1.0,"id":"a66rmyiq59dc","geo_precision":"zip","source":"grappos.com","state":"RI"},"type":"Feature","geometry":{"type":"Point","coordinates":[-71.390612,41.906766]}},{"properties":{"city":"Danbury","zip":"77534","geo_score":1.0,"description":"Robert Skalli Cabernet Sauvignon","num_searches":2.0,"id":"a66rmygjr5l5","geo_precision":"zip","source":"grappos.com","state":"TX"},"type":"Feature","geometry":{"type":"Point","coordinates":[-95.309176,29.319781]}},{"properties":{"city":"Houston","zip":"77031","geo_score":1.0,"description":"Robert Skalli Cabernet Sauvignon","num_searches":1.0,"id":"a66rmy7g4f0f","geo_precision":"zip","source":"grappos.com","state":"TX"},"type":"Feature","geometry":{"type":"Point","coordinates":[-95.434241,29.83399]}},{"properties":{"city":"Houston","zip":"77083","geo_score":1.0,"description":"Robert Skalli Cabernet Sauvignon","num_searches":1.0,"id":"a66rmy7nedau","geo_precision":"zip","source":"grappos.com","state":"TX"},"type":"Feature","geometry":{"type":"Point","coordinates":[-95.434241,29.83399]}},{"properties":{"city":"Houston","zip":"77267","geo_score":1.0,"description":"Robert Skalli Cabernet Sauvignon","num_searches":1.0,"id":"a66rmy5iv49x","geo_precision":"zip","source":"grappos.com","state":"TX"},"type":"Feature","geometry":{"type":"Point","coordinates":[-95.434241,29.83399]}},{"properties":{"city":"Romayor","zip":"77368","geo_score":1.0,"description":"Robert Skalli Cabernet Sauvignon","num_searches":1.0,"id":"a66rmy84utwc","geo_precision":"zip","source":"grappos.com","state":"TX"},"type":"Feature","geometry":{"type":"Point","coordinates":[-94.804065,30.188885]}},{"properties":{"city":"Sugar Land","zip":"77496","geo_score":1.0,"description":"Robert Skalli Cabernet Sauvignon","num_searches":1.0,"id":"a66rmyd4f884","geo_precision":"zip","source":"grappos.com","state":"TX"},"type":"Feature","geometry":{"type":"Point","coordinates":[-95.756462,29.525461]}},{"properties":{"city":"Airway Heights","zip":"99001","geo_score":1.0,"description":"Robert Skalli Cabernet Sauvignon","num_searches":6.0,"id":"a66rmyhwk6ey","geo_precision":"zip","source":"grappos.com","state":"WA"},"type":"Feature","geometry":{"type":"Point","coordinates":[-117.59205,47.643803]}},{"properties":{"city":"Morton","zip":"98356","geo_score":0.857,"description":"Robert Skalli Cabernet Sauvignon","num_searches":2.0,"id":"a66rmyfk6mv3","geo_precision":"zip","source":"grappos.com","state":"WA"},"type":"Feature","geometry":{"type":"Point","coordinates":[-122.41511,46.578441]}},{"properties":{"city":"Cheney","zip":"99004","geo_score":0.881,"description":"Robert Skalli Cabernet Sauvignon","num_searches":2.0,"id":"a66rmyir64wu","geo_precision":"zip","source":"grappos.com","state":"WA"},"type":"Feature","geometry":{"type":"Point","coordinates":[-117.78355,47.435996]}},{"properties":{"city":"Index","zip":"98256","geo_score":1.0,"description":"Robert Skalli Cabernet Sauvignon","num_searches":1.0,"id":"a66rmy3ge0m9","geo_precision":"zip","source":"grappos.com","state":"WA"},"type":"Feature","geometry":{"type":"Point","coordinates":[-121.549712,47.81179]}},{"properties":{"city":"University Place","zip":"98467","geo_score":1.0,"description":"Robert Skalli Cabernet Sauvignon","num_searches":1.0,"id":"a66rmy7qqwc0","geo_precision":"zip","source":"grappos.com","state":"WA"},"type":"Feature","geometry":{"type":"Point","coordinates":[-122.532335,47.18717]}},{"properties":{"city":"Mckenna","zip":"98558","geo_score":1.0,"description":"Robert Skalli Cabernet Sauvignon","num_searches":1.0,"id":"a66rmyjfbyk7","geo_precision":"zip","source":"grappos.com","state":"WA"},"type":"Feature","geometry":{"type":"Point","coordinates":[-122.55585,46.955863]}},{"properties":{"city":"Tahuya","zip":"98588","geo_score":1.0,"description":"Robert Skalli Cabernet Sauvignon","num_searches":1.0,"id":"a66rmy6oy0u4","geo_precision":"zip","source":"grappos.com","state":"WA"},"type":"Feature","geometry":{"type":"Point","coordinates":[-123.096769,47.434953]}},{"properties":{"city":"Miami","zip":"25134","geo_score":1.0,"description":"Robert Skalli Cabernet Sauvignon","num_searches":1.0,"id":"a66rmy7l5683","geo_precision":"zip","source":"grappos.com","state":"WV"},"type":"Feature","geometry":{"type":"Point","coordinates":[-81.554655,38.296818]}},{"properties":{"city":"Perry","zip":"72125","geo_score":1.0,"description":"Robert Skalli Chardonnay","num_searches":1.0,"id":"a66rmyjgvimc","geo_precision":"zip","source":"grappos.com","state":"AR"},"type":"Feature","geometry":{"type":"Point","coordinates":[-92.795821,35.044346]}},{"properties":{"city":"San Francisco","zip":"94109","geo_score":1.0,"description":"Robert Skalli Chardonnay","num_searches":3.0,"id":"a66rmy8zctm3","geo_precision":"zip","source":"grappos.com","state":"CA"},"type":"Feature","geometry":{"type":"Point","coordinates":[-122.420782,37.795219]}},{"properties":{"city":"Altadena","zip":"91001","geo_score":1.0,"description":"Robert Skalli Chardonnay","num_searches":2.0,"id":"a66rmy5xq4pc","geo_precision":"zip","source":"grappos.com","state":"CA"},"type":"Feature","geometry":{"type":"Point","coordinates":[-118.298662,33.786594]}},{"properties":{"city":"Studio City","zip":"91604","geo_score":1.0,"description":"Robert Skalli Chardonnay","num_searches":2.0,"id":"a66rmyiwuh0f","geo_precision":"zip","source":"grappos.com","state":"CA"},"type":"Feature","geometry":{"type":"Point","coordinates":[-118.298662,33.786594]}},{"properties":{"city":"Eureka","zip":"95501","geo_score":0.883,"description":"Robert Skalli Chardonnay","num_searches":2.0,"id":"a66rmyc4y23a","geo_precision":"zip","source":"grappos.com","state":"CA"},"type":"Feature","geometry":{"type":"Point","coordinates":[-124.197839,40.743182]}},{"properties":{"city":"Los Angeles","zip":"90093","geo_score":1.0,"description":"Robert Skalli Chardonnay","num_searches":1.0,"id":"a66rmyhkbxle","geo_precision":"zip","source":"grappos.com","state":"CA"},"type":"Feature","geometry":{"type":"Point","coordinates":[-118.298662,33.786594]}},{"properties":{"city":"Patterson","zip":"95363","geo_score":0.905,"description":"Robert Skalli Chardonnay","num_searches":1.0,"id":"a66rmy3hn3li","geo_precision":"zip","source":"grappos.com","state":"CA"},"type":"Feature","geometry":{"type":"Point","coordinates":[-121.179381,37.56382]}},{"properties":{"city":"Sutter Creek","zip":"95685","geo_score":0.935,"description":"Robert Skalli Chardonnay","num_searches":1.0,"id":"a66rmy9wegqy","geo_precision":"zip","source":"grappos.com","state":"CA"},"type":"Feature","geometry":{"type":"Point","coordinates":[-120.801603,38.378246]}},{"properties":{"city":"Denver","zip":"80201","geo_score":1.0,"description":"Robert Skalli Chardonnay","num_searches":2.0,"id":"a66rmy554ihb","geo_precision":"zip","source":"grappos.com","state":"CO"},"type":"Feature","geometry":{"type":"Point","coordinates":[-104.856808,39.726303]}},{"properties":{"city":"Miami","zip":"33101","geo_score":1.0,"description":"Robert Skalli Chardonnay","num_searches":2.0,"id":"a66rmy8wcaiq","geo_precision":"zip","source":"grappos.com","state":"FL"},"type":"Feature","geometry":{"type":"Point","coordinates":[-80.193659,25.774266]}},{"properties":{"city":"Oskaloosa","zip":"66066","geo_score":1.0,"description":"Robert Skalli Chardonnay","num_searches":1.0,"id":"a66rmyhzkk33","geo_precision":"zip","source":"grappos.com","state":"KS"},"type":"Feature","geometry":{"type":"Point","coordinates":[-95.356589,39.255747]}},{"properties":{"city":"Kansas City","zip":"66103","geo_score":1.0,"description":"Robert Skalli Chardonnay","num_searches":1.0,"id":"a66rmyatbtbn","geo_precision":"zip","source":"grappos.com","state":"KS"},"type":"Feature","geometry":{"type":"Point","coordinates":[-94.628184,39.066804]}},{"properties":{"city":"Wichita","zip":"67235","geo_score":1.0,"description":"Robert Skalli Chardonnay","num_searches":1.0,"id":"a66rmyfk5ybs","geo_precision":"zip","source":"grappos.com","state":"KS"},"type":"Feature","geometry":{"type":"Point","coordinates":[-97.499024,37.714891]}},{"properties":{"city":"Loreauville","zip":"70552","geo_score":0.896,"description":"Robert Skalli Chardonnay","num_searches":1.0,"id":"a66rmyib9xqs","geo_precision":"zip","source":"grappos.com","state":"LA"},"type":"Feature","geometry":{"type":"Point","coordinates":[-91.736782,30.062424]}},{"properties":{"city":"Andover","zip":"1812","geo_score":1.0,"description":"Robert Skalli Chardonnay","num_searches":1.0,"id":"a66rmyj57ssg","geo_precision":"zip","source":"grappos.com","state":"MA"},"type":"Feature","geometry":{"type":"Point","coordinates":[-71.184202,42.647191]}},{"properties":{"city":"West Chop","zip":"2573","geo_score":1.0,"description":"Robert Skalli Chardonnay","num_searches":1.0,"id":"a66rmy4dpn6t","geo_precision":"zip","source":"grappos.com","state":"MA"},"type":"Feature","geometry":{"type":"Point","coordinates":[-70.602807,41.480111]}},{"properties":{"city":"Georgetown","zip":"21930","geo_score":1.0,"description":"Robert Skalli Chardonnay","num_searches":4.0,"id":"a66rmyfm8jm9","geo_precision":"zip","source":"grappos.com","state":"MD"},"type":"Feature","geometry":{"type":"Point","coordinates":[-75.880217,39.361779]}},{"properties":{"city":"Olamon","zip":"4467","geo_score":1.0,"description":"Robert Skalli Chardonnay","num_searches":2.0,"id":"a66rmyhhmb1v","geo_precision":"zip","source":"grappos.com","state":"ME"},"type":"Feature","geometry":{"type":"Point","coordinates":[-68.647416,45.519867]}},{"properties":{"city":"Boothbay Harbor","zip":"4538","geo_score":0.878,"description":"Robert Skalli Chardonnay","num_searches":1.0,"id":"a66rmye389th","geo_precision":"zip","source":"grappos.com","state":"ME"},"type":"Feature","geometry":{"type":"Point","coordinates":[-69.621713,43.853138]}},{"properties":{"city":"Audubon","zip":"56511","geo_score":1.0,"description":"Robert Skalli Chardonnay","num_searches":1.0,"id":"a66rmyhdkdwl","geo_precision":"zip","source":"grappos.com","state":"MN"},"type":"Feature","geometry":{"type":"Point","coordinates":[-95.995824,46.850852]}},{"properties":{"city":"Auburn","zip":"3032","geo_score":1.0,"description":"Robert Skalli Chardonnay","num_searches":1.0,"id":"a66rmy841s0z","geo_precision":"zip","source":"grappos.com","state":"NH"},"type":"Feature","geometry":{"type":"Point","coordinates":[-71.343576,42.989151]}},{"properties":{"city":"New York","zip":"10001","geo_score":1.0,"description":"Robert Skalli Chardonnay","num_searches":3.0,"id":"a66rmy5mppiw","geo_precision":"zip","source":"grappos.com","state":"NY"},"type":"Feature","geometry":{"type":"Point","coordinates":[-73.996328,40.750422]}},{"properties":{"city":"Portland","zip":"97210","geo_score":1.0,"description":"Robert Skalli Chardonnay","num_searches":2.0,"id":"a66rmyavkp0z","geo_precision":"zip","source":"grappos.com","state":"OR"},"type":"Feature","geometry":{"type":"Point","coordinates":[-122.732358,45.547339]}},{"properties":{"city":"Culver","zip":"97734","geo_score":1.0,"description":"Robert Skalli Chardonnay","num_searches":2.0,"id":"a66rmyi1zj9e","geo_precision":"zip","source":"grappos.com","state":"OR"},"type":"Feature","geometry":{"type":"Point","coordinates":[-121.267976,44.499106]}},{"properties":{"city":"Crescent Lake","zip":"97425","geo_score":0.943,"description":"Robert Skalli Chardonnay","num_searches":1.0,"id":"a66rmyjjucvl","geo_precision":"zip","source":"grappos.com","state":"OR"},"type":"Feature","geometry":{"type":"Point","coordinates":[-121.944196,43.52818]}},{"properties":{"city":"Mapleton","zip":"97453","geo_score":0.869,"description":"Robert Skalli Chardonnay","num_searches":1.0,"id":"a66rmy6lqpst","geo_precision":"zip","source":"grappos.com","state":"OR"},"type":"Feature","geometry":{"type":"Point","coordinates":[-123.880944,44.065676]}},{"properties":{"city":"San Juan","zip":"908","geo_score":1.0,"description":"Robert Skalli Chardonnay","num_searches":3.0,"id":"a66rmyap8l8s","geo_precision":"zip","source":"grappos.com","state":"PR"},"type":"Feature","geometry":{"type":"Point","coordinates":[-66.060533,18.410462]}},{"properties":{"city":"Angeles","zip":"611","geo_score":1.0,"description":"Robert Skalli Chardonnay","num_searches":1.0,"id":"a66rmyd803qg","geo_precision":"zip","source":"grappos.com","state":"PR"},"type":"Feature","geometry":{"type":"Point","coordinates":[-66.80217,18.279531]}},{"properties":{"city":"San Juan","zip":"935","geo_score":1.0,"description":"Robert Skalli Chardonnay","num_searches":1.0,"id":"a66rmy9djekf","geo_precision":"zip","source":"grappos.com","state":"PR"},"type":"Feature","geometry":{"type":"Point","coordinates":[-66.060533,18.410462]}},{"properties":{"city":"Dallas","zip":"75202","geo_score":1.0,"description":"Robert Skalli Chardonnay","num_searches":8.0,"id":"a66rmy6k5oaw","geo_precision":"zip","source":"grappos.com","state":"TX"},"type":"Feature","geometry":{"type":"Point","coordinates":[-96.777626,32.767268]}},{"properties":{"city":"Houston","zip":"77002","geo_score":0.878,"description":"Robert Skalli Chardonnay","num_searches":6.0,"id":"a66rmy5dg7o2","geo_precision":"zip","source":"grappos.com","state":"TX"},"type":"Feature","geometry":{"type":"Point","coordinates":[-95.302435,29.91189]}},{"properties":{"city":"Dallas","zip":"75201","geo_score":1.0,"description":"Robert Skalli Chardonnay","num_searches":2.0,"id":"a66rmyhsq1q1","geo_precision":"zip","source":"grappos.com","state":"TX"},"type":"Feature","geometry":{"type":"Point","coordinates":[-96.790329,32.781179]}},{"properties":{"city":"Houston","zip":"77080","geo_score":1.0,"description":"Robert Skalli Chardonnay","num_searches":2.0,"id":"a66rmy3gy0j2","geo_precision":"zip","source":"grappos.com","state":"TX"},"type":"Feature","geometry":{"type":"Point","coordinates":[-95.434241,29.83399]}},{"properties":{"city":"Clute","zip":"77531","geo_score":0.875,"description":"Robert Skalli Chardonnay","num_searches":2.0,"id":"a66rmyhr08ok","geo_precision":"zip","source":"grappos.com","state":"TX"},"type":"Feature","geometry":{"type":"Point","coordinates":[-95.40994,29.056079]}},{"properties":{"city":"Houston","zip":"77028","geo_score":0.898,"description":"Robert Skalli Chardonnay","num_searches":1.0,"id":"a66rmy4niibw","geo_precision":"zip","source":"grappos.com","state":"TX"},"type":"Feature","geometry":{"type":"Point","coordinates":[-95.128264,29.868001]}},{"properties":{"city":"Houston","zip":"77054","geo_score":1.0,"description":"Robert Skalli Chardonnay","num_searches":1.0,"id":"a66rmy8bokdh","geo_precision":"zip","source":"grappos.com","state":"TX"},"type":"Feature","geometry":{"type":"Point","coordinates":[-95.391466,29.67543]}},{"properties":{"city":"Houston","zip":"77207","geo_score":1.0,"description":"Robert Skalli Chardonnay","num_searches":1.0,"id":"a66rmyed7sm7","geo_precision":"zip","source":"grappos.com","state":"TX"},"type":"Feature","geometry":{"type":"Point","coordinates":[-95.434241,29.83399]}},{"properties":{"city":"Katy","zip":"77492","geo_score":1.0,"description":"Robert Skalli Chardonnay","num_searches":1.0,"id":"a66rmydynrow","geo_precision":"zip","source":"grappos.com","state":"TX"},"type":"Feature","geometry":{"type":"Point","coordinates":[-95.434241,29.83399]}},{"properties":{"city":"El Paso","zip":"88567","geo_score":1.0,"description":"Robert Skalli Chardonnay","num_searches":1.0,"id":"a66rmyaz7jl6","geo_precision":"zip","source":"grappos.com","state":"TX"},"type":"Feature","geometry":{"type":"Point","coordinates":[-106.299987,31.694842]}},{"properties":{"city":"Leesburg","zip":"20176","geo_score":1.0,"description":"Robert Skalli Chardonnay","num_searches":3.0,"id":"a66rmy5mqdg0","geo_precision":"zip","source":"grappos.com","state":"VA"},"type":"Feature","geometry":{"type":"Point","coordinates":[-77.603458,39.119727]}},{"properties":{"city":"Preston","zip":"98050","geo_score":1.0,"description":"Robert Skalli Chardonnay","num_searches":1.0,"id":"a66rmyhfjt70","geo_precision":"zip","source":"grappos.com","state":"WA"},"type":"Feature","geometry":{"type":"Point","coordinates":[-121.931195,47.536015]}},{"properties":{"city":"Granite Falls","zip":"98252","geo_score":0.881,"description":"Robert Skalli Chardonnay","num_searches":1.0,"id":"a66rmy7uui0n","geo_precision":"zip","source":"grappos.com","state":"WA"},"type":"Feature","geometry":{"type":"Point","coordinates":[-121.777349,48.090382]}},{"properties":{"city":"Buena","zip":"98921","geo_score":1.0,"description":"Robert Skalli Chardonnay","num_searches":1.0,"id":"a66rmyewcs6c","geo_precision":"zip","source":"grappos.com","state":"WA"},"type":"Feature","geometry":{"type":"Point","coordinates":[-120.315141,46.421218]}},{"properties":{"city":"Zillah","zip":"98953","geo_score":1.0,"description":"Robert Skalli Chardonnay","num_searches":1.0,"id":"a66rmy3vgn8o","geo_precision":"zip","source":"grappos.com","state":"WA"},"type":"Feature","geometry":{"type":"Point","coordinates":[-120.231713,46.419838]}},{"properties":{"city":"Sprague","zip":"99032","geo_score":1.0,"description":"Robert Skalli Chardonnay","num_searches":1.0,"id":"a66rmy4alc4w","geo_precision":"zip","source":"grappos.com","state":"WA"},"type":"Feature","geometry":{"type":"Point","coordinates":[-117.977732,47.299844]}},{"properties":{"city":"Miami","zip":"25134","geo_score":1.0,"description":"Robert Skalli Chardonnay","num_searches":2.0,"id":"a66rmybczk9o","geo_precision":"zip","source":"grappos.com","state":"WV"},"type":"Feature","geometry":{"type":"Point","coordinates":[-81.554655,38.296818]}},{"properties":{"city":"Tucker","zip":"72168","geo_score":1.0,"description":"Robert Skalli Pinot Noir","num_searches":1.0,"id":"a66rmychl45i","geo_precision":"zip","source":"grappos.com","state":"AR"},"type":"Feature","geometry":{"type":"Point","coordinates":[-91.96546,34.431352]}},{"properties":{"city":"Studio City","zip":"91604","geo_score":1.0,"description":"Robert Skalli Pinot Noir","num_searches":3.0,"id":"a66rmy4bjntj","geo_precision":"zip","source":"grappos.com","state":"CA"},"type":"Feature","geometry":{"type":"Point","coordinates":[-118.298662,33.786594]}},{"properties":{"city":"Brentwood","zip":"94513","geo_score":1.0,"description":"Robert Skalli Pinot Noir","num_searches":2.0,"id":"a66rmy4iwz2g","geo_precision":"zip","source":"grappos.com","state":"CA"},"type":"Feature","geometry":{"type":"Point","coordinates":[-121.843071,37.912274]}},{"properties":{"city":"Los Angeles","zip":"90017","geo_score":1.0,"description":"Robert Skalli Pinot Noir","num_searches":1.0,"id":"a66rmy8cjic7","geo_precision":"zip","source":"grappos.com","state":"CA"},"type":"Feature","geometry":{"type":"Point","coordinates":[-118.298662,33.786594]}},{"properties":{"city":"Long Beach","zip":"90802","geo_score":1.0,"description":"Robert Skalli Pinot Noir","num_searches":1.0,"id":"a66rmybroofi","geo_precision":"zip","source":"grappos.com","state":"CA"},"type":"Feature","geometry":{"type":"Point","coordinates":[-118.201101,33.756024]}},{"properties":{"city":"Panorama City","zip":"91412","geo_score":1.0,"description":"Robert Skalli Pinot Noir","num_searches":1.0,"id":"a66rmyarpx3a","geo_precision":"zip","source":"grappos.com","state":"CA"},"type":"Feature","geometry":{"type":"Point","coordinates":[-118.298662,33.786594]}},{"properties":{"city":"San Diego","zip":"92105","geo_score":0.952,"description":"Robert Skalli Pinot Noir","num_searches":1.0,"id":"a66rmy5ktmee","geo_precision":"zip","source":"grappos.com","state":"CA"},"type":"Feature","geometry":{"type":"Point","coordinates":[-117.110032,32.749495]}},{"properties":{"city":"San Francisco","zip":"94109","geo_score":1.0,"description":"Robert Skalli Pinot Noir","num_searches":1.0,"id":"a66rmy989pio","geo_precision":"zip","source":"grappos.com","state":"CA"},"type":"Feature","geometry":{"type":"Point","coordinates":[-122.420782,37.795219]}},{"properties":{"city":"San Francisco","zip":"94120","geo_score":1.0,"description":"Robert Skalli Pinot Noir","num_searches":1.0,"id":"a66rmybxgc05","geo_precision":"zip","source":"grappos.com","state":"CA"},"type":"Feature","geometry":{"type":"Point","coordinates":[-122.727802,37.784827]}},{"properties":{"city":"Philo","zip":"95466","geo_score":1.0,"description":"Robert Skalli Pinot Noir","num_searches":1.0,"id":"a66rmy74n7xl","geo_precision":"zip","source":"grappos.com","state":"CA"},"type":"Feature","geometry":{"type":"Point","coordinates":[-123.525375,39.056598]}},{"properties":{"city":"Myers Flat","zip":"95554","geo_score":0.873,"description":"Robert Skalli Pinot Noir","num_searches":1.0,"id":"a66rmydo2dfj","geo_precision":"zip","source":"grappos.com","state":"CA"},"type":"Feature","geometry":{"type":"Point","coordinates":[-123.797258,40.315141]}},{"properties":{"city":"Capay","zip":"95607","geo_score":1.0,"description":"Robert Skalli Pinot Noir","num_searches":1.0,"id":"a66rmy82m3kw","geo_precision":"zip","source":"grappos.com","state":"CA"},"type":"Feature","geometry":{"type":"Point","coordinates":[-122.140491,38.785596]}},{"properties":{"city":"Walnut Grove","zip":"95690","geo_score":0.89,"description":"Robert Skalli Pinot Noir","num_searches":1.0,"id":"a66rmy61bufn","geo_precision":"zip","source":"grappos.com","state":"CA"},"type":"Feature","geometry":{"type":"Point","coordinates":[-121.605232,38.215193]}},{"properties":{"city":"Sacramento","zip":"95825","geo_score":0.914,"description":"Robert Skalli Pinot Noir","num_searches":1.0,"id":"a66rmy91iy0e","geo_precision":"zip","source":"grappos.com","state":"CA"},"type":"Feature","geometry":{"type":"Point","coordinates":[-121.383008,38.574072]}},{"properties":{"city":"Oregon House","zip":"95962","geo_score":1.0,"description":"Robert Skalli Pinot Noir","num_searches":1.0,"id":"a66rmyjbi4dv","geo_precision":"zip","source":"grappos.com","state":"CA"},"type":"Feature","geometry":{"type":"Point","coordinates":[-121.347605,39.210524]}},{"properties":{"city":"Denver","zip":"80201","geo_score":1.0,"description":"Robert Skalli Pinot Noir","num_searches":4.0,"id":"a66rmyfatcix","geo_precision":"zip","source":"grappos.com","state":"CO"},"type":"Feature","geometry":{"type":"Point","coordinates":[-104.856808,39.726303]}},{"properties":{"city":"Wichita","zip":"67278","geo_score":1.0,"description":"Robert Skalli Pinot Noir","num_searches":1.0,"id":"a66rmygayba0","geo_precision":"zip","source":"grappos.com","state":"KS"},"type":"Feature","geometry":{"type":"Point","coordinates":[-97.480419,37.693588]}},{"properties":{"city":"Glen Elder","zip":"67446","geo_score":1.0,"description":"Robert Skalli Pinot Noir","num_searches":1.0,"id":"a66rmya0g0ik","geo_precision":"zip","source":"grappos.com","state":"KS"},"type":"Feature","geometry":{"type":"Point","coordinates":[-98.302257,39.501034]}},{"properties":{"city":"Crowley","zip":"70526","geo_score":0.878,"description":"Robert Skalli Pinot Noir","num_searches":1.0,"id":"a66rmy3i51r1","geo_precision":"zip","source":"grappos.com","state":"LA"},"type":"Feature","geometry":{"type":"Point","coordinates":[-92.40791,30.325203]}},{"properties":{"city":"Jonesboro","zip":"71251","geo_score":0.857,"description":"Robert Skalli Pinot Noir","num_searches":1.0,"id":"a66rmyadp21o","geo_precision":"zip","source":"grappos.com","state":"LA"},"type":"Feature","geometry":{"type":"Point","coordinates":[-92.703207,32.155436]}},{"properties":{"city":"Bridgewater","zip":"2325","geo_score":1.0,"description":"Robert Skalli Pinot Noir","num_searches":1.0,"id":"a66rmybbdnw1","geo_precision":"zip","source":"grappos.com","state":"MA"},"type":"Feature","geometry":{"type":"Point","coordinates":[-70.972786,41.98725]}},{"properties":{"city":"Plymouth","zip":"2360","geo_score":0.869,"description":"Robert Skalli Pinot Noir","num_searches":1.0,"id":"a66rmyi6jcuc","geo_precision":"zip","source":"grappos.com","state":"MA"},"type":"Feature","geometry":{"type":"Point","coordinates":[-70.628645,41.937604]}},{"properties":{"city":"Seekonk","zip":"2771","geo_score":0.94,"description":"Robert Skalli Pinot Noir","num_searches":1.0,"id":"a66rmyaz5qml","geo_precision":"zip","source":"grappos.com","state":"MA"},"type":"Feature","geometry":{"type":"Point","coordinates":[-71.330054,41.889267]}},{"properties":{"city":"Stonington","zip":"4681","geo_score":0.959,"description":"Robert Skalli Pinot Noir","num_searches":1.0,"id":"a66rmyf88rgf","geo_precision":"zip","source":"grappos.com","state":"ME"},"type":"Feature","geometry":{"type":"Point","coordinates":[-68.691416,44.16647]}},{"properties":{"city":"Saint Elizabeth","zip":"65075","geo_score":1.0,"description":"Robert Skalli Pinot Noir","num_searches":1.0,"id":"a66rmy4jtn12","geo_precision":"zip","source":"grappos.com","state":"MO"},"type":"Feature","geometry":{"type":"Point","coordinates":[-92.254481,38.251613]}},{"properties":{"city":"Blackburn","zip":"65321","geo_score":0.873,"description":"Robert Skalli Pinot Noir","num_searches":1.0,"id":"a66rmy8iujwf","geo_precision":"zip","source":"grappos.com","state":"MO"},"type":"Feature","geometry":{"type":"Point","coordinates":[-93.432988,39.06863]}},{"properties":{"city":"Warsaw","zip":"65355","geo_score":0.883,"description":"Robert Skalli Pinot Noir","num_searches":1.0,"id":"a66rmyaoucyo","geo_precision":"zip","source":"grappos.com","state":"MO"},"type":"Feature","geometry":{"type":"Point","coordinates":[-93.354648,38.23447]}},{"properties":{"city":"Fairbury","zip":"68352","geo_score":0.857,"description":"Robert Skalli Pinot Noir","num_searches":1.0,"id":"a66rmybl39xm","geo_precision":"zip","source":"grappos.com","state":"NE"},"type":"Feature","geometry":{"type":"Point","coordinates":[-97.258649,40.068337]}},{"properties":{"city":"West Nottingham","zip":"3291","geo_score":1.0,"description":"Robert Skalli Pinot Noir","num_searches":2.0,"id":"a66rmydkmvup","geo_precision":"zip","source":"grappos.com","state":"NH"},"type":"Feature","geometry":{"type":"Point","coordinates":[-71.139551,43.182251]}},{"properties":{"city":"Albuquerque","zip":"87110","geo_score":1.0,"description":"Robert Skalli Pinot Noir","num_searches":2.0,"id":"a66rmygjcusz","geo_precision":"zip","source":"grappos.com","state":"NM"},"type":"Feature","geometry":{"type":"Point","coordinates":[-106.62198,35.129594]}},{"properties":{"city":"Mulino","zip":"97042","geo_score":0.886,"description":"Robert Skalli Pinot Noir","num_searches":1.0,"id":"a66rmycgdncf","geo_precision":"zip","source":"grappos.com","state":"OR"},"type":"Feature","geometry":{"type":"Point","coordinates":[-122.558699,45.199567]}},{"properties":{"city":"Myrtle Point","zip":"97458","geo_score":0.87,"description":"Robert Skalli Pinot Noir","num_searches":1.0,"id":"a66rmy5odhyo","geo_precision":"zip","source":"grappos.com","state":"OR"},"type":"Feature","geometry":{"type":"Point","coordinates":[-123.861203,43.148168]}},{"properties":{"city":"Phoenix","zip":"97535","geo_score":1.0,"description":"Robert Skalli Pinot Noir","num_searches":1.0,"id":"a66rmygfoqdc","geo_precision":"zip","source":"grappos.com","state":"OR"},"type":"Feature","geometry":{"type":"Point","coordinates":[-122.81464,42.262556]}},{"properties":{"city":"Enterprise","zip":"97828","geo_score":0.871,"description":"Robert Skalli Pinot Noir","num_searches":1.0,"id":"a66rmyipprt5","geo_precision":"zip","source":"grappos.com","state":"OR"},"type":"Feature","geometry":{"type":"Point","coordinates":[-117.309888,45.900148]}},{"properties":{"city":"Ontario","zip":"97914","geo_score":0.898,"description":"Robert Skalli Pinot Noir","num_searches":1.0,"id":"a66rmyekdgup","geo_precision":"zip","source":"grappos.com","state":"OR"},"type":"Feature","geometry":{"type":"Point","coordinates":[-117.009051,43.995997]}},{"properties":{"city":"Barceloneta","zip":"617","geo_score":1.0,"description":"Robert Skalli Pinot Noir","num_searches":2.0,"id":"a66rmyb7wwjf","geo_precision":"zip","source":"grappos.com","state":"PR"},"type":"Feature","geometry":{"type":"Point","coordinates":[-66.544255,18.447092]}},{"properties":{"city":"San Juan","zip":"913","geo_score":1.0,"description":"Robert Skalli Pinot Noir","num_searches":1.0,"id":"a66rmygugezb","geo_precision":"zip","source":"grappos.com","state":"PR"},"type":"Feature","geometry":{"type":"Point","coordinates":[-66.043352,18.450735]}},{"properties":{"city":"Huntsville","zip":"77341","geo_score":0.886,"description":"Robert Skalli Pinot Noir","num_searches":1.0,"id":"a66rmy5i4ga9","geo_precision":"zip","source":"grappos.com","state":"TX"},"type":"Feature","geometry":{"type":"Point","coordinates":[-95.721058,30.622142]}},{"properties":{"city":"Deer Park","zip":"77536","geo_score":1.0,"description":"Robert Skalli Pinot Noir","num_searches":1.0,"id":"a66rmy9xh0m8","geo_precision":"zip","source":"grappos.com","state":"TX"},"type":"Feature","geometry":{"type":"Point","coordinates":[-95.116749,29.687972]}},{"properties":{"city":"Seattle","zip":"98133","geo_score":0.905,"description":"Robert Skalli Pinot Noir","num_searches":1.0,"id":"a66rmy4095d2","geo_precision":"zip","source":"grappos.com","state":"WA"},"type":"Feature","geometry":{"type":"Point","coordinates":[-122.341518,47.755653]}},{"properties":{"city":"Southworth","zip":"98386","geo_score":1.0,"description":"Robert Skalli Pinot Noir","num_searches":1.0,"id":"a66rmybffgzs","geo_precision":"zip","source":"grappos.com","state":"WA"},"type":"Feature","geometry":{"type":"Point","coordinates":[-122.499139,47.51037]}},{"properties":{"city":"Deer Park","zip":"99006","geo_score":0.893,"description":"Robert Skalli Pinot Noir","num_searches":1.0,"id":"a66rmy8njr3c","geo_precision":"zip","source":"grappos.com","state":"WA"},"type":"Feature","geometry":{"type":"Point","coordinates":[-117.438555,47.909615]}},{"properties":{"city":"Waverly","zip":"99039","geo_score":1.0,"description":"Robert Skalli Pinot Noir","num_searches":1.0,"id":"a66rmy4oo16n","geo_precision":"zip","source":"grappos.com","state":"WA"},"type":"Feature","geometry":{"type":"Point","coordinates":[-117.244981,47.329704]}},{"properties":{"city":"Miami","zip":"25134","geo_score":1.0,"description":"Robert Skalli Pinot Noir","num_searches":1.0,"id":"a66rmy6sgrdk","geo_precision":"zip","source":"grappos.com","state":"WV"},"type":"Feature","geometry":{"type":"Point","coordinates":[-81.554655,38.296818]}}],"is_temporal":false,"author":{"url":"","metadata":"","contact_name":"","contact_address":"","source":"","contact_phone":""},"source":"","pagination":{"sort":null,"start":0,"total":135,"limit":1000000},"state":"complete","tags":"","published":"2014-08-10T12:32:00-04:00","id":21052}