{"type":"FeatureCollection","data_type":"Dataset","url_type":null,"permissions":[{"permissions":{"download":true,"view":true},"group_id":"everyone"}],"classification":null,"title":"naeem","count":10,"stream_id":210620,"contributor":{"url":"http://geocommons.com/users/38301","name":"notoole"},"data_attributes":null,"calculation_params":null,"icon_link":null,"link":"http://geocommons.com/overlays/210620.json","extent":[-112.034,43.4852,-111.696,44.4021],"geometry_types":["point"],"unique_name":null,"name":"naeem","feature_count":10,"description":"","next_feature":null,"is_raster":false,"short_classification":"Y","stats":{},"features":[{"properties":{"city":"Calgary","name":"The Silk Road Spice Merchant","geo_score":0.61,"country":"Canada","street address":"1403 9 AVE SE","postal code":"T2G 0T4","id":"a6hfi7rgt3r1","geo_precision":"range","province":"Alberta"},"type":"Feature","geometry":{"type":"Point","coordinates":[-112.033633,43.485226]}},{"properties":{"city":"Calgary","name":"Dalbert Spice Rack","geo_score":0.432,"country":"Canada","street address":"3604 52 AVE NW","postal code":"T2L 1V9","id":"a6hfi7nypnp0","geo_precision":"city","province":"Alberta"},"type":"Feature","geometry":{"type":"Point","coordinates":[-111.893862,44.402136]}},{"properties":{"city":"Calgary","name":"Calgary Spiceland","geo_score":0.659,"country":"Canada","street address":"3-7640 Fairmont Dr SE","postal code":"T2H 0X9","id":"a6hfi7n2nze6","geo_precision":"street","province":"Alberta"},"type":"Feature","geometry":{"type":"Point","coordinates":[-112.001578,43.485807]}},{"properties":{"city":"Calgary","name":"SafeWay Location 1","geo_score":0.432,"country":"Canada","street address":"524 Elbow Dr SW","postal code":"T2S 2H6","id":"a6hfi7kv7wzi","geo_precision":"city","province":"Alberta"},"type":"Feature","geometry":{"type":"Point","coordinates":[-111.893862,44.402136]}},{"properties":{"city":"Calgary","name":"Continental Food &amp; Spices","geo_score":0.432,"country":"Canada","street address":"3253 34 Ave NE","postal code":"T1Y 6X2","id":"a6hfi7ydsrnr","geo_precision":"city","province":"Alberta"},"type":"Feature","geometry":{"type":"Point","coordinates":[-111.893862,44.402136]}},{"properties":{"city":"Calgary","name":"The Silk Road Spice Merchant Location 2","geo_score":0.61,"country":"Canada","street address":"510 77 AVE SE","postal code":"T2H 1C3","id":"a6hfi7w8kf6q","geo_precision":"range","province":"Alberta"},"type":"Feature","geometry":{"type":"Point","coordinates":[-112.033646,43.493236]}},{"properties":{"city":"Calgary","name":"Saron Ethiopian Spices","geo_score":0.432,"country":"Canada","street address":"718 17 AVE","postal code":"T2S 0B7","id":"a6hfi7v03xte","geo_precision":"city","province":"Alberta"},"type":"Feature","geometry":{"type":"Point","coordinates":[-111.893862,44.402136]}},{"properties":{"city":"Calgary","name":"Safway Location 2","geo_score":0.561,"country":"Canada","street address":"813 11th Ave SW","postal code":"T2R 0E6","id":"a6hfi7qve5mg","geo_precision":"street","province":"Alberta"},"type":"Feature","geometry":{"type":"Point","coordinates":[-111.943801,43.59028]}},{"properties":{"city":"Calgary","name":"Safeway Location 3","geo_score":0.562,"country":"Canada","street address":"410 10th St NW","postal code":"T2N 1V9","id":"a6hfi7tmcsk4","geo_precision":"street","province":"Alberta"},"type":"Feature","geometry":{"type":"Point","coordinates":[-111.695641,43.964481]}},{"properties":{"city":"Calgary","name":"Safeway Location 4","geo_score":0.488,"country":"Canada","street address":"2425 34th Ave SW","postal code":"T2T 6E3","id":"a6hfi7lcmkr5","geo_precision":"street","province":"Alberta"},"type":"Feature","geometry":{"type":"Point","coordinates":[-111.96564,43.591915]}}],"is_temporal":false,"author":{"url":"","metadata":null,"contact_name":null,"contact_address":null,"source":null,"contact_phone":null},"source":"","pagination":{"sort":null,"start":0,"total":10,"limit":1000000},"state":"complete","tags":"","published":"2014-08-14T15:46:52-04:00","id":210620}