{"type":"FeatureCollection","data_type":"Dataset","url_type":null,"permissions":[{"permissions":{"download":true,"view":true},"group_id":"everyone"}],"classification":null,"title":"addresses","count":187,"stream_id":211048,"contributor":{"url":"http://geocommons.com/users/41161","name":"erastusk"},"data_attributes":null,"calculation_params":null,"icon_link":null,"link":"http://geocommons.com/overlays/211048.json","extent":[-87.6263,33.1278,-87.0794,33.3173],"geometry_types":["point"],"unique_name":null,"name":"addresses","feature_count":187,"description":"","next_feature":null,"is_raster":false,"short_classification":"Y","stats":{"lat":{"max":33.31729,"variance":0.00164276745365418,"mean":33.2096462566845,"stdev":0.0405310677586241,"min":33.12778,"median":33.20269},"long":{"max":-87.0794,"variance":0.0195627032641002,"mean":-87.4695624759359,"stdev":0.13986673394378,"min":-87.6263,"median":-87.52008}},"features":[{"properties":{"id":"a7eicgspuvj0","lat":33.12778,"address":"1532-1552 Inverness Pkwy, Tuscaloosa, AL 35405, USA","long":-87.55964},"type":"Feature","geometry":{"type":"Point","coordinates":[-87.55964,33.12778]}},{"properties":{"id":"a7eicgnxbsbu","lat":33.13375,"address":"1100 Manora Estates Dr, Tuscaloosa, AL 35405, USA","long":-87.55268},"type":"Feature","geometry":{"type":"Point","coordinates":[-87.55268,33.13375]}},{"properties":{"id":"a7eicgpu1fy1","lat":33.13376,"address":"1100 Manora Estates Dr, Tuscaloosa, AL 35405, USA","long":-87.55271},"type":"Feature","geometry":{"type":"Point","coordinates":[-87.55271,33.13376]}},{"properties":{"id":"a7eicglvdajt","lat":33.14047,"address":"7230-7384 Old Greensboro Rd, Tuscaloosa, AL 35405, USA","long":-87.54894},"type":"Feature","geometry":{"type":"Point","coordinates":[-87.54894,33.14047]}},{"properties":{"id":"a7eicgi93aas","lat":33.14063,"address":"1591-1727 Crabtree Rd, Tuscaloosa, AL 35405, USA","long":-87.55568},"type":"Feature","geometry":{"type":"Point","coordinates":[-87.55568,33.14063]}},{"properties":{"id":"a7eicgl7xglo","lat":33.14142,"address":"6800-6886 Bradley Rd, Tuscaloosa, AL 35456, USA","long":-87.46994},"type":"Feature","geometry":{"type":"Point","coordinates":[-87.46994,33.14142]}},{"properties":{"id":"a7eicgt0lc5q","lat":33.14597,"address":"901-957 68th St, Tuscaloosa, AL 35405, USA","long":-87.54739},"type":"Feature","geometry":{"type":"Point","coordinates":[-87.54739,33.14597]}},{"properties":{"id":"a7eicgppu9vk","lat":33.15026,"address":"6268-6324 Old Greensboro Rd, Tuscaloosa, AL 35405, USA","long":-87.54758},"type":"Feature","geometry":{"type":"Point","coordinates":[-87.54758,33.15026]}},{"properties":{"id":"a7eicgr57pqr","lat":33.15491,"address":"Bradford Blvd, Tuscaloosa, AL 35405, USA","long":-87.45857},"type":"Feature","geometry":{"type":"Point","coordinates":[-87.45857,33.15491]}},{"properties":{"id":"a7eicgre40tj","lat":33.15575,"address":"5458-5620 Buttermilk Rd, Tuscaloosa, AL 35453, USA","long":-87.45258},"type":"Feature","geometry":{"type":"Point","coordinates":[-87.45258,33.15575]}},{"properties":{"id":"a7eicgnl0l3m","lat":33.15636,"address":"5424-5426 Woodland Forrest Dr, Tuscaloosa, AL 35405, USA","long":-87.467773},"type":"Feature","geometry":{"type":"Point","coordinates":[-87.467773,33.15636]}},{"properties":{"id":"a7eicgkdjhiw","lat":33.15726,"address":"5325 Hargrove Rd E, Tuscaloosa, AL 35405, USA","long":-87.47705},"type":"Feature","geometry":{"type":"Point","coordinates":[-87.47705,33.15726]}},{"properties":{"id":"a7eicgj7fuxa","lat":33.15932,"address":"5254-5370 Buttermilk Rd, Tuscaloosa, AL 35453, USA","long":-87.45184},"type":"Feature","geometry":{"type":"Point","coordinates":[-87.45184,33.15932]}},{"properties":{"id":"a7eicggoz1i4","lat":33.16124,"address":"331 51st St, Tuscaloosa, AL 35405, USA","long":-87.54076},"type":"Feature","geometry":{"type":"Point","coordinates":[-87.54076,33.16124]}},{"properties":{"id":"a7eicgq1oyc4","lat":33.16165,"address":"4918 Woodland Forrest Dr, Tuscaloosa, AL 35405, USA","long":-87.46981},"type":"Feature","geometry":{"type":"Point","coordinates":[-87.46981,33.16165]}},{"properties":{"id":"a7eicgib5179","lat":33.16173,"address":"906-940 51st St E, Tuscaloosa, AL 35405, USA","long":-87.52431},"type":"Feature","geometry":{"type":"Point","coordinates":[-87.52431,33.16173]}},{"properties":{"id":"a7eicgr2n5cb","lat":33.16197,"address":"5054 Kauloosa Ave, Tuscaloosa, AL 35405, USA","long":-87.55427},"type":"Feature","geometry":{"type":"Point","coordinates":[-87.55427,33.16197]}},{"properties":{"id":"a7eicgmsp5jq","lat":33.16333,"address":"5010-5030 Old Montgomery Hwy, Tuscaloosa, AL 35405, USA","long":-87.54425},"type":"Feature","geometry":{"type":"Point","coordinates":[-87.54425,33.16333]}},{"properties":{"id":"a7eicgfvfufj","lat":33.16334,"address":"4813-4853 Cypress Creek Ave E, Tuscaloosa, AL 35405, USA","long":-87.50392},"type":"Feature","geometry":{"type":"Point","coordinates":[-87.50392,33.16334]}},{"properties":{"id":"a7eicgjkgv3o","lat":33.16494,"address":"4722-4742 Cypress Creek Ave E, Tuscaloosa, AL 35405, USA","long":-87.50406},"type":"Feature","geometry":{"type":"Point","coordinates":[-87.50406,33.16494]}},{"properties":{"id":"a7eicgu4bj9d","lat":33.16535,"address":"4449 Hargrove Rd E, Tuscaloosa, AL 35405, USA","long":-87.47921},"type":"Feature","geometry":{"type":"Point","coordinates":[-87.47921,33.16535]}},{"properties":{"id":"a7eicgujp09x","lat":33.16605,"address":"4101-4199 Courtney Dr, Tuscaloosa, AL 35405, USA","long":-87.54736},"type":"Feature","geometry":{"type":"Point","coordinates":[-87.54736,33.16605]}},{"properties":{"id":"a7eicghi0cil","lat":33.16635,"address":"149 Skyland Blvd E, Tuscaloosa, AL 35405, USA","long":-87.53767},"type":"Feature","geometry":{"type":"Point","coordinates":[-87.53767,33.16635]}},{"properties":{"id":"a7eicgk0x84i","lat":33.16702,"address":"4383-4471 Woodland Forrest Dr, Tuscaloosa, AL 35405, USA","long":-87.47298},"type":"Feature","geometry":{"type":"Point","coordinates":[-87.47298,33.16702]}},{"properties":{"id":"a7eicgvloy3n","lat":33.16793,"address":"4250 Buttermilk Rd, Cottondale, AL 35453, USA","long":-87.44862},"type":"Feature","geometry":{"type":"Point","coordinates":[-87.44862,33.16793]}},{"properties":{"id":"a7eicgv7cj7y","lat":33.1685,"address":"1771 Skyland Blvd E, Tuscaloosa, AL 35405, USA","long":-87.51425},"type":"Feature","geometry":{"type":"Point","coordinates":[-87.51425,33.1685]}},{"properties":{"id":"a7eicgk328hr","lat":33.16862,"address":"1823-1871 Skyland Blvd E, Tuscaloosa, AL 35405, USA","long":-87.51142},"type":"Feature","geometry":{"type":"Point","coordinates":[-87.51142,33.16862]}},{"properties":{"id":"a7eicgm73388","lat":33.16899,"address":"2279-2411 Skyland Blvd E, Tuscaloosa, AL 35405, USA","long":-87.50592},"type":"Feature","geometry":{"type":"Point","coordinates":[-87.50592,33.16899]}},{"properties":{"id":"a7eicgkfeyy1","lat":33.16969,"address":"3221-3335 Skyland Blvd E, Tuscaloosa, AL 35405, USA","long":-87.49516},"type":"Feature","geometry":{"type":"Point","coordinates":[-87.49516,33.16969]}},{"properties":{"id":"a7eicgrbnsnx","lat":33.1697,"address":"3925 Andrews St, Tuscaloosa, AL 35405, USA","long":-87.51942},"type":"Feature","geometry":{"type":"Point","coordinates":[-87.51942,33.1697]}},{"properties":{"id":"a7eicglu3070","lat":33.17006,"address":"Tuscaloosa, AL 35407, USA","long":-87.52008},"type":"Feature","geometry":{"type":"Point","coordinates":[-87.52008,33.17006]}},{"properties":{"id":"a7eicgkol1j3","lat":33.17009,"address":"4000 Industrial Dr, Cottondale, AL 35453, USA","long":-87.40421},"type":"Feature","geometry":{"type":"Point","coordinates":[-87.40421,33.17009]}},{"properties":{"id":"a7eicgqcw8iu","lat":33.17022,"address":"14303 State Highway 7, Coaling-Vance, AL 35453, USA","long":-87.37585},"type":"Feature","geometry":{"type":"Point","coordinates":[-87.37585,33.17022]}},{"properties":{"id":"a7eicgsmdfr6","lat":33.17035,"address":"Skyland Blvd E, Tuscaloosa, AL 35405, USA","long":-87.48602},"type":"Feature","geometry":{"type":"Point","coordinates":[-87.48602,33.17035]}},{"properties":{"id":"a7eicgvnyeep","lat":33.17103,"address":"17180-17198 State Highway 7, Vance, AL 35490, USA","long":-87.28111},"type":"Feature","geometry":{"type":"Point","coordinates":[-87.28111,33.17103]}},{"properties":{"id":"a7eicgsp0l1m","lat":33.17226,"address":"3887-3899 Greensboro Ave, Tuscaloosa, AL 35405, USA","long":-87.54657},"type":"Feature","geometry":{"type":"Point","coordinates":[-87.54657,33.17226]}},{"properties":{"id":"a7eicgjyy9u2","lat":33.17267,"address":"3783-3799 Palisades Dr, Tuscaloosa, AL 35405, USA","long":-87.49808},"type":"Feature","geometry":{"type":"Point","coordinates":[-87.49808,33.17267]}},{"properties":{"id":"a7eicgo2xzhv","lat":33.17404,"address":"3739-3781 Palisades Dr, Tuscaloosa, AL 35405, USA","long":-87.49822},"type":"Feature","geometry":{"type":"Point","coordinates":[-87.49822,33.17404]}},{"properties":{"id":"a7eicgv50ib5","lat":33.17416,"address":"18300-18324 State Highway 7, Vance, AL 35490, USA","long":-87.24021},"type":"Feature","geometry":{"type":"Point","coordinates":[-87.24021,33.17416]}},{"properties":{"id":"a7eicgtl0kj8","lat":33.17418,"address":"3801 Greensboro Ave, Tuscaloosa, AL 35405, USA","long":-87.54715},"type":"Feature","geometry":{"type":"Point","coordinates":[-87.54715,33.17418]}},{"properties":{"id":"a7eicggxoedu","lat":33.1743,"address":"14765 Webb Black Rd, Coaling, AL 35453, USA","long":-87.36069},"type":"Feature","geometry":{"type":"Point","coordinates":[-87.36069,33.1743]}},{"properties":{"id":"a7eicghd7z47","lat":33.17561,"address":"508 37th St E, Tuscaloosa, AL 35405, USA","long":-87.52902},"type":"Feature","geometry":{"type":"Point","coordinates":[-87.52902,33.17561]}},{"properties":{"id":"a7eicgp5mop1","lat":33.17989,"address":"3642 Woodland Hills Dr, Tuscaloosa, AL 35405, USA","long":-87.48958},"type":"Feature","geometry":{"type":"Point","coordinates":[-87.48958,33.17989]}},{"properties":{"id":"a7eicgpx33fk","lat":33.18001,"address":"4027 Woodland Hills Dr, Tuscaloosa, AL 35405, USA","long":-87.48373},"type":"Feature","geometry":{"type":"Point","coordinates":[-87.48373,33.18001]}},{"properties":{"id":"a7eicgin42s7","lat":33.1804,"address":"10001-10109 Bama Rock Garden Rd, Vance, AL 35490, USA","long":-87.23077},"type":"Feature","geometry":{"type":"Point","coordinates":[-87.23077,33.1804]}},{"properties":{"id":"a7eicgv0wl7l","lat":33.18056,"address":"3692-3698 Culver Rd, Tuscaloosa, AL 35401, USA","long":-87.61117},"type":"Feature","geometry":{"type":"Point","coordinates":[-87.61117,33.18056]}},{"properties":{"id":"a7eicgi2n8gs","lat":33.18317,"address":"3079-3099 Greensboro Ave, Tuscaloosa, AL 35401, USA","long":-87.55425},"type":"Feature","geometry":{"type":"Point","coordinates":[-87.55425,33.18317]}},{"properties":{"id":"a7eicgru6gzn","lat":33.18378,"address":"2733 McFarland Blvd E, Tuscaloosa, AL 35405, USA","long":-87.52578},"type":"Feature","geometry":{"type":"Point","coordinates":[-87.52578,33.18378]}},{"properties":{"id":"a7eicgp9dxax","lat":33.18455,"address":"756-814 29th St, Tuscaloosa, AL 35401, USA","long":-87.54869},"type":"Feature","geometry":{"type":"Point","coordinates":[-87.54869,33.18455]}},{"properties":{"id":"a7eicgnuh9c8","lat":33.18478,"address":"2935-2999 County Road 44, Tuscaloosa, AL 35401, USA","long":-87.57729},"type":"Feature","geometry":{"type":"Point","coordinates":[-87.57729,33.18478]}},{"properties":{"id":"a7eicghp818y","lat":33.18551,"address":"2002 27th St E, Tuscaloosa, AL 35404, USA","long":-87.51136},"type":"Feature","geometry":{"type":"Point","coordinates":[-87.51136,33.18551]}},{"properties":{"id":"a7eicgujy101","lat":33.18588,"address":"2001-2033 Loop Rd, Tuscaloosa, AL 35404, USA","long":-87.51296},"type":"Feature","geometry":{"type":"Point","coordinates":[-87.51296,33.18588]}},{"properties":{"id":"a7eicgqxvwyo","lat":33.18597,"address":"2774-2798 Greensboro Ave, Tuscaloosa, AL 35401, USA","long":-87.55632},"type":"Feature","geometry":{"type":"Point","coordinates":[-87.55632,33.18597]}},{"properties":{"id":"a7eicgllwh3q","lat":33.18605,"address":"400-498 Prince Ave, Tuscaloosa, AL 35401, USA","long":-87.54131},"type":"Feature","geometry":{"type":"Point","coordinates":[-87.54131,33.18605]}},{"properties":{"id":"a7eicgr5ni37","lat":33.18629,"address":"2909 40th Ave, Tuscaloosa, AL 35401, USA","long":-87.58875},"type":"Feature","geometry":{"type":"Point","coordinates":[-87.58875,33.18629]}},{"properties":{"id":"a7eicglb4flx","lat":33.18708,"address":"2800-2998 State Highway 13, Tuscaloosa, AL 35401, USA","long":-87.60514},"type":"Feature","geometry":{"type":"Point","coordinates":[-87.60514,33.18708]}},{"properties":{"id":"a7eicghmguq6","lat":33.18731,"address":"800-838 Hargrove Rd E, Tuscaloosa, AL 35405, USA","long":-87.52562},"type":"Feature","geometry":{"type":"Point","coordinates":[-87.52562,33.18731]}},{"properties":{"id":"a7eicgm98u7p","lat":33.18745,"address":"2614 Greensboro Ave, Tuscaloosa, AL 35401, USA","long":-87.55718},"type":"Feature","geometry":{"type":"Point","coordinates":[-87.55718,33.18745]}},{"properties":{"id":"a7eicgtxkoh9","lat":33.18871,"address":"1681-1755 Buttermilk Rd, Tuscaloosa, AL 35453, USA","long":-87.45824},"type":"Feature","geometry":{"type":"Point","coordinates":[-87.45824,33.18871]}},{"properties":{"id":"a7eicgndhi07","lat":33.18933,"address":"2223-2253 Forest Lake Dr, Tuscaloosa, AL 35401, USA","long":-87.53431},"type":"Feature","geometry":{"type":"Point","coordinates":[-87.53431,33.18933]}},{"properties":{"id":"a7eicgt7ec56","lat":33.19056,"address":"7901 University Blvd E, Cottondale, AL 35453, USA","long":-87.43803},"type":"Feature","geometry":{"type":"Point","coordinates":[-87.43803,33.19056]}},{"properties":{"id":"a7eicghhc16u","lat":33.19267,"address":"318 20th St E, Tuscaloosa, AL 35401, USA","long":-87.53185},"type":"Feature","geometry":{"type":"Point","coordinates":[-87.53185,33.19267]}},{"properties":{"id":"a7eicgm48map","lat":33.19292,"address":"4771-4946 University Blvd E, Tuscaloosa, AL 35404, USA","long":-87.4699},"type":"Feature","geometry":{"type":"Point","coordinates":[-87.4699,33.19292]}},{"properties":{"id":"a7eicgpt8k1j","lat":33.19303,"address":"2101-2121 29th Ave, Tuscaloosa, AL 35401, USA","long":-87.57264},"type":"Feature","geometry":{"type":"Point","coordinates":[-87.57264,33.19303]}},{"properties":{"id":"a7eicgnyjf82","lat":33.19353,"address":"3120 21st St, Tuscaloosa, AL 35401, USA","long":-87.57728},"type":"Feature","geometry":{"type":"Point","coordinates":[-87.57728,33.19353]}},{"properties":{"id":"a7eicgjkmsxh","lat":33.19365,"address":"1509 Hargrove Rd, Tuscaloosa, AL 35401, USA","long":-87.55742},"type":"Feature","geometry":{"type":"Point","coordinates":[-87.55742,33.19365]}},{"properties":{"id":"a7eicgj34q7d","lat":33.19415,"address":"1831-1875 Hackberry Ln, Tuscaloosa, AL 35401, USA","long":-87.54301},"type":"Feature","geometry":{"type":"Point","coordinates":[-87.54301,33.19415]}},{"properties":{"id":"a7eicgfkcqkj","lat":33.19528,"address":"1814 11th Ave, Tuscaloosa, AL 35401, USA","long":-87.55273},"type":"Feature","geometry":{"type":"Point","coordinates":[-87.55273,33.19528]}},{"properties":{"id":"a7eicggbtntz","lat":33.19624,"address":"1701-1711 Hackberry Ln, Tuscaloosa, AL 35401, USA","long":-87.54305},"type":"Feature","geometry":{"type":"Point","coordinates":[-87.54305,33.19624]}},{"properties":{"id":"a7eicgixu8s3","lat":33.19678,"address":"3817 14th Pl E, Tuscaloosa, AL 35404, USA","long":-87.48725},"type":"Feature","geometry":{"type":"Point","coordinates":[-87.48725,33.19678]}},{"properties":{"id":"a7eicgub7t4e","lat":33.19678,"address":"3818 14th Pl E, Tuscaloosa, AL 35404, USA","long":-87.4868},"type":"Feature","geometry":{"type":"Point","coordinates":[-87.4868,33.19678]}},{"properties":{"id":"a7eicgtva0j6","lat":33.19691,"address":"1323-1325 Veterans Memorial Pkwy, Tuscaloosa, AL 35404, USA","long":-87.52505},"type":"Feature","geometry":{"type":"Point","coordinates":[-87.52505,33.19691]}},{"properties":{"id":"a7eicgte9n9l","lat":33.19709,"address":"1491-1499 Veterans Memorial Pkwy, Tuscaloosa, AL 35404, USA","long":-87.51774},"type":"Feature","geometry":{"type":"Point","coordinates":[-87.51774,33.19709]}},{"properties":{"id":"a7eicgqdqlzx","lat":33.19715,"address":"Old Cottondale Rd, Tuscaloosa, AL 35404, USA","long":-87.47842},"type":"Feature","geometry":{"type":"Point","coordinates":[-87.47842,33.19715]}},{"properties":{"id":"a7eicglw1czq","lat":33.19733,"address":"1855-1899 Veterans Memorial Pkwy, Tuscaloosa, AL 35404, USA","long":-87.51297},"type":"Feature","geometry":{"type":"Point","coordinates":[-87.51297,33.19733]}},{"properties":{"id":"a7eicghmt0ls","lat":33.19734,"address":"3108 Veterans Memorial Pkwy, Tuscaloosa, AL 35404, USA","long":-87.49683},"type":"Feature","geometry":{"type":"Point","coordinates":[-87.49683,33.19734]}},{"properties":{"id":"a7eicgfomgw1","lat":33.19734,"address":"3026-3108 Veterans Memorial Pkwy, Tuscaloosa, AL 35404, USA","long":-87.49734},"type":"Feature","geometry":{"type":"Point","coordinates":[-87.49734,33.19734]}},{"properties":{"id":"a7eicgm6pwlf","lat":33.1974,"address":"2415 Veterans Memorial Pkwy, Tuscaloosa, AL 35404, USA","long":-87.50686},"type":"Feature","geometry":{"type":"Point","coordinates":[-87.50686,33.1974]}},{"properties":{"id":"a7eicgnbj0qw","lat":33.19744,"address":"2906-2910 Veterans Memorial Pkwy, Tuscaloosa, AL 35404, USA","long":-87.50111},"type":"Feature","geometry":{"type":"Point","coordinates":[-87.50111,33.19744]}},{"properties":{"id":"a7eicgpvk3ju","lat":33.19769,"address":"3216 Veterans Memorial Pkwy, Tuscaloosa, AL 35404, USA","long":-87.49509},"type":"Feature","geometry":{"type":"Point","coordinates":[-87.49509,33.19769]}},{"properties":{"id":"a7eicgve29t8","lat":33.19771,"address":"500 15th St E, Tuscaloosa, AL 35401, USA","long":-87.52994},"type":"Feature","geometry":{"type":"Point","coordinates":[-87.52994,33.19771]}},{"properties":{"id":"a7eicgku6dlm","lat":33.19826,"address":"1501-1511 Contemporary Dr, Tuscaloosa, AL 35401, USA","long":-87.53452},"type":"Feature","geometry":{"type":"Point","coordinates":[-87.53452,33.19826]}},{"properties":{"id":"a7eicgg7e4pf","lat":33.19855,"address":"1812-1858 Culver Rd, Tuscaloosa, AL 35401, USA","long":-87.5947},"type":"Feature","geometry":{"type":"Point","coordinates":[-87.5947,33.19855]}},{"properties":{"id":"a7eicgg65mk5","lat":33.19902,"address":"1451-1499 Hackberry Ln, Tuscaloosa, AL 35401, USA","long":-87.54298},"type":"Feature","geometry":{"type":"Point","coordinates":[-87.54298,33.19902]}},{"properties":{"id":"a7eicgml4tut","lat":33.19911,"address":"626-664 15th St, Tuscaloosa, AL 35401, USA","long":-87.54566},"type":"Feature","geometry":{"type":"Point","coordinates":[-87.54566,33.19911]}},{"properties":{"id":"a7eicgs874jf","lat":33.19917,"address":"760-798 15th St, Tuscaloosa, AL 35401, USA","long":-87.54755},"type":"Feature","geometry":{"type":"Point","coordinates":[-87.54755,33.19917]}},{"properties":{"id":"a7eicgfjmx7x","lat":33.19993,"address":"501-701 14th St, Tuscaloosa, AL 35401, USA","long":-87.54365},"type":"Feature","geometry":{"type":"Point","coordinates":[-87.54365,33.19993]}},{"properties":{"id":"a7eicgkdsvcz","lat":33.20019,"address":"1222 51st Ave E, Tuscaloosa, AL 35404, USA","long":-87.46961},"type":"Feature","geometry":{"type":"Point","coordinates":[-87.46961,33.20019]}},{"properties":{"id":"a7eicglltpa7","lat":33.20062,"address":"1200-1222 51st Ave E, Tuscaloosa, AL 35404, USA","long":-87.46961},"type":"Feature","geometry":{"type":"Point","coordinates":[-87.46961,33.20062]}},{"properties":{"id":"a7eicgt19b8a","lat":33.20088,"address":"1100-1208 Clinton Dr, Tuscaloosa, AL 35401, USA","long":-87.59261},"type":"Feature","geometry":{"type":"Point","coordinates":[-87.59261,33.20088]}},{"properties":{"id":"a7eicggm44wh","lat":33.20133,"address":"39th Ave E, Tuscaloosa, AL 35404, USA","long":-87.48632},"type":"Feature","geometry":{"type":"Point","coordinates":[-87.48632,33.20133]}},{"properties":{"id":"a7eicgp8iqyg","lat":33.20204,"address":"6110 Keenes Mill Rd, Tuscaloosa, AL 35404, USA","long":-87.45538},"type":"Feature","geometry":{"type":"Point","coordinates":[-87.45538,33.20204]}},{"properties":{"id":"a7eicgjab8l5","lat":33.20269,"address":"1248-1298 Hackberry Ln, Tuscaloosa, AL 35401, USA","long":-87.54317},"type":"Feature","geometry":{"type":"Point","coordinates":[-87.54317,33.20269]}},{"properties":{"id":"a7eicgvpweqf","lat":33.20269,"address":"1248-1298 Hackberry Ln, Tuscaloosa, AL 35401, USA","long":-87.54317},"type":"Feature","geometry":{"type":"Point","coordinates":[-87.54317,33.20269]}},{"properties":{"id":"a7eicgs38t8f","lat":33.20327,"address":"1002 13th St, Tuscaloosa, AL 35401, USA","long":-87.55083},"type":"Feature","geometry":{"type":"Point","coordinates":[-87.55083,33.20327]}},{"properties":{"id":"a7eicgq61yh2","lat":33.20356,"address":"1212-1248 14th Ave, Tuscaloosa, AL 35401, USA","long":-87.55512},"type":"Feature","geometry":{"type":"Point","coordinates":[-87.55512,33.20356]}},{"properties":{"id":"a7eicgsrrhll","lat":33.20416,"address":"3101-3105 8th St, Tuscaloosa, AL 35401, USA","long":-87.57686},"type":"Feature","geometry":{"type":"Point","coordinates":[-87.57686,33.20416]}},{"properties":{"id":"a7eicgjosrrf","lat":33.20452,"address":"10918-10982 Bama Rock Garden Rd, Vance, AL 35490, USA","long":-87.21262},"type":"Feature","geometry":{"type":"Point","coordinates":[-87.21262,33.20452]}},{"properties":{"id":"a7eicgpdr8ui","lat":33.20461,"address":"3002 8th St, Tuscaloosa, AL 35401, USA","long":-87.57547},"type":"Feature","geometry":{"type":"Point","coordinates":[-87.57547,33.20461]}},{"properties":{"id":"a7eicgs7pmzo","lat":33.20469,"address":"1101 22nd Ave, Tuscaloosa, AL 35401, USA","long":-87.56315},"type":"Feature","geometry":{"type":"Point","coordinates":[-87.56315,33.20469]}},{"properties":{"id":"a7eicgrir68q","lat":33.20492,"address":"2115 11th St, Tuscaloosa, AL 35401, USA","long":-87.56298},"type":"Feature","geometry":{"type":"Point","coordinates":[-87.56298,33.20492]}},{"properties":{"id":"a7eicgq8a286","lat":33.2055,"address":"27 The Knoll, Tuscaloosa, AL 35404, USA","long":-87.48944},"type":"Feature","geometry":{"type":"Point","coordinates":[-87.48944,33.2055]}},{"properties":{"id":"a7eicgvamy2o","lat":33.20572,"address":"1007 21st Ave, Tuscaloosa, AL 35401, USA","long":-87.56206},"type":"Feature","geometry":{"type":"Point","coordinates":[-87.56206,33.20572]}},{"properties":{"id":"a7eicghdw5zd","lat":33.20589,"address":"1401 University Blvd E, Tuscaloosa, AL 35404, USA","long":-87.51763},"type":"Feature","geometry":{"type":"Point","coordinates":[-87.51763,33.20589]}},{"properties":{"id":"a7eicgvqyqg5","lat":33.20602,"address":"901 Paul W Bryant Dr, Tuscaloosa, AL 35401, USA","long":-87.55019},"type":"Feature","geometry":{"type":"Point","coordinates":[-87.55019,33.20602]}},{"properties":{"id":"a7eicgp3dppa","lat":33.20632,"address":"2815 University Blvd E, Tuscaloosa, AL 35404, USA","long":-87.50108},"type":"Feature","geometry":{"type":"Point","coordinates":[-87.50108,33.20632]}},{"properties":{"id":"a7eicgrn7l1t","lat":33.20638,"address":"3117-3199 University Blvd E, Tuscaloosa, AL 35404, USA","long":-87.49656},"type":"Feature","geometry":{"type":"Point","coordinates":[-87.49656,33.20638]}},{"properties":{"id":"a7eicgn2jocf","lat":33.20648,"address":"1251-1299 Paul W Bryant Dr, Tuscaloosa, AL 35401, USA","long":-87.55445},"type":"Feature","geometry":{"type":"Point","coordinates":[-87.55445,33.20648]}},{"properties":{"id":"a7eicghritae","lat":33.20682,"address":"University Blvd E &amp; U.S. 82, Tuscaloosa, AL 35404, USA","long":-87.52527},"type":"Feature","geometry":{"type":"Point","coordinates":[-87.52527,33.20682]}},{"properties":{"id":"a7eicgq472l9","lat":33.20728,"address":"Johnny Stallings Dr, Tuscaloosa, AL 35404, USA","long":-87.52908},"type":"Feature","geometry":{"type":"Point","coordinates":[-87.52908,33.20728]}},{"properties":{"id":"a7eicggvc13d","lat":33.20738,"address":"11021-11063 Bama Rock Garden Rd, Vance, AL 35490, USA","long":-87.21039},"type":"Feature","geometry":{"type":"Point","coordinates":[-87.21039,33.20738]}},{"properties":{"id":"a7eicgg0wosc","lat":33.20749,"address":"908 16th Ave, Tuscaloosa, AL 35401, USA","long":-87.55827},"type":"Feature","geometry":{"type":"Point","coordinates":[-87.55827,33.20749]}},{"properties":{"id":"a7eicgmzffzd","lat":33.20777,"address":"805 21st Ave, Tuscaloosa, AL 35401, USA","long":-87.56284},"type":"Feature","geometry":{"type":"Point","coordinates":[-87.56284,33.20777]}},{"properties":{"id":"a7eicgrmg15o","lat":33.20832,"address":"Johnny Stallings Dr, Tuscaloosa, AL 35404, USA","long":-87.52836},"type":"Feature","geometry":{"type":"Point","coordinates":[-87.52836,33.20832]}},{"properties":{"id":"a7eicgoqmreb","lat":33.20849,"address":"2201 7th St, Tuscaloosa, AL 35401, USA","long":-87.56531},"type":"Feature","geometry":{"type":"Point","coordinates":[-87.56531,33.20849]}},{"properties":{"id":"a7eicgpqpupc","lat":33.20859,"address":"1303-1399 8th St, Tuscaloosa, AL 35401, USA","long":-87.55506},"type":"Feature","geometry":{"type":"Point","coordinates":[-87.55506,33.20859]}},{"properties":{"id":"a7eicgjfnd0g","lat":33.20888,"address":"812 5th Ave, Tuscaloosa, AL 35401, USA","long":-87.54182},"type":"Feature","geometry":{"type":"Point","coordinates":[-87.54182,33.20888]}},{"properties":{"id":"a7eicgsjcu26","lat":33.20896,"address":"2101 7th St, Tuscaloosa, AL 35401, USA","long":-87.56361},"type":"Feature","geometry":{"type":"Point","coordinates":[-87.56361,33.20896]}},{"properties":{"id":"a7eicgjsvwb6","lat":33.20995,"address":"Kicker Rd E, Tuscaloosa, AL 35404, USA","long":-87.51286},"type":"Feature","geometry":{"type":"Point","coordinates":[-87.51286,33.20995]}},{"properties":{"id":"a7eicgm9hmcl","lat":33.21076,"address":"Devotie Dr, Tuscaloosa, AL 35401, USA","long":-87.54166},"type":"Feature","geometry":{"type":"Point","coordinates":[-87.54166,33.21076]}},{"properties":{"id":"a7eicgs7y1x5","lat":33.2108,"address":"320-498 Crescent Ridge Rd E, Holt, AL 35404, USA","long":-87.48696},"type":"Feature","geometry":{"type":"Point","coordinates":[-87.48696,33.2108]}},{"properties":{"id":"a7eicghlck3l","lat":33.21087,"address":"Devotie Dr, Tuscaloosa, AL 35401, USA","long":-87.5418},"type":"Feature","geometry":{"type":"Point","coordinates":[-87.5418,33.21087]}},{"properties":{"id":"a7eicgrjr652","lat":33.21115,"address":"2304 5th St E, Tuscaloosa, AL 35404, USA","long":-87.50792},"type":"Feature","geometry":{"type":"Point","coordinates":[-87.50792,33.21115]}},{"properties":{"id":"a7eicggedb3u","lat":33.21223,"address":"335 25th Ave E, Tuscaloosa, AL 35404, USA","long":-87.50444},"type":"Feature","geometry":{"type":"Point","coordinates":[-87.50444,33.21223]}},{"properties":{"id":"a7eicgo3p7x9","lat":33.21315,"address":"100-1/2 Greensboro Ave, Tuscaloosa, AL 35401, USA","long":-87.57195},"type":"Feature","geometry":{"type":"Point","coordinates":[-87.57195,33.21315]}},{"properties":{"id":"a7eicgp3mnlf","lat":33.21387,"address":"301-523 Helen Keller Blvd, Tuscaloosa, AL 35404, USA","long":-87.52005},"type":"Feature","geometry":{"type":"Point","coordinates":[-87.52005,33.21387]}},{"properties":{"id":"a7eicgt7naph","lat":33.21423,"address":"1319 Riverside Dr, Tuscaloosa, AL 35401, USA","long":-87.55454},"type":"Feature","geometry":{"type":"Point","coordinates":[-87.55454,33.21423]}},{"properties":{"id":"a7eicgimllog","lat":33.21464,"address":"Campus Dr E &amp; U.S. 82, Tuscaloosa, AL, USA","long":-87.5294},"type":"Feature","geometry":{"type":"Point","coordinates":[-87.5294,33.21464]}},{"properties":{"id":"a7eicgho6ket","lat":33.21719,"address":"Jack Warner Pkwy NE &amp; U.S. 82 &amp; County Road 88, Tuscaloosa, AL, USA","long":-87.52972},"type":"Feature","geometry":{"type":"Point","coordinates":[-87.52972,33.21719]}},{"properties":{"id":"a7eicgoayqqm","lat":33.21907,"address":"Jack Warner Pkwy NE, Tuscaloosa, AL 35404, USA","long":-87.5277},"type":"Feature","geometry":{"type":"Point","coordinates":[-87.5277,33.21907]}},{"properties":{"id":"a7eicgshoxzv","lat":33.22232,"address":"556-598 Crescent Ridge Rd NE, Holt, AL 35404, USA","long":-87.48589},"type":"Feature","geometry":{"type":"Point","coordinates":[-87.48589,33.22232]}},{"properties":{"id":"a7eicgooa74a","lat":33.22262,"address":"501-697 Snows Mill Ave, Tuscaloosa, AL 35406, USA","long":-87.56044},"type":"Feature","geometry":{"type":"Point","coordinates":[-87.56044,33.22262]}},{"properties":{"id":"a7eicgnwmtd3","lat":33.22414,"address":"2503 12th St, Northport, AL 35476, USA","long":-87.5805},"type":"Feature","geometry":{"type":"Point","coordinates":[-87.5805,33.22414]}},{"properties":{"id":"a7eicgk3yn7w","lat":33.22869,"address":"Rice Mine Rd, Tuscaloosa, AL 35406, USA","long":-87.52952},"type":"Feature","geometry":{"type":"Point","coordinates":[-87.52952,33.22869]}},{"properties":{"id":"a7eicgib6knp","lat":33.22904,"address":"4100-4106 12th St NE, Holt, AL 35404, USA","long":-87.48395},"type":"Feature","geometry":{"type":"Point","coordinates":[-87.48395,33.22904]}},{"properties":{"id":"a7eicgtw4c51","lat":33.23013,"address":"2108 Lurleen B Wallace Blvd, Northport, AL 35476, USA","long":-87.57671},"type":"Feature","geometry":{"type":"Point","coordinates":[-87.57671,33.23013]}},{"properties":{"id":"a7eicgsal6cg","lat":33.23212,"address":"N Ridge Rd, Tuscaloosa, AL 35406, USA","long":-87.52173},"type":"Feature","geometry":{"type":"Point","coordinates":[-87.52173,33.23212]}},{"properties":{"id":"a7eicghoyhz7","lat":33.23329,"address":"630-662 Martin Luther King Jr Blvd, Northport, AL 35476, USA","long":-87.56401},"type":"Feature","geometry":{"type":"Point","coordinates":[-87.56401,33.23329]}},{"properties":{"id":"a7eicgmezwjt","lat":33.23341,"address":"Academy Dr, Tuscaloosa, AL 35406, USA","long":-87.53914},"type":"Feature","geometry":{"type":"Point","coordinates":[-87.53914,33.23341]}},{"properties":{"id":"a7eicgk47r6h","lat":33.23423,"address":"2026-2030 3rd Ave N, Tuscaloosa, AL 35406, USA","long":-87.53867},"type":"Feature","geometry":{"type":"Point","coordinates":[-87.53867,33.23423]}},{"properties":{"id":"a7eicgke4sh8","lat":33.23552,"address":"McFarland Blvd NE, Tuscaloosa, AL 35406, USA","long":-87.55151},"type":"Feature","geometry":{"type":"Point","coordinates":[-87.55151,33.23552]}},{"properties":{"id":"a7eicgls1zp1","lat":33.23672,"address":"1009 McFarland Blvd NE, Northcreek Plaza Shopping Center, Northport, AL 35476, USA","long":-87.56682},"type":"Feature","geometry":{"type":"Point","coordinates":[-87.56682,33.23672]}},{"properties":{"id":"a7eicgftxmgl","lat":33.23707,"address":"3808 Alabama Ave NE, Tuscaloosa, AL 35404, USA","long":-87.48557},"type":"Feature","geometry":{"type":"Point","coordinates":[-87.48557,33.23707]}},{"properties":{"id":"a7eicgpa6nrn","lat":33.23816,"address":"4093-4339 McFarland Blvd NE, Northport, AL 35476, USA","long":-87.59882},"type":"Feature","geometry":{"type":"Point","coordinates":[-87.59882,33.23816]}},{"properties":{"id":"a7eicgsi3eau","lat":33.23829,"address":"1901 32nd St, Northport, AL 35476, USA","long":-87.57691},"type":"Feature","geometry":{"type":"Point","coordinates":[-87.57691,33.23829]}},{"properties":{"id":"a7eicgn217tx","lat":33.23864,"address":"6782-6806 Simpson St, Northport, AL 35473, USA","long":-87.6263},"type":"Feature","geometry":{"type":"Point","coordinates":[-87.6263,33.23864]}},{"properties":{"id":"a7eicgjfioxs","lat":33.23901,"address":"12148 Bama Rock Garden Rd, Vance, AL 35490, USA","long":-87.21332},"type":"Feature","geometry":{"type":"Point","coordinates":[-87.21332,33.23901]}},{"properties":{"id":"a7eicgkzjtz3","lat":33.24083,"address":"2701 Northridge Rd, Tuscaloosa, AL 35406, USA","long":-87.52823},"type":"Feature","geometry":{"type":"Point","coordinates":[-87.52823,33.24083]}},{"properties":{"id":"a7eicgmsf1d2","lat":33.241,"address":"2800-2910 State Highway 6, Northport, AL 35473, USA","long":-87.58381},"type":"Feature","geometry":{"type":"Point","coordinates":[-87.58381,33.241]}},{"properties":{"id":"a7eicgtmnu3p","lat":33.24128,"address":"3815 Watermelon Rd, Tuscaloosa, AL 35406, USA","long":-87.5515},"type":"Feature","geometry":{"type":"Point","coordinates":[-87.5515,33.24128]}},{"properties":{"id":"a7eicgm2f3ma","lat":33.24175,"address":"3641-3903 38th Ave, Northport, AL 35473, USA","long":-87.59417},"type":"Feature","geometry":{"type":"Point","coordinates":[-87.59417,33.24175]}},{"properties":{"id":"a7eicgur5dzl","lat":33.2457,"address":"4056-4164 Hunter Creek Rd, Northport, AL 35473, USA","long":-87.56509},"type":"Feature","geometry":{"type":"Point","coordinates":[-87.56509,33.2457]}},{"properties":{"id":"a7eicgu2tqul","lat":33.24601,"address":"12767-12935 Bama Rock Garden Rd, Vance, AL 35490, USA","long":-87.23141},"type":"Feature","geometry":{"type":"Point","coordinates":[-87.23141,33.24601]}},{"properties":{"id":"a7eicgk8ykwb","lat":33.24941,"address":"12516-12634 Bama Rock Garden Rd, Vance, AL 35490, USA","long":-87.22166},"type":"Feature","geometry":{"type":"Point","coordinates":[-87.22166,33.24941]}},{"properties":{"id":"a7eicghl4f5r","lat":33.25193,"address":"22611-22749 Heritage Dr, Abernant, AL 35111, USA","long":-87.09303},"type":"Feature","geometry":{"type":"Point","coordinates":[-87.09303,33.25193]}},{"properties":{"id":"a7eicghkrbxt","lat":33.25713,"address":"12307-12313 George Newell Rd, Vance, AL 35490, USA","long":-87.23878},"type":"Feature","geometry":{"type":"Point","coordinates":[-87.23878,33.25713]}},{"properties":{"id":"a7eicgu88o7e","lat":33.25754,"address":"5200-5268 State Highway 69, Northport, AL 35473, USA","long":-87.57121},"type":"Feature","geometry":{"type":"Point","coordinates":[-87.57121,33.25754]}},{"properties":{"id":"a7eicggoprrt","lat":33.26062,"address":"3101 Kennebec St, Northport, AL 35473, USA","long":-87.58727},"type":"Feature","geometry":{"type":"Point","coordinates":[-87.58727,33.26062]}},{"properties":{"id":"a7eicgus09a2","lat":33.26154,"address":"5372-5598 State Highway 69, Northport, AL 35473, USA","long":-87.57232},"type":"Feature","geometry":{"type":"Point","coordinates":[-87.57232,33.26154]}},{"properties":{"id":"a7eicgl5p0xj","lat":33.26366,"address":"Randy Dr, Abernant, AL 35111, USA","long":-87.14885},"type":"Feature","geometry":{"type":"Point","coordinates":[-87.14885,33.26366]}},{"properties":{"id":"a7eicgqypn11","lat":33.26387,"address":"1800 Rock Quarry Dr, Tuscaloosa, AL 35406, USA","long":-87.5146},"type":"Feature","geometry":{"type":"Point","coordinates":[-87.5146,33.26387]}},{"properties":{"id":"a7eicguoyu3b","lat":33.2667,"address":"12655-12687 Tannehill Pkwy, Abernant, AL 35111, USA","long":-87.08155},"type":"Feature","geometry":{"type":"Point","coordinates":[-87.08155,33.2667]}},{"properties":{"id":"a7eicgpkycti","lat":33.27039,"address":"5730-5734 New Watermelon Rd, Tuscaloosa, AL 35406, USA","long":-87.49178},"type":"Feature","geometry":{"type":"Point","coordinates":[-87.49178,33.27039]}},{"properties":{"id":"a7eicgsmwabb","lat":33.27108,"address":"22773 Central Park Dr, McCalla, AL 35111, USA","long":-87.0794},"type":"Feature","geometry":{"type":"Point","coordinates":[-87.0794,33.27108]}},{"properties":{"id":"a7eicgnjgepg","lat":33.27119,"address":"12803-12847 Tannehill Pkwy, Abernant, AL 35111, USA","long":-87.08315},"type":"Feature","geometry":{"type":"Point","coordinates":[-87.08315,33.27119]}},{"properties":{"id":"a7eicgpr89if","lat":33.2756,"address":"12975 Tannehill Pkwy, McCalla, AL 35111, USA","long":-87.08244},"type":"Feature","geometry":{"type":"Point","coordinates":[-87.08244,33.2756]}},{"properties":{"id":"a7eicgn5eqoz","lat":33.27658,"address":"19005-19149 State Highway 216, Vance, AL 35490, USA","long":-87.21046},"type":"Feature","geometry":{"type":"Point","coordinates":[-87.21046,33.27658]}},{"properties":{"id":"a7eicgtp6pq4","lat":33.27663,"address":"21382 State Highway 216, Lake View, AL 35111, USA","long":-87.13126},"type":"Feature","geometry":{"type":"Point","coordinates":[-87.13126,33.27663]}},{"properties":{"id":"a7eicgugy70q","lat":33.2771,"address":"13022 Rock Creek Rd, Lake View, AL 35111, USA","long":-87.14198},"type":"Feature","geometry":{"type":"Point","coordinates":[-87.14198,33.2771]}},{"properties":{"id":"a7eicgkecmdt","lat":33.2774,"address":"21384-21522 State Highway 216, Lake View, AL 35111, USA","long":-87.12785},"type":"Feature","geometry":{"type":"Point","coordinates":[-87.12785,33.2774]}},{"properties":{"id":"a7eicgmfmxog","lat":33.27789,"address":"22730-22740 Bucksville Rd, Abernant, AL 35111, USA","long":-87.08678},"type":"Feature","geometry":{"type":"Point","coordinates":[-87.08678,33.27789]}},{"properties":{"id":"a7eicgo4q9n6","lat":33.27839,"address":"13101 Springdale Dr, McCalla, AL 35111, USA","long":-87.08588},"type":"Feature","geometry":{"type":"Point","coordinates":[-87.08588,33.27839]}},{"properties":{"id":"a7eicghvw5j5","lat":33.27877,"address":"State Highway 216, Lake View, AL 35111, USA","long":-87.1509},"type":"Feature","geometry":{"type":"Point","coordinates":[-87.1509,33.27877]}},{"properties":{"id":"a7eicgql1j02","lat":33.27983,"address":"22191 State Highway 216, Abernant, AL 35111, USA","long":-87.10085},"type":"Feature","geometry":{"type":"Point","coordinates":[-87.10085,33.27983]}},{"properties":{"id":"a7eicgkphney","lat":33.28084,"address":"New Watermelon Rd, Tuscaloosa, AL 35406, USA","long":-87.49126},"type":"Feature","geometry":{"type":"Point","coordinates":[-87.49126,33.28084]}},{"properties":{"id":"a7eicghb79i3","lat":33.28268,"address":"6088-6138 Rice Mine Rd NE, Tuscaloosa, AL 35406, USA","long":-87.52304},"type":"Feature","geometry":{"type":"Point","coordinates":[-87.52304,33.28268]}},{"properties":{"id":"a7eicgik4i1f","lat":33.28269,"address":"20343-20469 State Highway 216, Abernant, AL 35111, USA","long":-87.16369},"type":"Feature","geometry":{"type":"Point","coordinates":[-87.16369,33.28269]}},{"properties":{"id":"a7eicgkodx2d","lat":33.28505,"address":"7415 New Watermelon Rd, Tuscaloosa, AL 35406, USA","long":-87.48997},"type":"Feature","geometry":{"type":"Point","coordinates":[-87.48997,33.28505]}},{"properties":{"id":"a7eicgqm5w4s","lat":33.28621,"address":"20004-20058 State Highway 216, Vance, AL 35490, USA","long":-87.17931},"type":"Feature","geometry":{"type":"Point","coordinates":[-87.17931,33.28621]}},{"properties":{"id":"a7eicgqr8w5r","lat":33.28685,"address":"19919 State Highway 216, Vance, AL 35111, USA","long":-87.18251},"type":"Feature","geometry":{"type":"Point","coordinates":[-87.18251,33.28685]}},{"properties":{"id":"a7eicgijaxjw","lat":33.28781,"address":"13393-13396 Douglas Dr, Lake View, AL 35111, USA","long":-87.13193},"type":"Feature","geometry":{"type":"Point","coordinates":[-87.13193,33.28781]}},{"properties":{"id":"a7eicgvnf8b0","lat":33.28841,"address":"19331-19625 State Highway 216, Vance, AL 35490, USA","long":-87.1956},"type":"Feature","geometry":{"type":"Point","coordinates":[-87.1956,33.28841]}},{"properties":{"id":"a7eicgknlezn","lat":33.29773,"address":"8604 Enterprise Ave NE, Tuscaloosa, AL 35406, USA","long":-87.49762},"type":"Feature","geometry":{"type":"Point","coordinates":[-87.49762,33.29773]}},{"properties":{"id":"a7eicgj8z2d5","lat":33.306,"address":"13899 Rock House Rd, Vance, AL 35490, USA","long":-87.15288},"type":"Feature","geometry":{"type":"Point","coordinates":[-87.15288,33.306]}},{"properties":{"id":"a7eicgqxd9v4","lat":33.30727,"address":"9687-9699 Lake Side Dr, Tuscaloosa, AL 35406, USA","long":-87.51066},"type":"Feature","geometry":{"type":"Point","coordinates":[-87.51066,33.30727]}},{"properties":{"id":"a7eicglorjrm","lat":33.30867,"address":"8200-8998 New Watermelon Rd, Tuscaloosa, AL 35406, USA","long":-87.49952},"type":"Feature","geometry":{"type":"Point","coordinates":[-87.49952,33.30867]}},{"properties":{"id":"a7eicgvhu703","lat":33.31729,"address":"3600-3700 Nicol Park Rd, Tuscaloosa, AL 35406, USA","long":-87.49106},"type":"Feature","geometry":{"type":"Point","coordinates":[-87.49106,33.31729]}}],"is_temporal":false,"author":{"url":"","metadata":null,"contact_name":null,"contact_address":null,"source":null,"contact_phone":null},"source":"","pagination":{"sort":null,"start":0,"total":187,"limit":1000000},"state":"complete","tags":"","published":"2014-08-14T16:30:27-04:00","id":211048}