{"type":"FeatureCollection","data_type":"Dataset","url_type":null,"permissions":[{"permissions":{"download":true,"view":true},"group_id":"everyone"}],"classification":null,"title":"today_torn_7","count":47,"stream_id":211209,"contributor":{"url":"http://geocommons.com/users/28467","name":"bheberto"},"data_attributes":null,"calculation_params":null,"icon_link":null,"link":"http://geocommons.com/overlays/211209.json","extent":[-89.68,34.78,-82.65,39.08],"geometry_types":["point"],"unique_name":null,"name":"today_torn_7","feature_count":47,"description":"","next_feature":null,"is_raster":false,"short_classification":"Y","stats":{"lon":{"max":-82.65,"variance":1.26134236817761,"mean":-86.075744680851,"stdev":1.12309499517076,"min":-89.68,"median":-86.02},"time":{"max":"2135/01/01 00:00:00 -0500","variance":4.02097022316936e+19,"mean":"1876/09/13 18:25:08 -0456","stdev":6341112065.85198,"min":"1542/12/31 23:59:58 -0456","median":"2003/01/01 00:00:00 -0500"},"lat":{"max":39.08,"variance":2.98058399629972,"mean":36.9682978723404,"stdev":1.72643679186344,"min":34.78,"median":37.76}},"features":[{"properties":{"lon":-86.57,"comments":"50 MPH WINDS WITH POWER LINES SPARKING...ROTATION REPORTED. TORNADO REPORTED ON GROUND (HUN)","time":{"end_time":"1544/01/01 00:00:00 -0456","original":"1543","granularity":"year","time":"1543/01/01 00:00:00 -0456"},"county":"MADISON","f-scale":"UNK","id":"a65qmttw3ft2","lat":34.86,"state":"AL","location":"5 S HAZEL GREEN"},"type":"Feature","geometry":{"type":"Point","coordinates":[-86.57,34.86]}},{"properties":{"lon":-86.57,"comments":"POWER LINES DOWN ON CAR (HUN)","time":{"end_time":"1548/01/01 00:00:00 -0456","original":"1547","granularity":"year","time":"1547/01/01 00:00:00 -0456"},"county":"MADISON","f-scale":"UNK","id":"a65qmtqujr2t","lat":34.89,"state":"AL","location":"3 N MERIDIANVILLE"},"type":"Feature","geometry":{"type":"Point","coordinates":[-86.57,34.89]}},{"properties":{"lon":-86.67,"comments":"RESEARCH PARK BLVD AND DAN TIBBS...FUNNEL CLOUD (HUN)","time":{"end_time":"1550/01/01 00:00:00 -0456","original":"1549","granularity":"year","time":"1549/01/01 00:00:00 -0456"},"county":"MADISON","f-scale":"UNK","id":"a65qmts60lwq","lat":34.78,"state":"AL","location":"6 NW HUNTSVILLE"},"type":"Feature","geometry":{"type":"Point","coordinates":[-86.67,34.78]}},{"properties":{"lon":-86.71,"comments":"RAIN WRAPPED TORNADO REPORTED ON THE GROUND AT NICK DAVID AND JEFF RD. (HUN)","time":{"end_time":"1557/01/01 00:00:00 -0456","original":"1556","granularity":"year","time":"1556/01/01 00:00:00 -0456"},"county":"MADISON","f-scale":"UNK","id":"a65qmtknv8oc","lat":34.81,"state":"AL","location":"4 SSE HARVEST"},"type":"Feature","geometry":{"type":"Point","coordinates":[-86.71,34.81]}},{"properties":{"lon":-86.66,"comments":"RAIN WRAP TORNADO (HUN)","time":{"end_time":"1602/01/01 00:00:00 -0456","original":"1601","granularity":"year","time":"1601/01/01 00:00:00 -0456"},"county":"MADISON","f-scale":"UNK","id":"a65qmtx27vs6","lat":34.82,"state":"AL","location":"5 WSW MERIDIANVILLE"},"type":"Feature","geometry":{"type":"Point","coordinates":[-86.66,34.82]}},{"properties":{"lon":-86.55,"comments":"RAIN WRAP TORNADO (HUN)","time":{"end_time":"1608/01/01 00:00:00 -0456","original":"1607","granularity":"year","time":"1607/01/01 00:00:00 -0456"},"county":"MADISON","f-scale":"UNK","id":"a65qmtob2u83","lat":34.85,"state":"AL","location":"1 E MERIDIANVILLE"},"type":"Feature","geometry":{"type":"Point","coordinates":[-86.55,34.85]}},{"properties":{"lon":-86.52,"comments":"TORNADO ON GROUND (HUN)","time":{"end_time":"1609/01/01 00:00:00 -0456","original":"1608","granularity":"year","time":"1608/01/01 00:00:00 -0456"},"county":"MADISON","f-scale":"UNK","id":"a65qmtxrlcr4","lat":34.86,"state":"AL","location":"3 E MERIDIANVILLE"},"type":"Feature","geometry":{"type":"Point","coordinates":[-86.52,34.86]}},{"properties":{"lon":-89.68,"comments":"TORNADO OBSERVED FUNNEL CLOUD 50FT OFF THE GROUND WITH DEBRIS UNDER IT...MINOR DAMAGE...FENCES KNOCKED DOWN (LSX)","time":{"end_time":"1611/01/01 00:00:00 -0456","original":"1610","granularity":"year","time":"1610/01/01 00:00:00 -0456"},"county":"CLINTON","f-scale":"UNK","id":"a65qmtwxefcr","lat":38.55,"state":"IL","location":"4 S TRENTON"},"type":"Feature","geometry":{"type":"Point","coordinates":[-89.68,38.55]}},{"properties":{"lon":-86.46,"comments":"TORNADO ON GROUND (HUN)","time":{"end_time":"1616/01/01 00:00:00 -0456","original":"1615","granularity":"year","time":"1615/01/01 00:00:00 -0456"},"county":"MADISON","f-scale":"UNK","id":"a65qmtsx43l9","lat":34.87,"state":"AL","location":"4 ENE MOORES MILL"},"type":"Feature","geometry":{"type":"Point","coordinates":[-86.46,34.87]}},{"properties":{"lon":-86.46,"comments":"PEOPLE TRAPPED IN RUBBLE WITH INJURIES (HUN)","time":{"end_time":"1620/01/01 00:00:00 -0456","original":"1619","granularity":"year","time":"1619/01/01 00:00:00 -0456"},"county":"MADISON","f-scale":"UNK","id":"a65qmtrc41nl","lat":34.87,"state":"AL","location":"4 ENE MOORES MILL"},"type":"Feature","geometry":{"type":"Point","coordinates":[-86.46,34.87]}},{"properties":{"lon":-86.51,"comments":"HOUSE DESTROYED (HUN)","time":{"end_time":"1620/01/01 00:00:00 -0456","original":"1619","granularity":"year","time":"1619/01/01 00:00:00 -0456"},"county":"MADISON","f-scale":"UNK","id":"a65qmtnmlf0i","lat":34.91,"state":"AL","location":"5 NE MERIDIANVILLE"},"type":"Feature","geometry":{"type":"Point","coordinates":[-86.51,34.91]}},{"properties":{"lon":-86.46,"comments":"TREES DOWN...CARS DAMAGED AND FARM HOUSE DESTROYED NEAR BUCKHORN HIGH SCHOOL (HUN)","time":{"end_time":"1633/01/01 00:00:00 -0456","original":"1632","granularity":"year","time":"1632/01/01 00:00:00 -0456"},"county":"MADISON","f-scale":"UNK","id":"a65qmtlq2u2q","lat":34.87,"state":"AL","location":"4 ENE MOORES MILL"},"type":"Feature","geometry":{"type":"Point","coordinates":[-86.46,34.87]}},{"properties":{"lon":-86.48,"comments":"POWERLINES DOWN AT BETH AND BUTLER ROADS (HUN)","time":{"end_time":"1644/01/01 00:00:00 -0456","original":"1643","granularity":"year","time":"1643/01/01 00:00:00 -0456"},"county":"MADISON","f-scale":"UNK","id":"a65qmtrvrwqm","lat":34.91,"state":"AL","location":"5 NNE MOORES MILL"},"type":"Feature","geometry":{"type":"Point","coordinates":[-86.48,34.91]}},{"properties":{"lon":-86.52,"comments":"POWER LINES DOWN ON ROADS AND DAMAGE TO FARM BUILDING (HUN)","time":{"end_time":"1655/01/01 00:00:00 -0456","original":"1654","granularity":"year","time":"1654/01/01 00:00:00 -0456"},"county":"MADISON","f-scale":"UNK","id":"a65qmtyuhwn9","lat":34.86,"state":"AL","location":"3 E MERIDIANVILLE"},"type":"Feature","geometry":{"type":"Point","coordinates":[-86.52,34.86]}},{"properties":{"lon":-85.09,"comments":"POSSIBLE TORNADO. TORNADO SPOTTED JUST WEST OF INTERSTATE 75 ON HUNTER RD. (MRX)","time":{"end_time":"1751/01/01 00:00:00 -0456","original":"1750","granularity":"year","time":"1750/01/01 00:00:00 -0456"},"county":"HAMILTON","f-scale":"UNK","id":"a65qmtzdyhwj","lat":35.06,"state":"TN","location":"OOLTEWAH"},"type":"Feature","geometry":{"type":"Point","coordinates":[-85.09,35.06]}},{"properties":{"lon":-84.87,"comments":"*** 6 INJ *** EMERGENCY MANAGER REPORTS 100 HOMES DAMAGED AND SEVERAL BUSINESSES DAMAGED (MRX)","time":{"end_time":"1806/01/01 00:00:00 -0456","original":"1805","granularity":"year","time":"1805/01/01 00:00:00 -0456"},"county":"BRADLEY","f-scale":"UNK","id":"a65qmtttflno","lat":35.18,"state":"TN","location":"CLEVELAND"},"type":"Feature","geometry":{"type":"Point","coordinates":[-84.87,35.18]}},{"properties":{"lon":-84.64,"comments":"POSSIBLE TORNADO. TORNADO SPOTTED NEAR DELANO. (MRX)","time":{"end_time":"1831/01/01 00:00:00 -0456","original":"1830","granularity":"year","time":"1830/01/01 00:00:00 -0456"},"county":"MCMINN","f-scale":"UNK","id":"a65qmtk6cgji","lat":35.3,"state":"TN","location":"7 WSW ETOWAH"},"type":"Feature","geometry":{"type":"Point","coordinates":[-84.64,35.3]}},{"properties":{"lon":-82.65,"comments":"SEVERE DAMAGE TO A HOME INCLUDING WINDOWS BROKEN AND COLLAPSED GARAGE. SEVERAL LARGE TREES AND POWER LINES REPORTED DOWN. (MRX)","time":{"end_time":"1841/01/01 00:00:00 -0456","original":"1840","granularity":"year","time":"1840/01/01 00:00:00 -0456"},"county":"TRANSYLVANIA","f-scale":"UNK","id":"a65qmtrnr8xr","lat":35.27,"state":"NC","location":"4 SW ETOWAH"},"type":"Feature","geometry":{"type":"Point","coordinates":[-82.65,35.27]}},{"properties":{"lon":-84.58,"comments":"SEVERE DAMAGE TO A HOME INCLUDING WINDOWS BROKEN AND COLLAPSED GARAGE. SEVERAL LARGE TREES AND POWER LINES REPORTED DOWN. (MRX)","time":{"end_time":"1841/01/01 00:00:00 -0456","original":"1840","granularity":"year","time":"1840/01/01 00:00:00 -0456"},"county":"MCMINN","f-scale":"UNK","id":"a65qmtkar84t","lat":35.29,"state":"TN","location":"4 SW ETOWAH"},"type":"Feature","geometry":{"type":"Point","coordinates":[-84.58,35.29]}},{"properties":{"lon":-87.84,"comments":"TORNADO REPORTED BY TRAINED SPOTTERS. TORNADO IS ESTIMATED TO BE 300 YARDS WIND. (PAH)","time":{"end_time":"1844/01/01 00:00:00 -0456","original":"1843","granularity":"year","time":"1843/01/01 00:00:00 -0456"},"county":"POSEY","f-scale":"UNK","id":"a65qmtm8sakc","lat":38.08,"state":"IN","location":"2 WNW HEPBURN"},"type":"Feature","geometry":{"type":"Point","coordinates":[-87.84,38.08]}},{"properties":{"lon":-84.3,"comments":"NUMEROUS TREES DOWN...MAJOR DAMAGE TO MOBILE HOMES...NUMEROUS HOUSES DAMAGED. (MRX)","time":{"end_time":"1855/01/01 00:00:00 -0456","original":"1854","granularity":"year","time":"1854/01/01 00:00:00 -0456"},"county":"MONROE","f-scale":"UNK","id":"a65qmtkzhtw3","lat":35.37,"state":"TN","location":"TELLICO PLAINS"},"type":"Feature","geometry":{"type":"Point","coordinates":[-84.3,35.37]}},{"properties":{"lon":-86.11,"comments":"REPORTED ON THE GROUND AND MOVING NORTHEAST. (LMK)","time":{"end_time":"1955/01/01 00:00:00 -0500","original":"1954","granularity":"year","time":"1954/01/01 00:00:00 -0500"},"county":"WASHINGTON","f-scale":"UNK","id":"a65qmtp0kg08","lat":38.44,"state":"IN","location":"2 N PALMYRA"},"type":"Feature","geometry":{"type":"Point","coordinates":[-86.11,38.44]}},{"properties":{"lon":-86.02,"comments":"JUST NORTH OF NEW PEKIN. (LMK)","time":{"end_time":"2001/01/01 00:00:00 -0500","original":"2000","granularity":"year","time":"2000/01/01 00:00:00 -0500"},"county":"WASHINGTON","f-scale":"UNK","id":"a65qmtyfi03e","lat":38.52,"state":"IN","location":"1 N NEW PEKIN"},"type":"Feature","geometry":{"type":"Point","coordinates":[-86.02,38.52]}},{"properties":{"lon":-86.02,"comments":"INJURIES IN TOWN (LMK)","time":{"end_time":"2004/01/01 00:00:00 -0500","original":"2003","granularity":"year","time":"2003/01/01 00:00:00 -0500"},"county":"WASHINGTON","f-scale":"UNK","id":"a65qmtnnfx8y","lat":38.5,"state":"IN","location":"NEW PEKIN"},"type":"Feature","geometry":{"type":"Point","coordinates":[-86.02,38.5]}},{"properties":{"lon":-87.58,"comments":"TORNADO SPOTTED BY TRAINED SPOTTER ON EAST SIDE OF COMMUNITY. NUMEROUS POWER FLASHES AND LOUD ROAR. (PAH)","time":{"end_time":"2006/01/01 00:00:00 -0500","original":"2005","granularity":"year","time":"2005/01/01 00:00:00 -0500"},"county":"HENDERSON","f-scale":"UNK","id":"a65qmtnbdsgp","lat":37.84,"state":"KY","location":"HENDERSON"},"type":"Feature","geometry":{"type":"Point","coordinates":[-87.58,37.84]}},{"properties":{"lon":-85.93,"comments":"REPORTED ON THE GROUND. (LMK)","time":{"end_time":"2007/01/01 00:00:00 -0500","original":"2006","granularity":"year","time":"2006/01/01 00:00:00 -0500"},"county":"WASHINGTON","f-scale":"UNK","id":"a65qmtotri37","lat":38.5,"state":"IN","location":"DAISY HILL"},"type":"Feature","geometry":{"type":"Point","coordinates":[-85.93,38.5]}},{"properties":{"lon":-87.82,"comments":"VERY LARGE TORNADO REPORTED BY STORM CHASER JUST OUTSIDE OF THE COMMUNITY OF CLAY. (PAH)","time":{"end_time":"2011/01/01 00:00:00 -0500","original":"2010","granularity":"year","time":"2010/01/01 00:00:00 -0500"},"county":"WEBSTER","f-scale":"UNK","id":"a65qmtqn6j46","lat":37.48,"state":"KY","location":"CLAY"},"type":"Feature","geometry":{"type":"Point","coordinates":[-87.82,37.48]}},{"properties":{"lon":-85.79,"comments":"TORNADO ON THE GROUND WEST OF SELLERSBURG. (LMK)","time":{"end_time":"2012/01/01 00:00:00 -0500","original":"2011","granularity":"year","time":"2011/01/01 00:00:00 -0500"},"county":"CLARK","f-scale":"UNK","id":"a65qmtpv0m2p","lat":38.39,"state":"IN","location":"2 W SELLERSBURG"},"type":"Feature","geometry":{"type":"Point","coordinates":[-85.79,38.39]}},{"properties":{"lon":-85.84,"comments":"(LMK)","time":{"end_time":"2012/01/01 00:00:00 -0500","original":"2011","granularity":"year","time":"2011/01/01 00:00:00 -0500"},"county":"CLARK","f-scale":"UNK","id":"a65qmtlsit3d","lat":38.53,"state":"IN","location":"4 W HENRYVILLE"},"type":"Feature","geometry":{"type":"Point","coordinates":[-85.84,38.53]}},{"properties":{"lon":-85.77,"comments":"SIGNIFICANT DAMAGE (LMK)","time":{"end_time":"2015/01/01 00:00:00 -0500","original":"2014","granularity":"year","time":"2014/01/01 00:00:00 -0500"},"county":"CLARK","f-scale":"UNK","id":"a65qmto2wicq","lat":38.53,"state":"IN","location":"HENRYVILLE"},"type":"Feature","geometry":{"type":"Point","coordinates":[-85.77,38.53]}},{"properties":{"lon":-85.77,"comments":"(LMK)","time":{"end_time":"2019/01/01 00:00:00 -0500","original":"2018","granularity":"year","time":"2018/01/01 00:00:00 -0500"},"county":"CLARK","f-scale":"UNK","id":"a65qmtofyi28","lat":38.53,"state":"IN","location":"HENRYVILLE"},"type":"Feature","geometry":{"type":"Point","coordinates":[-85.77,38.53]}},{"properties":{"lon":-85.63,"comments":"(LMK)","time":{"end_time":"2021/01/01 00:00:00 -0500","original":"2020","granularity":"year","time":"2020/01/01 00:00:00 -0500"},"county":"SCOTT","f-scale":"UNK","id":"a65qmtorwdvq","lat":38.61,"state":"IN","location":"NABB"},"type":"Feature","geometry":{"type":"Point","coordinates":[-85.63,38.61]}},{"properties":{"lon":-87.12,"comments":"TORNADO REPORTED NEAR 25TH STREET IN OWENSBORO PROPER. (PAH)","time":{"end_time":"2023/01/01 00:00:00 -0500","original":"2022","granularity":"year","time":"2022/01/01 00:00:00 -0500"},"county":"DAVIESS","f-scale":"UNK","id":"a65qmtxz8l5h","lat":37.76,"state":"KY","location":"OWENSBORO"},"type":"Feature","geometry":{"type":"Point","coordinates":[-87.12,37.76]}},{"properties":{"lon":-87.12,"comments":"REPORTED NEAR EASTVIEW ELEMENTARY SCHOOL OFF HWY 405. (PAH)","time":{"end_time":"2026/01/01 00:00:00 -0500","original":"2025","granularity":"year","time":"2025/01/01 00:00:00 -0500"},"county":"DAVIESS","f-scale":"UNK","id":"a65qmtvk5a8m","lat":37.76,"state":"KY","location":"OWENSBORO"},"type":"Feature","geometry":{"type":"Point","coordinates":[-87.12,37.76]}},{"properties":{"lon":-85.65,"comments":"REPORTED ON THE GROUND. (LMK)","time":{"end_time":"2026/01/01 00:00:00 -0500","original":"2025","granularity":"year","time":"2025/01/01 00:00:00 -0500"},"county":"CLARK","f-scale":"UNK","id":"a65qmtql2ndx","lat":38.58,"state":"IN","location":"MARYSVILLE"},"type":"Feature","geometry":{"type":"Point","coordinates":[-85.65,38.58]}},{"properties":{"lon":-85.37,"comments":"(LMK)","time":{"end_time":"2041/01/01 00:00:00 -0500","original":"2040","granularity":"year","time":"2040/01/01 00:00:00 -0500"},"county":"TRIMBLE","f-scale":"UNK","id":"a65qmtzekaq4","lat":38.71,"state":"KY","location":"MILTON"},"type":"Feature","geometry":{"type":"Point","coordinates":[-85.37,38.71]}},{"properties":{"lon":-85.67,"comments":"(LMK)","time":{"end_time":"2042/01/01 00:00:00 -0500","original":"2041","granularity":"year","time":"2041/01/01 00:00:00 -0500"},"county":"CLARK","f-scale":"UNK","id":"a65qmtu96bhh","lat":38.53,"state":"IN","location":"OTISCO"},"type":"Feature","geometry":{"type":"Point","coordinates":[-85.67,38.53]}},{"properties":{"lon":-85.37,"comments":"FIRE DEPARTMENT DAMAGED. (LMK)","time":{"end_time":"2047/01/01 00:00:00 -0500","original":"2046","granularity":"year","time":"2046/01/01 00:00:00 -0500"},"county":"TRIMBLE","f-scale":"UNK","id":"a65qmtkc14nv","lat":38.71,"state":"KY","location":"MILTON"},"type":"Feature","geometry":{"type":"Point","coordinates":[-85.37,38.71]}},{"properties":{"lon":-85.95,"comments":"BORDEN HIGH SCHOOL WAS DAMAGED. (LMK)","time":{"end_time":"2048/01/01 00:00:00 -0500","original":"2047","granularity":"year","time":"2047/01/01 00:00:00 -0500"},"county":"CLARK","f-scale":"UNK","id":"a65qmtm4grl8","lat":38.47,"state":"IN","location":"BORDEN"},"type":"Feature","geometry":{"type":"Point","coordinates":[-85.95,38.47]}},{"properties":{"lon":-85.22,"comments":"SPOTTERS REPORT TORNADO ON THE GROUND NEAR KINGDALE ROAD IN WESTERN CARROLL COUNTY. (ILN)","time":{"end_time":"2048/01/01 00:00:00 -0500","original":"2047","granularity":"year","time":"2047/01/01 00:00:00 -0500"},"county":"CARROLL","f-scale":"UNK","id":"a65qmtyw7otd","lat":38.68,"state":"KY","location":"3 W CARROLLTON"},"type":"Feature","geometry":{"type":"Point","coordinates":[-85.22,38.68]}},{"properties":{"lon":-87.22,"comments":"MULIPLE REPORTS OF TORNADO ALONG LIND CITY ROAD. (PAH)","time":{"end_time":"2052/01/01 00:00:00 -0500","original":"2051","granularity":"year","time":"2051/01/01 00:00:00 -0500"},"county":"MUHLENBERG","f-scale":"UNK","id":"a65qmtyc3rhs","lat":37.36,"state":"KY","location":"BREMEN"},"type":"Feature","geometry":{"type":"Point","coordinates":[-87.22,37.36]}},{"properties":{"lon":-85.38,"comments":"REPORT OF TORNADO ON THE GROUND. FLIPPED CAR SEVERAL TIMES. (ILN)","time":{"end_time":"2060/01/01 00:00:00 -0500","original":"2059","granularity":"year","time":"2059/01/01 00:00:00 -0500"},"county":"RIPLEY","f-scale":"UNK","id":"a65qmtmc7i4e","lat":39.08,"state":"IN","location":"HOLTON"},"type":"Feature","geometry":{"type":"Point","coordinates":[-85.38,39.08]}},{"properties":{"lon":-85.38,"comments":"SEVERAL HOMES DESTROYED","time":{"end_time":"2108/01/01 00:00:00 -0500","original":"2107","granularity":"year","time":"2107/01/01 00:00:00 -0500"},"county":"RIPLEY","f-scale":"UNK","id":"a65qmtr9mgj5","lat":39.08,"state":"IN","location":"HOLTON"},"type":"Feature","geometry":{"type":"Point","coordinates":[-85.38,39.08]}},{"properties":{"lon":-86.03,"comments":"(LMK)","time":{"end_time":"2109/01/01 00:00:00 -0500","original":"2108","granularity":"year","time":"2108/01/01 00:00:00 -0500"},"county":"MEADE","f-scale":"UNK","id":"a65qmtolld4w","lat":37.94,"state":"KY","location":"5 NW FORT KNOX"},"type":"Feature","geometry":{"type":"Point","coordinates":[-86.03,37.94]}},{"properties":{"lon":-84.72,"comments":"DEBRIS FALLING OUT OF THE SKY. NO TORNADO SIGHTED AT THIS LOCATION BY THIS SPOTTER. (ILN)","time":{"end_time":"2111/01/01 00:00:00 -0500","original":"2110","granularity":"year","time":"2110/01/01 00:00:00 -0500"},"county":"BOONE","f-scale":"UNK","id":"a65qmtorio7l","lat":39.02,"state":"KY","location":"BURLINGTON"},"type":"Feature","geometry":{"type":"Point","coordinates":[-84.72,39.02]}},{"properties":{"lon":-87.38,"comments":"TORNADO REPORTED IN DICKSON","time":{"end_time":"2126/01/01 00:00:00 -0500","original":"2125","granularity":"year","time":"2125/01/01 00:00:00 -0500"},"county":"DICKSON","f-scale":"UNK","id":"a65qmtvfgq3b","lat":36.08,"state":"TN","location":"DICKSON"},"type":"Feature","geometry":{"type":"Point","coordinates":[-87.38,36.08]}},{"properties":{"lon":-84.91,"comments":"SEVERAL REPORTS OF DAMAGE CAUSED BY POSSIBLE TORNADO...INCLUDING TRAILER DESTROYED AS WELL AS SILO AND BARN DAMAGE. (ILN)","time":{"end_time":"2136/01/01 00:00:00 -0500","original":"2135","granularity":"year","time":"2135/01/01 00:00:00 -0500"},"county":"OWEN","f-scale":"UNK","id":"a65qmtm9b9jh","lat":38.62,"state":"KY","location":"NEW LIBERTY"},"type":"Feature","geometry":{"type":"Point","coordinates":[-84.91,38.62]}}],"is_temporal":true,"author":{"url":"","metadata":null,"contact_name":null,"contact_address":null,"source":null,"contact_phone":null},"source":"","pagination":{"sort":null,"start":0,"total":47,"limit":1000000},"state":"complete","tags":"","published":"2014-08-14T16:43:57-04:00","id":211209}