{"type":"FeatureCollection","data_type":"Dataset","url_type":null,"permissions":[{"permissions":{"download":true,"view":true},"group_id":"everyone"}],"classification":null,"title":"2012.3.2 NWS Tornado Report","count":117,"stream_id":211584,"contributor":{"url":"http://geocommons.com/users/1842","name":"geomatt1"},"data_attributes":null,"calculation_params":null,"icon_link":null,"link":"http://geocommons.com/overlays/211584.json","extent":[-89.68,31.08,-81.07,39.08],"geometry_types":["point"],"unique_name":"","name":"2012.3.2 NWS Tornado Report","feature_count":117,"description":"","next_feature":null,"is_raster":false,"short_classification":"Y","stats":{"lon":{"max":-81.07,"mean":-85.3437606837607,"variance":2.39931159740643,"stdev":1.54897114156669,"min":-89.68,"median":-85.38},"time":{"max":2352,"mean":1695.32478632479,"variance":571083.600501032,"stdev":755.700734749565,"min":5,"median":2025},"lat":{"max":39.08,"mean":36.6255555555556,"variance":4.79306283524904,"stdev":2.18930647357766,"min":31.08,"median":37.3}},"features":[{"properties":{"lon":-86.95,"column_10":null,"comments":"A LONG TRACK EF-3 TORNADO BEGAN IN EAST CENTRAL LIMESTONE COUNTY AND TRACKED OVER 34 MILES LIFTING IN EXTREME NORTHEAST MADISON COUNTY. MAXIMUM PATH WIDTH WAS 250 YARDS (HUN)","time":1510,"county":"LIMESTONE","column_9":null,"f-scale":"UNK","id":"a63bn513vie8","lat":34.76,"state":"AL","location":"3 SSE ATHENS"},"type":"Feature","geometry":{"type":"Point","coordinates":[-86.95,34.76]}},{"properties":{"lon":-86.57,"column_10":null,"comments":"50 MPH WINDS WITH POWER LINES SPARKING...ROTATION REPORTED. TORNADO REPORTED ON GROUND (HUN)","time":1543,"county":"MADISON","column_9":null,"f-scale":"UNK","id":"a63bn573nvsk","lat":34.86,"state":"AL","location":"5 S HAZEL GREEN"},"type":"Feature","geometry":{"type":"Point","coordinates":[-86.57,34.86]}},{"properties":{"lon":-86.57,"column_10":null,"comments":"POWER LINES DOWN ON CAR (HUN)","time":1547,"county":"MADISON","column_9":null,"f-scale":"UNK","id":"a63bn4yjufxw","lat":34.89,"state":"AL","location":"3 N MERIDIANVILLE"},"type":"Feature","geometry":{"type":"Point","coordinates":[-86.57,34.89]}},{"properties":{"lon":-86.67,"column_10":null,"comments":"RESEARCH PARK BLVD AND DAN TIBBS...FUNNEL CLOUD (HUN)","time":1549,"county":"MADISON","column_9":null,"f-scale":"UNK","id":"a63bn4yt25il","lat":34.78,"state":"AL","location":"6 NW HUNTSVILLE"},"type":"Feature","geometry":{"type":"Point","coordinates":[-86.67,34.78]}},{"properties":{"lon":-86.71,"column_10":null,"comments":"RAIN WRAPPED TORNADO REPORTED ON THE GROUND AT NICK DAVID AND JEFF RD. (HUN)","time":1556,"county":"MADISON","column_9":null,"f-scale":"UNK","id":"a63bn4umjj8u","lat":34.81,"state":"AL","location":"4 SSE HARVEST"},"type":"Feature","geometry":{"type":"Point","coordinates":[-86.71,34.81]}},{"properties":{"lon":-86.66,"column_10":null,"comments":"RAIN WRAP TORNADO (HUN)","time":1601,"county":"MADISON","column_9":null,"f-scale":"UNK","id":"a63bn54hsg6z","lat":34.82,"state":"AL","location":"5 WSW MERIDIANVILLE"},"type":"Feature","geometry":{"type":"Point","coordinates":[-86.66,34.82]}},{"properties":{"lon":-86.55,"column_10":null,"comments":"RAIN WRAP TORNADO (HUN)","time":1607,"county":"MADISON","column_9":null,"f-scale":"UNK","id":"a63bn53ks5yt","lat":34.85,"state":"AL","location":"1 E MERIDIANVILLE"},"type":"Feature","geometry":{"type":"Point","coordinates":[-86.55,34.85]}},{"properties":{"lon":-86.52,"column_10":null,"comments":"TORNADO ON GROUND (HUN)","time":1608,"county":"MADISON","column_9":null,"f-scale":"UNK","id":"a63bn50trfyu","lat":34.86,"state":"AL","location":"3 E MERIDIANVILLE"},"type":"Feature","geometry":{"type":"Point","coordinates":[-86.52,34.86]}},{"properties":{"lon":-89.68,"column_10":null,"comments":"TORNADO OBSERVED FUNNEL CLOUD 50FT OFF THE GROUND WITH DEBRIS UNDER IT...MINOR DAMAGE...FENCES KNOCKED DOWN (LSX)","time":1610,"county":"CLINTON","column_9":null,"f-scale":"UNK","id":"a63bn4ztsfu7","lat":38.55,"state":"IL","location":"4 S TRENTON"},"type":"Feature","geometry":{"type":"Point","coordinates":[-89.68,38.55]}},{"properties":{"lon":-86.46,"column_10":null,"comments":"TORNADO ON GROUND (HUN)","time":1615,"county":"MADISON","column_9":null,"f-scale":"UNK","id":"a63bn58qflix","lat":34.87,"state":"AL","location":"4 ENE MOORES MILL"},"type":"Feature","geometry":{"type":"Point","coordinates":[-86.46,34.87]}},{"properties":{"lon":-86.46,"column_10":null,"comments":"PEOPLE TRAPPED IN RUBBLE WITH INJURIES (HUN)","time":1619,"county":"MADISON","column_9":null,"f-scale":"UNK","id":"a63bn4u5yumy","lat":34.87,"state":"AL","location":"4 ENE MOORES MILL"},"type":"Feature","geometry":{"type":"Point","coordinates":[-86.46,34.87]}},{"properties":{"lon":-86.51,"column_10":null,"comments":"HOUSE DESTROYED (HUN)","time":1619,"county":"MADISON","column_9":null,"f-scale":"UNK","id":"a63bn58lr299","lat":34.91,"state":"AL","location":"5 NE MERIDIANVILLE"},"type":"Feature","geometry":{"type":"Point","coordinates":[-86.51,34.91]}},{"properties":{"lon":-86.46,"column_10":null,"comments":"TREES DOWN...CARS DAMAGED AND FARM HOUSE DESTROYED NEAR BUCKHORN HIGH SCHOOL (HUN)","time":1632,"county":"MADISON","column_9":null,"f-scale":"UNK","id":"a63bn4uvu7rp","lat":34.87,"state":"AL","location":"4 ENE MOORES MILL"},"type":"Feature","geometry":{"type":"Point","coordinates":[-86.46,34.87]}},{"properties":{"lon":-86.48,"column_10":null,"comments":"POWERLINES DOWN AT BETH AND BUTLER ROADS (HUN)","time":1643,"county":"MADISON","column_9":null,"f-scale":"UNK","id":"a63bn56bgx4l","lat":34.91,"state":"AL","location":"5 NNE MOORES MILL"},"type":"Feature","geometry":{"type":"Point","coordinates":[-86.48,34.91]}},{"properties":{"lon":-86.52,"column_10":null,"comments":"POWER LINES DOWN ON ROADS AND DAMAGE TO FARM BUILDING (HUN)","time":1654,"county":"MADISON","column_9":null,"f-scale":"UNK","id":"a63bn4uzpu72","lat":34.86,"state":"AL","location":"3 E MERIDIANVILLE"},"type":"Feature","geometry":{"type":"Point","coordinates":[-86.52,34.86]}},{"properties":{"lon":-85.15,"column_10":null,"comments":"PRELIMINARY SURVEY FOUND EF1 TORNADO WITH MAX WINDS OF 110 MPH. DAMAGE WAS FOUND AT A MARINA IN HARRISON AND ON HUNTER RD. (MRX)","time":1745,"county":"HAMILTON","column_9":null,"f-scale":"UNK","id":"a63bn53i2vf1","lat":35.13,"state":"TN","location":"HARRISON"},"type":"Feature","geometry":{"type":"Point","coordinates":[-85.15,35.13]}},{"properties":{"lon":-85.09,"column_10":null,"comments":"POSSIBLE TORNADO. TORNADO SPOTTED JUST WEST OF INTERSTATE 75 ON HUNTER RD. (MRX)","time":1750,"county":"HAMILTON","column_9":null,"f-scale":"UNK","id":"a63bn4z8z4hj","lat":35.06,"state":"TN","location":"OOLTEWAH"},"type":"Feature","geometry":{"type":"Point","coordinates":[-85.09,35.06]}},{"properties":{"lon":-84.87,"column_10":null,"comments":"*** 6 INJ *** EMERGENCY MANAGER REPORTS 100 HOMES DAMAGED AND SEVERAL BUSINESSES DAMAGED (MRX)","time":1805,"county":"BRADLEY","column_9":null,"f-scale":"UNK","id":"a63bn4vr0oji","lat":35.18,"state":"TN","location":"CLEVELAND"},"type":"Feature","geometry":{"type":"Point","coordinates":[-84.87,35.18]}},{"properties":{"lon":-84.64,"column_10":null,"comments":"POSSIBLE TORNADO. TORNADO SPOTTED NEAR DELANO. (MRX)","time":1830,"county":"MCMINN","column_9":null,"f-scale":"UNK","id":"a63bn4xlfpus","lat":35.3,"state":"TN","location":"7 WSW ETOWAH"},"type":"Feature","geometry":{"type":"Point","coordinates":[-84.64,35.3]}},{"properties":{"lon":-87.85,"column_10":null,"comments":"EF-2 TORNADO WITH PEAK WINDS NEAR 125 MPH. 6 MILE PATH LENGTH. AVERAGE PATH WIDTH 140 YARDS. ONE HOUSE DESTROYED AND SEVERAL OTHERS MODERATELY DAMAGED. EQUIPMENT SHEDS (PAH)","time":1837,"county":"POSEY","column_9":null,"f-scale":"UNK","id":"a63bn4yzxtro","lat":38.08,"state":"IN","location":"4 WSW WADESVILLE"},"type":"Feature","geometry":{"type":"Point","coordinates":[-87.85,38.08]}},{"properties":{"lon":-82.65,"column_10":null,"comments":"SEVERE DAMAGE TO A HOME INCLUDING WINDOWS BROKEN AND COLLAPSED GARAGE. SEVERAL LARGE TREES AND POWER LINES REPORTED DOWN. (MRX)","time":1840,"county":"TRANSYLVANIA","column_9":null,"f-scale":"UNK","id":"a63bn53g31ih","lat":35.27,"state":"NC","location":"4 SW ETOWAH"},"type":"Feature","geometry":{"type":"Point","coordinates":[-82.65,35.27]}},{"properties":{"lon":-84.58,"column_10":null,"comments":"SEVERE DAMAGE TO A HOME INCLUDING WINDOWS BROKEN AND COLLAPSED GARAGE. SEVERAL LARGE TREES AND POWER LINES REPORTED DOWN. (MRX)","time":1840,"county":"MCMINN","column_9":null,"f-scale":"UNK","id":"a63bn59u6y1i","lat":35.29,"state":"TN","location":"4 SW ETOWAH"},"type":"Feature","geometry":{"type":"Point","coordinates":[-84.58,35.29]}},{"properties":{"lon":-87.84,"column_10":null,"comments":"TORNADO REPORTED BY TRAINED SPOTTERS. TORNADO IS ESTIMATED TO BE 300 YARDS WIND. (PAH)","time":1843,"county":"POSEY","column_9":null,"f-scale":"UNK","id":"a63bn570lv0n","lat":38.08,"state":"IN","location":"2 WNW HEPBURN"},"type":"Feature","geometry":{"type":"Point","coordinates":[-87.84,38.08]}},{"properties":{"lon":-84.3,"column_10":null,"comments":"POSSIBLE TORNADO. TORNADO SPOTTED IN TELLICO PLAINS. NUMEROUS TREES AND POWER LINES DOWN. (MRX)","time":1845,"county":"MONROE","column_9":null,"f-scale":"UNK","id":"a63bn4xha8lp","lat":35.37,"state":"TN","location":"TELLICO PLAINS"},"type":"Feature","geometry":{"type":"Point","coordinates":[-84.3,35.37]}},{"properties":{"lon":-84.3,"column_10":null,"comments":"NUMEROUS TREES DOWN...MAJOR DAMAGE TO MOBILE HOMES...NUMEROUS HOUSES DAMAGED. (MRX)","time":1854,"county":"MONROE","column_9":null,"f-scale":"UNK","id":"a63bn4ufov4z","lat":35.37,"state":"TN","location":"TELLICO PLAINS"},"type":"Feature","geometry":{"type":"Point","coordinates":[-84.3,35.37]}},{"properties":{"lon":-86.11,"column_10":null,"comments":"REPORTED ON THE GROUND AND MOVING NORTHEAST. (LMK)","time":1954,"county":"WASHINGTON","column_9":null,"f-scale":"UNK","id":"a63bn587v6ut","lat":38.44,"state":"IN","location":"2 N PALMYRA"},"type":"Feature","geometry":{"type":"Point","coordinates":[-86.11,38.44]}},{"properties":{"lon":-86.02,"column_10":null,"comments":"JUST NORTH OF NEW PEKIN. (LMK)","time":2000,"county":"WASHINGTON","column_9":null,"f-scale":"UNK","id":"a63bn4vgzff3","lat":38.52,"state":"IN","location":"1 N NEW PEKIN"},"type":"Feature","geometry":{"type":"Point","coordinates":[-86.02,38.52]}},{"properties":{"lon":-86.02,"column_10":null,"comments":"INJURIES IN TOWN (LMK)","time":2003,"county":"WASHINGTON","column_9":null,"f-scale":"UNK","id":"a63bn4tv21gz","lat":38.5,"state":"IN","location":"NEW PEKIN"},"type":"Feature","geometry":{"type":"Point","coordinates":[-86.02,38.5]}},{"properties":{"lon":-87.58,"column_10":null,"comments":"TORNADO SPOTTED BY TRAINED SPOTTER ON EAST SIDE OF COMMUNITY. NUMEROUS POWER FLASHES AND LOUD ROAR. (PAH)","time":2005,"county":"HENDERSON","column_9":null,"f-scale":"UNK","id":"a63bn597jhg4","lat":37.84,"state":"KY","location":"HENDERSON"},"type":"Feature","geometry":{"type":"Point","coordinates":[-87.58,37.84]}},{"properties":{"lon":-85.93,"column_10":null,"comments":"REPORTED ON THE GROUND. (LMK)","time":2006,"county":"WASHINGTON","column_9":null,"f-scale":"UNK","id":"a63bn501b0g3","lat":38.5,"state":"IN","location":"DAISY HILL"},"type":"Feature","geometry":{"type":"Point","coordinates":[-85.93,38.5]}},{"properties":{"lon":-87.82,"column_10":null,"comments":"VERY LARGE TORNADO REPORTED BY STORM CHASER JUST OUTSIDE OF THE COMMUNITY OF CLAY. (PAH)","time":2010,"county":"WEBSTER","column_9":null,"f-scale":"UNK","id":"a63bn4zojpg5","lat":37.48,"state":"KY","location":"CLAY"},"type":"Feature","geometry":{"type":"Point","coordinates":[-87.82,37.48]}},{"properties":{"lon":-85.79,"column_10":null,"comments":"TORNADO ON THE GROUND WEST OF SELLERSBURG. (LMK)","time":2011,"county":"CLARK","column_9":null,"f-scale":"UNK","id":"a63bn52agqf1","lat":38.39,"state":"IN","location":"2 W SELLERSBURG"},"type":"Feature","geometry":{"type":"Point","coordinates":[-85.79,38.39]}},{"properties":{"lon":-85.84,"column_10":null,"comments":"(LMK)","time":2011,"county":"CLARK","column_9":null,"f-scale":"UNK","id":"a63bn524jjg9","lat":38.53,"state":"IN","location":"4 W HENRYVILLE"},"type":"Feature","geometry":{"type":"Point","coordinates":[-85.84,38.53]}},{"properties":{"lon":-85.77,"column_10":null,"comments":"SIGNIFICANT DAMAGE (LMK)","time":2014,"county":"CLARK","column_9":null,"f-scale":"UNK","id":"a63bn4ynq29z","lat":38.53,"state":"IN","location":"HENRYVILLE"},"type":"Feature","geometry":{"type":"Point","coordinates":[-85.77,38.53]}},{"properties":{"lon":-85.77,"column_10":null,"comments":"(LMK)","time":2018,"county":"CLARK","column_9":null,"f-scale":"UNK","id":"a63bn4vwiztz","lat":38.53,"state":"IN","location":"HENRYVILLE"},"type":"Feature","geometry":{"type":"Point","coordinates":[-85.77,38.53]}},{"properties":{"lon":-85.63,"column_10":null,"comments":"(LMK)","time":2020,"county":"SCOTT","column_9":null,"f-scale":"UNK","id":"a63bn59tw34w","lat":38.61,"state":"IN","location":"NABB"},"type":"Feature","geometry":{"type":"Point","coordinates":[-85.63,38.61]}},{"properties":{"lon":-87.12,"column_10":null,"comments":"TORNADO REPORTED NEAR 25TH STREET IN OWENSBORO PROPER. (PAH)","time":2022,"county":"DAVIESS","column_9":null,"f-scale":"UNK","id":"a63bn55vocvl","lat":37.76,"state":"KY","location":"OWENSBORO"},"type":"Feature","geometry":{"type":"Point","coordinates":[-87.12,37.76]}},{"properties":{"lon":-87.12,"column_10":null,"comments":"REPORTED NEAR EASTVIEW ELEMENTARY SCHOOL OFF HWY 405. (PAH)","time":2025,"county":"DAVIESS","column_9":null,"f-scale":"UNK","id":"a63bn4vomsoo","lat":37.76,"state":"KY","location":"OWENSBORO"},"type":"Feature","geometry":{"type":"Point","coordinates":[-87.12,37.76]}},{"properties":{"lon":-85.65,"column_10":null,"comments":"REPORTED ON THE GROUND. (LMK)","time":2025,"county":"CLARK","column_9":null,"f-scale":"UNK","id":"a63bn4vjpq2g","lat":38.58,"state":"IN","location":"MARYSVILLE"},"type":"Feature","geometry":{"type":"Point","coordinates":[-85.65,38.58]}},{"properties":{"lon":-86.74,"column_10":null,"comments":"TORNADO DAMAGE REPORTED IN BOONSHILL. SHINGLES BLOWN OFF OF THE COMMUNITY CENTER AND SEVERAL TREES WERE UPROOTED. (HUN)","time":2040,"county":"LINCOLN","column_9":null,"f-scale":"UNK","id":"a63bn561q02f","lat":35.21,"state":"TN","location":"BOONSHILL"},"type":"Feature","geometry":{"type":"Point","coordinates":[-86.74,35.21]}},{"properties":{"lon":-85.37,"column_10":null,"comments":"(LMK)","time":2040,"county":"TRIMBLE","column_9":null,"f-scale":"UNK","id":"a63bn553hhuz","lat":38.71,"state":"KY","location":"MILTON"},"type":"Feature","geometry":{"type":"Point","coordinates":[-85.37,38.71]}},{"properties":{"lon":-85.67,"column_10":null,"comments":"(LMK)","time":2041,"county":"CLARK","column_9":null,"f-scale":"UNK","id":"a63bn59ua7ey","lat":38.53,"state":"IN","location":"OTISCO"},"type":"Feature","geometry":{"type":"Point","coordinates":[-85.67,38.53]}},{"properties":{"lon":-86.7,"column_10":null,"comments":"AN EF-0 TORNADO WITH MAXIMUM WINDS AT 65 MPH HAD A .6 MILE PATH AND A 50 YARD PATH WIDTH. THE TORNADO PRODUCED MINOR SHINGLE DAMAGE TO THE BOONSHILL COMMUNITY CENTER... (HUN)","time":2045,"county":"LINCOLN","column_9":null,"f-scale":"UNK","id":"a63bn4y83tsv","lat":35.26,"state":"TN","location":"11 NW FAYETTEVILLE"},"type":"Feature","geometry":{"type":"Point","coordinates":[-86.7,35.26]}},{"properties":{"lon":-85.23,"column_10":null,"comments":"AT LEAST 8 TO 10 HOUSES REPORTED TO HAVE SIGNIFICANT DAMAGE ON KINGS RIDGE RD. 1 HOME DESTROYED. NUMEROUS TREES AND WIRES DOWN. ALL DAMAGE REPORTED TO BE IN A 3 TO 4 BL (ILN)","time":2046,"county":"CARROLL","column_9":null,"f-scale":"UNK","id":"a63bn551z7mb","lat":38.67,"state":"KY","location":"4 W CARROLLTON"},"type":"Feature","geometry":{"type":"Point","coordinates":[-85.23,38.67]}},{"properties":{"lon":-85.37,"column_10":null,"comments":"FIRE DEPARTMENT DAMAGED. (LMK)","time":2046,"county":"TRIMBLE","column_9":null,"f-scale":"UNK","id":"a63bn56nngy9","lat":38.71,"state":"KY","location":"MILTON"},"type":"Feature","geometry":{"type":"Point","coordinates":[-85.37,38.71]}},{"properties":{"lon":-85.95,"column_10":null,"comments":"BORDEN HIGH SCHOOL WAS DAMAGED. (LMK)","time":2047,"county":"CLARK","column_9":null,"f-scale":"UNK","id":"a63bn4z4cr9a","lat":38.47,"state":"IN","location":"BORDEN"},"type":"Feature","geometry":{"type":"Point","coordinates":[-85.95,38.47]}},{"properties":{"lon":-85.22,"column_10":null,"comments":"SPOTTERS REPORT TORNADO ON THE GROUND NEAR KINGDALE ROAD IN WESTERN CARROLL COUNTY. (ILN)","time":2047,"county":"CARROLL","column_9":null,"f-scale":"UNK","id":"a63bn52rvjwa","lat":38.68,"state":"KY","location":"3 W CARROLLTON"},"type":"Feature","geometry":{"type":"Point","coordinates":[-85.22,38.68]}},{"properties":{"lon":-87.22,"column_10":null,"comments":"MULIPLE REPORTS OF TORNADO ALONG LIND CITY ROAD. (PAH)","time":2051,"county":"MUHLENBERG","column_9":null,"f-scale":"UNK","id":"a63bn4wdcpvw","lat":37.36,"state":"KY","location":"BREMEN"},"type":"Feature","geometry":{"type":"Point","coordinates":[-87.22,37.36]}},{"properties":{"lon":-85.23,"column_10":null,"comments":"AT LEAST 8 TO 10 HOUSES REPORTED TO HAVE SIGNIFICANT DAMAGE ON KINGS RIDGE RD. 1 HOME DESTROYED. NUMEROUS TREES AND WIRES DOWN. ALL DAMAGE REPORTED TO BE IN A 3 TO 4 BL (ILN)","time":2051,"county":"CARROLL","column_9":null,"f-scale":"UNK","id":"a63bn56ivewv","lat":38.67,"state":"KY","location":"4 W CARROLLTON"},"type":"Feature","geometry":{"type":"Point","coordinates":[-85.23,38.67]}},{"properties":{"lon":-85.38,"column_10":null,"comments":"MEDIA SOURCING THE COUNTY SHERIFF REPORTING 4 KILLED IN HOLTON. (ILN)","time":2054,"county":"RIPLEY","column_9":null,"f-scale":"UNK","id":"a63bn56aqb9t","lat":39.08,"state":"IN","location":"HOLTON"},"type":"Feature","geometry":{"type":"Point","coordinates":[-85.38,39.08]}},{"properties":{"lon":-85.38,"column_10":null,"comments":"REPORT OF TORNADO ON THE GROUND. FLIPPED CAR SEVERAL TIMES. (ILN)","time":2059,"county":"RIPLEY","column_9":null,"f-scale":"UNK","id":"a63bn4xozpeh","lat":39.08,"state":"IN","location":"HOLTON"},"type":"Feature","geometry":{"type":"Point","coordinates":[-85.38,39.08]}},{"properties":{"lon":-85.38,"column_10":null,"comments":"SEVERAL HOMES DESTROYED","time":2107,"county":"RIPLEY","column_9":"1 INJURY (ILN)","f-scale":"UNK","id":"a63bn52h1jzc","lat":39.08,"state":"IN","location":"HOLTON"},"type":"Feature","geometry":{"type":"Point","coordinates":[-85.38,39.08]}},{"properties":{"lon":-86.03,"column_10":null,"comments":"(LMK)","time":2108,"county":"MEADE","column_9":null,"f-scale":"UNK","id":"a63bn4ujn0op","lat":37.94,"state":"KY","location":"5 NW FORT KNOX"},"type":"Feature","geometry":{"type":"Point","coordinates":[-86.03,37.94]}},{"properties":{"lon":-84.72,"column_10":null,"comments":"DEBRIS FALLING OUT OF THE SKY. NO TORNADO SIGHTED AT THIS LOCATION BY THIS SPOTTER. (ILN)","time":2110,"county":"BOONE","column_9":null,"f-scale":"UNK","id":"a63bn53fqqls","lat":39.02,"state":"KY","location":"BURLINGTON"},"type":"Feature","geometry":{"type":"Point","coordinates":[-84.72,39.02]}},{"properties":{"lon":-87.38,"column_10":null,"comments":"TORNADO REPORTED IN DICKSON","time":2125,"county":"DICKSON","column_9":"SOUTH OF HIGHWAY 48. REPORT RECEIVED FROM EMERGENCY MANAGEMENT. (OHX)","f-scale":"UNK","id":"a63bn4ypc8xz","lat":36.08,"state":"TN","location":"DICKSON"},"type":"Feature","geometry":{"type":"Point","coordinates":[-87.38,36.08]}},{"properties":{"lon":-84.82,"column_10":null,"comments":"POSSIBLE TORNADO. BARN AND HOME DESTROYED. TRACTOR TRAILER PUSHED ON ITS SIDE. HIGH TENSION STRUCTURE DAMAGED. TREES SNAPPED. POSSIBLY 3 INJURIES. MOST DAMAGE NEAR THE (ILN)","time":2132,"county":"OWEN","column_9":null,"f-scale":"UNK","id":"a63bn55fmnt0","lat":38.62,"state":"KY","location":"2 N LONG RIDGE"},"type":"Feature","geometry":{"type":"Point","coordinates":[-84.82,38.62]}},{"properties":{"lon":-84.91,"column_10":null,"comments":"SEVERAL REPORTS OF DAMAGE CAUSED BY POSSIBLE TORNADO...INCLUDING TRAILER DESTROYED AS WELL AS SILO AND BARN DAMAGE. (ILN)","time":2135,"county":"OWEN","column_9":null,"f-scale":"UNK","id":"a63bn53pllrj","lat":38.62,"state":"KY","location":"NEW LIBERTY"},"type":"Feature","geometry":{"type":"Point","coordinates":[-84.91,38.62]}},{"properties":{"lon":-84.47,"column_10":null,"comments":"MANY TREES SNAPPED. CHURCH DESTROYED. MOBILE HOME DAMAGED. DAMAGE OCCURRED IN MORNING VIEW. (ILN)","time":2136,"county":"KENTON","column_9":null,"f-scale":"UNK","id":"a63bn53eyacq","lat":38.82,"state":"KY","location":"2 ENE FISKBURG"},"type":"Feature","geometry":{"type":"Point","coordinates":[-84.47,38.82]}},{"properties":{"lon":-86.86,"column_10":null,"comments":"AN EF1 TORNADO WITH PATH LENGTH OF 2.6 MILES AND MAX PATH WIDTH OF 150 YARDS TOUCHED DOWN JUST WEST OF THE INTERSECTION OF THACH ROAD AND OAK GROVE ROAD. IT PARALLELED (HUN)","time":2139,"county":"LIMESTONE","column_9":null,"f-scale":"UNK","id":"a63bn4vegu99","lat":34.92,"state":"AL","location":"5 S ARDMORE"},"type":"Feature","geometry":{"type":"Point","coordinates":[-86.86,34.92]}},{"properties":{"lon":-84.31,"column_10":null,"comments":"POSSIBLE TORNADO DAMAGED OR DESTROYED AROUND 50 HOUSES OR MORE AS IT TRACKED ALONG THE PENDLETON/CAMPBELL COUNTY LINE. TIME ESTIMATED FROM RADAR. (ILN)","time":2142,"county":"PENDLETON","column_9":null,"f-scale":"UNK","id":"a63bn4ysnv7m","lat":38.84,"state":"KY","location":"5 NE BUTLER"},"type":"Feature","geometry":{"type":"Point","coordinates":[-84.31,38.84]}},{"properties":{"lon":-84.29,"column_10":null,"comments":"POSSIBLE TORNADO DAMAGED 18 HOMES AND DESTROYED 2 NEAR PEACH GROVE. ALSO A CHURCH BUILDING DESTROYED. TIME ESTIMATED FROM RADAR. (ILN)","time":2143,"county":"PENDLETON","column_9":null,"f-scale":"UNK","id":"a63bn59cd2yb","lat":38.83,"state":"KY","location":"PEACH GROVE"},"type":"Feature","geometry":{"type":"Point","coordinates":[-84.29,38.83]}},{"properties":{"lon":-87.1,"column_10":null,"comments":"EF-1 TORNADO WITH MAXIMUM WIND SPEEDS AROUND 90 MPH TOUCHED DOWN ALONG MT PLEASANT ROAD JUST SOUTH OF KINGSTON SPRINGS. THE NEARLY 1 MILE DAMAGE PATH OF THE TORNADO CON (OHX)","time":2148,"county":"CHEATHAM","column_9":null,"f-scale":"UNK","id":"a63bn4tv2dgq","lat":36.08,"state":"TN","location":"1 S KINGSTON SPRINGS"},"type":"Feature","geometry":{"type":"Point","coordinates":[-87.1,36.08]}},{"properties":{"lon":-84.23,"column_10":null,"comments":"POSSIBLE TORNADO. WIDESPREAD STRUCTURAL DAMAGE. (ILN)","time":2155,"county":"CLERMONT","column_9":null,"f-scale":"UNK","id":"a63bn4w6pgjn","lat":38.86,"state":"OH","location":"MOSCOW"},"type":"Feature","geometry":{"type":"Point","coordinates":[-84.23,38.86]}},{"properties":{"lon":-84.08,"column_10":null,"comments":"TORNADO REPORTED ON THE GROUND ALONG 756 BETWEEN FELICITY AND BETHEL. (ILN)","time":2155,"county":"CLERMONT","column_9":null,"f-scale":"UNK","id":"a63bn4y1vk0c","lat":38.88,"state":"OH","location":"6 S BETHEL"},"type":"Feature","geometry":{"type":"Point","coordinates":[-84.08,38.88]}},{"properties":{"lon":-86.74,"column_10":null,"comments":"TORNADO DAMAGE REPORTED IN BOONSHILL. SHINGLES BLOWN OFF OF THE COMMUNITY CENTER AND SEVERAL TREES WERE UPROOTED. (HUN)","time":2157,"county":"LINCOLN","column_9":null,"f-scale":"UNK","id":"a63bn4zhg9p5","lat":35.21,"state":"TN","location":"BOONSHILL"},"type":"Feature","geometry":{"type":"Point","coordinates":[-86.74,35.21]}},{"properties":{"lon":-84.02,"column_10":null,"comments":"2 HOMES DAMAGED AND NUMEROUS TREES DOWN NEAR SR774 AND PRIDE HILL RD. ALSO A TRAILER AND HOME DESTROYED NEAR POETOWN. (ILN)","time":2200,"county":"BROWN","column_9":null,"f-scale":"UNK","id":"a63bn57q0dqq","lat":38.91,"state":"OH","location":"5 SE BETHEL"},"type":"Feature","geometry":{"type":"Point","coordinates":[-84.02,38.91]}},{"properties":{"lon":-83.99,"column_10":null,"comments":"POSSIBLE TORNADO. TRAILER DESTROYED. (ILN)","time":2200,"county":"BROWN","column_9":null,"f-scale":"UNK","id":"a63bn5288bu2","lat":38.92,"state":"OH","location":"HAMERSVILLE"},"type":"Feature","geometry":{"type":"Point","coordinates":[-83.99,38.92]}},{"properties":{"lon":-84.16,"column_10":null,"comments":"NUMEROUS TREETOPS SNAPPED OFF AND TREES DOWN...AS WELL AS 8 TO 10 BUILDINGS SEVERELY DAMAGED ALONG A PATH ENCOMPASSING BERLIN...POWERSVILLE...BROOKSVILLE...AND GERMANTO (ILN)","time":2202,"county":"BRACKEN","column_9":null,"f-scale":"UNK","id":"a63bn5132g2f","lat":38.69,"state":"KY","location":"BERLIN"},"type":"Feature","geometry":{"type":"Point","coordinates":[-84.16,38.69]}},{"properties":{"lon":-83.71,"column_10":null,"comments":"NUMEROUS TREES AND POWER POLES DOWN ON GREATHOUSE RD. ALSO A CAMPER TRAILER FLIPPED ON JOHN WOODS RD. POSSIBLE TORNADO DAMAGE. (ILN)","time":2216,"county":"BROWN","column_9":null,"f-scale":"UNK","id":"a63bn4w0w7n4","lat":38.93,"state":"OH","location":"3 WSW WINCHESTER"},"type":"Feature","geometry":{"type":"Point","coordinates":[-83.71,38.93]}},{"properties":{"lon":-83.61,"column_10":null,"comments":"REPORTED TORNADO ON THE GROUND. (ILN)","time":2222,"county":"ADAMS","column_9":null,"f-scale":"UNK","id":"a63bn4v9apew","lat":38.75,"state":"OH","location":"BENTONVILLE"},"type":"Feature","geometry":{"type":"Point","coordinates":[-83.61,38.75]}},{"properties":{"lon":-83.5,"column_10":null,"comments":"HOUSES DAMAGED IN WELLINGTON. GOLF BALL SIZE HAIL ALSO REPORTED. (JKL)","time":2223,"county":"MENIFEE","column_9":null,"f-scale":"UNK","id":"a63bn54n8f74","lat":37.92,"state":"KY","location":"WELLINGTON"},"type":"Feature","geometry":{"type":"Point","coordinates":[-83.5,37.92]}},{"properties":{"lon":-84.61,"column_10":null,"comments":"LARGE TREES DOWN. ROOFS OFF HOMES. TIME ESTIMATED FROM RADAR. POSSIBLE TORNADO BASED ON RADAR. (ILN)","time":2223,"county":"GRANT","column_9":null,"f-scale":"UNK","id":"a63bn50nyjef","lat":38.78,"state":"KY","location":"N CRITTENDEN"},"type":"Feature","geometry":{"type":"Point","coordinates":[-84.61,38.78]}},{"properties":{"lon":-83.57,"column_10":null,"comments":"POSSIBLE TORNADO. 2 HOUSES HAVE RECEIVED SUBSTANTIAL DAMAGE NORTH OF SEAMAN NEAR SR 247. (ILN)","time":2225,"county":"ADAMS","column_9":null,"f-scale":"UNK","id":"a63bn5630vfi","lat":38.94,"state":"OH","location":"N SEAMAN"},"type":"Feature","geometry":{"type":"Point","coordinates":[-83.57,38.94]}},{"properties":{"lon":-83.46,"column_10":null,"comments":"*** 3 INJ *** 1 MALE SERIOUSLY INJURED ON KNOX RD NEAR CEDAR MILLS RD. ALSO A MOTHER AND SON BOTH INJURED ON SPURGEON HILL RD. NUMEROUS TREES DOWN AND BLOCKING ROADS NE (ILN)","time":2238,"county":"ADAMS","column_9":null,"f-scale":"UNK","id":"a63bn4waco7n","lat":38.82,"state":"OH","location":"5 ENE WEST UNION"},"type":"Feature","geometry":{"type":"Point","coordinates":[-83.46,38.82]}},{"properties":{"lon":-85.71,"column_10":null,"comments":"TORNADO ON JIM HILLS ROAD NEAR RANDOLPH (LMK)","time":2239,"county":"METCALFE","column_9":null,"f-scale":"UNK","id":"a63bn54p861f","lat":36.98,"state":"KY","location":"5 W EDMONTON"},"type":"Feature","geometry":{"type":"Point","coordinates":[-85.71,36.98]}},{"properties":{"lon":-83.6,"column_10":null,"comments":"*** 8 FATAL *** A TORNADO TOUCHED DOWN 2 MILES SOUTHWEST OF MARIBA AND MOVED EAST ACROSS MENIFEE AND MORGAN COUNTIES FOR 34 MILES. THIS TORNADO HIT WEST LIBERTY KENTUCK (JKL)","time":2239,"county":"MENIFEE","column_9":null,"f-scale":"UNK","id":"a63bn52yrgkq","lat":37.89,"state":"KY","location":"2 SW MARIBA"},"type":"Feature","geometry":{"type":"Point","coordinates":[-83.6,37.89]}},{"properties":{"lon":-83.42,"column_10":null,"comments":"TWO HOUSES/ONE BARN DESTROYED (ILN)","time":2239,"county":"ADAMS","column_9":null,"f-scale":"UNK","id":"a63bn56juzj8","lat":38.82,"state":"OH","location":"7 ENE WEST UNION"},"type":"Feature","geometry":{"type":"Point","coordinates":[-83.42,38.82]}},{"properties":{"lon":-83.5,"column_10":null,"comments":"HOUSES DAMAGED IN WELLINGTON. GOLF BALL SIZE HAIL ALSO REPORTED. (JKL)","time":2243,"county":"MENIFEE","column_9":null,"f-scale":"UNK","id":"a63bn55newmo","lat":37.92,"state":"KY","location":"WELLINGTON"},"type":"Feature","geometry":{"type":"Point","coordinates":[-83.5,37.92]}},{"properties":{"lon":-83.61,"column_10":null,"comments":"TORNADO WAS REPORTED ON THE GROUND. (JKL)","time":2244,"county":"MENIFEE","column_9":null,"f-scale":"UNK","id":"a63bn59rsnev","lat":37.94,"state":"KY","location":"1 SE FRENCHBURG"},"type":"Feature","geometry":{"type":"Point","coordinates":[-83.61,37.94]}},{"properties":{"lon":-85.01,"column_10":null,"comments":"A DOUBLE-WIDE TRAILOR WAS PULLED OFF ITS FOUNDATION AND FLIPPED. (MRX)","time":2245,"county":"RHEA","column_9":null,"f-scale":"UNK","id":"a63bn4z0yuer","lat":35.49,"state":"TN","location":"DAYTON"},"type":"Feature","geometry":{"type":"Point","coordinates":[-85.01,35.49]}},{"properties":{"lon":-83.19,"column_10":null,"comments":"POSSIBLE TORNADO. OLD SCHOOL ROOF GONE. FIRE DEPT. BLDG ROOF COLLAPSED. TWO HOUSES HAVE RECEIVED STRUCTURAL DAMAGE. (ILN)","time":2247,"county":"SCIOTO","column_9":null,"f-scale":"UNK","id":"a63bn4wr146n","lat":38.87,"state":"OH","location":"OTWAY"},"type":"Feature","geometry":{"type":"Point","coordinates":[-83.19,38.87]}},{"properties":{"lon":-83.5,"column_10":null,"comments":"HOUSES DAMAGED FROM TORNADO. (JKL)","time":2248,"county":"MENIFEE","column_9":null,"f-scale":"UNK","id":"a63bn56jt902","lat":37.92,"state":"KY","location":"WELLINGTON"},"type":"Feature","geometry":{"type":"Point","coordinates":[-83.5,37.92]}},{"properties":{"lon":-86.26,"column_10":null,"comments":"(MOB)","time":2250,"county":"COVINGTON","column_9":null,"f-scale":"UNK","id":"a63bn55vfozx","lat":31.28,"state":"AL","location":"OPP"},"type":"Feature","geometry":{"type":"Point","coordinates":[-86.26,31.28]}},{"properties":{"lon":-86.26,"column_10":null,"comments":"TWO TORNADOES REPORTED IN THE TOWN OF OPP ABOUT A MILE APART. (MOB)","time":2253,"county":"COVINGTON","column_9":null,"f-scale":"UNK","id":"a63bn57i3lk9","lat":31.28,"state":"AL","location":"OPP"},"type":"Feature","geometry":{"type":"Point","coordinates":[-86.26,31.28]}},{"properties":{"lon":-83.27,"column_10":null,"comments":"STATE POLICE REPORTS TORNADO ON THE GROUND JUST WEST OF WEST LIBERTY. (JKL)","time":2256,"county":"MORGAN","column_9":null,"f-scale":"UNK","id":"a63bn4uf8300","lat":37.91,"state":"KY","location":"WEST LIBERTY"},"type":"Feature","geometry":{"type":"Point","coordinates":[-83.27,37.91]}},{"properties":{"lon":-83.27,"column_10":null,"comments":"TORNADO ON THE GROUND IN WEST LIBERTY. (JKL)","time":2258,"county":"MORGAN","column_9":null,"f-scale":"UNK","id":"a63bn4tj52et","lat":37.91,"state":"KY","location":"WEST LIBERTY"},"type":"Feature","geometry":{"type":"Point","coordinates":[-83.27,37.91]}},{"properties":{"lon":-86.19,"column_10":null,"comments":"SEVERAL REPORTS OF A TORNDAO RECIEVED WEST OF BROOKLYN. (TAE)","time":2301,"county":"COFFEE","column_9":null,"f-scale":"UNK","id":"a63bn57f4bi7","lat":31.31,"state":"AL","location":"1 W BROOKLYN"},"type":"Feature","geometry":{"type":"Point","coordinates":[-86.19,31.31]}},{"properties":{"lon":-83.27,"column_10":null,"comments":"THERE HAVE BEEN REPORTS OF MULTIPLE INJURIES AND DEATHS. (JKL)","time":2301,"county":"MORGAN","column_9":null,"f-scale":"UNK","id":"a63bn54hieff","lat":37.91,"state":"KY","location":"WEST LIBERTY"},"type":"Feature","geometry":{"type":"Point","coordinates":[-83.27,37.91]}},{"properties":{"lon":-85.73,"column_10":null,"comments":"POSSIBLE (LMK)","time":2310,"county":"METCALFE","column_9":null,"f-scale":"UNK","id":"a63bn4u8vt63","lat":36.98,"state":"KY","location":"6 W EDMONTON"},"type":"Feature","geometry":{"type":"Point","coordinates":[-85.73,36.98]}},{"properties":{"lon":-83.09,"column_10":null,"comments":"TORNADO ON GROUND. ALSO 3 INCH DIAMETER HAIL. (JKL)","time":2315,"county":"MORGAN","column_9":null,"f-scale":"UNK","id":"a63bn4wmyiht","lat":37.99,"state":"KY","location":"CROCKETT"},"type":"Feature","geometry":{"type":"Point","coordinates":[-83.09,37.99]}},{"properties":{"lon":-85.57,"column_10":null,"comments":"EF2 TORNADO WITH MAXIMUM ESTIMATED WIND SPEEDS OF ABOUT 125 MPH TOUCHED DOWN IN THE DOBSON BRANCH COMMUNITY OF SOUTHEASTERN JACKSON COUNTY. THE TORNADO SPANNED ACROSS N (OHX)","time":2326,"county":"JACKSON","column_9":null,"f-scale":"UNK","id":"a63bn4wwrsh1","lat":36.28,"state":"TN","location":"9 NNW COOKEVILLE"},"type":"Feature","geometry":{"type":"Point","coordinates":[-85.57,36.28]}},{"properties":{"lon":-85.26,"column_10":null,"comments":"PUBLIC REPORTED A TORNADO OUTSIDE OF CHATTANOOGA ON INTERSTATE I-24. (MRX)","time":2330,"county":"HAMILTON","column_9":null,"f-scale":"UNK","id":"a63bn56aasvb","lat":35.07,"state":"TN","location":"CHATTANOOGA"},"type":"Feature","geometry":{"type":"Point","coordinates":[-85.26,35.07]}},{"properties":{"lon":-85.58,"column_10":null,"comments":"TORNADO REPORTED NEAR HWY 136 NEAR THE PUTNAM COUNTY-OVERTON COUNTY LINE. (OHX)","time":2332,"county":"JACKSON","column_9":null,"f-scale":"UNK","id":"a63bn57t78gt","lat":36.28,"state":"TN","location":"7 SE GAINESBORO"},"type":"Feature","geometry":{"type":"Point","coordinates":[-85.58,36.28]}},{"properties":{"lon":-88.73,"column_10":null,"comments":"TORNADO APPEARED ON FRONT EDGE OF BOW APEX AS IT CROSSED HIGHWAY 45. (MEG)","time":2345,"county":"CHICKASAW","column_9":null,"f-scale":"UNK","id":"a63bn4x3btvu","lat":33.88,"state":"MS","location":"1 S EGYPT"},"type":"Feature","geometry":{"type":"Point","coordinates":[-88.73,33.88]}},{"properties":{"lon":-83.22,"column_10":null,"comments":"*** 2 FATAL *** A TORNADO TOUCHED DOWN 1 MILE EAST OF CUTUNO AND MOVED EAST ACROSS MAGOFFIN...JOHNSON AND MARTIN COUNTIES KENTUCKY BEFORE MOVING INTO WEST VIRGINIA. THI (JKL)","time":2351,"county":"MAGOFFIN","column_9":null,"f-scale":"UNK","id":"a63bn51x2w6c","lat":37.72,"state":"KY","location":"1 E CUTUNO"},"type":"Feature","geometry":{"type":"Point","coordinates":[-83.22,37.72]}},{"properties":{"lon":-85.38,"column_10":null,"comments":"SPOTTER REPORTS TORNADO ON THE GROUND IN RICKMAN","time":2352,"county":"OVERTON","column_9":"TN. (OHX)","f-scale":"UNK","id":"a63bn546hfvv","lat":36.28,"state":"TN","location":"8 SSW LIVINGSTON"},"type":"Feature","geometry":{"type":"Point","coordinates":[-85.38,36.28]}},{"properties":{"lon":-84.19,"column_10":null,"comments":"*** 5 FATAL *** A TORNADO TOUCHED DOWN 4.3 MILES WEST OF EAST BERNSTADT AND MOVED NORTHEAST BEFORE LIFTING 3.6 MILES NNE OF EAST BERNSTADT. PATH LENGTH WAS 6.3 MILES. T (JKL)","time":5,"county":"LAUREL","column_9":null,"f-scale":"UNK","id":"a63bn53q6lq9","lat":37.19,"state":"KY","location":"4 W EAST BERNSTADT"},"type":"Feature","geometry":{"type":"Point","coordinates":[-84.19,37.19]}},{"properties":{"lon":-85.72,"column_10":null,"comments":"UNCONFIRMED REPORT OF A TORNADO AS PERSON WAS DRIVING ALONG STATE HIGHWAY 52 NEAR HARTFORD. THE LOCATION OF THE TORNADO WAS ESTIMATED TO BE TO THE NORTH OF THE TOWN LIM (TAE)","time":7,"county":"GENEVA","column_9":null,"f-scale":"UNK","id":"a63bn4zok0xu","lat":31.12,"state":"AL","location":"2 NW HARTFORD"},"type":"Feature","geometry":{"type":"Point","coordinates":[-85.72,31.12]}},{"properties":{"lon":-84.19,"column_10":null,"comments":"NEAR LAUREL/ROCKCASTLE LINE...THE TORNADO WAS MOVING EAST. (JKL)","time":10,"county":"LAUREL","column_9":null,"f-scale":"UNK","id":"a63bn5018lns","lat":37.2,"state":"KY","location":"WOOD CREEK LAKE"},"type":"Feature","geometry":{"type":"Point","coordinates":[-84.19,37.2]}},{"properties":{"lon":-83.06,"column_10":null,"comments":"ADVANCED AUTO ROOF RIPPED OFF. RESCUE SQUAD FLIPPED WITH ACTIVE POWER LINES ON UNIT. TORNADO ON THE GROUND. (JKL)","time":10,"county":"MAGOFFIN","column_9":null,"f-scale":"UNK","id":"a63bn4xs1ydc","lat":37.75,"state":"KY","location":"SALYERSVILLE"},"type":"Feature","geometry":{"type":"Point","coordinates":[-83.06,37.75]}},{"properties":{"lon":-89.59,"column_10":null,"comments":"EMERGENCY MANAGERS REPORTING PATH OF DAMAGE FROM NEAR THE TOWN OF BAXTERVILLE TO THE NORTH SIDE OF PURVIS TO NEAR THE DIXIE COMMUNITY SOUTH OF HATTIESBURG. AT LEAST TWO (JAN)","time":12,"county":"LAMAR","column_9":null,"f-scale":"UNK","id":"a63bn58etfub","lat":31.08,"state":"MS","location":"BAXTERVILLE"},"type":"Feature","geometry":{"type":"Point","coordinates":[-89.59,31.08]}},{"properties":{"lon":-84.19,"column_10":null,"comments":"ON THE GROUND (JKL)","time":14,"county":"LAUREL","column_9":null,"f-scale":"UNK","id":"a63bn559j8nd","lat":37.16,"state":"KY","location":"BERNSTADT"},"type":"Feature","geometry":{"type":"Point","coordinates":[-84.19,37.16]}},{"properties":{"lon":-84.22,"column_10":null,"comments":"TORNADO BLEW TRUCK OFF ROAD NEAR THE 49 MILE MARKER 3 MILES NORTH OF THE ROCKCASTLE COUNTY LINE. (JKL)","time":17,"county":"ROCKCASTLE","column_9":null,"f-scale":"UNK","id":"a63bn4z32jwd","lat":37.3,"state":"KY","location":"LIVINGSTON"},"type":"Feature","geometry":{"type":"Point","coordinates":[-84.22,37.3]}},{"properties":{"lon":-85.62,"column_10":null,"comments":"REPORTED BY INSTRUCTOR PILOT OUT OF FORT RUCKER. (TAE)","time":18,"county":"GENEVA","column_9":null,"f-scale":"UNK","id":"a63bn53v12y0","lat":31.14,"state":"AL","location":"2 SSE BALD HILL"},"type":"Feature","geometry":{"type":"Point","coordinates":[-85.62,31.14]}},{"properties":{"lon":-89.51,"column_10":null,"comments":"TORNADO RATED EF1 WITH MAX WINDS 100 MPH AND PATH WIDTH OF 300 YDS...BEGAN AT 623 PM 5 ENE OF BAXTERVILLE AND TRACKED 12 MILES TO 6 S OF HATTIESBURG AT 645 PM...AT LEAS (JAN)","time":23,"county":"LAMAR","column_9":null,"f-scale":"UNK","id":"a63bn53e1g6a","lat":31.11,"state":"MS","location":"5 ENE BAXTERVILLE"},"type":"Feature","geometry":{"type":"Point","coordinates":[-89.51,31.11]}},{"properties":{"lon":-84.03,"column_10":null,"comments":"POSSIBLE TORNADO...DAMAGE TO SEVERAL BUILDINGS AND A FEW HOMES DESTROYED. NUMEROUS TREES DOWN ACROSS MURPHY. (MRX)","time":103,"county":"CHEROKEE","column_9":null,"f-scale":"UNK","id":"a63bn54u7x95","lat":35.09,"state":"NC","location":"MURPHY"},"type":"Feature","geometry":{"type":"Point","coordinates":[-84.03,35.09]}},{"properties":{"lon":-84.03,"column_10":null,"comments":"EF2 TORNADO...120 MPH MAX WINDS. MODERATE TO MAJOR DAMAGE TO BUISNESSES AS WELL AS HOMES. (MRX)","time":105,"county":"CHEROKEE","column_9":null,"f-scale":"UNK","id":"a63bn4vq61xj","lat":35.09,"state":"NC","location":"MURPHY"},"type":"Feature","geometry":{"type":"Point","coordinates":[-84.03,35.09]}},{"properties":{"lon":-83.64,"column_10":null,"comments":"EF2 TORNADO WITH 120 MPH MAX WINDS. PATH WIDTH OF 250 YARD. SEVERAL ROOFS BLOWN OFF OF HOMES. (MRX)","time":123,"county":"CLAIBORNE","column_9":null,"f-scale":"UNK","id":"a63bn4ymnza8","lat":36.58,"state":"TN","location":"HARROGATE-SHAWANEE"},"type":"Feature","geometry":{"type":"Point","coordinates":[-83.64,36.58]}},{"properties":{"lon":-83.64,"column_10":null,"comments":"POSSIBLE TORNADO...DISPATCH REPORTED TREES DOWN AND A FEW HOUSES DAMAGED. (MRX)","time":129,"county":"CLAIBORNE","column_9":null,"f-scale":"UNK","id":"a63bn592lv8s","lat":36.58,"state":"TN","location":"HARROGATE-SHAWANEE"},"type":"Feature","geometry":{"type":"Point","coordinates":[-83.64,36.58]}},{"properties":{"lon":-85.0,"column_10":null,"comments":"AMATEUR RADIO RELAYED A SPOTTER REPORT OF A TORNADO ON THE GROUND NEAR YORKVILLE...OFF OLD YORKVILLE ROAD. NUMEROUS ROADS ARE CLOSED TO DUE DEBRIS. THREE MILES SOUTH OF (FFC)","time":135,"county":"PAULDING","column_9":null,"f-scale":"UNK","id":"a63bn4zakuj6","lat":33.93,"state":"GA","location":"YORKVILLE"},"type":"Feature","geometry":{"type":"Point","coordinates":[-85.0,33.93]}},{"properties":{"lon":-83.43,"column_10":null,"comments":"POSSIBLE TORNADO IN EWING...DISPATCH REPORTING A HOME WAS DESTROYED. (MRX)","time":142,"county":"LEE","column_9":null,"f-scale":"UNK","id":"a63bn599qr6v","lat":36.63,"state":"VA","location":"EWING"},"type":"Feature","geometry":{"type":"Point","coordinates":[-83.43,36.63]}},{"properties":{"lon":-83.43,"column_10":null,"comments":"*** 1 INJ *** EF1 TORNADO WITH 110 MPH MAX WINDS. PATH LENGTH OF 4.75 MILES AND A PATH WIDTH OF 200 YARDS. DAMAGED A HOME AND UP-ROOTED TREES. (MRX)","time":145,"county":"LEE","column_9":null,"f-scale":"UNK","id":"a63bn4uorhoy","lat":36.63,"state":"VA","location":"EWING"},"type":"Feature","geometry":{"type":"Point","coordinates":[-83.43,36.63]}},{"properties":{"lon":-83.77,"column_10":null,"comments":"EF0 TORNADO WITH MAX WINDS OF 80 MPH. PATH LENGTH OF 2.1 MILES AND A WIDTH OF 100 YARDS. SPORADIC TREE DAMAGE AND ONE TRAILER ROLLED. (MRX)","time":305,"county":"KNOX","column_9":null,"f-scale":"UNK","id":"a63bn5697vzm","lat":36.02,"state":"TN","location":"3 S MASCOT"},"type":"Feature","geometry":{"type":"Point","coordinates":[-83.77,36.02]}},{"properties":{"lon":-87.15,"column_10":"AND DAMAGE TO THE PAUL GRIST S (BMX)","comments":"TORNADO FROM SOUTHEASTERN PERRY INTO NORTHERN DALLAS AND NORTHWEST AUTAUGA COUNTIES. HUNDREDSOF TREES SNAPPED OFF","time":315,"county":"PERRY","column_9":"2 TRAILERS OVERTURNED","f-scale":"UNK","id":"a63bn56saiub","lat":32.55,"state":"AL","location":"3 ENE CAHABA RIVER AT S"},"type":"Feature","geometry":{"type":"Point","coordinates":[-87.15,32.55]}},{"properties":{"lon":-86.53,"column_10":null,"comments":"TORNADO IN SOUTHERN CHILTON AND SOUTHERN COOSA COUNTIES. AT LEAST A DOZEN HOMES WERE DAMAGED OR DESTROYED. HUNDREDS OF TREES WERE SNAPPED OR UPROOTED. PATH WAS 28 MILES (BMX)","time":401,"county":"CHILTON","column_9":null,"f-scale":"UNK","id":"a63bn56l198i","lat":32.73,"state":"AL","location":"3 WNW MOUNTAIN CREEK"},"type":"Feature","geometry":{"type":"Point","coordinates":[-86.53,32.73]}},{"properties":{"lon":-85.97,"column_10":null,"comments":"*** 1 FATAL","time":440,"county":"TALLAPOOSA","column_9":"2 INJ *** SEVERAL MOBILE HOMES WERE COMPLETELY DESTROYED. THE FATALITY AND INJURIES OCCURRED IN THESE HOMES. THOUSANDS OF TREES WERE UPROOTED OR SNAPPED OF (BMX)","f-scale":"UNK","id":"a63bn58p1255","lat":32.87,"state":"AL","location":"5 SSW ALEXANDER CITY"},"type":"Feature","geometry":{"type":"Point","coordinates":[-85.97,32.87]}},{"properties":{"lon":-81.07,"column_10":null,"comments":"AN EF0 TORNADO TOUCHED DOWN JUST WEST OF MONTICELLO ROAD NEAR THE INTERSECTION OF HOUSTON STREET AND BISHOPVILLE AVENUE. MANY TREES AND LARGE BRANCHES WERE DOWN","time":1036,"county":"RICHLAND","column_9":"SOME W (CAE)","f-scale":"UNK","id":"a63bn4xium49","lat":34.07,"state":"SC","location":"5 NNW COLUMBIA"},"type":"Feature","geometry":{"type":"Point","coordinates":[-81.07,34.07]}}],"is_temporal":false,"author":{"url":"http://www.spc.noaa.gov/climo/reports/120302_rpts.html","metadata":"","contact_name":"","contact_address":"","source":"National Weather Service Storm Prediction Center","contact_phone":""},"source":"http://www.spc.noaa.gov/climo/reports/120302_rpts.html","pagination":{"sort":null,"start":0,"total":117,"limit":1000000},"state":"complete","tags":"henryville,tornado","published":"2014-08-14T17:32:10-04:00","id":211584}