{"type":"FeatureCollection","data_type":"Dataset","url_type":null,"permissions":[{"permissions":{"download":true,"view":true},"group_id":"everyone"}],"classification":null,"title":"Recovery Act High Speed Rail Awards, USA by City, 2010","count":53,"stream_id":21219,"contributor":{"url":"http://geocommons.com/users/185","name":"emily"},"data_attributes":null,"calculation_params":null,"icon_link":null,"link":"http://geocommons.com/overlays/21219.json","extent":[-123.087,27.9475,-69.9653,47.6062],"geometry_types":["point"],"unique_name":null,"name":"Recovery Act High Speed Rail Awards, USA by City, 2010","feature_count":53,"description":"This dataset is from the White House website and provides the details of the grants awarded for the High Speed Rail plan that is part of the Recovery Act. This dataset contains the cities that are part of the routes awarded the money.","next_feature":null,"is_raster":false,"short_classification":"Y","stats":{"bg_long":{"max":-69.9653278,"mean":-87.6617983566038,"variance":284.259055388031,"stdev":16.8599838489849,"min":-123.0867536,"median":-82.4584279},"bg_lat":{"max":47.6062095,"mean":40.5618277377358,"variance":16.6773555987512,"stdev":4.08379181628437,"min":27.9475216,"median":41.850033}},"features":[{"properties":{"city":"Albany","bg_long":-73.7562317,"bg_lat":42.6525793,"id":"a64tipjd3eh6","state":"NY"},"type":"Feature","geometry":{"type":"Point","coordinates":[-73.7562317,42.6525793]}},{"properties":{"city":"Boston","bg_long":-71.0597732,"bg_lat":42.3584308,"id":"a64tipg1nlur","state":"MA"},"type":"Feature","geometry":{"type":"Point","coordinates":[-71.0597732,42.3584308]}},{"properties":{"city":"Brunswick","bg_long":-69.9653278,"bg_lat":43.9145244,"id":"a64tipq95mt3","state":"ME"},"type":"Feature","geometry":{"type":"Point","coordinates":[-69.9653278,43.9145244]}},{"properties":{"city":"Buffalo","bg_long":-78.8783689,"bg_lat":42.8864468,"id":"a64tipux2s5f","state":"NY"},"type":"Feature","geometry":{"type":"Point","coordinates":[-78.8783689,42.8864468]}},{"properties":{"city":"Charlotte","bg_long":-80.8431267,"bg_lat":35.2270869,"id":"a64tipiuadmi","state":"NC"},"type":"Feature","geometry":{"type":"Point","coordinates":[-80.8431267,35.2270869]}},{"properties":{"city":"Chicago","bg_long":-87.6500523,"bg_lat":41.850033,"id":"a64tipi8fqdr","state":"IL"},"type":"Feature","geometry":{"type":"Point","coordinates":[-87.6500523,41.850033]}},{"properties":{"city":"Chicago","bg_long":-87.6500523,"bg_lat":41.850033,"id":"a64tipvbpeol","state":"IL"},"type":"Feature","geometry":{"type":"Point","coordinates":[-87.6500523,41.850033]}},{"properties":{"city":"Chicago","bg_long":-87.6500523,"bg_lat":41.850033,"id":"a64tipmhuud3","state":"IL"},"type":"Feature","geometry":{"type":"Point","coordinates":[-87.6500523,41.850033]}},{"properties":{"city":"Chicago","bg_long":-87.6500523,"bg_lat":41.850033,"id":"a64tipi7d52u","state":"IL"},"type":"Feature","geometry":{"type":"Point","coordinates":[-87.6500523,41.850033]}},{"properties":{"city":"Cincinnati","bg_long":-84.47702,"bg_lat":39.14801,"id":"a64tiphfzmzv","state":"OH"},"type":"Feature","geometry":{"type":"Point","coordinates":[-84.47702,39.14801]}},{"properties":{"city":"Cleveland","bg_long":-81.6954088,"bg_lat":41.4994954,"id":"a64tipj549w1","state":"OH"},"type":"Feature","geometry":{"type":"Point","coordinates":[-81.6954088,41.4994954]}},{"properties":{"city":"Columbus","bg_long":-82.9987942,"bg_lat":39.9611755,"id":"a64tipi5y8y1","state":"OH"},"type":"Feature","geometry":{"type":"Point","coordinates":[-82.9987942,39.9611755]}},{"properties":{"city":"Detroit","bg_long":-83.0457538,"bg_lat":42.331427,"id":"a64tipoi6rap","state":"MI"},"type":"Feature","geometry":{"type":"Point","coordinates":[-83.0457538,42.331427]}},{"properties":{"city":"Detroit","bg_long":-83.0457538,"bg_lat":42.331427,"id":"a64tipkn1bqm","state":"MI"},"type":"Feature","geometry":{"type":"Point","coordinates":[-83.0457538,42.331427]}},{"properties":{"city":"Detroit","bg_long":-83.0457538,"bg_lat":42.331427,"id":"a64tipq9ni24","state":"MI"},"type":"Feature","geometry":{"type":"Point","coordinates":[-83.0457538,42.331427]}},{"properties":{"city":"East Northfield","bg_long":-72.4384206,"bg_lat":42.6931398,"id":"a64tipnswfv5","state":"MA"},"type":"Feature","geometry":{"type":"Point","coordinates":[-72.4384206,42.6931398]}},{"properties":{"city":"Eugene","bg_long":-123.0867536,"bg_lat":44.0520691,"id":"a64tipnbeeoo","state":"OR"},"type":"Feature","geometry":{"type":"Point","coordinates":[-123.0867536,44.0520691]}},{"properties":{"city":"Ft. Worth","bg_long":-97.3208496,"bg_lat":32.725409,"id":"a64tipip39or","state":"TX"},"type":"Feature","geometry":{"type":"Point","coordinates":[-97.3208496,32.725409]}},{"properties":{"city":"Harrisburg","bg_long":-76.8844179,"bg_lat":40.2737002,"id":"a64tiple82bg","state":"PA"},"type":"Feature","geometry":{"type":"Point","coordinates":[-76.8844179,40.2737002]}},{"properties":{"city":"Kansas City","bg_long":-94.5785667,"bg_lat":39.0997265,"id":"a64tipud8hqe","state":"MO"},"type":"Feature","geometry":{"type":"Point","coordinates":[-94.5785667,39.0997265]}},{"properties":{"city":"Madison","bg_long":-89.4012302,"bg_lat":43.0730517,"id":"a64tiplhcbtx","state":"WI"},"type":"Feature","geometry":{"type":"Point","coordinates":[-89.4012302,43.0730517]}},{"properties":{"city":"Milwaukee","bg_long":-87.9064736,"bg_lat":43.0389025,"id":"a64tipkkuh66","state":"WI"},"type":"Feature","geometry":{"type":"Point","coordinates":[-87.9064736,43.0389025]}},{"properties":{"city":"Milwaukee","bg_long":-87.9064736,"bg_lat":43.0389025,"id":"a64tipm8q1ev","state":"WI"},"type":"Feature","geometry":{"type":"Point","coordinates":[-87.9064736,43.0389025]}},{"properties":{"city":"Minneapolis","bg_long":-93.2638361,"bg_lat":44.9799654,"id":"a64tipg91t16","state":"MN"},"type":"Feature","geometry":{"type":"Point","coordinates":[-93.2638361,44.9799654]}},{"properties":{"city":"Montreal","bg_long":-73.639076,"bg_lat":45.545447,"id":"a64tipho2ur2","state":"Canada"},"type":"Feature","geometry":{"type":"Point","coordinates":[-73.639076,45.545447]}},{"properties":{"city":"New Haven","bg_long":-72.9281577,"bg_lat":41.3081527,"id":"a64tipftngw0","state":"CT"},"type":"Feature","geometry":{"type":"Point","coordinates":[-72.9281577,41.3081527]}},{"properties":{"city":"New York","bg_long":-74.0059729,"bg_lat":40.7142691,"id":"a64tipiwpidq","state":"NY"},"type":"Feature","geometry":{"type":"Point","coordinates":[-74.0059729,40.7142691]}},{"properties":{"city":"New York","bg_long":-74.0059729,"bg_lat":40.7142691,"id":"a64tipi2ruvi","state":"NY"},"type":"Feature","geometry":{"type":"Point","coordinates":[-74.0059729,40.7142691]}},{"properties":{"city":"New York","bg_long":-74.0059729,"bg_lat":40.7142691,"id":"a64tipnh305o","state":"NY"},"type":"Feature","geometry":{"type":"Point","coordinates":[-74.0059729,40.7142691]}},{"properties":{"city":"Oakland","bg_long":-122.2708026,"bg_lat":37.8043722,"id":"a64tipljqlxp","state":"CA"},"type":"Feature","geometry":{"type":"Point","coordinates":[-122.2708026,37.8043722]}},{"properties":{"city":"Orlando","bg_long":-81.3792365,"bg_lat":28.5383355,"id":"a64tiplq1w13","state":"FL"},"type":"Feature","geometry":{"type":"Point","coordinates":[-81.3792365,28.5383355]}},{"properties":{"city":"Philadelphia","bg_long":-75.163789,"bg_lat":39.952335,"id":"a64tiprdukpy","state":"PA"},"type":"Feature","geometry":{"type":"Point","coordinates":[-75.163789,39.952335]}},{"properties":{"city":"Pittsburgh","bg_long":-79.9958864,"bg_lat":40.4406248,"id":"a64tipnsjutd","state":"PA"},"type":"Feature","geometry":{"type":"Point","coordinates":[-79.9958864,40.4406248]}},{"properties":{"city":"Portland","bg_long":-122.6762071,"bg_lat":45.5234515,"id":"a64tipv5ecnf","state":"OR"},"type":"Feature","geometry":{"type":"Point","coordinates":[-122.6762071,45.5234515]}},{"properties":{"city":"Portland","bg_long":-122.6762071,"bg_lat":45.5234515,"id":"a64tipozp51i","state":"OR"},"type":"Feature","geometry":{"type":"Point","coordinates":[-122.6762071,45.5234515]}},{"properties":{"city":"Portland","bg_long":-122.6762071,"bg_lat":45.5234515,"id":"a64tipu26rxc","state":"OR"},"type":"Feature","geometry":{"type":"Point","coordinates":[-122.6762071,45.5234515]}},{"properties":{"city":"Raleigh","bg_long":-78.6386145,"bg_lat":35.772096,"id":"a64tipldruzs","state":"NC"},"type":"Feature","geometry":{"type":"Point","coordinates":[-78.6386145,35.772096]}},{"properties":{"city":"Raleigh","bg_long":-78.6386145,"bg_lat":35.772096,"id":"a64tipl02a3c","state":"NC"},"type":"Feature","geometry":{"type":"Point","coordinates":[-78.6386145,35.772096]}},{"properties":{"city":"Richmond","bg_long":-77.469092,"bg_lat":37.542979,"id":"a64tipkmt4yh","state":"VA"},"type":"Feature","geometry":{"type":"Point","coordinates":[-77.469092,37.542979]}},{"properties":{"city":"Richmond","bg_long":-77.469092,"bg_lat":37.542979,"id":"a64tipkxkgoa","state":"VA"},"type":"Feature","geometry":{"type":"Point","coordinates":[-77.469092,37.542979]}},{"properties":{"city":"Sacramento","bg_long":-121.4943996,"bg_lat":38.5815719,"id":"a64tipgodbha","state":"CA"},"type":"Feature","geometry":{"type":"Point","coordinates":[-121.4943996,38.5815719]}},{"properties":{"city":"San Diego","bg_long":-117.1572551,"bg_lat":32.7153292,"id":"a64tipml4sdh","state":"CA"},"type":"Feature","geometry":{"type":"Point","coordinates":[-117.1572551,32.7153292]}},{"properties":{"city":"San Luis Obispo","bg_long":-120.6596156,"bg_lat":35.2827524,"id":"a64tipgdwlxf","state":"CA"},"type":"Feature","geometry":{"type":"Point","coordinates":[-120.6596156,35.2827524]}},{"properties":{"city":"Seattle","bg_long":-122.3320708,"bg_lat":47.6062095,"id":"a64tipkco3gk","state":"WA"},"type":"Feature","geometry":{"type":"Point","coordinates":[-122.3320708,47.6062095]}},{"properties":{"city":"Springfield","bg_long":-72.4823117,"bg_lat":43.2984078,"id":"a64tiptw9fdf","state":"VT"},"type":"Feature","geometry":{"type":"Point","coordinates":[-72.4823117,43.2984078]}},{"properties":{"city":"Springfield","bg_long":-72.589811,"bg_lat":42.1014831,"id":"a64tiprvoaro","state":"MA"},"type":"Feature","geometry":{"type":"Point","coordinates":[-72.589811,42.1014831]}},{"properties":{"city":"Springfield","bg_long":-72.589811,"bg_lat":42.1014831,"id":"a64tipvznrv1","state":"CT"},"type":"Feature","geometry":{"type":"Point","coordinates":[-72.589811,42.1014831]}},{"properties":{"city":"St. Albans","bg_long":-73.0831924,"bg_lat":44.810879,"id":"a64tipgk83ku","state":"VT"},"type":"Feature","geometry":{"type":"Point","coordinates":[-73.0831924,44.810879]}},{"properties":{"city":"St. Louis","bg_long":-90.224967,"bg_lat":38.646991,"id":"a64tipkahdgy","state":"MO"},"type":"Feature","geometry":{"type":"Point","coordinates":[-90.224967,38.646991]}},{"properties":{"city":"St. Paul","bg_long":-93.0932742,"bg_lat":44.9444101,"id":"a64tipohaloj","state":"MN"},"type":"Feature","geometry":{"type":"Point","coordinates":[-93.0932742,44.9444101]}},{"properties":{"city":"Tampa","bg_long":-82.4584279,"bg_lat":27.9475216,"id":"a64tips5tay3","state":"FL"},"type":"Feature","geometry":{"type":"Point","coordinates":[-82.4584279,27.9475216]}},{"properties":{"city":"Washington","bg_long":-77.0363658,"bg_lat":38.8951118,"id":"a64tipvhqc6n","state":"DC"},"type":"Feature","geometry":{"type":"Point","coordinates":[-77.0363658,38.8951118]}},{"properties":{"city":"Washington","bg_long":-77.0363658,"bg_lat":38.8951118,"id":"a64tiplaadv5","state":"DC"},"type":"Feature","geometry":{"type":"Point","coordinates":[-77.0363658,38.8951118]}}],"is_temporal":false,"author":{"url":"http://www.whitehouse.gov/sites/default/files/rss_viewer/hsr_awards_summary_public.pdf","metadata":"","contact_name":"","contact_address":"","source":"Whitehouse.gov","contact_phone":""},"source":"http://www.whitehouse.gov/sites/default/files/rss_viewer/hsr_awards_summary_public.pdf","pagination":{"sort":null,"start":0,"total":53,"limit":1000000},"state":"complete","tags":"obama,rail,recovery,speed","published":"2010-01-31T17:00:00Z","id":21219}