{"type":"FeatureCollection","data_type":"Dataset","url_type":null,"permissions":[{"permissions":{"download":true,"view":true},"group_id":"everyone"}],"classification":null,"title":"match data-sy10-11","count":181,"stream_id":212255,"contributor":{"url":"http://geocommons.com/users/41049","name":"etlerd"},"data_attributes":null,"calculation_params":null,"icon_link":null,"link":"http://geocommons.com/overlays/212255.json","extent":[-122.693,25.7872,-70.2745,45.4989],"geometry_types":["point"],"unique_name":null,"name":"match data-sy10-11","feature_count":181,"description":"","next_feature":null,"is_raster":false,"short_classification":"Y","stats":{},"features":[{"properties":{"city":"Akron","middle name":"NULL","specialty":"Internal Medicine","last name":"Agaiby","geo_score":0.937,"hospital":"AKRON GENERAL MED CTR/NEOUCOM","preferred first name":"ShereMaria","zip code":"44307","id":"a620wk5ripmk","geo_precision":"zip","match date":"5/16/11","first name":"ShereMaria","state":"OH"},"type":"Feature","geometry":{"type":"Point","coordinates":[-81.547618,41.0745]}},{"properties":{"city":"St. Paul","middle name":"Wiese","specialty":"Family Practice","last name":"Jones","geo_score":0.952,"hospital":"ALLINA FM RESIDENCY PROG","preferred first name":"Tess","zip code":"55102","id":"a620wk584m90","geo_precision":"zip","match date":"3/17/11","first name":"Teresa","state":"MN"},"type":"Feature","geometry":{"type":"Point","coordinates":[-93.118968,44.932929]}},{"properties":{"city":"Memphis","middle name":"Allen","specialty":"Radiology Diagnostic PGY-2","last name":"Jabour","geo_score":1.0,"hospital":"BAPTIST MEMORIAL HOSPITAL","preferred first name":"Paul","zip code":"38146","id":"a620wkak8iff","geo_precision":"zip","match date":"3/17/11","first name":"Paul","state":"TN"},"type":"Feature","geometry":{"type":"Point","coordinates":[-89.971538,35.201738]}},{"properties":{"city":"St Louis","middle name":"Norbert","specialty":"Radiology Diagnostic PGY-2","last name":"Laczniak","geo_score":0.957,"hospital":"BARNES-JEWISH HOSPITAL","preferred first name":"Andrew","zip code":"63110","id":"a620wjyhfb7w","geo_precision":"zip","match date":"3/17/11","first name":"Andrew","state":"MO"},"type":"Feature","geometry":{"type":"Point","coordinates":[-90.268132,38.625401]}},{"properties":{"city":"St Louis","middle name":"Lynn","specialty":"Internal Medicine","last name":"Reighard","geo_score":0.957,"hospital":"BARNES-JEWISH HOSPITAL","preferred first name":"Amber","zip code":"63110","id":"a620wkchqbir","geo_precision":"zip","match date":"3/17/11","first name":"Amber","state":"MO"},"type":"Feature","geometry":{"type":"Point","coordinates":[-90.268132,38.625401]}},{"properties":{"city":"St Louis","middle name":"Jane","specialty":"Medicine-Preliminary","last name":"Ruddy","geo_score":0.957,"hospital":"BARNES-JEWISH HOSPITAL","preferred first name":"Paetra","zip code":"63110","id":"a620wk2j8tq5","geo_precision":"zip","match date":"3/17/11","first name":"Paetra","state":"MO"},"type":"Feature","geometry":{"type":"Point","coordinates":[-90.268132,38.625401]}},{"properties":{"city":"St Louis","middle name":"Jane","specialty":"Dermatology PGY-2","last name":"Ruddy","geo_score":0.957,"hospital":"BARNES-JEWISH HOSPITAL","preferred first name":"Paetra","zip code":"63110","id":"a620wk8v3j76","geo_precision":"zip","match date":"3/17/11","first name":"Paetra","state":"MO"},"type":"Feature","geometry":{"type":"Point","coordinates":[-90.268132,38.625401]}},{"properties":{"city":"St Louis","middle name":"Marie","specialty":"Pathology","last name":"Schindler","geo_score":0.957,"hospital":"BARNES-JEWISH HOSPITAL","preferred first name":"Emily","zip code":"63110","id":"a620wk1f9c5p","geo_precision":"zip","match date":"3/17/11","first name":"Emily","state":"MO"},"type":"Feature","geometry":{"type":"Point","coordinates":[-90.268132,38.625401]}},{"properties":{"city":"St Petersburg","middle name":"William","specialty":"Family Practice","last name":"Svestka","geo_score":0.971,"hospital":"BAYFRONT MEDICAL CENTER","preferred first name":"Eric","zip code":"33701","id":"a620wkccjd01","geo_precision":"zip","match date":"3/17/11","first name":"Eric","state":"FL"},"type":"Feature","geometry":{"type":"Point","coordinates":[-82.64092,27.775654]}},{"properties":{"city":"Boston","middle name":"Rose","specialty":"Peds/Urban Health Advocacy-BMC","last name":"Nagan","geo_score":1.0,"hospital":"BOSTON COMBINED PEDS RES PROG","preferred first name":"Margot","zip code":"2115","id":"a620wkcdwkle","geo_precision":"zip","match date":"3/17/11","first name":"Margot","state":"MA"},"type":"Feature","geometry":{"type":"Point","coordinates":[-71.096848,42.342043]}},{"properties":{"city":"Boston","middle name":"Rose","specialty":"Child Neurology","last name":"Nagan","geo_score":1.0,"hospital":"BOSTON UNIVERSITY MEDICAL CTR","preferred first name":"Margot","zip code":"2118","id":"a620wk40ph1r","geo_precision":"zip","match date":"1/26/11","first name":"Margot","state":"MA"},"type":"Feature","geometry":{"type":"Point","coordinates":[-71.072854,42.336162]}},{"properties":{"city":"Des Moines","middle name":"Elizabeth","specialty":"Transitional","last name":"Benson","geo_score":1.0,"hospital":"BROADLAWNS MEDICAL CENTER","preferred first name":"Christy","zip code":"50314","id":"a620wk53zqdm","geo_precision":"zip","match date":"3/17/11","first name":"Christy","state":"IA"},"type":"Feature","geometry":{"type":"Point","coordinates":[-93.613817,41.603938]}},{"properties":{"city":"Des Moines","middle name":"Steven","specialty":"Transitional","last name":"Boeke","geo_score":1.0,"hospital":"BROADLAWNS MEDICAL CENTER","preferred first name":"Paul","zip code":"50314","id":"a620wjyg4oil","geo_precision":"zip","match date":"3/17/11","first name":"Paul","state":"IA"},"type":"Feature","geometry":{"type":"Point","coordinates":[-93.613817,41.603938]}},{"properties":{"city":"Des Moines","middle name":"Susan","specialty":"Transitional","last name":"Cavazos","geo_score":1.0,"hospital":"BROADLAWNS MEDICAL CENTER","preferred first name":"Leslie","zip code":"50314","id":"a620wk6gavlu","geo_precision":"zip","match date":"3/17/11","first name":"Leslie","state":"IA"},"type":"Feature","geometry":{"type":"Point","coordinates":[-93.613817,41.603938]}},{"properties":{"city":"Des Moines","middle name":"Cinru","specialty":"Transitional","last name":"Ko","geo_score":1.0,"hospital":"BROADLAWNS MEDICAL CENTER","preferred first name":"Audrey","zip code":"50314","id":"a620wk25idzx","geo_precision":"zip","match date":"3/17/11","first name":"Audrey","state":"IA"},"type":"Feature","geometry":{"type":"Point","coordinates":[-93.613817,41.603938]}},{"properties":{"city":"Kansas City","middle name":"Catherine","specialty":"Pediatrics","last name":"Brimeyer","geo_score":1.0,"hospital":"CHILDRENS MERCY HOSPITAL","preferred first name":"Julia","zip code":"64108-9898","id":"a620wk1e2uaw","geo_precision":"zip","match date":"3/17/11","first name":"Julia","state":"MO"},"type":"Feature","geometry":{"type":"Point","coordinates":[-94.584133,39.083804]}},{"properties":{"city":"Kansas City","middle name":"John","specialty":"Pediatrics","last name":"Fisher","geo_score":1.0,"hospital":"CHILDRENS MERCY HOSPITAL","preferred first name":"Tyler","zip code":"64108-9898","id":"a620wk0dmei7","geo_precision":"zip","match date":"3/17/11","first name":"Tyler","state":"MO"},"type":"Feature","geometry":{"type":"Point","coordinates":[-94.584133,39.083804]}},{"properties":{"city":"Kansas City","middle name":"Marie","specialty":"Pediatrics","last name":"Groebl","geo_score":1.0,"hospital":"CHILDRENS MERCY HOSPITAL","preferred first name":"Amanda","zip code":"64108-9898","id":"a620wk0hhh68","geo_precision":"zip","match date":"3/17/11","first name":"Amanda","state":"MO"},"type":"Feature","geometry":{"type":"Point","coordinates":[-94.584133,39.083804]}},{"properties":{"city":"Cincinnati","middle name":"Louisa","specialty":"Pediatrics","last name":"Peters","geo_score":0.893,"hospital":"Cincinnati Childrens Hosp MC-OH","preferred first name":"Anna","zip code":"45229-3026","id":"a620wjyglsuc","geo_precision":"zip","match date":"3/17/11","first name":"Anna","state":"OH"},"type":"Feature","geometry":{"type":"Point","coordinates":[-84.720503,39.165058]}},{"properties":{"city":"Omaha","middle name":"Jean","specialty":"Family Practice","last name":"McCool","geo_score":1.0,"hospital":"CLARKSON FAMILY MEDICINE","preferred first name":"Jessica","zip code":"68131-2700","id":"a620wk4cca6y","geo_precision":"zip","match date":"3/17/11","first name":"Jessica","state":"NE"},"type":"Feature","geometry":{"type":"Point","coordinates":[-95.963832,41.265611]}},{"properties":{"city":"Cleveland","middle name":"Nidal","specialty":"Internal Medicine","last name":"Harb","geo_score":1.0,"hospital":"CLEVELAND CLINIC FOUNDATION","preferred first name":"Harb","zip code":"44195-5242","id":"a620wk5mkumi","geo_precision":"zip","match date":"3/17/11","first name":"Harb","state":"OH"},"type":"Feature","geometry":{"type":"Point","coordinates":[-81.672797,41.685744]}},{"properties":{"city":"Martinez","middle name":"Marie","specialty":"Family Practice","last name":"Luensmann","geo_score":0.857,"hospital":"CONTRA COSTA COUNTY HEALTH SER","preferred first name":"Abby","zip code":"94553-3191","id":"a620wk6gfyn0","geo_precision":"zip","match date":"3/17/11","first name":"Abby","state":"CA"},"type":"Feature","geometry":{"type":"Point","coordinates":[-122.096075,38.008533]}},{"properties":{"city":"Atlanta","middle name":"Eric","specialty":"Anesthesiology PGY-2","last name":"Theusch","geo_score":1.0,"hospital":"EMORY UNIV SCHOOL OF MEDICINE","preferred first name":"Brett","zip code":"30322","id":"a620wk3p7ltx","geo_precision":"zip","match date":"3/17/11","first name":"Brett","state":"GA"},"type":"Feature","geometry":{"type":"Point","coordinates":[-84.324824,33.795204]}},{"properties":{"city":"Denver","middle name":"V","specialty":"Medicine-Preliminary","last name":"Bassis","geo_score":1.0,"hospital":"EXEMPLA SAINT JOSEPH HOSPITAL","preferred first name":"Anastasia","zip code":"80218-1191","id":"a620wk13kvle","geo_precision":"zip","match date":"3/17/11","first name":"Anastasia","state":"CO"},"type":"Feature","geometry":{"type":"Point","coordinates":[-104.968759,39.720236]}},{"properties":{"city":"Fort Collins","middle name":"S","specialty":"Family Practice","last name":"May","geo_score":1.0,"hospital":"FT COLLINS FAMILY MEDICINE","preferred first name":"Nik","zip code":"80524-3250","id":"a620wjzktq4j","geo_precision":"zip","match date":"3/17/11","first name":"Nikolas","state":"CO"},"type":"Feature","geometry":{"type":"Point","coordinates":[-105.252751,40.59889]}},{"properties":{"city":"Washington","middle name":"Paul","specialty":"Plastic Surgery (Integrated)","last name":"Ter Louw","geo_score":0.886,"hospital":"GEORGETOWN UNIVERSITY MED CTR","preferred first name":"Ryan","zip code":"20007","id":"a620wk2zeh4l","geo_precision":"zip","match date":"3/17/11","first name":"Ryan","state":"DC"},"type":"Feature","geometry":{"type":"Point","coordinates":[-77.062478,38.904834]}},{"properties":{"city":"Grand Rapids","middle name":"Andre","specialty":"Family Medicine","last name":"Abrams","geo_score":1.0,"hospital":"GRAND RAPIDS AREA MEDICAL CTR","preferred first name":"Paul","zip code":"49503","id":"a620wk1khs09","geo_precision":"zip","match date":"3/15/11","first name":"Paul","state":"MI"},"type":"Feature","geometry":{"type":"Point","coordinates":[-85.660693,42.956176]}},{"properties":{"city":"Grand Rapids","middle name":"Cupidon","specialty":"Transitional","last name":"Abrams","geo_score":1.0,"hospital":"GRAND RAPIDS AREA MEDICAL CTR","preferred first name":"Eunice","zip code":"49503","id":"a620wk6unv47","geo_precision":"zip","match date":"3/15/11","first name":"Eunice","state":"MI"},"type":"Feature","geometry":{"type":"Point","coordinates":[-85.660693,42.956176]}},{"properties":{"city":"Grand Rapids","middle name":"Joseph","specialty":"General Surgery","last name":"Krebill","geo_score":1.0,"hospital":"GRAND RAPIDS AREA MEDICAL CTR","preferred first name":"Eric","zip code":"49503","id":"a620wk4h94jf","geo_precision":"zip","match date":"3/17/11","first name":"Eric","state":"MI"},"type":"Feature","geometry":{"type":"Point","coordinates":[-85.660693,42.956176]}},{"properties":{"city":"Lawrence","middle name":"Garcia","specialty":"Family Practice","last name":"Silva Atkinson","geo_score":1.0,"hospital":"GREATER LAWRENCE FAMILY HEALTH","preferred first name":"Karina","zip code":"1841","id":"a620wkcg2ufk","geo_precision":"zip","match date":"3/17/11","first name":"Karina","state":"MA"},"type":"Feature","geometry":{"type":"Point","coordinates":[-71.164402,42.70979]}},{"properties":{"city":"Torrance","middle name":"Marie","specialty":"Pediatrics","last name":"Kasper","geo_score":1.0,"hospital":"HARBOR-UCLA MEDICAL CENTER","preferred first name":"Clare","zip code":"90509","id":"a620wk6s4hfy","geo_precision":"zip","match date":"3/17/11","first name":"Clare","state":"CA"},"type":"Feature","geometry":{"type":"Point","coordinates":[-118.298662,33.786594]}},{"properties":{"city":"Bloomington","middle name":"Marie","specialty":"Emergency Medicine","last name":"LeRoy","geo_score":0.857,"hospital":"HEALTH PARTNERS INSTITUTE","preferred first name":"Jenna","zip code":"55440-1309","id":"a620wk0n9ugn","geo_precision":"zip","match date":"3/17/11","first name":"Jenna","state":"MN"},"type":"Feature","geometry":{"type":"Point","coordinates":[-93.47188,45.015914]}},{"properties":{"city":"Indianapolis","middle name":"Thomas","specialty":"Urology PGY-2","last name":"Carpenter","geo_score":1.0,"hospital":"INDIANA UNIVERSITY SCH OF MED","preferred first name":"Ben","zip code":"46202-5114","id":"a620wk7ly37e","geo_precision":"zip","match date":"1/24/11","first name":"Benjamin","state":"IN"},"type":"Feature","geometry":{"type":"Point","coordinates":[-86.143736,39.762392]}},{"properties":{"city":"Indianapolis","middle name":"Michael","specialty":"Urology PGY-2","last name":"DeRoo","geo_score":1.0,"hospital":"INDIANA UNIVERSITY SCH OF MED","preferred first name":"Eric","zip code":"46202-5114","id":"a620wkb6oz86","geo_precision":"zip","match date":"1/24/11","first name":"Eric","state":"IN"},"type":"Feature","geometry":{"type":"Point","coordinates":[-86.143736,39.762392]}},{"properties":{"city":"Indianapolis","middle name":"Thomas","specialty":"Urology PGY-2","last name":"Gellhaus","geo_score":1.0,"hospital":"INDIANA UNIVERSITY SCH OF MED","preferred first name":"Paul","zip code":"46202-5114","id":"a620wkdeq7jx","geo_precision":"zip","match date":"1/24/11","first name":"Paul","state":"IN"},"type":"Feature","geometry":{"type":"Point","coordinates":[-86.143736,39.762392]}},{"properties":{"city":"Indianapolis","middle name":"Thomas","specialty":"Surgery-Preliminary","last name":"Carpenter","geo_score":0.857,"hospital":"INDIANA UNIVERSITY SCH OF MED","preferred first name":"Ben","zip code":null,"id":"a620wk8wsmdx","geo_precision":"city","match date":"3/17/11","first name":"Benjamin","state":"IN"},"type":"Feature","geometry":{"type":"Point","coordinates":[-86.158042,39.768377]}},{"properties":{"city":"Indianapolis","middle name":"Michael","specialty":"Surgery-Preliminary","last name":"DeRoo","geo_score":1.0,"hospital":"INDIANA UNIVERSITY SCH OF MED","preferred first name":"Eric","zip code":"46202-5114","id":"a620wjykc48g","geo_precision":"zip","match date":"3/17/11","first name":"Eric","state":"IN"},"type":"Feature","geometry":{"type":"Point","coordinates":[-86.143736,39.762392]}},{"properties":{"city":"Indianapolis","middle name":"Thomas","specialty":"Surgery-Preliminary","last name":"Gellhaus","geo_score":1.0,"hospital":"INDIANA UNIVERSITY SCH OF MED","preferred first name":"Paul","zip code":"46202-5114","id":"a620wk12uics","geo_precision":"zip","match date":"3/17/11","first name":"Paul","state":"IN"},"type":"Feature","geometry":{"type":"Point","coordinates":[-86.143736,39.762392]}},{"properties":{"city":"Indianapolis","middle name":"Romney","specialty":"Transitional","last name":"Jackson","geo_score":1.0,"hospital":"INDIANA UNIVERSITY SCH OF MED","preferred first name":"Jared","zip code":"46202-5114","id":"a620wk0lp5nz","geo_precision":"zip","match date":"3/17/11","first name":"Jared","state":"IN"},"type":"Feature","geometry":{"type":"Point","coordinates":[-86.143736,39.762392]}},{"properties":{"city":"Des Moines","middle name":"Robert","specialty":"Transitional","last name":"Cagley","geo_score":0.956,"hospital":"IOWA METHODIST MEDICAL CENTER","preferred first name":"Jeffrey","zip code":"50309-1453","id":"a620wkb7yryw","geo_precision":"zip","match date":"3/17/11","first name":"Jeffrey","state":"IA"},"type":"Feature","geometry":{"type":"Point","coordinates":[-93.552438,41.570823]}},{"properties":{"city":"Des Moines","middle name":"Elizabeth","specialty":"Pediatrics","last name":"Hirl","geo_score":0.956,"hospital":"IOWA METHODIST MEDICAL CENTER","preferred first name":"Laura","zip code":"50309-1453","id":"a620wk5twg3v","geo_precision":"zip","match date":"3/17/11","first name":"Laura","state":"IA"},"type":"Feature","geometry":{"type":"Point","coordinates":[-93.552438,41.570823]}},{"properties":{"city":"Des Moines","middle name":"Allen","specialty":"Transitional","last name":"Jabour","geo_score":0.956,"hospital":"IOWA METHODIST MEDICAL CENTER","preferred first name":"Paul","zip code":"50309-1453","id":"a620wkaaothv","geo_precision":"zip","match date":"3/17/11","first name":"Paul","state":"IA"},"type":"Feature","geometry":{"type":"Point","coordinates":[-93.552438,41.570823]}},{"properties":{"city":"Des Moines","middle name":"Benjamin","specialty":"Transitional","last name":"Mueller","geo_score":0.956,"hospital":"IOWA METHODIST MEDICAL CENTER","preferred first name":"Jason","zip code":"50309-1453","id":"a620wkcew89d","geo_precision":"zip","match date":"3/17/11","first name":"Jason","state":"IA"},"type":"Feature","geometry":{"type":"Point","coordinates":[-93.552438,41.570823]}},{"properties":{"city":"Des Moines","middle name":"Vendelboe","specialty":"Medicine-Preliminary","last name":"Nielsen","geo_score":0.956,"hospital":"IOWA METHODIST MEDICAL CENTER","preferred first name":"Alexandra","zip code":"50309-1453","id":"a620wk8vrq68","geo_precision":"zip","match date":"3/17/11","first name":"Alexandra","state":"IA"},"type":"Feature","geometry":{"type":"Point","coordinates":[-93.552438,41.570823]}},{"properties":{"city":"Fort Worth","middle name":"John Fuller","specialty":"Family Practice","last name":"Huntley","geo_score":1.0,"hospital":"JOHN PETER SMITH HOSPITAL","preferred first name":"Benjamin","zip code":"76104","id":"a620wkam29ty","geo_precision":"zip","match date":"3/17/11","first name":"Benjamin","state":"TX"},"type":"Feature","geometry":{"type":"Point","coordinates":[-97.291484,32.771419]}},{"properties":{"city":"San Francisco","middle name":"Jill","specialty":"Obstetrics-Gynecology","last name":"Schuttler","geo_score":0.857,"hospital":"KAISER FOUNDATION HOSPITAL-SF","preferred first name":"Harmony","zip code":null,"id":"a620wk038iz6","geo_precision":"city","match date":"3/17/11","first name":"Harmony","state":"CA"},"type":"Feature","geometry":{"type":"Point","coordinates":[-122.419416,37.77493]}},{"properties":{"city":"La Crosse","middle name":"Anne","specialty":"Family Practice","last name":"Filipiak","geo_score":0.896,"hospital":"LA CROSSE-MAYO FAM PRAC RES","preferred first name":"Trishia","zip code":"54601","id":"a620wk8gag9q","geo_precision":"zip","match date":"3/17/11","first name":"Trishia","state":"WI"},"type":"Feature","geometry":{"type":"Point","coordinates":[-91.041799,43.785524]}},{"properties":{"city":"La Crosse","middle name":"Anne","specialty":"Family Practice","last name":"Overton","geo_score":0.896,"hospital":"LA CROSSE-MAYO FAM PRAC RES","preferred first name":"Rachel","zip code":"54601","id":"a620wkd66akj","geo_precision":"zip","match date":"3/17/11","first name":"Rachel","state":"WI"},"type":"Feature","geometry":{"type":"Point","coordinates":[-91.041799,43.785524]}},{"properties":{"city":"Portland","middle name":"Steven","specialty":"Radiology Diagnostic","last name":"Leslein","geo_score":0.911,"hospital":"MAINE MEDICAL CENTER","preferred first name":"Nicholas","zip code":"4102","id":"a620wk6dnlh9","geo_precision":"zip","match date":"3/17/11","first name":"Nicholas","state":"ME"},"type":"Feature","geometry":{"type":"Point","coordinates":[-70.274493,43.650638]}},{"properties":{"city":"Boston","middle name":"Cyrena","specialty":"Psychiatry","last name":"Viner","geo_score":1.0,"hospital":"MASSACHUSETTS GENERAL HOSPITAL","preferred first name":"Jane","zip code":"2114","id":"a620wjy9iuht","geo_precision":"zip","match date":"3/17/11","first name":"Jane","state":"MA"},"type":"Feature","geometry":{"type":"Point","coordinates":[-71.023661,42.362097]}},{"properties":{"city":"Rochester","middle name":"Howard","specialty":"Pediatrics","last name":"Anderson","geo_score":1.0,"hospital":"MAYO GRADUATE SCHOOL OF MED","preferred first name":"Jason","zip code":"55905","id":"a620wjyvvb84","geo_precision":"zip","match date":"3/17/11","first name":"Jason","state":"MN"},"type":"Feature","geometry":{"type":"Point","coordinates":[-92.466826,44.022513]}},{"properties":{"city":"Rochester","middle name":"Rose","specialty":"Pediatrics","last name":"Cowan","geo_score":1.0,"hospital":"MAYO GRADUATE SCHOOL OF MED","preferred first name":"Katelyn","zip code":"55905","id":"a620wkdsr18l","geo_precision":"zip","match date":"3/17/11","first name":"Katelyn","state":"MN"},"type":"Feature","geometry":{"type":"Point","coordinates":[-92.466826,44.022513]}},{"properties":{"city":"Rochester","middle name":"David","specialty":"Emergency Medicine","last name":"Fenchel","geo_score":1.0,"hospital":"MAYO GRADUATE SCHOOL OF MED","preferred first name":"Derrick","zip code":"55905","id":"a620wk9yj3c8","geo_precision":"zip","match date":"3/17/11","first name":"Derrick","state":"MN"},"type":"Feature","geometry":{"type":"Point","coordinates":[-92.466826,44.022513]}},{"properties":{"city":"Rochester","middle name":"Andrew","specialty":"Surgery-Preliminary","last name":"Kassel","geo_score":1.0,"hospital":"MAYO GRADUATE SCHOOL OF MED","preferred first name":"Cale","zip code":"55905","id":"a620wk5kxp35","geo_precision":"zip","match date":"3/17/11","first name":"Cale","state":"MN"},"type":"Feature","geometry":{"type":"Point","coordinates":[-92.466826,44.022513]}},{"properties":{"city":"Rochester","middle name":"Marie","specialty":"Internal Medicine","last name":"Rieck","geo_score":1.0,"hospital":"MAYO GRADUATE SCHOOL OF MED","preferred first name":"Katie","zip code":"55905","id":"a620wk68fjyt","geo_precision":"zip","match date":"3/17/11","first name":"Katie","state":"MN"},"type":"Feature","geometry":{"type":"Point","coordinates":[-92.466826,44.022513]}},{"properties":{"city":"Milwaukee","middle name":"Richard","specialty":"Psychiatry","last name":"Burns","geo_score":1.0,"hospital":"MEDICAL COLLEGE OF WISCONSIN","preferred first name":"Jason","zip code":"53226-0509","id":"a620wk172vqt","geo_precision":"zip","match date":"3/17/11","first name":"Jason","state":"WI"},"type":"Feature","geometry":{"type":"Point","coordinates":[-88.041387,43.049312]}},{"properties":{"city":"Milwaukee","middle name":"Steven","specialty":"Phys Medicine &amp; Rehab PGY-2","last name":"Clearfield","geo_score":1.0,"hospital":"MEDICAL COLLEGE OF WISCONSIN","preferred first name":"Jacob","zip code":"53226-0509","id":"a620wk51aw01","geo_precision":"zip","match date":"3/17/11","first name":"Jacob","state":"WI"},"type":"Feature","geometry":{"type":"Point","coordinates":[-88.041387,43.049312]}},{"properties":{"city":"Milwaukee","middle name":"Steven","specialty":"Medicine-Preliminary","last name":"Clearfield","geo_score":1.0,"hospital":"MEDICAL COLLEGE OF WISCONSIN","preferred first name":"Jacob","zip code":"53226-0509","id":"a620wjz4vuls","geo_precision":"zip","match date":"3/17/11","first name":"Jacob","state":"WI"},"type":"Feature","geometry":{"type":"Point","coordinates":[-88.041387,43.049312]}},{"properties":{"city":"Milwaukee","middle name":"Robert","specialty":"Pediatrics","last name":"Jacobson","geo_score":1.0,"hospital":"MEDICAL COLLEGE OF WISCONSIN","preferred first name":"Dane","zip code":"53226-0509","id":"a620wkd7pb3y","geo_precision":"zip","match date":"3/17/11","first name":"Dane","state":"WI"},"type":"Feature","geometry":{"type":"Point","coordinates":[-88.041387,43.049312]}},{"properties":{"city":"Milwaukee","middle name":"Scott","specialty":"Medicine-Pediatrics","last name":"Tomlinson","geo_score":1.0,"hospital":"MEDICAL COLLEGE OF WISCONSIN","preferred first name":"Ryan","zip code":"53226-0509","id":"a620wk6k9dzd","geo_precision":"zip","match date":"3/17/11","first name":"Ryan","state":"WI"},"type":"Feature","geometry":{"type":"Point","coordinates":[-88.041387,43.049312]}},{"properties":{"city":"Pawtucket","middle name":"Ryan","specialty":"Family Practice","last name":"Klaus","geo_score":1.0,"hospital":"MEMORIAL HOSP OF RHODE ISLAND","preferred first name":"Christopher","zip code":"2860","id":"a620wjxrpamj","geo_precision":"zip","match date":"3/17/11","first name":"Christopher","state":"RI"},"type":"Feature","geometry":{"type":"Point","coordinates":[-71.392732,41.875149]}},{"properties":{"city":"Houston","middle name":"Marie","specialty":"Pathology","last name":"Crumley","geo_score":1.0,"hospital":"Methodist Hospital-Houston-TX","preferred first name":"Suzanne","zip code":"77030-2703","id":"a620wk5bgy2r","geo_precision":"zip","match date":"3/17/11","first name":"Suzanne","state":"TX"},"type":"Feature","geometry":{"type":"Point","coordinates":[-95.434241,29.83399]}},{"properties":{"city":"Bethesda","middle name":"Robert","specialty":"Obstetrics and Gynecology","last name":"Whitlow","geo_score":1.0,"hospital":"NATIONAL NAVAL MEDICAL CENTER","preferred first name":"Nathan","zip code":"20889-5600","id":"a620wjzenygy","geo_precision":"zip","match date":"12/15/10","first name":"Nathan","state":"MD"},"type":"Feature","geometry":{"type":"Point","coordinates":[-77.207617,39.143979]}},{"properties":{"city":"San Diego","middle name":"Lam","specialty":"Medicine-Preliminary","last name":"Pham","geo_score":1.0,"hospital":"Naval Med Ctr-San Diego-CA","preferred first name":"Long","zip code":"92134-1098","id":"a620wk664rl5","geo_precision":"zip","match date":"3/17/11","first name":"Nhat-Long","state":"CA"},"type":"Feature","geometry":{"type":"Point","coordinates":[-117.07166,32.562106]}},{"properties":{"city":"San Diego","middle name":"Leigh","specialty":"Transitional Year","last name":"Austin","geo_score":1.0,"hospital":"NAVAL MEDICAL CENTER","preferred first name":"Andrea","zip code":"92134","id":"a620wjzotsr1","geo_precision":"zip","match date":"12/15/10","first name":"Andrea","state":"CA"},"type":"Feature","geometry":{"type":"Point","coordinates":[-117.07166,32.562106]}},{"properties":{"city":"Great Neck","middle name":"NULL","specialty":"Medicine-Preliminary","last name":"Lee","geo_score":0.884,"hospital":"North Shore-LIJ Health Sys-NY","preferred first name":"Julianne","zip code":"11021-5337","id":"a620wk7g7fj8","geo_precision":"zip","match date":"3/17/11","first name":"Jee Yeun","state":"NY"},"type":"Feature","geometry":{"type":"Point","coordinates":[-72.715376,40.775933]}},{"properties":{"city":"Portland","middle name":"Robert","specialty":"Radiology Diagnostic PGY-2","last name":"Cagley","geo_score":1.0,"hospital":"OREGON HEALTH SCIENCES UNIV","preferred first name":"Jeffrey","zip code":"97201-3098","id":"a620wk99ykbk","geo_precision":"zip","match date":"3/17/11","first name":"Jeffrey","state":"OR"},"type":"Feature","geometry":{"type":"Point","coordinates":[-122.693157,45.498931]}},{"properties":{"city":"Portland","middle name":"NULL","specialty":"Pediatrics","last name":"Rourke","geo_score":1.0,"hospital":"OREGON HEALTH SCIENCES UNIV","preferred first name":"Sara","zip code":"97201-3098","id":"a620wk7g8bp6","geo_precision":"zip","match date":"3/17/11","first name":"Sara","state":"OR"},"type":"Feature","geometry":{"type":"Point","coordinates":[-122.693157,45.498931]}},{"properties":{"city":"Columbia","middle name":"Jon","specialty":"Family Practice","last name":"Van De Griend","geo_score":0.893,"hospital":"PALMETTO RICHLAND MEM HOSPITAL","preferred first name":"Philip","zip code":"29203","id":"a620wjxqma62","geo_precision":"zip","match date":"3/17/11","first name":"Philip","state":"SC"},"type":"Feature","geometry":{"type":"Point","coordinates":[-80.9462,34.138207]}},{"properties":{"city":"Washington","middle name":"Lee","specialty":"Family Practice","last name":"Fischer","geo_score":0.857,"hospital":"PROVIDENCE HOSPITAL","preferred first name":"Joshua","zip code":"20017","id":"a620wkctkjvd","geo_precision":"zip","match date":"3/17/11","first name":"Joshua","state":"DC"},"type":"Feature","geometry":{"type":"Point","coordinates":[-76.984142,38.932889]}},{"properties":{"city":"Davenport","middle name":"Leigh","specialty":"Family Practice","last name":"Quella","geo_score":0.873,"hospital":"QUAD CITIES GENESIS FP PROGRAM","preferred first name":"Stacy","zip code":"52804","id":"a620wk6z4j7a","geo_precision":"zip","match date":"3/17/11","first name":"Stacy","state":"IA"},"type":"Feature","geometry":{"type":"Point","coordinates":[-90.565693,41.615032]}},{"properties":{"city":"Davenport","middle name":"Lyn","specialty":"Family Practice","last name":"Salowitz","geo_score":0.873,"hospital":"QUAD CITIES GENESIS FP PROGRAM","preferred first name":"Stacie","zip code":"52804","id":"a620wkacvfjq","geo_precision":"zip","match date":"3/17/11","first name":"Stacie","state":"IA"},"type":"Feature","geometry":{"type":"Point","coordinates":[-90.565693,41.615032]}},{"properties":{"city":"Davenport","middle name":"Lynne Hileman","specialty":"Family Practice","last name":"Schierbrock","geo_score":0.873,"hospital":"QUAD CITIES GENESIS FP PROGRAM","preferred first name":"Catherine","zip code":"52804","id":"a620wk2cg62l","geo_precision":"zip","match date":"3/17/11","first name":"Catherine","state":"IA"},"type":"Feature","geometry":{"type":"Point","coordinates":[-90.565693,41.615032]}},{"properties":{"city":"Davenport","middle name":"Alan","specialty":"Family Practice","last name":"Shaw","geo_score":0.873,"hospital":"QUAD CITIES GENESIS FP PROGRAM","preferred first name":"Nathan","zip code":"52804","id":"a620wk8hrrhv","geo_precision":"zip","match date":"3/17/11","first name":"Nathan","state":"IA"},"type":"Feature","geometry":{"type":"Point","coordinates":[-90.565693,41.615032]}},{"properties":{"city":"Providence","middle name":"Anne","specialty":"Peds/Psych/Child Psych","last name":"Lichtor","geo_score":1.0,"hospital":"RHODE ISLAND HOSP/BROWN U SOM","preferred first name":"Stephanie","zip code":"2903","id":"a620wjxna00o","geo_precision":"zip","match date":"3/17/11","first name":"Stephanie","state":"RI"},"type":"Feature","geometry":{"type":"Point","coordinates":[-71.4115,41.819459]}},{"properties":{"city":"Springfield","middle name":"Eric","specialty":"Medicine-Preliminary","last name":"Theusch","geo_score":1.0,"hospital":"SIU SCHOOL OF MED &amp; AFFL HOSPS","preferred first name":"Brett","zip code":"62794-9656","id":"a620wk02ox4z","geo_precision":"zip","match date":"3/15/11","first name":"Brett","state":"IL"},"type":"Feature","geometry":{"type":"Point","coordinates":[-89.606017,39.749457]}},{"properties":{"city":"Ann Arbor","middle name":"NULL","specialty":"Medicine-Preliminary","last name":"Chen","geo_score":1.0,"hospital":"ST JOSEPH MERCY-ANN ARBOR","preferred first name":"Philip","zip code":"48106","id":"a620wk0qtn0s","geo_precision":"zip","match date":"3/17/11","first name":"Philip","state":"MI"},"type":"Feature","geometry":{"type":"Point","coordinates":[-83.836571,42.253502]}},{"properties":{"city":"Phoenix","middle name":"NULL","specialty":"Surgery-General","last name":"Stork","geo_score":1.0,"hospital":"ST JOSEPHS HOSPITAL &amp; MED CTR","preferred first name":"Angie","zip code":"85013","id":"a620wk4o00uo","geo_precision":"zip","match date":"3/17/11","first name":"Angela","state":"AZ"},"type":"Feature","geometry":{"type":"Point","coordinates":[-112.18717,33.276539]}},{"properties":{"city":"St Louis","middle name":"Ryan","specialty":"Orthopaedic Surgery","last name":"McNamara","geo_score":0.957,"hospital":"ST LOUIS UNIV SCH OF MEDICINE","preferred first name":"Andrew","zip code":"63104","id":"a620wk1wb8nu","geo_precision":"zip","match date":"3/17/11","first name":"Andrew","state":"MO"},"type":"Feature","geometry":{"type":"Point","coordinates":[-90.214461,38.611401]}},{"properties":{"city":"Bethlehem","middle name":"Michael","specialty":"Emergency Medicine","last name":"Nelson","geo_score":0.857,"hospital":"ST LUKES HOSPITAL","preferred first name":"Drew","zip code":"18015","id":"a620wk9jmii0","geo_precision":"zip","match date":"3/17/11","first name":"Drew","state":"PA"},"type":"Feature","geometry":{"type":"Point","coordinates":[-75.387681,40.581765]}},{"properties":{"city":"Columbus","middle name":"Vendelboe","specialty":"Phys Medicine &amp; Rehab PGY-2","last name":"Nielsen","geo_score":1.0,"hospital":"THE OHIO STATE UNIV MED CENTER","preferred first name":"Alexandra","zip code":"43210-1228","id":"a620wk0g5ivo","geo_precision":"zip","match date":"3/17/11","first name":"Alexandra","state":"OH"},"type":"Feature","geometry":{"type":"Point","coordinates":[-82.832558,39.914038]}},{"properties":{"city":"Cincinnati","middle name":"Elizabeth","specialty":"Obstetrics-Gynecology","last name":"Judkins","geo_score":0.886,"hospital":"THE UNIVERSITY HOSPITAL","preferred first name":"Erin","zip code":"45219","id":"a620wkbdw1pq","geo_precision":"zip","match date":"3/17/11","first name":"Erin","state":"OH"},"type":"Feature","geometry":{"type":"Point","coordinates":[-84.517999,39.150059]}},{"properties":{"city":"Cincinnati","middle name":"Michelle","specialty":"Obstetrics-Gynecology","last name":"Langager","geo_score":0.886,"hospital":"THE UNIVERSITY HOSPITAL","preferred first name":"Amanda","zip code":"45219","id":"a620wkavhps7","geo_precision":"zip","match date":"3/17/11","first name":"Amanda","state":"OH"},"type":"Feature","geometry":{"type":"Point","coordinates":[-84.517999,39.150059]}},{"properties":{"city":"Tucson","middle name":"Martin","specialty":"Transitional","last name":"Vislisel","geo_score":1.0,"hospital":"TUCSON HOSPITAL MED ED PROGRAM","preferred first name":"Jesse","zip code":"85733","id":"a620wk8i8x59","geo_precision":"zip","match date":"3/17/11","first name":"Jesse","state":"AZ"},"type":"Feature","geometry":{"type":"Point","coordinates":[-111.890713,31.970131]}},{"properties":{"city":"New Orleans","middle name":"Frances","specialty":"Int Med-Primary Care","last name":"Sandler","geo_score":0.857,"hospital":"TULANE UNIV SCHOOL OF MEDICINE","preferred first name":"Rachel","zip code":"70112-2699","id":"a620wkcfqyk5","geo_precision":"zip","match date":"3/17/11","first name":"Rachel","state":"LA"},"type":"Feature","geometry":{"type":"Point","coordinates":[-90.064794,29.960481]}},{"properties":{"city":"New Orleans","middle name":"NULL","specialty":"Radiology Diagnostic PGY-2","last name":"Shaikh","geo_score":0.857,"hospital":"TULANE UNIV SCHOOL OF MEDICINE","preferred first name":"Mohammed","zip code":"70112-2699","id":"a620wk51rpth","geo_precision":"zip","match date":"3/17/11","first name":"Mohammed","state":"LA"},"type":"Feature","geometry":{"type":"Point","coordinates":[-90.064794,29.960481]}},{"properties":{"city":"Denver","middle name":"Michelle","specialty":"Child Neurology","last name":"Henry","geo_score":1.0,"hospital":"U COLORADO SCHOOL OF MEDICINE","preferred first name":"Dorlyne","zip code":"80262","id":"a620wk188152","geo_precision":"zip","match date":"1/26/11","first name":"Dorlyne","state":"CO"},"type":"Feature","geometry":{"type":"Point","coordinates":[-104.938391,39.731038]}},{"properties":{"city":"Denver","middle name":"V","specialty":"Dermatology PGY-2","last name":"Bassis","geo_score":1.0,"hospital":"U COLORADO SCHOOL OF MEDICINE","preferred first name":"Anastasia","zip code":"80262","id":"a620wk3tm5kr","geo_precision":"zip","match date":"3/17/11","first name":"Anastasia","state":"CO"},"type":"Feature","geometry":{"type":"Point","coordinates":[-104.938391,39.731038]}},{"properties":{"city":"Denver","middle name":"Michelle","specialty":"Pediatrics","last name":"Henry","geo_score":1.0,"hospital":"U COLORADO SCHOOL OF MEDICINE","preferred first name":"Dorlyne","zip code":"80262","id":"a620wk22mvh9","geo_precision":"zip","match date":"3/17/11","first name":"Dorlyne","state":"CO"},"type":"Feature","geometry":{"type":"Point","coordinates":[-104.938391,39.731038]}},{"properties":{"city":"Denver","middle name":"NULL","specialty":"Medicine-Preliminary","last name":"Hughart","geo_score":1.0,"hospital":"U COLORADO SCHOOL OF MEDICINE","preferred first name":"Rose","zip code":"80262","id":"a620wkaskxu7","geo_precision":"zip","match date":"3/17/11","first name":"Rosemara","state":"CO"},"type":"Feature","geometry":{"type":"Point","coordinates":[-104.938391,39.731038]}},{"properties":{"city":"Peoria","middle name":"NULL","specialty":"Psychiatry","last name":"Beckman","geo_score":1.0,"hospital":"U ILLINOIS/METHODIST MED CTR","preferred first name":"Morgyn","zip code":"61656-1649","id":"a620wk3p5nrj","geo_precision":"zip","match date":"3/17/11","first name":"Morgyn","state":"IL"},"type":"Feature","geometry":{"type":"Point","coordinates":[-89.718401,40.744179]}},{"properties":{"city":"Kansas City","middle name":"NULL","specialty":"Medicine-Preliminary","last name":"Shaikh","geo_score":1.0,"hospital":"U KANSAS SCH MED-KANSAS CITY","preferred first name":"Mohammed","zip code":"66160-7302","id":"a620wk8yciij","geo_precision":"zip","match date":"3/15/11","first name":"Mohammed","state":"KS"},"type":"Feature","geometry":{"type":"Point","coordinates":[-94.749538,39.096551]}},{"properties":{"city":"Kansas City","middle name":"Susan","specialty":"Phys Medicine &amp; Rehab PGY-2","last name":"Cavazos","geo_score":1.0,"hospital":"U KANSAS SCH MED-KANSAS CITY","preferred first name":"Leslie","zip code":"66160-7302","id":"a620wkcvgkgd","geo_precision":"zip","match date":"3/16/11","first name":"Leslie","state":"KS"},"type":"Feature","geometry":{"type":"Point","coordinates":[-94.749538,39.096551]}},{"properties":{"city":"Kansas City","middle name":"Lincoln","specialty":"Orthopaedic Surgery","last name":"Breder","geo_score":1.0,"hospital":"U KANSAS SCH MED-KANSAS CITY","preferred first name":"Derek","zip code":"66160-7302","id":"a620wk5qq8h0","geo_precision":"zip","match date":"3/17/11","first name":"Derek","state":"KS"},"type":"Feature","geometry":{"type":"Point","coordinates":[-94.749538,39.096551]}},{"properties":{"city":"Wichita","middle name":"Andrew","specialty":"Family Practice","last name":"Tomsen","geo_score":0.929,"hospital":"U KANSAS SCH MED-WICHITA","preferred first name":"Nicholas","zip code":"67214-3199","id":"a620wk87kaly","geo_precision":"zip","match date":"3/17/11","first name":"Nicholas","state":"KS"},"type":"Feature","geometry":{"type":"Point","coordinates":[-97.335877,37.781123]}},{"properties":{"city":"Miami","middle name":"Cinru","specialty":"Ophthalmology PGY-2","last name":"Ko","geo_score":1.0,"hospital":"U Miami/Bascom Palmer","preferred first name":"Audrey","zip code":"33136-1119","id":"a620wk7soy8c","geo_precision":"zip","match date":"1/12/11","first name":"Audrey","state":"FL"},"type":"Feature","geometry":{"type":"Point","coordinates":[-80.204773,25.78718]}},{"properties":{"city":"Oklahoma City","middle name":"Romney","specialty":"Ophthalmology","last name":"Jackson","geo_score":0.857,"hospital":"U OKLAHOMA COM-OKLAHOMA CITY","preferred first name":"Jared","zip code":null,"id":"a620wk2ahcpw","geo_precision":"city","match date":"1/12/11","first name":"Jared","state":"OK"},"type":"Feature","geometry":{"type":"Point","coordinates":[-97.516428,35.46756]}},{"properties":{"city":"Tulsa","middle name":"Robert Hila","specialty":"Medicine-Preliminary","last name":"Smith","geo_score":1.0,"hospital":"U OKLAHOMA COM-TULSA","preferred first name":"Devin","zip code":"74129-1077","id":"a620wk9qdwoy","geo_precision":"zip","match date":"3/15/11","first name":"Devin","state":"OK"},"type":"Feature","geometry":{"type":"Point","coordinates":[-95.868767,36.125996]}},{"properties":{"city":"Houston","middle name":"NULL","specialty":"Neurology","last name":"Yoshii-Contreras","geo_score":0.816,"hospital":"U TEXAS MEDICAL SCHOOL-HOUSTON","preferred first name":"June","zip code":null,"id":"a620wjzezq45","geo_precision":"city","match date":"3/17/11","first name":"June","state":"TX"},"type":"Feature","geometry":{"type":"Point","coordinates":[-96.919704,29.845783]}},{"properties":{"city":"Dallas","middle name":"Rose","specialty":"Dermatology - Austin Program","last name":"Gordon","geo_score":1.0,"hospital":"U TEXAS SOUTHWESTERN MED SCH","preferred first name":"Jennifer","zip code":"75235-9005","id":"a620wk9w26gq","geo_precision":"zip","match date":"12/21/10","first name":"Jennifer","state":"TX"},"type":"Feature","geometry":{"type":"Point","coordinates":[-96.623022,32.692682]}},{"properties":{"city":"Dallas","middle name":"Michael","specialty":"Emergency Medicine","last name":"Couch","geo_score":1.0,"hospital":"U TEXAS SOUTHWESTERN MED SCH","preferred first name":"Chris","zip code":"75235-9005","id":"a620wk9iyyzi","geo_precision":"zip","match date":"3/17/11","first name":"Christopher","state":"TX"},"type":"Feature","geometry":{"type":"Point","coordinates":[-96.623022,32.692682]}},{"properties":{"city":"Dallas","middle name":"James","specialty":"Emergency Medicine","last name":"Krein","geo_score":1.0,"hospital":"U TEXAS SOUTHWESTERN MED SCH","preferred first name":"Michael","zip code":"75235-9005","id":"a620wk3fpl93","geo_precision":"zip","match date":"3/17/11","first name":"Michael","state":"TX"},"type":"Feature","geometry":{"type":"Point","coordinates":[-96.623022,32.692682]}},{"properties":{"city":"Dallas","middle name":"Robert Hila","specialty":"Phys Medicine &amp; Rehab PGY-2","last name":"Smith","geo_score":1.0,"hospital":"U TEXAS SOUTHWESTERN MED SCH","preferred first name":"Devin","zip code":"75235-9005","id":"a620wkckiyky","geo_precision":"zip","match date":"3/17/11","first name":"Devin","state":"TX"},"type":"Feature","geometry":{"type":"Point","coordinates":[-96.623022,32.692682]}},{"properties":{"city":"Dallas","middle name":"Aaron","specialty":"Internal Medicine","last name":"Sohinki","geo_score":1.0,"hospital":"U TEXAS SOUTHWESTERN MED SCH","preferred first name":"Daniel","zip code":"75235-9005","id":"a620wk1q6voa","geo_precision":"zip","match date":"3/17/11","first name":"Daniel","state":"TX"},"type":"Feature","geometry":{"type":"Point","coordinates":[-96.623022,32.692682]}},{"properties":{"city":"Burlington","middle name":"Marie","specialty":"Obstetrics-Gynecology","last name":"Cooper","geo_score":0.952,"hospital":"U VT/FLETCHER ALLEN HLTH CARE","preferred first name":"Kylie","zip code":"05401-1429","id":"a620wk30ajl1","geo_precision":"zip","match date":"3/17/11","first name":"Kylie","state":"VT"},"type":"Feature","geometry":{"type":"Point","coordinates":[-73.17096,44.466994]}},{"properties":{"city":"Burlington","middle name":"John Sedrel","specialty":"Radiology Diagnostic PGY-2","last name":"Jarvis","geo_score":0.952,"hospital":"U VT/FLETCHER ALLEN HLTH CARE","preferred first name":"Josh","zip code":"05401-1429","id":"a620wk10w4ro","geo_precision":"zip","match date":"3/17/11","first name":"Joshua","state":"VT"},"type":"Feature","geometry":{"type":"Point","coordinates":[-73.17096,44.466994]}},{"properties":{"city":"Madison","middle name":"Winthrop","specialty":"Orthopaedic Surgery","last name":"Hennessy","geo_score":1.0,"hospital":"U WISCONSIN HOSP AND CLINICS","preferred first name":"David","zip code":"53792-8310","id":"a620wk9z8xz6","geo_precision":"zip","match date":"3/17/11","first name":"David","state":"WI"},"type":"Feature","geometry":{"type":"Point","coordinates":[-89.423861,43.06956]}},{"properties":{"city":"Irvine","middle name":"Loyd","specialty":"Pediatrics/UCI-CHOC","last name":"Piester","geo_score":0.875,"hospital":"UC IRVINE MEDICAL CENTER","preferred first name":"Travis","zip code":"92717-4089","id":"a620wjyid6yi","geo_precision":"zip","match date":"3/17/11","first name":"Travis","state":"CA"},"type":"Feature","geometry":{"type":"Point","coordinates":[-117.867834,33.745573]}},{"properties":{"city":"San Diego","middle name":"Lam","specialty":"Radiation Oncology","last name":"Pham","geo_score":0.857,"hospital":"UC SAN DIEGO MEDICAL CENTER","preferred first name":"Long","zip code":null,"id":"a620wk3y65dg","geo_precision":"city","match date":"3/17/11","first name":"Nhat-Long","state":"CA"},"type":"Feature","geometry":{"type":"Point","coordinates":[-117.157255,32.715329]}},{"properties":{"city":"Columbia","middle name":"Steven","specialty":"Ophthalmology","last name":"Boeke","geo_score":1.0,"hospital":"UNIV HOSP &amp; CLINICS-COLUMBIA","preferred first name":"Paul","zip code":"65212","id":"a620wjyio90p","geo_precision":"zip","match date":"1/12/11","first name":"Paul","state":"MO"},"type":"Feature","geometry":{"type":"Point","coordinates":[-92.33043,38.937608]}},{"properties":{"city":"Cleveland","middle name":"Borj","specialty":"Urology","last name":"Tabayoyong","geo_score":1.0,"hospital":"UNIV HOSPITALS OF CLEVELAND","preferred first name":"Bill","zip code":"44106","id":"a620wjyts6n1","geo_precision":"zip","match date":"1/24/11","first name":"William","state":"OH"},"type":"Feature","geometry":{"type":"Point","coordinates":[-81.602799,41.504751]}},{"properties":{"city":"Cleveland","middle name":"Thomas","specialty":"Pediatrics","last name":"Beins","geo_score":1.0,"hospital":"UNIV HOSPITALS OF CLEVELAND","preferred first name":"Nathan","zip code":"44106","id":"a620wk2d831f","geo_precision":"zip","match date":"3/17/11","first name":"Nathan","state":"OH"},"type":"Feature","geometry":{"type":"Point","coordinates":[-81.602799,41.504751]}},{"properties":{"city":"Cleveland","middle name":"John","specialty":"Pediatrics","last name":"Brown","geo_score":1.0,"hospital":"UNIV HOSPITALS OF CLEVELAND","preferred first name":"James","zip code":"44106","id":"a620wk1866j8","geo_precision":"zip","match date":"3/17/11","first name":"James","state":"OH"},"type":"Feature","geometry":{"type":"Point","coordinates":[-81.602799,41.504751]}},{"properties":{"city":"Cleveland","middle name":"Michael","specialty":"Neurological Surgery","last name":"Cox","geo_score":1.0,"hospital":"UNIV HOSPITALS OF CLEVELAND","preferred first name":"Efrem","zip code":"44106","id":"a620wk0pi8ue","geo_precision":"zip","match date":"3/17/11","first name":"Efrem","state":"OH"},"type":"Feature","geometry":{"type":"Point","coordinates":[-81.602799,41.504751]}},{"properties":{"city":"Cleveland","middle name":"Maria","specialty":"Obstetrics-Gynecology","last name":"Cox","geo_score":1.0,"hospital":"UNIV HOSPITALS OF CLEVELAND","preferred first name":"Leticia","zip code":"44106","id":"a620wk4ocg88","geo_precision":"zip","match date":"3/17/11","first name":"Leticia","state":"OH"},"type":"Feature","geometry":{"type":"Point","coordinates":[-81.602799,41.504751]}},{"properties":{"city":"Cleveland","middle name":"NULL","specialty":"Obstetrics-Gynecology","last name":"Raidoo","geo_score":1.0,"hospital":"UNIV HOSPITALS OF CLEVELAND","preferred first name":"Shandhini","zip code":"44106","id":"a620wjxdktc5","geo_precision":"zip","match date":"3/17/11","first name":"Shandhini","state":"OH"},"type":"Feature","geometry":{"type":"Point","coordinates":[-81.602799,41.504751]}},{"properties":{"city":"Cleveland","middle name":"Borj","specialty":"Surg-Prelim/Urology","last name":"Tabayoyong","geo_score":1.0,"hospital":"UNIV HOSPITALS OF CLEVELAND","preferred first name":"Bill","zip code":"44106","id":"a620wk1cl52c","geo_precision":"zip","match date":"3/17/11","first name":"William","state":"OH"},"type":"Feature","geometry":{"type":"Point","coordinates":[-81.602799,41.504751]}},{"properties":{"city":"Tucson","middle name":"Edward","specialty":"General Surgery","last name":"Mobily","geo_score":1.0,"hospital":"UNIV OF ARIZONA AFFL HOSPITALS","preferred first name":"Matthew","zip code":"85724-5085","id":"a620wjxfrbax","geo_precision":"zip","match date":"3/17/11","first name":"Matthew","state":"AZ"},"type":"Feature","geometry":{"type":"Point","coordinates":[-110.944343,32.240571]}},{"properties":{"city":"Tucson","middle name":"Cristina","specialty":"Family Practice","last name":"Olivas","geo_score":1.0,"hospital":"UNIV OF ARIZONA AFFL HOSPITALS","preferred first name":"Diana","zip code":"85724-5085","id":"a620wk5859ok","geo_precision":"zip","match date":"3/17/11","first name":"Diana","state":"AZ"},"type":"Feature","geometry":{"type":"Point","coordinates":[-110.944343,32.240571]}},{"properties":{"city":"Chicago","middle name":"Christophe","specialty":"Obstetrics-Gynecology","last name":"Colbert","geo_score":1.0,"hospital":"UNIV OF CHICAGO HOSPITALS","preferred first name":"Marie","zip code":"60637-1470","id":"a620wk644xu0","geo_precision":"zip","match date":"3/17/11","first name":"Marie-Teresa","state":"IL"},"type":"Feature","geometry":{"type":"Point","coordinates":[-87.68732,41.811929]}},{"properties":{"city":"Chicago","middle name":"Norbert","specialty":"Transitional/NorthShore","last name":"Laczniak","geo_score":1.0,"hospital":"UNIV OF CHICAGO HOSPITALS","preferred first name":"Andrew","zip code":"60637-1470","id":"a620wk3j9kpe","geo_precision":"zip","match date":"3/17/11","first name":"Andrew","state":"IL"},"type":"Feature","geometry":{"type":"Point","coordinates":[-87.68732,41.811929]}},{"properties":{"city":"Chicago","middle name":"NULL","specialty":"Emergency Medicine","last name":"Shyy","geo_score":1.0,"hospital":"UNIV OF CHICAGO HOSPITALS","preferred first name":"William","zip code":"60637-1470","id":"a620wk804j7o","geo_precision":"zip","match date":"3/17/11","first name":"William","state":"IL"},"type":"Feature","geometry":{"type":"Point","coordinates":[-87.68732,41.811929]}},{"properties":{"city":"Iowa City","middle name":"Martin","specialty":"Ophthalmology PGY-2","last name":"Vislisel","geo_score":1.0,"hospital":"UNIV OF IOWA HOSPS &amp; CLINICS","preferred first name":"Jesse","zip code":"52242-1009","id":"a620wjyuo3zv","geo_precision":"zip","match date":"1/12/11","first name":"Jesse","state":"IA"},"type":"Feature","geometry":{"type":"Point","coordinates":[-91.555328,41.733924]}},{"properties":{"city":"Iowa City","middle name":"David","specialty":"Ophthalmology PGY-2","last name":"Welder","geo_score":1.0,"hospital":"UNIV OF IOWA HOSPS &amp; CLINICS","preferred first name":"Jeffrey","zip code":"52242-1009","id":"a620wka97a0e","geo_precision":"zip","match date":"1/12/11","first name":"Jeffrey","state":"IA"},"type":"Feature","geometry":{"type":"Point","coordinates":[-91.555328,41.733924]}},{"properties":{"city":"Iowa City","middle name":"Lyn","specialty":"Urology PGY-2","last name":"Fairchild","geo_score":1.0,"hospital":"UNIV OF IOWA HOSPS &amp; CLINICS","preferred first name":"Tricia","zip code":"52242-1009","id":"a620wk66proe","geo_precision":"zip","match date":"1/24/11","first name":"Tricia","state":"IA"},"type":"Feature","geometry":{"type":"Point","coordinates":[-91.555328,41.733924]}},{"properties":{"city":"Iowa City","middle name":"O","specialty":"Neurological Surgery","last name":"Abode-Iyamah","geo_score":1.0,"hospital":"UNIV OF IOWA HOSPS &amp; CLINICS","preferred first name":"Kingsley","zip code":"52242-1009","id":"a620wk9fnx9w","geo_precision":"zip","match date":"3/17/11","first name":"Kingsley","state":"IA"},"type":"Feature","geometry":{"type":"Point","coordinates":[-91.555328,41.733924]}},{"properties":{"city":"Iowa City","middle name":"Gary","specialty":"General Surgery","last name":"Armstrong","geo_score":1.0,"hospital":"UNIV OF IOWA HOSPS &amp; CLINICS","preferred first name":"John","zip code":"52242-1009","id":"a620wk3oo8b8","geo_precision":"zip","match date":"3/17/11","first name":"John","state":"IA"},"type":"Feature","geometry":{"type":"Point","coordinates":[-91.555328,41.733924]}},{"properties":{"city":"Iowa City","middle name":"Elizabeth","specialty":"Orthopaedic Surgery","last name":"Cassel","geo_score":1.0,"hospital":"UNIV OF IOWA HOSPS &amp; CLINICS","preferred first name":"Shannon","zip code":"52242-1009","id":"a620wk168kwh","geo_precision":"zip","match date":"3/17/11","first name":"Shannon","state":"IA"},"type":"Feature","geometry":{"type":"Point","coordinates":[-91.555328,41.733924]}},{"properties":{"city":"Iowa City","middle name":"Thomas","specialty":"Anesthesiology","last name":"Cheney","geo_score":1.0,"hospital":"UNIV OF IOWA HOSPS &amp; CLINICS","preferred first name":"Brian","zip code":"52242-1009","id":"a620wkdsrf48","geo_precision":"zip","match date":"3/17/11","first name":"Brian","state":"IA"},"type":"Feature","geometry":{"type":"Point","coordinates":[-91.555328,41.733924]}},{"properties":{"city":"Iowa City","middle name":"Keith","specialty":"General Surgery","last name":"Conway","geo_score":1.0,"hospital":"UNIV OF IOWA HOSPS &amp; CLINICS","preferred first name":"Ryan","zip code":"52242-1009","id":"a620wk2sm5os","geo_precision":"zip","match date":"3/17/11","first name":"Ryan","state":"IA"},"type":"Feature","geometry":{"type":"Point","coordinates":[-91.555328,41.733924]}},{"properties":{"city":"Iowa City","middle name":"James","specialty":"Internal Medicine","last name":"Diehl","geo_score":1.0,"hospital":"UNIV OF IOWA HOSPS &amp; CLINICS","preferred first name":"Evan","zip code":"52242-1009","id":"a620wk7h4tau","geo_precision":"zip","match date":"3/17/11","first name":"Evan","state":"IA"},"type":"Feature","geometry":{"type":"Point","coordinates":[-91.555328,41.733924]}},{"properties":{"city":"Iowa City","middle name":"Marie","specialty":"Pathology","last name":"Dolezal","geo_score":1.0,"hospital":"UNIV OF IOWA HOSPS &amp; CLINICS","preferred first name":"Anna","zip code":"52242-1009","id":"a620wk6hc1hq","geo_precision":"zip","match date":"3/17/11","first name":"Anna","state":"IA"},"type":"Feature","geometry":{"type":"Point","coordinates":[-91.555328,41.733924]}},{"properties":{"city":"Iowa City","middle name":"Douglas","specialty":"Anesthesiology","last name":"Easker","geo_score":1.0,"hospital":"UNIV OF IOWA HOSPS &amp; CLINICS","preferred first name":"David","zip code":"52242-1009","id":"a620wkdrrlq4","geo_precision":"zip","match date":"3/17/11","first name":"David","state":"IA"},"type":"Feature","geometry":{"type":"Point","coordinates":[-91.555328,41.733924]}},{"properties":{"city":"Iowa City","middle name":"Lynn","specialty":"Internal Medicine","last name":"Edwards","geo_score":1.0,"hospital":"UNIV OF IOWA HOSPS &amp; CLINICS","preferred first name":"Dianna","zip code":"52242-1009","id":"a620wjxnu5tf","geo_precision":"zip","match date":"3/17/11","first name":"Dianna","state":"IA"},"type":"Feature","geometry":{"type":"Point","coordinates":[-91.555328,41.733924]}},{"properties":{"city":"Iowa City","middle name":"Lyn","specialty":"Surg-Prelim/Urology","last name":"Fairchild","geo_score":1.0,"hospital":"UNIV OF IOWA HOSPS &amp; CLINICS","preferred first name":"Tricia","zip code":"52242-1009","id":"a620wk9u6ujs","geo_precision":"zip","match date":"3/17/11","first name":"Tricia","state":"IA"},"type":"Feature","geometry":{"type":"Point","coordinates":[-91.555328,41.733924]}},{"properties":{"city":"Iowa City","middle name":"NULL","specialty":"Pathology","last name":"Fischer","geo_score":1.0,"hospital":"UNIV OF IOWA HOSPS &amp; CLINICS","preferred first name":"Stephanie","zip code":"52242-1009","id":"a620wk1r5m41","geo_precision":"zip","match date":"3/17/11","first name":"Stephanie","state":"IA"},"type":"Feature","geometry":{"type":"Point","coordinates":[-91.555328,41.733924]}},{"properties":{"city":"Iowa City","middle name":"Martin","specialty":"Internal Medicine","last name":"Gabe","geo_score":1.0,"hospital":"UNIV OF IOWA HOSPS &amp; CLINICS","preferred first name":"Luke","zip code":"52242-1009","id":"a620wk3ucx3i","geo_precision":"zip","match date":"3/17/11","first name":"Luke","state":"IA"},"type":"Feature","geometry":{"type":"Point","coordinates":[-91.555328,41.733924]}},{"properties":{"city":"Iowa City","middle name":"Marie","specialty":"Obstetrics-Gynecology","last name":"Harris","geo_score":1.0,"hospital":"UNIV OF IOWA HOSPS &amp; CLINICS","preferred first name":"Ginny","zip code":"52242-1009","id":"a620wjxdxsal","geo_precision":"zip","match date":"3/17/11","first name":"Ginny","state":"IA"},"type":"Feature","geometry":{"type":"Point","coordinates":[-91.555328,41.733924]}},{"properties":{"city":"Iowa City","middle name":"Anne","specialty":"Pediatrics","last name":"Harshman","geo_score":1.0,"hospital":"UNIV OF IOWA HOSPS &amp; CLINICS","preferred first name":"Lyndsay","zip code":"52242-1009","id":"a620wkaap5ta","geo_precision":"zip","match date":"3/17/11","first name":"Lyndsay","state":"IA"},"type":"Feature","geometry":{"type":"Point","coordinates":[-91.555328,41.733924]}},{"properties":{"city":"Iowa City","middle name":"Lanae","specialty":"Otolaryngology","last name":"Hulstein","geo_score":1.0,"hospital":"UNIV OF IOWA HOSPS &amp; CLINICS","preferred first name":"Stephanie","zip code":"52242-1009","id":"a620wjy2haqs","geo_precision":"zip","match date":"3/17/11","first name":"Stephanie","state":"IA"},"type":"Feature","geometry":{"type":"Point","coordinates":[-91.555328,41.733924]}},{"properties":{"city":"Iowa City","middle name":"John Sedrel","specialty":"Medicine-Preliminary","last name":"Jarvis","geo_score":1.0,"hospital":"UNIV OF IOWA HOSPS &amp; CLINICS","preferred first name":"Josh","zip code":"52242-1009","id":"a620wk5ws43i","geo_precision":"zip","match date":"3/17/11","first name":"Joshua","state":"IA"},"type":"Feature","geometry":{"type":"Point","coordinates":[-91.555328,41.733924]}},{"properties":{"city":"Iowa City","middle name":"Logan","specialty":"Anesthesiology","last name":"Kuhl","geo_score":1.0,"hospital":"UNIV OF IOWA HOSPS &amp; CLINICS","preferred first name":"Taften","zip code":"52242-1009","id":"a620wk0lul77","geo_precision":"zip","match date":"3/17/11","first name":"Taften","state":"IA"},"type":"Feature","geometry":{"type":"Point","coordinates":[-91.555328,41.733924]}},{"properties":{"city":"Iowa City","middle name":"Lynn","specialty":"Family Practice-Psychiatry","last name":"Little-Cooper","geo_score":1.0,"hospital":"UNIV OF IOWA HOSPS &amp; CLINICS","preferred first name":"Darbie","zip code":"52242-1009","id":"a620wk32di8c","geo_precision":"zip","match date":"3/17/11","first name":"Darbie","state":"IA"},"type":"Feature","geometry":{"type":"Point","coordinates":[-91.555328,41.733924]}},{"properties":{"city":"Iowa City","middle name":"Erin","specialty":"General Surgery","last name":"Maxwell","geo_score":1.0,"hospital":"UNIV OF IOWA HOSPS &amp; CLINICS","preferred first name":"Jess","zip code":"52242-1009","id":"a620wk8bt9lf","geo_precision":"zip","match date":"3/17/11","first name":"Jessica","state":"IA"},"type":"Feature","geometry":{"type":"Point","coordinates":[-91.555328,41.733924]}},{"properties":{"city":"Iowa City","middle name":"John","specialty":"Anesthesiology","last name":"Maxwell","geo_score":1.0,"hospital":"UNIV OF IOWA HOSPS &amp; CLINICS","preferred first name":"Matt","zip code":"52242-1009","id":"a620wk9nt20i","geo_precision":"zip","match date":"3/17/11","first name":"Matthew","state":"IA"},"type":"Feature","geometry":{"type":"Point","coordinates":[-91.555328,41.733924]}},{"properties":{"city":"Iowa City","middle name":"Benjamin","specialty":"Radiology Diagnostic PGY-2","last name":"Mueller","geo_score":1.0,"hospital":"UNIV OF IOWA HOSPS &amp; CLINICS","preferred first name":"Jason","zip code":"52242-1009","id":"a620wjzk5pxx","geo_precision":"zip","match date":"3/17/11","first name":"Jason","state":"IA"},"type":"Feature","geometry":{"type":"Point","coordinates":[-91.555328,41.733924]}},{"properties":{"city":"Iowa City","middle name":"NULL","specialty":"Psychiatry","last name":"Ouyang","geo_score":1.0,"hospital":"UNIV OF IOWA HOSPS &amp; CLINICS","preferred first name":"Evan","zip code":"52242-1009","id":"a620wk3kyudy","geo_precision":"zip","match date":"3/17/11","first name":"Evan","state":"IA"},"type":"Feature","geometry":{"type":"Point","coordinates":[-91.555328,41.733924]}},{"properties":{"city":"Iowa City","middle name":"Elizabeth","specialty":"Family Medicine","last name":"Ray","geo_score":1.0,"hospital":"UNIV OF IOWA HOSPS &amp; CLINICS","preferred first name":"Brigit","zip code":"52242-1009","id":"a620wk6xf6hv","geo_precision":"zip","match date":"3/17/11","first name":"Brigit","state":"IA"},"type":"Feature","geometry":{"type":"Point","coordinates":[-91.555328,41.733924]}},{"properties":{"city":"Iowa City","middle name":"La Nell","specialty":"Emergency Medicine","last name":"Sawyer","geo_score":1.0,"hospital":"UNIV OF IOWA HOSPS &amp; CLINICS","preferred first name":"Alicia","zip code":"52242-1009","id":"a620wk6eoxp9","geo_precision":"zip","match date":"3/17/11","first name":"Alicia","state":"IA"},"type":"Feature","geometry":{"type":"Point","coordinates":[-91.555328,41.733924]}},{"properties":{"city":"Iowa City","middle name":"Jeanine","specialty":"Family Medicine","last name":"Schmidt","geo_score":1.0,"hospital":"UNIV OF IOWA HOSPS &amp; CLINICS","preferred first name":"Erin","zip code":"52242-1009","id":"a620wk6c9q79","geo_precision":"zip","match date":"3/17/11","first name":"Erin","state":"IA"},"type":"Feature","geometry":{"type":"Point","coordinates":[-91.555328,41.733924]}},{"properties":{"city":"Iowa City","middle name":"James","specialty":"Anesthesiology","last name":"Schmidt","geo_score":1.0,"hospital":"UNIV OF IOWA HOSPS &amp; CLINICS","preferred first name":"Aaron","zip code":"52242-1009","id":"a620wk2v5dgj","geo_precision":"zip","match date":"3/17/11","first name":"Aaron","state":"IA"},"type":"Feature","geometry":{"type":"Point","coordinates":[-91.555328,41.733924]}},{"properties":{"city":"Iowa City","middle name":"Evans","specialty":"Emergency Medicine","last name":"Sprince","geo_score":1.0,"hospital":"UNIV OF IOWA HOSPS &amp; CLINICS","preferred first name":"Meredith","zip code":"52242-1009","id":"a620wk77agd7","geo_precision":"zip","match date":"3/17/11","first name":"Meredith","state":"IA"},"type":"Feature","geometry":{"type":"Point","coordinates":[-91.555328,41.733924]}},{"properties":{"city":"Iowa City","middle name":"Lael","specialty":"Pathology","last name":"Stauffer","geo_score":1.0,"hospital":"UNIV OF IOWA HOSPS &amp; CLINICS","preferred first name":"Stephanie","zip code":"52242-1009","id":"a620wk3hecwd","geo_precision":"zip","match date":"3/17/11","first name":"Stephanie","state":"IA"},"type":"Feature","geometry":{"type":"Point","coordinates":[-91.555328,41.733924]}},{"properties":{"city":"Iowa City","middle name":"Scott","specialty":"Radiology Diagnostic PGY-2","last name":"Van Tassell","geo_score":1.0,"hospital":"UNIV OF IOWA HOSPS &amp; CLINICS","preferred first name":"Mark","zip code":"52242-1009","id":"a620wjyhig6v","geo_precision":"zip","match date":"3/17/11","first name":"Mark","state":"IA"},"type":"Feature","geometry":{"type":"Point","coordinates":[-91.555328,41.733924]}},{"properties":{"city":"Iowa City","middle name":"Ana","specialty":"Medicine-Preliminary","last name":"Vanderah","geo_score":1.0,"hospital":"UNIV OF IOWA HOSPS &amp; CLINICS","preferred first name":"Elizabeth","zip code":"52242-1009","id":"a620wk69pcuf","geo_precision":"zip","match date":"3/17/11","first name":"Elizabeth","state":"IA"},"type":"Feature","geometry":{"type":"Point","coordinates":[-91.555328,41.733924]}},{"properties":{"city":"Iowa City","middle name":"Ana","specialty":"Dermatology","last name":"Vanderah","geo_score":1.0,"hospital":"UNIV OF IOWA HOSPS &amp; CLINICS","preferred first name":"Elizabeth","zip code":"52242-1009","id":"a620wk7hr0dp","geo_precision":"zip","match date":"3/17/11","first name":"Elizabeth","state":"IA"},"type":"Feature","geometry":{"type":"Point","coordinates":[-91.555328,41.733924]}},{"properties":{"city":"Iowa City","middle name":"David","specialty":"Medicine-Preliminary","last name":"Welder","geo_score":1.0,"hospital":"UNIV OF IOWA HOSPS &amp; CLINICS","preferred first name":"Jeffrey","zip code":"52242-1009","id":"a620wk60j6wj","geo_precision":"zip","match date":"3/17/11","first name":"Jeffrey","state":"IA"},"type":"Feature","geometry":{"type":"Point","coordinates":[-91.555328,41.733924]}},{"properties":{"city":"Iowa City","middle name":"Lesley","specialty":"Pediatrics","last name":"Williams","geo_score":1.0,"hospital":"UNIV OF IOWA HOSPS &amp; CLINICS","preferred first name":"Robin","zip code":"52242-1009","id":"a620wk51iovz","geo_precision":"zip","match date":"3/17/11","first name":"Robin","state":"IA"},"type":"Feature","geometry":{"type":"Point","coordinates":[-91.555328,41.733924]}},{"properties":{"city":"Iowa City","middle name":"Michael","specialty":"Emergency Medicine","last name":"Wittry","geo_score":1.0,"hospital":"UNIV OF IOWA HOSPS &amp; CLINICS","preferred first name":"Alex","zip code":"52242-1009","id":"a620wkd4kfbw","geo_precision":"zip","match date":"3/17/11","first name":"Alexander","state":"IA"},"type":"Feature","geometry":{"type":"Point","coordinates":[-91.555328,41.733924]}},{"properties":{"city":"Iowa City","middle name":"Elizabeth","specialty":"Internal Medicine","last name":"Worden","geo_score":1.0,"hospital":"UNIV OF IOWA HOSPS &amp; CLINICS","preferred first name":"Nicole","zip code":"52242-1009","id":"a620wk8qrkzv","geo_precision":"zip","match date":"3/17/11","first name":"Nicole","state":"IA"},"type":"Feature","geometry":{"type":"Point","coordinates":[-91.555328,41.733924]}},{"properties":{"city":"Iowa City","middle name":"David","specialty":"Radiology Diagnostic PGY-2","last name":"Ziegelbein","geo_score":1.0,"hospital":"UNIV OF IOWA HOSPS &amp; CLINICS","preferred first name":"Joel","zip code":"52242-1009","id":"a620wk8xnsm2","geo_precision":"zip","match date":"3/17/11","first name":"Joel","state":"IA"},"type":"Feature","geometry":{"type":"Point","coordinates":[-91.555328,41.733924]}},{"properties":{"city":"Iowa City","middle name":"David","specialty":"Medicine-Preliminary","last name":"Ziegelbein","geo_score":1.0,"hospital":"UNIV OF IOWA HOSPS &amp; CLINICS","preferred first name":"Joel","zip code":"52242-1009","id":"a620wk5nz3aj","geo_precision":"zip","match date":"3/17/11","first name":"Joel","state":"IA"},"type":"Feature","geometry":{"type":"Point","coordinates":[-91.555328,41.733924]}},{"properties":{"city":"Ann Arbor","middle name":"Cupidon","specialty":"Phys Medicine &amp; Rehab PGY-2","last name":"Abrams","geo_score":1.0,"hospital":"UNIV OF MICHIGAN HOSPITALS","preferred first name":"Eunice","zip code":"48109-0610","id":"a620wkatmzbf","geo_precision":"zip","match date":"3/17/11","first name":"Eunice","state":"MI"},"type":"Feature","geometry":{"type":"Point","coordinates":[-83.711228,42.276324]}},{"properties":{"city":"Ann Arbor","middle name":"NULL","specialty":"Phys Medicine &amp; Rehab PGY-2","last name":"Chen","geo_score":1.0,"hospital":"UNIV OF MICHIGAN HOSPITALS","preferred first name":"Philip","zip code":"48109-0610","id":"a620wk2rqv5b","geo_precision":"zip","match date":"3/17/11","first name":"Philip","state":"MI"},"type":"Feature","geometry":{"type":"Point","coordinates":[-83.711228,42.276324]}},{"properties":{"city":"Ann Arbor","middle name":"Jo","specialty":"Pathology","last name":"Theisen","geo_score":1.0,"hospital":"UNIV OF MICHIGAN HOSPITALS","preferred first name":"Stephanie","zip code":"48109-0610","id":"a620wkcqjed9","geo_precision":"zip","match date":"3/17/11","first name":"Stephanie","state":"MI"},"type":"Feature","geometry":{"type":"Point","coordinates":[-83.711228,42.276324]}},{"properties":{"city":"Minneapolis","middle name":"Marie","specialty":"Internal Medicine","last name":"Bowman","geo_score":1.0,"hospital":"UNIV OF MINNESOTA MEDICAL SCH","preferred first name":"Jill","zip code":"55455","id":"a620wk86crmr","geo_precision":"zip","match date":"3/17/11","first name":"Jill","state":"MN"},"type":"Feature","geometry":{"type":"Point","coordinates":[-93.298376,45.038364]}},{"properties":{"city":"Minneapolis","middle name":"Marie","specialty":"Obstetrics-Gynecology","last name":"Martini","geo_score":1.0,"hospital":"UNIV OF MINNESOTA MEDICAL SCH","preferred first name":"Sarina","zip code":"55455","id":"a620wjxv90va","geo_precision":"zip","match date":"3/17/11","first name":"Sarina","state":"MN"},"type":"Feature","geometry":{"type":"Point","coordinates":[-93.298376,45.038364]}},{"properties":{"city":"Minneapolis","middle name":"Joy","specialty":"Pediatrics","last name":"Watkins","geo_score":1.0,"hospital":"UNIV OF MINNESOTA MEDICAL SCH","preferred first name":"Laura","zip code":"55455","id":"a620wjz28j4p","geo_precision":"zip","match date":"3/17/11","first name":"Laura","state":"MN"},"type":"Feature","geometry":{"type":"Point","coordinates":[-93.298376,45.038364]}},{"properties":{"city":"Omaha","middle name":"Elizabeth","specialty":"Ophthalmology PGY-2","last name":"Benson","geo_score":0.857,"hospital":"UNIV OF NEBRASKA AFFIL HOSP","preferred first name":"Christy","zip code":null,"id":"a620wk1gf4r3","geo_precision":"city","match date":"1/12/11","first name":"Christy","state":"NE"},"type":"Feature","geometry":{"type":"Point","coordinates":[-95.937792,41.25861]}},{"properties":{"city":"Sioux Falls","middle name":"Scott","specialty":"Transitional","last name":"Van Tassell","geo_score":0.857,"hospital":"UNIV OF SO DAKOTA SCH OF MED","preferred first name":"Mark","zip code":null,"id":"a620wk16usps","geo_precision":"city","match date":"3/17/11","first name":"Mark","state":"SD"},"type":"Feature","geometry":{"type":"Point","coordinates":[-96.730328,43.546642]}},{"properties":{"city":"Salt Lake City","middle name":"Shokry","specialty":"Pediatrics","last name":"Tawfik","geo_score":1.0,"hospital":"UNIV OF UTAH AFFIL HOSPITALS","preferred first name":"Daniel","zip code":"84132","id":"a620wk2ql0qz","geo_precision":"zip","match date":"3/17/11","first name":"Daniel","state":"UT"},"type":"Feature","geometry":{"type":"Point","coordinates":[-111.838541,40.772743]}},{"properties":{"city":"Tampa","middle name":"Marie","specialty":"Emergency Medicine","last name":"Marlow","geo_score":0.89,"hospital":"UNIVERSITY OF SOUTH FLORIDA","preferred first name":"Stacey","zip code":"33612-4799","id":"a620wk0ty3z2","geo_precision":"zip","match date":"3/17/11","first name":"Stacey","state":"FL"},"type":"Feature","geometry":{"type":"Point","coordinates":[-82.471761,28.074183]}},{"properties":{"city":"Charlottesville","middle name":"Jean","specialty":"Child Neurology","last name":"Takle","geo_score":1.0,"hospital":"UNIVERSITY OF VIRGINIA","preferred first name":"Erika","zip code":"22908","id":"a620wkavryw7","geo_precision":"zip","match date":"1/26/11","first name":"Erika","state":"VA"},"type":"Feature","geometry":{"type":"Point","coordinates":[-78.485066,38.040101]}},{"properties":{"city":"Charlottesville","middle name":"Rebekah","specialty":"Pediatrics","last name":"Sorenson","geo_score":1.0,"hospital":"UNIVERSITY OF VIRGINIA","preferred first name":"Anna","zip code":"22908","id":"a620wkchv0vw","geo_precision":"zip","match date":"3/17/11","first name":"Anna","state":"VA"},"type":"Feature","geometry":{"type":"Point","coordinates":[-78.485066,38.040101]}},{"properties":{"city":"Charlottesville","middle name":"Jean","specialty":"Peds-Prelim/Child Neurology","last name":"Takle","geo_score":1.0,"hospital":"UNIVERSITY OF VIRGINIA","preferred first name":"Erika","zip code":"22908","id":"a620wk234s8f","geo_precision":"zip","match date":"3/17/11","first name":"Erika","state":"VA"},"type":"Feature","geometry":{"type":"Point","coordinates":[-78.485066,38.040101]}},{"properties":{"city":"Scott Air Force Base","middle name":"Heath","specialty":"Family Practice","last name":"Long","geo_score":1.0,"hospital":"USAF MED CTR","preferred first name":"Kevan","zip code":"62225","id":"a620wjxuwgbj","geo_precision":"zip","match date":"12/15/10","first name":"Kevan","state":"IL"},"type":"Feature","geometry":{"type":"Point","coordinates":[-89.85902,38.543201]}},{"properties":{"city":"Provo","middle name":"Justin","specialty":"Family Practice","last name":"Carroll","geo_score":1.0,"hospital":"UTAH VALLEY FAMILY PRACTICE","preferred first name":"Neil","zip code":"84604","id":"a620wjxlmjxv","geo_precision":"zip","match date":"3/17/11","first name":"Neil","state":"UT"},"type":"Feature","geometry":{"type":"Point","coordinates":[-111.608241,40.317059]}},{"properties":{"city":"Nashville","middle name":"Hoffmann","specialty":"Internal Medicine","last name":"Holtze","geo_score":1.0,"hospital":"VANDERBILT UNIV MEDICAL CTR","preferred first name":"Colin","zip code":"37232-5283","id":"a620wk1s2mul","geo_precision":"zip","match date":"3/17/11","first name":"Colin","state":"TN"},"type":"Feature","geometry":{"type":"Point","coordinates":[-86.785248,36.186605]}},{"properties":{"city":"Nashville","middle name":"Daniel","specialty":"Pathology","last name":"Oakley","geo_score":1.0,"hospital":"VANDERBILT UNIV MEDICAL CTR","preferred first name":"Fredrick","zip code":"37232-5283","id":"a620wk6x56gn","geo_precision":"zip","match date":"3/17/11","first name":"Fredrick","state":"TN"},"type":"Feature","geometry":{"type":"Point","coordinates":[-86.785248,36.186605]}},{"properties":{"city":"Royal Oak","middle name":"Elizabeth","specialty":"Emergency Medicine","last name":"Pearce","geo_score":1.0,"hospital":"WILLIAM BEAUMONT HOSPITAL","preferred first name":"Megan","zip code":"48073-6799","id":"a620wkbhzn79","geo_precision":"zip","match date":"3/17/11","first name":"Megan","state":"MI"},"type":"Feature","geometry":{"type":"Point","coordinates":[-83.163477,42.5216]}},{"properties":{"city":"New Haven","middle name":"NULL","specialty":"Anesthesiology PGY-2","last name":"Lee","geo_score":1.0,"hospital":"YALE-NEW HAVEN HOSPITAL","preferred first name":"Julianne","zip code":"6504","id":"a620wk7gt0j9","geo_precision":"zip","match date":"3/17/11","first name":"Jee Yeun","state":"CT"},"type":"Feature","geometry":{"type":"Point","coordinates":[-72.927507,41.365709]}}],"is_temporal":false,"author":{"url":"","metadata":"","contact_name":"","contact_address":"","source":"","contact_phone":""},"source":"","pagination":{"sort":null,"start":0,"total":181,"limit":1000000},"state":"complete","tags":"","published":"2014-08-14T18:34:13-04:00","id":212255}