{"type":"FeatureCollection","data_type":"Dataset","url_type":null,"permissions":[{"permissions":{"download":true,"view":true},"group_id":"everyone"}],"classification":null,"title":"Central_2_10_2012","count":130,"stream_id":213016,"contributor":{"url":"http://geocommons.com/users/41497","name":"thebirdinthesky"},"data_attributes":null,"calculation_params":null,"icon_link":null,"link":"http://geocommons.com/overlays/213016.json","extent":[0.0,0.0,0.0,0.0],"geometry_types":null,"unique_name":null,"name":"Central_2_10_2012","feature_count":130,"description":"","next_feature":null,"is_raster":false,"short_classification":"Y","features":[{"properties":{"zipcode":"66205","id":"ap4bj6mxmsks"},"type":"Feature","geometry":null},{"properties":{"zipcode":"66614","id":"ap4bj6m24ajc"},"type":"Feature","geometry":null},{"properties":{"zipcode":"35223","id":"ap4bj6aiovau"},"type":"Feature","geometry":null},{"properties":{"zipcode":"35223","id":"ap4bj6bxqsdc"},"type":"Feature","geometry":null},{"properties":{"zipcode":"35205","id":"ap4bj6nlb3qw"},"type":"Feature","geometry":null},{"properties":{"zipcode":"37211","id":"ap4bj6dti92j"},"type":"Feature","geometry":null},{"properties":{"zipcode":"37211","id":"ap4bj6j8yfad"},"type":"Feature","geometry":null},{"properties":{"zipcode":"60657","id":"ap4bj6kpc4a6"},"type":"Feature","geometry":null},{"properties":{"zipcode":"57106","id":"ap4bj6h4360x"},"type":"Feature","geometry":null},{"properties":{"zipcode":"57105","id":"ap4bj6aa7i70"},"type":"Feature","geometry":null},{"properties":{"zipcode":"57105","id":"ap4bj6edwkeg"},"type":"Feature","geometry":null},{"properties":{"zipcode":"62901","id":"ap4bj6k6s9m4"},"type":"Feature","geometry":null},{"properties":{"zipcode":"39056","id":"ap4bj6dsdbh5"},"type":"Feature","geometry":null},{"properties":{"zipcode":"55420","id":"ap4bj6cob2rb"},"type":"Feature","geometry":null},{"properties":{"zipcode":"66212","id":"ap4bj6o7682v"},"type":"Feature","geometry":null},{"properties":{"zipcode":"37830","id":"ap4bj6bc3wpt"},"type":"Feature","geometry":null},{"properties":{"zipcode":"60805-2004","id":"ap4bj6fzi5ju"},"type":"Feature","geometry":null},{"properties":{"zipcode":"60618","id":"ap4bj6egylze"},"type":"Feature","geometry":null},{"properties":{"zipcode":"61111","id":"ap4bj6myk130"},"type":"Feature","geometry":null},{"properties":{"zipcode":"35801","id":"ap4bj6po0ar4"},"type":"Feature","geometry":null},{"properties":{"zipcode":"57105","id":"ap4bj6exdtjk"},"type":"Feature","geometry":null},{"properties":{"zipcode":"67214","id":"ap4bj6f4al0a"},"type":"Feature","geometry":null},{"properties":{"zipcode":"37919","id":"ap4bj6byr9tw"},"type":"Feature","geometry":null},{"properties":{"zipcode":"37919","id":"ap4bj6cievhe"},"type":"Feature","geometry":null},{"properties":{"zipcode":"60062","id":"ap4bj6a4fj1t"},"type":"Feature","geometry":null},{"properties":{"zipcode":"72632","id":"ap4bj6ezk2zq"},"type":"Feature","geometry":null},{"properties":{"zipcode":"60657","id":"ap4bj6bg3ere"},"type":"Feature","geometry":null},{"properties":{"zipcode":"38701","id":"ap4bj6dug9v5"},"type":"Feature","geometry":null},{"properties":{"zipcode":"38701","id":"ap4bj6e0pasa"},"type":"Feature","geometry":null},{"properties":{"zipcode":"61761","id":"ap4bj6mtckgb"},"type":"Feature","geometry":null},{"properties":{"zipcode":"60126","id":"ap4bj6jnzxsd"},"type":"Feature","geometry":null},{"properties":{"zipcode":"37204","id":"ap4bj6gyxi3j"},"type":"Feature","geometry":null},{"properties":{"zipcode":"55317","id":"ap4bj6gqrji6"},"type":"Feature","geometry":null},{"properties":{"zipcode":"72214","id":"ap4bj6jhclop"},"type":"Feature","geometry":null},{"properties":{"zipcode":"37922","id":"ap4bj69zw07r"},"type":"Feature","geometry":null},{"properties":{"zipcode":"36609","id":"ap4bj6hj7zn0"},"type":"Feature","geometry":null},{"properties":{"zipcode":"66434","id":"ap4bj6g8ffli"},"type":"Feature","geometry":null},{"properties":{"zipcode":"66434","id":"ap4bj6f4qgk4"},"type":"Feature","geometry":null},{"properties":{"zipcode":"55122","id":"ap4bj6egq3qq"},"type":"Feature","geometry":null},{"properties":{"zipcode":"52401","id":"ap4bj6njm3d6"},"type":"Feature","geometry":null},{"properties":{"zipcode":"52401","id":"ap4bj6f7ryqv"},"type":"Feature","geometry":null},{"properties":{"zipcode":"52401","id":"ap4bj6mom6ke"},"type":"Feature","geometry":null},{"properties":{"zipcode":"50312","id":"ap4bj6p18af2"},"type":"Feature","geometry":null},{"properties":{"zipcode":"60618","id":"ap4bj6i9zl2p"},"type":"Feature","geometry":null},{"properties":{"zipcode":"61701","id":"ap4bj6apbck3"},"type":"Feature","geometry":null},{"properties":{"zipcode":"50309","id":"ap4bj6pnen73"},"type":"Feature","geometry":null},{"properties":{"zipcode":"35661","id":"ap4bj6cl62w8"},"type":"Feature","geometry":null},{"properties":{"zipcode":"37919","id":"ap4bj6i3cgh3"},"type":"Feature","geometry":null},{"properties":{"zipcode":"37919","id":"ap4bj6f1nbib"},"type":"Feature","geometry":null},{"properties":{"zipcode":"37919","id":"ap4bj6dju86u"},"type":"Feature","geometry":null},{"properties":{"zipcode":"37912","id":"ap4bj6dtcbrq"},"type":"Feature","geometry":null},{"properties":{"zipcode":"37919","id":"ap4bj69o4ksi"},"type":"Feature","geometry":null},{"properties":{"zipcode":"66604","id":"ap4bj6fvhwj7"},"type":"Feature","geometry":null},{"properties":{"zipcode":"55414","id":"ap4bj6hgrdfu"},"type":"Feature","geometry":null},{"properties":{"zipcode":"66434","id":"ap4bj6n83q7i"},"type":"Feature","geometry":null},{"properties":{"zipcode":"67203","id":"ap4bj6a3lcvo"},"type":"Feature","geometry":null},{"properties":{"zipcode":"53140","id":"ap4bj6b6vsj7"},"type":"Feature","geometry":null},{"properties":{"zipcode":"66434","id":"ap4bj6ngnhua"},"type":"Feature","geometry":null},{"properties":{"zipcode":"53140","id":"ap4bj6oxbu75"},"type":"Feature","geometry":null},{"properties":{"zipcode":"37601","id":"ap4bj6h5yuj4"},"type":"Feature","geometry":null},{"properties":{"zipcode":"55125","id":"ap4bj6bslu7x"},"type":"Feature","geometry":null},{"properties":{"zipcode":"60046","id":"ap4bj6dctwdn"},"type":"Feature","geometry":null},{"properties":{"zipcode":"60614","id":"ap4bj6f5srwq"},"type":"Feature","geometry":null},{"properties":{"zipcode":"60532","id":"ap4bj6np2brc"},"type":"Feature","geometry":null},{"properties":{"zipcode":"35016","id":"ap4bj6o2nj2j"},"type":"Feature","geometry":null},{"properties":{"zipcode":"60660","id":"ap4bj6daju5a"},"type":"Feature","geometry":null},{"properties":{"zipcode":"60614","id":"ap4bj6j1nxc3"},"type":"Feature","geometry":null},{"properties":{"zipcode":"60614","id":"ap4bj6go37xf"},"type":"Feature","geometry":null},{"properties":{"zipcode":"60614","id":"ap4bj6kuqx6n"},"type":"Feature","geometry":null},{"properties":{"zipcode":"60614","id":"ap4bj6ierrgr"},"type":"Feature","geometry":null},{"properties":{"zipcode":"57105","id":"ap4bj6grozmi"},"type":"Feature","geometry":null},{"properties":{"zipcode":"57105","id":"ap4bj6kqiz89"},"type":"Feature","geometry":null},{"properties":{"zipcode":"72114","id":"ap4bj6mjtaz5"},"type":"Feature","geometry":null},{"properties":{"zipcode":"55344","id":"ap4bj6g2wo9j"},"type":"Feature","geometry":null},{"properties":{"zipcode":"35758","id":"ap4bj6n17izd"},"type":"Feature","geometry":null},{"properties":{"zipcode":"55102","id":"ap4bj6hoxeoj"},"type":"Feature","geometry":null},{"properties":{"zipcode":"68506","id":"ap4bj6bpzj4c"},"type":"Feature","geometry":null},{"properties":{"zipcode":"35801","id":"ap4bj6kvngkt"},"type":"Feature","geometry":null},{"properties":{"zipcode":"68506","id":"ap4bj6gc08y6"},"type":"Feature","geometry":null},{"properties":{"zipcode":"55378","id":"ap4bj6mnq2f6"},"type":"Feature","geometry":null},{"properties":{"zipcode":"68506","id":"ap4bj6gg48sx"},"type":"Feature","geometry":null},{"properties":{"zipcode":"68506","id":"ap4bj6hzb5ym"},"type":"Feature","geometry":null},{"properties":{"zipcode":"68506","id":"ap4bj6ca42fz"},"type":"Feature","geometry":null},{"properties":{"zipcode":"61820","id":"ap4bj6drweod"},"type":"Feature","geometry":null},{"properties":{"zipcode":"72801","id":"ap4bj6c31sc0"},"type":"Feature","geometry":null},{"properties":{"zipcode":"67037","id":"ap4bj6msn7uu"},"type":"Feature","geometry":null},{"properties":{"zipcode":"39216","id":"ap4bj6hs5rer"},"type":"Feature","geometry":null},{"properties":{"zipcode":"37919","id":"ap4bj6fl2ga1"},"type":"Feature","geometry":null},{"properties":{"zipcode":"72034","id":"ap4bj6ps6xap"},"type":"Feature","geometry":null},{"properties":{"zipcode":"61701","id":"ap4bj6b5d6x6"},"type":"Feature","geometry":null},{"properties":{"zipcode":"60540","id":"ap4bj6i8cfqq"},"type":"Feature","geometry":null},{"properties":{"zipcode":"72703","id":"ap4bj6cbprb3"},"type":"Feature","geometry":null},{"properties":{"zipcode":"71901","id":"ap4bj6f4dlig"},"type":"Feature","geometry":null},{"properties":{"zipcode":"37303","id":"ap4bj6dfakh0"},"type":"Feature","geometry":null},{"properties":{"zipcode":"37371","id":"ap4bj6p4txd3"},"type":"Feature","geometry":null},{"properties":{"zipcode":"60015","id":"ap4bj6f3bf9f"},"type":"Feature","geometry":null},{"properties":{"zipcode":"60201","id":"ap4bj6i8lahx"},"type":"Feature","geometry":null},{"properties":{"zipcode":"54401","id":"ap4bj6g5ssai"},"type":"Feature","geometry":null},{"properties":{"zipcode":"60563","id":"ap4bj6mivi3p"},"type":"Feature","geometry":null},{"properties":{"zipcode":"37841","id":"ap4bj6n9gld7"},"type":"Feature","geometry":null},{"properties":{"zipcode":"50309","id":"ap4bj6bu33gp"},"type":"Feature","geometry":null},{"properties":{"zipcode":"50309","id":"ap4bj6kt54dw"},"type":"Feature","geometry":null},{"properties":{"zipcode":"53223-2365","id":"ap4bj6jf227b"},"type":"Feature","geometry":null},{"properties":{"zipcode":"57105","id":"ap4bj6jx96sm"},"type":"Feature","geometry":null},{"properties":{"zipcode":"72114","id":"ap4bj6npfn32"},"type":"Feature","geometry":null},{"properties":{"zipcode":"39093","id":"ap4bj6oh8xh1"},"type":"Feature","geometry":null},{"properties":{"zipcode":"36526","id":"ap4bj6jspmi7"},"type":"Feature","geometry":null},{"properties":{"zipcode":"37919","id":"ap4bj6ewb0ee"},"type":"Feature","geometry":null},{"properties":{"zipcode":"36701","id":"ap4bj6eqmilo"},"type":"Feature","geometry":null},{"properties":{"zipcode":"72801","id":"ap4bj6mf9tud"},"type":"Feature","geometry":null},{"properties":{"zipcode":"72903","id":"ap4bj6iwsq27"},"type":"Feature","geometry":null},{"properties":{"zipcode":"37919","id":"ap4bj6kan4p3"},"type":"Feature","geometry":null},{"properties":{"zipcode":"37919","id":"ap4bj6kczpgm"},"type":"Feature","geometry":null},{"properties":{"zipcode":"72901","id":"ap4bj6kwsphm"},"type":"Feature","geometry":null},{"properties":{"zipcode":"72758","id":"ap4bj6bmvakb"},"type":"Feature","geometry":null},{"properties":{"zipcode":"72701","id":"ap4bj69ad2qx"},"type":"Feature","geometry":null},{"properties":{"zipcode":"66203","id":"ap4bj6nlbvek"},"type":"Feature","geometry":null},{"properties":{"zipcode":"61201","id":"ap4bj6lpyh1u"},"type":"Feature","geometry":null},{"properties":{"zipcode":"50201","id":"ap4bj6imtcvv"},"type":"Feature","geometry":null},{"properties":{"zipcode":"35801","id":"ap4bj6ghks3a"},"type":"Feature","geometry":null},{"properties":{"zipcode":"72653","id":"ap4bj6fjlrwo"},"type":"Feature","geometry":null},{"properties":{"zipcode":"72653","id":"ap4bj6jlilys"},"type":"Feature","geometry":null},{"properties":{"zipcode":"35901","id":"ap4bj6dc2v5t"},"type":"Feature","geometry":null},{"properties":{"zipcode":"37919","id":"ap4bj6n5926r"},"type":"Feature","geometry":null},{"properties":{"zipcode":"66204","id":"ap4bj6fwne7r"},"type":"Feature","geometry":null},{"properties":{"zipcode":"60957","id":"ap4bj6jblc9h"},"type":"Feature","geometry":null},{"properties":{"zipcode":"36701","id":"ap4bj6bayb0n"},"type":"Feature","geometry":null},{"properties":{"zipcode":"30214","id":"ap4bj6gfnt1p"},"type":"Feature","geometry":null},{"properties":{"zipcode":"52732","id":"ap4bj6ggj900"},"type":"Feature","geometry":null},{"properties":{"zipcode":"38804","id":"ap4bj6aym04e"},"type":"Feature","geometry":null}],"is_temporal":false,"author":{"url":"","metadata":null,"contact_name":null,"contact_address":null,"source":null,"contact_phone":null},"source":"","pagination":{"sort":null,"start":0,"total":130,"limit":1000000},"state":"parsed","tags":"","published":"2014-08-14T19:42:55-04:00","id":213016}