{"type":"FeatureCollection","data_type":"Dataset","url_type":null,"permissions":[{"permissions":{"download":true,"view":true},"group_id":"everyone"}],"classification":null,"title":"Texas_2_10_2012","count":1012,"stream_id":213005,"contributor":{"url":"http://geocommons.com/users/41497","name":"thebirdinthesky"},"data_attributes":null,"calculation_params":null,"icon_link":null,"link":"http://geocommons.com/overlays/213005.json","extent":[0.0,0.0,0.0,0.0],"geometry_types":null,"unique_name":null,"name":"Texas_2_10_2012","feature_count":1012,"description":"","next_feature":null,"is_raster":false,"short_classification":"Y","features":[{"properties":{"zipcode":"79106","id":"ap4bipttcznx"},"type":"Feature","geometry":null},{"properties":{"zipcode":"75110","id":"ap4biq3fqx8q"},"type":"Feature","geometry":null},{"properties":{"zipcode":"75230","id":"ap4bipv4h5f2"},"type":"Feature","geometry":null},{"properties":{"zipcode":"78550","id":"ap4bipwl9uiw"},"type":"Feature","geometry":null},{"properties":{"zipcode":"78411","id":"ap4biq15mb2g"},"type":"Feature","geometry":null},{"properties":{"zipcode":"75904","id":"ap4biq0w1yzp"},"type":"Feature","geometry":null},{"properties":{"zipcode":"75604","id":"ap4biq5ver60"},"type":"Feature","geometry":null},{"properties":{"zipcode":"77401","id":"ap4biq2dr5rt"},"type":"Feature","geometry":null},{"properties":{"zipcode":"76107","id":"ap4bipy7j0id"},"type":"Feature","geometry":null},{"properties":{"zipcode":"77573","id":"ap4biq35fc0h"},"type":"Feature","geometry":null},{"properties":{"zipcode":"78041","id":"ap4biq08pz5o"},"type":"Feature","geometry":null},{"properties":{"zipcode":"76710","id":"ap4biq4p0k3b"},"type":"Feature","geometry":null},{"properties":{"zipcode":"77068","id":"ap4biq26kj0l"},"type":"Feature","geometry":null},{"properties":{"zipcode":"77006","id":"ap4biq1lcm6a"},"type":"Feature","geometry":null},{"properties":{"zipcode":"77005","id":"ap4biq2k9yby"},"type":"Feature","geometry":null},{"properties":{"zipcode":"77845","id":"ap4bipumokht"},"type":"Feature","geometry":null},{"properties":{"zipcode":"77840","id":"ap4bipt2lb3i"},"type":"Feature","geometry":null},{"properties":{"zipcode":"76308","id":"ap4biq2qbkq4"},"type":"Feature","geometry":null},{"properties":{"zipcode":"78212","id":"ap4bipvud3md"},"type":"Feature","geometry":null},{"properties":{"zipcode":"78209","id":"ap4bipwcazse"},"type":"Feature","geometry":null},{"properties":{"zipcode":"76108","id":"ap4bipz5k7ms"},"type":"Feature","geometry":null},{"properties":{"zipcode":"77058","id":"ap4bipwi5wdg"},"type":"Feature","geometry":null},{"properties":{"zipcode":"77590","id":"ap4bipra4p3t"},"type":"Feature","geometry":null},{"properties":{"zipcode":"75766","id":"ap4bipq266zm"},"type":"Feature","geometry":null},{"properties":{"zipcode":"77074","id":"ap4biptml7z5"},"type":"Feature","geometry":null},{"properties":{"zipcode":"76424","id":"ap4biq06if33"},"type":"Feature","geometry":null},{"properties":{"zipcode":"75703","id":"ap4biptxwey0"},"type":"Feature","geometry":null},{"properties":{"zipcode":"79602","id":"ap4bipwarnd0"},"type":"Feature","geometry":null},{"properties":{"zipcode":"77477","id":"ap4bipy99kfz"},"type":"Feature","geometry":null},{"properties":{"zipcode":"75208","id":"ap4bipzq3u5b"},"type":"Feature","geometry":null},{"properties":{"zipcode":"75483","id":"ap4biq5egraj"},"type":"Feature","geometry":null},{"properties":{"zipcode":"77340","id":"ap4biq2pbl2n"},"type":"Feature","geometry":null},{"properties":{"zipcode":"79106","id":"ap4bipzs02kz"},"type":"Feature","geometry":null},{"properties":{"zipcode":"75503","id":"ap4bipw707h6"},"type":"Feature","geometry":null},{"properties":{"zipcode":"76102","id":"ap4bipwuoy3k"},"type":"Feature","geometry":null},{"properties":{"zipcode":"76201","id":"ap4bipt9rq71"},"type":"Feature","geometry":null},{"properties":{"zipcode":"75904","id":"ap4bipx13ege"},"type":"Feature","geometry":null},{"properties":{"zipcode":"78228","id":"ap4bipt3k0wl"},"type":"Feature","geometry":null},{"properties":{"zipcode":"78209","id":"ap4bips6784u"},"type":"Feature","geometry":null},{"properties":{"zipcode":"76033","id":"ap4bipzm0cb7"},"type":"Feature","geometry":null},{"properties":{"zipcode":"78602","id":"ap4bipt1m2g1"},"type":"Feature","geometry":null},{"properties":{"zipcode":"78411","id":"ap4biq5i5a51"},"type":"Feature","geometry":null},{"properties":{"zipcode":"75230","id":"ap4biq5754k1"},"type":"Feature","geometry":null},{"properties":{"zipcode":"75604","id":"ap4biq4wknb1"},"type":"Feature","geometry":null},{"properties":{"zipcode":"75904","id":"ap4bipx44e2d"},"type":"Feature","geometry":null},{"properties":{"zipcode":"79762","id":"ap4bipsdub0l"},"type":"Feature","geometry":null},{"properties":{"zipcode":"75208","id":"ap4biprgr67o"},"type":"Feature","geometry":null},{"properties":{"zipcode":"75951-3510","id":"ap4bipury8fy"},"type":"Feature","geometry":null},{"properties":{"zipcode":"75208","id":"ap4bipzw79kn"},"type":"Feature","geometry":null},{"properties":{"zipcode":"75087-7321","id":"ap4biq6dbgfb"},"type":"Feature","geometry":null},{"properties":{"zipcode":"79106","id":"ap4biq0mkr1b"},"type":"Feature","geometry":null},{"properties":{"zipcode":"78130","id":"ap4bipuj3a4a"},"type":"Feature","geometry":null},{"properties":{"zipcode":"77074","id":"ap4bipvq9p90"},"type":"Feature","geometry":null},{"properties":{"zipcode":"77381","id":"ap4biq49a8cp"},"type":"Feature","geometry":null},{"properties":{"zipcode":"79411","id":"ap4biptoz2jv"},"type":"Feature","geometry":null},{"properties":{"zipcode":"78840","id":"ap4bipxz2932"},"type":"Feature","geometry":null},{"properties":{"zipcode":"75803","id":"ap4biq3qbcz8"},"type":"Feature","geometry":null},{"properties":{"zipcode":"78230","id":"ap4bipshke1w"},"type":"Feature","geometry":null},{"properties":{"zipcode":"76901","id":"ap4bipu0g38p"},"type":"Feature","geometry":null},{"properties":{"zipcode":"79904","id":"ap4biq1s0rkh"},"type":"Feature","geometry":null},{"properties":{"zipcode":"75116","id":"ap4biq43ciui"},"type":"Feature","geometry":null},{"properties":{"zipcode":"75110","id":"ap4bipquguou"},"type":"Feature","geometry":null},{"properties":{"zipcode":"78028","id":"ap4biq3skwza"},"type":"Feature","geometry":null},{"properties":{"zipcode":"79705","id":"ap4biptqlaz8"},"type":"Feature","geometry":null},{"properties":{"zipcode":"79927","id":"ap4biptaaepv"},"type":"Feature","geometry":null},{"properties":{"zipcode":"78501","id":"ap4bipsefsfo"},"type":"Feature","geometry":null},{"properties":{"zipcode":"75963","id":"ap4biq3s5ziq"},"type":"Feature","geometry":null},{"properties":{"zipcode":"75238","id":"ap4bipxq61e4"},"type":"Feature","geometry":null},{"properties":{"zipcode":"79903","id":"ap4biq4l4s24"},"type":"Feature","geometry":null},{"properties":{"zipcode":"77027","id":"ap4bipug4ymw"},"type":"Feature","geometry":null},{"properties":{"zipcode":"79159-0660","id":"ap4biq1k1kbd"},"type":"Feature","geometry":null},{"properties":{"zipcode":"77845","id":"ap4biq5bnr41"},"type":"Feature","geometry":null},{"properties":{"zipcode":"75503","id":"ap4biq3fegh5"},"type":"Feature","geometry":null},{"properties":{"zipcode":"78064","id":"ap4bipx0xer3"},"type":"Feature","geometry":null},{"properties":{"zipcode":"79424","id":"ap4bipvgfgg0"},"type":"Feature","geometry":null},{"properties":{"zipcode":"75835","id":"ap4biptvswr1"},"type":"Feature","geometry":null},{"properties":{"zipcode":"75462","id":"ap4bipv94r4w"},"type":"Feature","geometry":null},{"properties":{"zipcode":"76048","id":"ap4biq3a2iwh"},"type":"Feature","geometry":null},{"properties":{"zipcode":"75225","id":"ap4bipxdfv74"},"type":"Feature","geometry":null},{"properties":{"zipcode":"79912","id":"ap4bipxtusn0"},"type":"Feature","geometry":null},{"properties":{"zipcode":"75206","id":"ap4biq3x25sr"},"type":"Feature","geometry":null},{"properties":{"zipcode":"76543","id":"ap4bipwidwph"},"type":"Feature","geometry":null},{"properties":{"zipcode":"77057","id":"ap4bipvi188c"},"type":"Feature","geometry":null},{"properties":{"zipcode":"75243","id":"ap4bipy34mrv"},"type":"Feature","geometry":null},{"properties":{"zipcode":"77057","id":"ap4biq423itg"},"type":"Feature","geometry":null},{"properties":{"zipcode":"76107","id":"ap4biq6aruh3"},"type":"Feature","geometry":null},{"properties":{"zipcode":"76102","id":"ap4biq3a1lar"},"type":"Feature","geometry":null},{"properties":{"zipcode":"77339","id":"ap4biq3yqgmx"},"type":"Feature","geometry":null},{"properties":{"zipcode":"78413","id":"ap4bipvq03y0"},"type":"Feature","geometry":null},{"properties":{"zipcode":"76801","id":"ap4biq6ekiue"},"type":"Feature","geometry":null},{"properties":{"zipcode":"76450","id":"ap4biprq9xc3"},"type":"Feature","geometry":null},{"properties":{"zipcode":"76801","id":"ap4bipqiptoq"},"type":"Feature","geometry":null},{"properties":{"zipcode":"76522","id":"ap4bipxza8py"},"type":"Feature","geometry":null},{"properties":{"zipcode":"75150","id":"ap4bipqu5mnu"},"type":"Feature","geometry":null},{"properties":{"zipcode":"76504","id":"ap4biprlo73o"},"type":"Feature","geometry":null},{"properties":{"zipcode":"77515","id":"ap4biq0tcgcs"},"type":"Feature","geometry":null},{"properties":{"zipcode":"76384","id":"ap4bipsk29rl"},"type":"Feature","geometry":null},{"properties":{"zipcode":"77706","id":"ap4bipxf3bdt"},"type":"Feature","geometry":null},{"properties":{"zipcode":"76904","id":"ap4bipred7sc"},"type":"Feature","geometry":null},{"properties":{"zipcode":"77074","id":"ap4biq5p24qw"},"type":"Feature","geometry":null},{"properties":{"zipcode":"78213","id":"ap4bipvzhwq4"},"type":"Feature","geometry":null},{"properties":{"zipcode":"78228","id":"ap4bipua7lsh"},"type":"Feature","geometry":null},{"properties":{"zipcode":"76107","id":"ap4bipzsugxh"},"type":"Feature","geometry":null},{"properties":{"zipcode":"79602","id":"ap4bipyuk6h7"},"type":"Feature","geometry":null},{"properties":{"zipcode":"78229","id":"ap4bipsfa9ro"},"type":"Feature","geometry":null},{"properties":{"zipcode":"78401","id":"ap4bipwsg4fv"},"type":"Feature","geometry":null},{"properties":{"zipcode":"76107","id":"ap4biq5shltt"},"type":"Feature","geometry":null},{"properties":{"zipcode":"78229","id":"ap4biq4y1m8f"},"type":"Feature","geometry":null},{"properties":{"zipcode":"75219","id":"ap4bipwwspy6"},"type":"Feature","geometry":null},{"properties":{"zipcode":"75230","id":"ap4biq58hm5k"},"type":"Feature","geometry":null},{"properties":{"zipcode":"75230","id":"ap4bipx9l5ng"},"type":"Feature","geometry":null},{"properties":{"zipcode":"75219","id":"ap4bipvmzikh"},"type":"Feature","geometry":null},{"properties":{"zipcode":"76107","id":"ap4bipqofr1c"},"type":"Feature","geometry":null},{"properties":{"zipcode":"77058","id":"ap4bipxixbl1"},"type":"Feature","geometry":null},{"properties":{"zipcode":"75243","id":"ap4bipwdak1n"},"type":"Feature","geometry":null},{"properties":{"zipcode":"75240","id":"ap4bipvxj1pp"},"type":"Feature","geometry":null},{"properties":{"zipcode":"77098","id":"ap4biq02g7qi"},"type":"Feature","geometry":null},{"properties":{"zipcode":"77058","id":"ap4bipr8614v"},"type":"Feature","geometry":null},{"properties":{"zipcode":"77074","id":"ap4biq4iool3"},"type":"Feature","geometry":null},{"properties":{"zipcode":"76107","id":"ap4biq5kt3n5"},"type":"Feature","geometry":null},{"properties":{"zipcode":"77024","id":"ap4bipuhbquj"},"type":"Feature","geometry":null},{"properties":{"zipcode":"75160","id":"ap4bipzzxt1j"},"type":"Feature","geometry":null},{"properties":{"zipcode":"75081","id":"ap4biq2qdjt1"},"type":"Feature","geometry":null},{"properties":{"zipcode":"76201","id":"ap4bipxcbdlh"},"type":"Feature","geometry":null},{"properties":{"zipcode":"78205","id":"ap4biprsknch"},"type":"Feature","geometry":null},{"properties":{"zipcode":"78212","id":"ap4bipzprj4e"},"type":"Feature","geometry":null},{"properties":{"zipcode":"76301","id":"ap4bipvuyvmn"},"type":"Feature","geometry":null},{"properties":{"zipcode":"76701","id":"ap4bipvjvh7p"},"type":"Feature","geometry":null},{"properties":{"zipcode":"77477","id":"ap4bipr9ww7d"},"type":"Feature","geometry":null},{"properties":{"zipcode":"75081","id":"ap4biq3rmn3v"},"type":"Feature","geometry":null},{"properties":{"zipcode":"77008","id":"ap4biq52zsjo"},"type":"Feature","geometry":null},{"properties":{"zipcode":"78213","id":"ap4biq2zwdc4"},"type":"Feature","geometry":null},{"properties":{"zipcode":"78758","id":"ap4bipvi2p1k"},"type":"Feature","geometry":null},{"properties":{"zipcode":"75142","id":"ap4bipqpyaz7"},"type":"Feature","geometry":null},{"properties":{"zipcode":"79761","id":"ap4bipyalj8r"},"type":"Feature","geometry":null},{"properties":{"zipcode":"78504","id":"ap4biq6c40or"},"type":"Feature","geometry":null},{"properties":{"zipcode":"77058","id":"ap4bipx3xrrr"},"type":"Feature","geometry":null},{"properties":{"zipcode":"76201","id":"ap4biq0z373x"},"type":"Feature","geometry":null},{"properties":{"zipcode":"78102","id":"ap4bipsryf7k"},"type":"Feature","geometry":null},{"properties":{"zipcode":"79761","id":"ap4bipyogl30"},"type":"Feature","geometry":null},{"properties":{"zipcode":"76240","id":"ap4bipzq4qwu"},"type":"Feature","geometry":null},{"properties":{"zipcode":"77054","id":"ap4bipz0eetg"},"type":"Feature","geometry":null},{"properties":{"zipcode":"77702","id":"ap4biptoetbi"},"type":"Feature","geometry":null},{"properties":{"zipcode":"76201","id":"ap4biq19nogk"},"type":"Feature","geometry":null},{"properties":{"zipcode":"75686","id":"ap4biq56fytt"},"type":"Feature","geometry":null},{"properties":{"zipcode":"76201","id":"ap4bipxxc4qs"},"type":"Feature","geometry":null},{"properties":{"zipcode":"76201","id":"ap4biq3yw7b3"},"type":"Feature","geometry":null},{"properties":{"zipcode":"76208","id":"ap4bipqqds0m"},"type":"Feature","geometry":null},{"properties":{"zipcode":"77566","id":"ap4bipvpydya"},"type":"Feature","geometry":null},{"properties":{"zipcode":"79902","id":"ap4biq6d9a9p"},"type":"Feature","geometry":null},{"properties":{"zipcode":"77005","id":"ap4biq3jzt9m"},"type":"Feature","geometry":null},{"properties":{"zipcode":"77079","id":"ap4bipzhxlex"},"type":"Feature","geometry":null},{"properties":{"zipcode":"77025","id":"ap4biq135txy"},"type":"Feature","geometry":null},{"properties":{"zipcode":"79720","id":"ap4bipz0rmva"},"type":"Feature","geometry":null},{"properties":{"zipcode":"77058","id":"ap4bipxgshjx"},"type":"Feature","geometry":null},{"properties":{"zipcode":"77058","id":"ap4bipyg5wek"},"type":"Feature","geometry":null},{"properties":{"zipcode":"77058","id":"ap4biq1s3f1x"},"type":"Feature","geometry":null},{"properties":{"zipcode":"77058","id":"ap4bipupykcq"},"type":"Feature","geometry":null},{"properties":{"zipcode":"77840","id":"ap4bipvlorjz"},"type":"Feature","geometry":null},{"properties":{"zipcode":"78934","id":"ap4bipvo2eu1"},"type":"Feature","geometry":null},{"properties":{"zipcode":"79601","id":"ap4bipvox25r"},"type":"Feature","geometry":null},{"properties":{"zipcode":"79606","id":"ap4biq6bemjv"},"type":"Feature","geometry":null},{"properties":{"zipcode":"79601","id":"ap4bipqu0dq6"},"type":"Feature","geometry":null},{"properties":{"zipcode":"79601","id":"ap4bipwjzb5p"},"type":"Feature","geometry":null},{"properties":{"zipcode":"77701","id":"ap4bipuxtkoe"},"type":"Feature","geometry":null},{"properties":{"zipcode":"79070","id":"ap4biptgj81a"},"type":"Feature","geometry":null},{"properties":{"zipcode":"76710","id":"ap4bipubme6u"},"type":"Feature","geometry":null},{"properties":{"zipcode":"78213","id":"ap4biq24e187"},"type":"Feature","geometry":null},{"properties":{"zipcode":"75081","id":"ap4biq4a3flc"},"type":"Feature","geometry":null},{"properties":{"zipcode":"76201","id":"ap4biq4cpowt"},"type":"Feature","geometry":null},{"properties":{"zipcode":"79106","id":"ap4bipy4mssr"},"type":"Feature","geometry":null},{"properties":{"zipcode":"76450","id":"ap4bipqguw8d"},"type":"Feature","geometry":null},{"properties":{"zipcode":"78028","id":"ap4bipsnn416"},"type":"Feature","geometry":null},{"properties":{"zipcode":"79602","id":"ap4bipt65aer"},"type":"Feature","geometry":null},{"properties":{"zipcode":"78840","id":"ap4biq3vyngi"},"type":"Feature","geometry":null},{"properties":{"zipcode":"75238","id":"ap4bipxhh7tq"},"type":"Feature","geometry":null},{"properties":{"zipcode":"75243","id":"ap4bipw67ie0"},"type":"Feature","geometry":null},{"properties":{"zipcode":"75080","id":"ap4biq14j4aq"},"type":"Feature","geometry":null},{"properties":{"zipcode":"76180","id":"ap4bipyqutqr"},"type":"Feature","geometry":null},{"properties":{"zipcode":"77801","id":"ap4bipx7hhdp"},"type":"Feature","geometry":null},{"properties":{"zipcode":"77801","id":"ap4biq4e8pii"},"type":"Feature","geometry":null},{"properties":{"zipcode":"75243","id":"ap4bipyl7fia"},"type":"Feature","geometry":null},{"properties":{"zipcode":"75494","id":"ap4biq13166t"},"type":"Feature","geometry":null},{"properties":{"zipcode":"79601","id":"ap4biprq3jgj"},"type":"Feature","geometry":null},{"properties":{"zipcode":"76012","id":"ap4bipxa3zgv"},"type":"Feature","geometry":null},{"properties":{"zipcode":"76107","id":"ap4bipt8hffn"},"type":"Feature","geometry":null},{"properties":{"zipcode":"76107","id":"ap4bipvnpjnw"},"type":"Feature","geometry":null},{"properties":{"zipcode":"76016","id":"ap4bippyonm9"},"type":"Feature","geometry":null},{"properties":{"zipcode":"76107","id":"ap4bipy8kl5m"},"type":"Feature","geometry":null},{"properties":{"zipcode":"76107","id":"ap4bipqybzg8"},"type":"Feature","geometry":null},{"properties":{"zipcode":"75703","id":"ap4biq32emnx"},"type":"Feature","geometry":null},{"properties":{"zipcode":"76120","id":"ap4bipx7aby4"},"type":"Feature","geometry":null},{"properties":{"zipcode":"76132","id":"ap4biq4yltti"},"type":"Feature","geometry":null},{"properties":{"zipcode":"75034","id":"ap4biq4mwp1r"},"type":"Feature","geometry":null},{"properties":{"zipcode":"79029","id":"ap4bipwm1l61"},"type":"Feature","geometry":null},{"properties":{"zipcode":"79605","id":"ap4biq16r4pr"},"type":"Feature","geometry":null},{"properties":{"zipcode":"75219","id":"ap4biq0xkk50"},"type":"Feature","geometry":null},{"properties":{"zipcode":"79601","id":"ap4biq4wouh1"},"type":"Feature","geometry":null},{"properties":{"zipcode":"77060","id":"ap4biq3aj491"},"type":"Feature","geometry":null},{"properties":{"zipcode":"79412","id":"ap4biq0yzgzy"},"type":"Feature","geometry":null},{"properties":{"zipcode":"79102","id":"ap4bipvqxq2u"},"type":"Feature","geometry":null},{"properties":{"zipcode":"76205","id":"ap4bipwb48zc"},"type":"Feature","geometry":null},{"properties":{"zipcode":"76104","id":"ap4biq3c3yoy"},"type":"Feature","geometry":null},{"properties":{"zipcode":"75081","id":"ap4bipvkfs9q"},"type":"Feature","geometry":null},{"properties":{"zipcode":"78840","id":"ap4bipqx5szt"},"type":"Feature","geometry":null},{"properties":{"zipcode":"77058","id":"ap4bipurdvqs"},"type":"Feature","geometry":null},{"properties":{"zipcode":"76201","id":"ap4bipv8dwj1"},"type":"Feature","geometry":null},{"properties":{"zipcode":"78229","id":"ap4biptwxljt"},"type":"Feature","geometry":null},{"properties":{"zipcode":"78229","id":"ap4bipt86k8d"},"type":"Feature","geometry":null},{"properties":{"zipcode":"75007","id":"ap4biq4g8mzl"},"type":"Feature","geometry":null},{"properties":{"zipcode":"75230","id":"ap4bipykwqie"},"type":"Feature","geometry":null},{"properties":{"zipcode":"77450","id":"ap4bipsu4qh3"},"type":"Feature","geometry":null},{"properties":{"zipcode":"78239","id":"ap4bipwkruc1"},"type":"Feature","geometry":null},{"properties":{"zipcode":"77801","id":"ap4biprz72kl"},"type":"Feature","geometry":null},{"properties":{"zipcode":"75116","id":"ap4biq5kehc6"},"type":"Feature","geometry":null},{"properties":{"zipcode":"75116","id":"ap4biq2s5efz"},"type":"Feature","geometry":null},{"properties":{"zipcode":"76513","id":"ap4biq46hkgh"},"type":"Feature","geometry":null},{"properties":{"zipcode":"79606","id":"ap4biq06s3h3"},"type":"Feature","geometry":null},{"properties":{"zipcode":"75209","id":"ap4bipq56rf7"},"type":"Feature","geometry":null},{"properties":{"zipcode":"79904","id":"ap4bipxxq10a"},"type":"Feature","geometry":null},{"properties":{"zipcode":"77024","id":"ap4bipvtdhzs"},"type":"Feature","geometry":null},{"properties":{"zipcode":"75056","id":"ap4biq3mmsa6"},"type":"Feature","geometry":null},{"properties":{"zipcode":"76201","id":"ap4biptdtrc3"},"type":"Feature","geometry":null},{"properties":{"zipcode":"76504","id":"ap4biq492sam"},"type":"Feature","geometry":null},{"properties":{"zipcode":"75703","id":"ap4bipzu8fxy"},"type":"Feature","geometry":null},{"properties":{"zipcode":"75081","id":"ap4biq19rtt9"},"type":"Feature","geometry":null},{"properties":{"zipcode":"75182","id":"ap4biq5prdw0"},"type":"Feature","geometry":null},{"properties":{"zipcode":"75110","id":"ap4bipta6dqw"},"type":"Feature","geometry":null},{"properties":{"zipcode":"75010","id":"ap4biq3cuvjy"},"type":"Feature","geometry":null},{"properties":{"zipcode":"78550","id":"ap4bipwmvd7l"},"type":"Feature","geometry":null},{"properties":{"zipcode":"77079","id":"ap4bipshiy0e"},"type":"Feature","geometry":null},{"properties":{"zipcode":"76013","id":"ap4bipqhcqsb"},"type":"Feature","geometry":null},{"properties":{"zipcode":"75104","id":"ap4bipqc5nsv"},"type":"Feature","geometry":null},{"properties":{"zipcode":"76710","id":"ap4biq5jtk2g"},"type":"Feature","geometry":null},{"properties":{"zipcode":"77706","id":"ap4biptc08l2"},"type":"Feature","geometry":null},{"properties":{"zipcode":"75503","id":"ap4biq3a6usm"},"type":"Feature","geometry":null},{"properties":{"zipcode":"77058","id":"ap4biq1sg7qq"},"type":"Feature","geometry":null},{"properties":{"zipcode":"75090","id":"ap4biq4k7b59"},"type":"Feature","geometry":null},{"properties":{"zipcode":"75090","id":"ap4biq1aim06"},"type":"Feature","geometry":null},{"properties":{"zipcode":"76116","id":"ap4biq53sozk"},"type":"Feature","geometry":null},{"properties":{"zipcode":"76132","id":"ap4bipwo00cv"},"type":"Feature","geometry":null},{"properties":{"zipcode":"75644","id":"ap4bipzlwj7m"},"type":"Feature","geometry":null},{"properties":{"zipcode":"76712","id":"ap4biq6166e5"},"type":"Feature","geometry":null},{"properties":{"zipcode":"75077","id":"ap4biq1r84yn"},"type":"Feature","geometry":null},{"properties":{"zipcode":"77063","id":"ap4bipvzfypi"},"type":"Feature","geometry":null},{"properties":{"zipcode":"77581","id":"ap4biq52ujo0"},"type":"Feature","geometry":null},{"properties":{"zipcode":"78552","id":"ap4bipyxcgzw"},"type":"Feature","geometry":null},{"properties":{"zipcode":"76107","id":"ap4bipqbte3p"},"type":"Feature","geometry":null},{"properties":{"zipcode":"76011","id":"ap4biptohlhk"},"type":"Feature","geometry":null},{"properties":{"zipcode":"78539","id":"ap4biq0bnc9s"},"type":"Feature","geometry":null},{"properties":{"zipcode":"78130","id":"ap4bipu84mzo"},"type":"Feature","geometry":null},{"properties":{"zipcode":"78130","id":"ap4bipwfn39e"},"type":"Feature","geometry":null},{"properties":{"zipcode":"77904","id":"ap4biq4oeadk"},"type":"Feature","geometry":null},{"properties":{"zipcode":"76137","id":"ap4bipxe0m17"},"type":"Feature","geometry":null},{"properties":{"zipcode":"79106","id":"ap4bipsps2wf"},"type":"Feature","geometry":null},{"properties":{"zipcode":"79106","id":"ap4biq1whw4r"},"type":"Feature","geometry":null},{"properties":{"zipcode":"75904","id":"ap4bipscnquk"},"type":"Feature","geometry":null},{"properties":{"zipcode":"78240","id":"ap4bipyjixqv"},"type":"Feature","geometry":null},{"properties":{"zipcode":"78213","id":"ap4bipwnpzse"},"type":"Feature","geometry":null},{"properties":{"zipcode":"77535","id":"ap4bipv60gas"},"type":"Feature","geometry":null},{"properties":{"zipcode":"76107","id":"ap4bipxdttyl"},"type":"Feature","geometry":null},{"properties":{"zipcode":"75006","id":"ap4bipywqfy4"},"type":"Feature","geometry":null},{"properties":{"zipcode":"78403","id":"ap4biptknkcs"},"type":"Feature","geometry":null},{"properties":{"zipcode":"76111","id":"ap4biq5vkghr"},"type":"Feature","geometry":null},{"properties":{"zipcode":"75231","id":"ap4biptbv6ky"},"type":"Feature","geometry":null},{"properties":{"zipcode":"78209","id":"ap4biq3k6q2w"},"type":"Feature","geometry":null},{"properties":{"zipcode":"78229","id":"ap4biq0zbduc"},"type":"Feature","geometry":null},{"properties":{"zipcode":"76107","id":"ap4bipvv74py"},"type":"Feature","geometry":null},{"properties":{"zipcode":"77079","id":"ap4bipzarsuj"},"type":"Feature","geometry":null},{"properties":{"zipcode":"77057","id":"ap4bipqjhlmh"},"type":"Feature","geometry":null},{"properties":{"zipcode":"77058","id":"ap4biprum7zj"},"type":"Feature","geometry":null},{"properties":{"zipcode":"77019","id":"ap4biq5gzwrk"},"type":"Feature","geometry":null},{"properties":{"zipcode":"77084","id":"ap4bipzszs7l"},"type":"Feature","geometry":null},{"properties":{"zipcode":"77063","id":"ap4biprn9soe"},"type":"Feature","geometry":null},{"properties":{"zipcode":"78572","id":"ap4bips5yp58"},"type":"Feature","geometry":null},{"properties":{"zipcode":"77004","id":"ap4biq4tqnfj"},"type":"Feature","geometry":null},{"properties":{"zipcode":"77042","id":"ap4biq3jzfzi"},"type":"Feature","geometry":null},{"properties":{"zipcode":"77054","id":"ap4biq64reia"},"type":"Feature","geometry":null},{"properties":{"zipcode":"77565","id":"ap4biq480xv4"},"type":"Feature","geometry":null},{"properties":{"zipcode":"77429","id":"ap4biq352816"},"type":"Feature","geometry":null},{"properties":{"zipcode":"76028","id":"ap4biq1ae8ed"},"type":"Feature","geometry":null},{"properties":{"zipcode":"77380","id":"ap4bipwnjwnv"},"type":"Feature","geometry":null},{"properties":{"zipcode":"77003","id":"ap4bipugebmi"},"type":"Feature","geometry":null},{"properties":{"zipcode":"77057","id":"ap4bipwpe6at"},"type":"Feature","geometry":null},{"properties":{"zipcode":"73505","id":"ap4bipz1reow"},"type":"Feature","geometry":null},{"properties":{"zipcode":"79410","id":"ap4bipup46cb"},"type":"Feature","geometry":null},{"properties":{"zipcode":"76825","id":"ap4bipzr1g7n"},"type":"Feature","geometry":null},{"properties":{"zipcode":"75090","id":"ap4bipz0ctzs"},"type":"Feature","geometry":null},{"properties":{"zipcode":"77550","id":"ap4biq3eybiy"},"type":"Feature","geometry":null},{"properties":{"zipcode":"76308","id":"ap4biq6a192x"},"type":"Feature","geometry":null},{"properties":{"zipcode":"75702","id":"ap4bips5vbdp"},"type":"Feature","geometry":null},{"properties":{"zipcode":"78550","id":"ap4biq61y00n"},"type":"Feature","geometry":null},{"properties":{"zipcode":"79603","id":"ap4bipup1d2u"},"type":"Feature","geometry":null},{"properties":{"zipcode":"78362","id":"ap4biq003cxo"},"type":"Feature","geometry":null},{"properties":{"zipcode":"78504","id":"ap4bipws5a1i"},"type":"Feature","geometry":null},{"properties":{"zipcode":"76550","id":"ap4biq5bd9fx"},"type":"Feature","geometry":null},{"properties":{"zipcode":"76801","id":"ap4bipwz579r"},"type":"Feature","geometry":null},{"properties":{"zipcode":"78414","id":"ap4bipsxiuc1"},"type":"Feature","geometry":null},{"properties":{"zipcode":"77706","id":"ap4bipvydydt"},"type":"Feature","geometry":null},{"properties":{"zipcode":"75703","id":"ap4biq4ivpiy"},"type":"Feature","geometry":null},{"properties":{"zipcode":"79602","id":"ap4biprc9d4x"},"type":"Feature","geometry":null},{"properties":{"zipcode":"78411","id":"ap4biq1s80ne"},"type":"Feature","geometry":null},{"properties":{"zipcode":"79720","id":"ap4biq41esh7"},"type":"Feature","geometry":null},{"properties":{"zipcode":"77450","id":"ap4bipyvipe2"},"type":"Feature","geometry":null},{"properties":{"zipcode":"76301","id":"ap4biq4pbst3"},"type":"Feature","geometry":null},{"properties":{"zipcode":"75165","id":"ap4bipu2aecc"},"type":"Feature","geometry":null},{"properties":{"zipcode":"78945","id":"ap4bipzhpnjx"},"type":"Feature","geometry":null},{"properties":{"zipcode":"77003","id":"ap4bipwbb8as"},"type":"Feature","geometry":null},{"properties":{"zipcode":"75218","id":"ap4bipw7rwgn"},"type":"Feature","geometry":null},{"properties":{"zipcode":"77979","id":"ap4bipt1klgv"},"type":"Feature","geometry":null},{"properties":{"zipcode":"79602","id":"ap4biq16a9pq"},"type":"Feature","geometry":null},{"properties":{"zipcode":"75234","id":"ap4bipt90sgn"},"type":"Feature","geometry":null},{"properties":{"zipcode":"75230","id":"ap4bipvxnywk"},"type":"Feature","geometry":null},{"properties":{"zipcode":"77441","id":"ap4bipw4zzsl"},"type":"Feature","geometry":null},{"properties":{"zipcode":"79830","id":"ap4biq11hbj9"},"type":"Feature","geometry":null},{"properties":{"zipcode":"77401","id":"ap4biq15okbs"},"type":"Feature","geometry":null},{"properties":{"zipcode":"78501","id":"ap4bipyq3b62"},"type":"Feature","geometry":null},{"properties":{"zipcode":"78155","id":"ap4bipuf7uov"},"type":"Feature","geometry":null},{"properties":{"zipcode":"76102","id":"ap4bipv1lbpu"},"type":"Feature","geometry":null},{"properties":{"zipcode":"75023","id":"ap4biq3dziu3"},"type":"Feature","geometry":null},{"properties":{"zipcode":"75034","id":"ap4bipusq62e"},"type":"Feature","geometry":null},{"properties":{"zipcode":"77840","id":"ap4biq0rbxc8"},"type":"Feature","geometry":null},{"properties":{"zipcode":"76541","id":"ap4biq17vi7y"},"type":"Feature","geometry":null},{"properties":{"zipcode":"78681","id":"ap4biq3ygxeq"},"type":"Feature","geometry":null},{"properties":{"zipcode":"75503","id":"ap4bipzn0uiz"},"type":"Feature","geometry":null},{"properties":{"zipcode":"79106","id":"ap4bipxfkgrg"},"type":"Feature","geometry":null},{"properties":{"zipcode":"75503","id":"ap4biq0dfhan"},"type":"Feature","geometry":null},{"properties":{"zipcode":"76107","id":"ap4biq5eo8ws"},"type":"Feature","geometry":null},{"properties":{"zipcode":"77450","id":"ap4bipte00en"},"type":"Feature","geometry":null},{"properties":{"zipcode":"75115","id":"ap4bipu5cr4j"},"type":"Feature","geometry":null},{"properties":{"zipcode":"75080","id":"ap4bipx96etf"},"type":"Feature","geometry":null},{"properties":{"zipcode":"76103","id":"ap4bipwtm2is"},"type":"Feature","geometry":null},{"properties":{"zipcode":"76103","id":"ap4biq5566kg"},"type":"Feature","geometry":null},{"properties":{"zipcode":"77706","id":"ap4bipz91nst"},"type":"Feature","geometry":null},{"properties":{"zipcode":"75204","id":"ap4biq2htstt"},"type":"Feature","geometry":null},{"properties":{"zipcode":"77034","id":"ap4biq2nem25"},"type":"Feature","geometry":null},{"properties":{"zipcode":"75020","id":"ap4bipra8m68"},"type":"Feature","geometry":null},{"properties":{"zipcode":"78504","id":"ap4biq4mi9za"},"type":"Feature","geometry":null},{"properties":{"zipcode":"77068","id":"ap4bipx6732e"},"type":"Feature","geometry":null},{"properties":{"zipcode":"75092","id":"ap4bipr2zgjp"},"type":"Feature","geometry":null},{"properties":{"zipcode":"79072","id":"ap4biq3586ea"},"type":"Feature","geometry":null},{"properties":{"zipcode":"76031","id":"ap4biq2bwym5"},"type":"Feature","geometry":null},{"properties":{"zipcode":"77340","id":"ap4bipq1ldtm"},"type":"Feature","geometry":null},{"properties":{"zipcode":"77301","id":"ap4biq36ttgo"},"type":"Feature","geometry":null},{"properties":{"zipcode":"77598","id":"ap4bipunv416"},"type":"Feature","geometry":null},{"properties":{"zipcode":"75090","id":"ap4bipq7o7j9"},"type":"Feature","geometry":null},{"properties":{"zipcode":"76201","id":"ap4bips4grmi"},"type":"Feature","geometry":null},{"properties":{"zipcode":"78213","id":"ap4bipt3zx8j"},"type":"Feature","geometry":null},{"properties":{"zipcode":"76028","id":"ap4bipya4k4k"},"type":"Feature","geometry":null},{"properties":{"zipcode":"76104","id":"ap4biptj6hy8"},"type":"Feature","geometry":null},{"properties":{"zipcode":"78155","id":"ap4bipu4xj6u"},"type":"Feature","geometry":null},{"properties":{"zipcode":"76107","id":"ap4biq48m6c4"},"type":"Feature","geometry":null},{"properties":{"zipcode":"77701-3834","id":"ap4bipyfpga2"},"type":"Feature","geometry":null},{"properties":{"zipcode":"76903","id":"ap4bipveaa6g"},"type":"Feature","geometry":null},{"properties":{"zipcode":"76504","id":"ap4bipykka6n"},"type":"Feature","geometry":null},{"properties":{"zipcode":"76022","id":"ap4biq3mbrh4"},"type":"Feature","geometry":null},{"properties":{"zipcode":"78861","id":"ap4bipxivb48"},"type":"Feature","geometry":null},{"properties":{"zipcode":"75090","id":"ap4bippwkflx"},"type":"Feature","geometry":null},{"properties":{"zipcode":"76135","id":"ap4biq4ffpru"},"type":"Feature","geometry":null},{"properties":{"zipcode":"75081","id":"ap4bipz95mi0"},"type":"Feature","geometry":null},{"properties":{"zipcode":"75028","id":"ap4biq1ify74"},"type":"Feature","geometry":null},{"properties":{"zipcode":"78254","id":"ap4bips386r8"},"type":"Feature","geometry":null},{"properties":{"zipcode":"75227","id":"ap4biq0r30xv"},"type":"Feature","geometry":null},{"properties":{"zipcode":"77099","id":"ap4biq064nr0"},"type":"Feature","geometry":null},{"properties":{"zipcode":"75219","id":"ap4biq5a8r44"},"type":"Feature","geometry":null},{"properties":{"zipcode":"76712","id":"ap4bipt0245w"},"type":"Feature","geometry":null},{"properties":{"zipcode":"78602","id":"ap4bipwn7tby"},"type":"Feature","geometry":null},{"properties":{"zipcode":"76147","id":"ap4biptmcj4j"},"type":"Feature","geometry":null},{"properties":{"zipcode":"78216","id":"ap4bipw6e2rt"},"type":"Feature","geometry":null},{"properties":{"zipcode":"79106","id":"ap4bipvfjb48"},"type":"Feature","geometry":null},{"properties":{"zipcode":"78205","id":"ap4bipz964a3"},"type":"Feature","geometry":null},{"properties":{"zipcode":"77477","id":"ap4biq3j71ly"},"type":"Feature","geometry":null},{"properties":{"zipcode":"79705","id":"ap4biq27k0g2"},"type":"Feature","geometry":null},{"properties":{"zipcode":"76048","id":"ap4biq14zqrc"},"type":"Feature","geometry":null},{"properties":{"zipcode":"76244","id":"ap4biq4wt3vd"},"type":"Feature","geometry":null},{"properties":{"zipcode":"76115","id":"ap4bipqydx77"},"type":"Feature","geometry":null},{"properties":{"zipcode":"75211","id":"ap4bipsqgil0"},"type":"Feature","geometry":null},{"properties":{"zipcode":"77070","id":"ap4bipxxl0ha"},"type":"Feature","geometry":null},{"properties":{"zipcode":"75204","id":"ap4biq0oh6u9"},"type":"Feature","geometry":null},{"properties":{"zipcode":"75703","id":"ap4bipscqrxu"},"type":"Feature","geometry":null},{"properties":{"zipcode":"76111","id":"ap4bipvvfyh6"},"type":"Feature","geometry":null},{"properties":{"zipcode":"76053","id":"ap4bipyxpbpk"},"type":"Feature","geometry":null},{"properties":{"zipcode":"76054","id":"ap4bipru42y2"},"type":"Feature","geometry":null},{"properties":{"zipcode":"79601","id":"ap4bipzq4yvo"},"type":"Feature","geometry":null},{"properties":{"zipcode":"79601","id":"ap4biprhyrhx"},"type":"Feature","geometry":null},{"properties":{"zipcode":"78114","id":"ap4bipw5m8sm"},"type":"Feature","geometry":null},{"properties":{"zipcode":"77707","id":"ap4biq3g7pmr"},"type":"Feature","geometry":null},{"properties":{"zipcode":"77079","id":"ap4bipr0srjz"},"type":"Feature","geometry":null},{"properties":{"zipcode":"78624","id":"ap4bipy6983q"},"type":"Feature","geometry":null},{"properties":{"zipcode":"77581","id":"ap4bipyqinx7"},"type":"Feature","geometry":null},{"properties":{"zipcode":"77590","id":"ap4biq5n7vtc"},"type":"Feature","geometry":null},{"properties":{"zipcode":"75703","id":"ap4biq23d3e1"},"type":"Feature","geometry":null},{"properties":{"zipcode":"77571","id":"ap4biq1o99n1"},"type":"Feature","geometry":null},{"properties":{"zipcode":"77901","id":"ap4biq2haov8"},"type":"Feature","geometry":null},{"properties":{"zipcode":"79925","id":"ap4bipxb1uzi"},"type":"Feature","geometry":null},{"properties":{"zipcode":"79902","id":"ap4bips0u8qv"},"type":"Feature","geometry":null},{"properties":{"zipcode":"77074","id":"ap4bipst0f9t"},"type":"Feature","geometry":null},{"properties":{"zipcode":"75069","id":"ap4bipqsrowj"},"type":"Feature","geometry":null},{"properties":{"zipcode":"75090","id":"ap4biq59xm35"},"type":"Feature","geometry":null},{"properties":{"zipcode":"75090","id":"ap4biq2deyc5"},"type":"Feature","geometry":null},{"properties":{"zipcode":"78840","id":"ap4bips3w9ti"},"type":"Feature","geometry":null},{"properties":{"zipcode":"75401","id":"ap4bipyza0xd"},"type":"Feature","geometry":null},{"properties":{"zipcode":"75090","id":"ap4bipre8s54"},"type":"Feature","geometry":null},{"properties":{"zipcode":"75460","id":"ap4bipyurgt6"},"type":"Feature","geometry":null},{"properties":{"zipcode":"77027","id":"ap4bipq99z2z"},"type":"Feature","geometry":null},{"properties":{"zipcode":"77520","id":"ap4bipr22w8t"},"type":"Feature","geometry":null},{"properties":{"zipcode":"76903","id":"ap4bipq4vsll"},"type":"Feature","geometry":null},{"properties":{"zipcode":"77564","id":"ap4bipwusdrt"},"type":"Feature","geometry":null},{"properties":{"zipcode":"75243","id":"ap4biq1pkyfo"},"type":"Feature","geometry":null},{"properties":{"zipcode":"75201","id":"ap4biq2f25gu"},"type":"Feature","geometry":null},{"properties":{"zipcode":"75961","id":"ap4biq28h0a0"},"type":"Feature","geometry":null},{"properties":{"zipcode":"79601","id":"ap4biq4dbo08"},"type":"Feature","geometry":null},{"properties":{"zipcode":"76107","id":"ap4biq12zv58"},"type":"Feature","geometry":null},{"properties":{"zipcode":"78041","id":"ap4biq2lhahj"},"type":"Feature","geometry":null},{"properties":{"zipcode":"76904","id":"ap4biq1d3ajx"},"type":"Feature","geometry":null},{"properties":{"zipcode":"76904","id":"ap4bipt27gib"},"type":"Feature","geometry":null},{"properties":{"zipcode":"77098","id":"ap4biq4uxrpx"},"type":"Feature","geometry":null},{"properties":{"zipcode":"75002","id":"ap4bipz8920q"},"type":"Feature","geometry":null},{"properties":{"zipcode":"79912","id":"ap4biq2rbsub"},"type":"Feature","geometry":null},{"properties":{"zipcode":"75801","id":"ap4bipvklisz"},"type":"Feature","geometry":null},{"properties":{"zipcode":"78411","id":"ap4bipzpobij"},"type":"Feature","geometry":null},{"properties":{"zipcode":"78411","id":"ap4bipuw7nvd"},"type":"Feature","geometry":null},{"properties":{"zipcode":"78411","id":"ap4bipu6al2m"},"type":"Feature","geometry":null},{"properties":{"zipcode":"77901","id":"ap4biptym71c"},"type":"Feature","geometry":null},{"properties":{"zipcode":"76164","id":"ap4biq3825cp"},"type":"Feature","geometry":null},{"properties":{"zipcode":"77056","id":"ap4bipup5ukr"},"type":"Feature","geometry":null},{"properties":{"zipcode":"76092","id":"ap4biq51cqp4"},"type":"Feature","geometry":null},{"properties":{"zipcode":"77414","id":"ap4bipxaw7ww"},"type":"Feature","geometry":null},{"properties":{"zipcode":"77015","id":"ap4biq67m961"},"type":"Feature","geometry":null},{"properties":{"zipcode":"76017","id":"ap4bipxw74pn"},"type":"Feature","geometry":null},{"properties":{"zipcode":"78209","id":"ap4bipy21mjk"},"type":"Feature","geometry":null},{"properties":{"zipcode":"77401","id":"ap4bipsamdt7"},"type":"Feature","geometry":null},{"properties":{"zipcode":"77401","id":"ap4biq58pf3g"},"type":"Feature","geometry":null},{"properties":{"zipcode":"75002","id":"ap4biprlbf0s"},"type":"Feature","geometry":null},{"properties":{"zipcode":"77531","id":"ap4biq1e2jnr"},"type":"Feature","geometry":null},{"properties":{"zipcode":"75503","id":"ap4bipuxxk40"},"type":"Feature","geometry":null},{"properties":{"zipcode":"75189","id":"ap4biq5tz2q6"},"type":"Feature","geometry":null},{"properties":{"zipcode":"75067","id":"ap4biq45i8tf"},"type":"Feature","geometry":null},{"properties":{"zipcode":"75028","id":"ap4biq38wlxk"},"type":"Feature","geometry":null},{"properties":{"zipcode":"77706","id":"ap4bipric0oc"},"type":"Feature","geometry":null},{"properties":{"zipcode":"77401","id":"ap4bips2swek"},"type":"Feature","geometry":null},{"properties":{"zipcode":"75225","id":"ap4bipsn0tb2"},"type":"Feature","geometry":null},{"properties":{"zipcode":"77019","id":"ap4biprr9sw3"},"type":"Feature","geometry":null},{"properties":{"zipcode":"75238","id":"ap4biq0jxia3"},"type":"Feature","geometry":null},{"properties":{"zipcode":"75228","id":"ap4bipy040dc"},"type":"Feature","geometry":null},{"properties":{"zipcode":"79606","id":"ap4biq4qgn1q"},"type":"Feature","geometry":null},{"properties":{"zipcode":"78934","id":"ap4biq24ql9z"},"type":"Feature","geometry":null},{"properties":{"zipcode":"76401","id":"ap4bipu6vuix"},"type":"Feature","geometry":null},{"properties":{"zipcode":"79925","id":"ap4bipxdrpjp"},"type":"Feature","geometry":null},{"properties":{"zipcode":"75080","id":"ap4biput3s75"},"type":"Feature","geometry":null},{"properties":{"zipcode":"75080","id":"ap4bipzx6c0c"},"type":"Feature","geometry":null},{"properties":{"zipcode":"77351","id":"ap4bipywxnvk"},"type":"Feature","geometry":null},{"properties":{"zipcode":"75150","id":"ap4biq61o4pb"},"type":"Feature","geometry":null},{"properties":{"zipcode":"79072","id":"ap4bips9tot3"},"type":"Feature","geometry":null},{"properties":{"zipcode":"79072","id":"ap4biq3d6bl2"},"type":"Feature","geometry":null},{"properties":{"zipcode":"78207","id":"ap4biprxauis"},"type":"Feature","geometry":null},{"properties":{"zipcode":"79424","id":"ap4bipuwg87y"},"type":"Feature","geometry":null},{"properties":{"zipcode":"75098","id":"ap4biq0lvhc8"},"type":"Feature","geometry":null},{"properties":{"zipcode":"78041","id":"ap4bipqj7pmg"},"type":"Feature","geometry":null},{"properties":{"zipcode":"78041","id":"ap4bipuvka3l"},"type":"Feature","geometry":null},{"properties":{"zipcode":"78041","id":"ap4bipx25a6v"},"type":"Feature","geometry":null},{"properties":{"zipcode":"78041","id":"ap4biq0swi3l"},"type":"Feature","geometry":null},{"properties":{"zipcode":"78041","id":"ap4biq1n9k9m"},"type":"Feature","geometry":null},{"properties":{"zipcode":"77702","id":"ap4bipsi94qu"},"type":"Feature","geometry":null},{"properties":{"zipcode":"78217","id":"ap4biq14qypl"},"type":"Feature","geometry":null},{"properties":{"zipcode":"75160","id":"ap4biprc7viv"},"type":"Feature","geometry":null},{"properties":{"zipcode":"79007","id":"ap4bipqa7cf7"},"type":"Feature","geometry":null},{"properties":{"zipcode":"79065","id":"ap4bipxtn6b0"},"type":"Feature","geometry":null},{"properties":{"zipcode":"78640","id":"ap4biq3frsz5"},"type":"Feature","geometry":null},{"properties":{"zipcode":"75043","id":"ap4bipz1c6q7"},"type":"Feature","geometry":null},{"properties":{"zipcode":"75023","id":"ap4bips72bg8"},"type":"Feature","geometry":null},{"properties":{"zipcode":"76542","id":"ap4biq3gzfof"},"type":"Feature","geometry":null},{"properties":{"zipcode":"76542","id":"ap4bipvoglth"},"type":"Feature","geometry":null},{"properties":{"zipcode":"78750","id":"ap4biptwhyrb"},"type":"Feature","geometry":null},{"properties":{"zipcode":"76022","id":"ap4biq5lba3q"},"type":"Feature","geometry":null},{"properties":{"zipcode":"76180","id":"ap4biq3b1qi5"},"type":"Feature","geometry":null},{"properties":{"zipcode":"76180","id":"ap4biq606pok"},"type":"Feature","geometry":null},{"properties":{"zipcode":"76180","id":"ap4bipve1j6s"},"type":"Feature","geometry":null},{"properties":{"zipcode":"77380","id":"ap4bipyu0zfs"},"type":"Feature","geometry":null},{"properties":{"zipcode":"77233","id":"ap4bipv4l07m"},"type":"Feature","geometry":null},{"properties":{"zipcode":"76380","id":"ap4biq20t03j"},"type":"Feature","geometry":null},{"properties":{"zipcode":"77478","id":"ap4biq2k8u62"},"type":"Feature","geometry":null},{"properties":{"zipcode":"75503","id":"ap4biq2fp542"},"type":"Feature","geometry":null},{"properties":{"zipcode":"77901","id":"ap4bipqntdmb"},"type":"Feature","geometry":null},{"properties":{"zipcode":"78839","id":"ap4bipu0mhmj"},"type":"Feature","geometry":null},{"properties":{"zipcode":"78801","id":"ap4biq2gtbfz"},"type":"Feature","geometry":null},{"properties":{"zipcode":"75023","id":"ap4bipwpmj11"},"type":"Feature","geometry":null},{"properties":{"zipcode":"76104","id":"ap4biq3y1ucq"},"type":"Feature","geometry":null},{"properties":{"zipcode":"79106","id":"ap4biq542cm0"},"type":"Feature","geometry":null},{"properties":{"zipcode":"76710","id":"ap4bipw11c37"},"type":"Feature","geometry":null},{"properties":{"zipcode":"75150","id":"ap4bipvqtchz"},"type":"Feature","geometry":null},{"properties":{"zipcode":"78520","id":"ap4biq2roolv"},"type":"Feature","geometry":null},{"properties":{"zipcode":"75087","id":"ap4bipu6vq8y"},"type":"Feature","geometry":null},{"properties":{"zipcode":"75040","id":"ap4bipsbu7h1"},"type":"Feature","geometry":null},{"properties":{"zipcode":"76006","id":"ap4biq35z9zi"},"type":"Feature","geometry":null},{"properties":{"zipcode":"76904","id":"ap4biq46ywgh"},"type":"Feature","geometry":null},{"properties":{"zipcode":"77340","id":"ap4bipzqoxn0"},"type":"Feature","geometry":null},{"properties":{"zipcode":"77340","id":"ap4biq5doq4h"},"type":"Feature","geometry":null},{"properties":{"zipcode":"76904","id":"ap4biq506z4h"},"type":"Feature","geometry":null},{"properties":{"zipcode":"76903","id":"ap4bipy7ss2v"},"type":"Feature","geometry":null},{"properties":{"zipcode":"77657","id":"ap4bipury7mt"},"type":"Feature","geometry":null},{"properties":{"zipcode":"75248","id":"ap4biq4vxt03"},"type":"Feature","geometry":null},{"properties":{"zipcode":"76034","id":"ap4biprhikaf"},"type":"Feature","geometry":null},{"properties":{"zipcode":"77904","id":"ap4bipyiw1dn"},"type":"Feature","geometry":null},{"properties":{"zipcode":"77493","id":"ap4biprz0flp"},"type":"Feature","geometry":null},{"properties":{"zipcode":"77450","id":"ap4bipu0px4d"},"type":"Feature","geometry":null},{"properties":{"zipcode":"79605","id":"ap4bipv3lgah"},"type":"Feature","geometry":null},{"properties":{"zipcode":"75069","id":"ap4bipu3ph3i"},"type":"Feature","geometry":null},{"properties":{"zipcode":"78216","id":"ap4bipx8pvck"},"type":"Feature","geometry":null},{"properties":{"zipcode":"76133","id":"ap4bipuftzmp"},"type":"Feature","geometry":null},{"properties":{"zipcode":"79601","id":"ap4bipu4og1c"},"type":"Feature","geometry":null},{"properties":{"zipcode":"77054","id":"ap4bipze6znt"},"type":"Feature","geometry":null},{"properties":{"zipcode":"75080","id":"ap4bipqw1d0a"},"type":"Feature","geometry":null},{"properties":{"zipcode":"75703","id":"ap4bipq3th99"},"type":"Feature","geometry":null},{"properties":{"zipcode":"77521","id":"ap4biq5u3uhd"},"type":"Feature","geometry":null},{"properties":{"zipcode":"78217","id":"ap4bipv607bx"},"type":"Feature","geometry":null},{"properties":{"zipcode":"76205","id":"ap4bipuf4frs"},"type":"Feature","geometry":null},{"properties":{"zipcode":"75460","id":"ap4bipu6qwrq"},"type":"Feature","geometry":null},{"properties":{"zipcode":"75460","id":"ap4bipu2t4tm"},"type":"Feature","geometry":null},{"properties":{"zipcode":"77401","id":"ap4bipv3d2oh"},"type":"Feature","geometry":null},{"properties":{"zipcode":"75234","id":"ap4bipra2exy"},"type":"Feature","geometry":null},{"properties":{"zipcode":"78504","id":"ap4biq16z3d0"},"type":"Feature","geometry":null},{"properties":{"zipcode":"75065","id":"ap4biq48p8jh"},"type":"Feature","geometry":null},{"properties":{"zipcode":"79124","id":"ap4bipzdi6dj"},"type":"Feature","geometry":null},{"properties":{"zipcode":"75013","id":"ap4bipwwk25c"},"type":"Feature","geometry":null},{"properties":{"zipcode":"75104","id":"ap4bipy0p4k5"},"type":"Feature","geometry":null},{"properties":{"zipcode":"78213","id":"ap4biq2re78k"},"type":"Feature","geometry":null},{"properties":{"zipcode":"76021","id":"ap4bipuuqe4c"},"type":"Feature","geometry":null},{"properties":{"zipcode":"76034","id":"ap4biq03c16h"},"type":"Feature","geometry":null},{"properties":{"zipcode":"75075","id":"ap4bipvjw87r"},"type":"Feature","geometry":null},{"properties":{"zipcode":"77054","id":"ap4biq4woqs5"},"type":"Feature","geometry":null},{"properties":{"zipcode":"78258","id":"ap4bipsgmt8g"},"type":"Feature","geometry":null},{"properties":{"zipcode":"78247","id":"ap4bipys7nlu"},"type":"Feature","geometry":null},{"properties":{"zipcode":"79601","id":"ap4biprc2lmb"},"type":"Feature","geometry":null},{"properties":{"zipcode":"75233","id":"ap4bipqmtimu"},"type":"Feature","geometry":null},{"properties":{"zipcode":"75551","id":"ap4bipvmmydo"},"type":"Feature","geometry":null},{"properties":{"zipcode":"78577","id":"ap4biprwwa9j"},"type":"Feature","geometry":null},{"properties":{"zipcode":"76115","id":"ap4biq3pxr4g"},"type":"Feature","geometry":null},{"properties":{"zipcode":"78942","id":"ap4biq52b7qv"},"type":"Feature","geometry":null},{"properties":{"zipcode":"77581","id":"ap4bipxx5qct"},"type":"Feature","geometry":null},{"properties":{"zipcode":"76054","id":"ap4bipuknk8f"},"type":"Feature","geometry":null},{"properties":{"zipcode":"78052","id":"ap4biq3pp0aw"},"type":"Feature","geometry":null},{"properties":{"zipcode":"75040","id":"ap4biq3i005h"},"type":"Feature","geometry":null},{"properties":{"zipcode":"75229","id":"ap4bipshzs4d"},"type":"Feature","geometry":null},{"properties":{"zipcode":"75254","id":"ap4bipzkhike"},"type":"Feature","geometry":null},{"properties":{"zipcode":"75116","id":"ap4bipr1tpca"},"type":"Feature","geometry":null},{"properties":{"zipcode":"75209","id":"ap4biq1qprnl"},"type":"Feature","geometry":null},{"properties":{"zipcode":"77573","id":"ap4biq67agw9"},"type":"Feature","geometry":null},{"properties":{"zipcode":"75104","id":"ap4biq2obmvd"},"type":"Feature","geometry":null},{"properties":{"zipcode":"76107","id":"ap4bipv5omhm"},"type":"Feature","geometry":null},{"properties":{"zipcode":"76240","id":"ap4bipvb40q8"},"type":"Feature","geometry":null},{"properties":{"zipcode":"76048","id":"ap4bipqxpfb2"},"type":"Feature","geometry":null},{"properties":{"zipcode":"78155","id":"ap4biq306qoc"},"type":"Feature","geometry":null},{"properties":{"zipcode":"75023","id":"ap4bipwl0b2s"},"type":"Feature","geometry":null},{"properties":{"zipcode":"76701","id":"ap4bipzuzznj"},"type":"Feature","geometry":null},{"properties":{"zipcode":"79762","id":"ap4biq3jxqtc"},"type":"Feature","geometry":null},{"properties":{"zipcode":"77005","id":"ap4bipv9t0eo"},"type":"Feature","geometry":null},{"properties":{"zipcode":"75228","id":"ap4biq40vaoi"},"type":"Feature","geometry":null},{"properties":{"zipcode":"76904","id":"ap4bipwmemko"},"type":"Feature","geometry":null},{"properties":{"zipcode":"76903","id":"ap4biq488szv"},"type":"Feature","geometry":null},{"properties":{"zipcode":"75231","id":"ap4bipzm67pv"},"type":"Feature","geometry":null},{"properties":{"zipcode":"77380","id":"ap4biptwmsdn"},"type":"Feature","geometry":null},{"properties":{"zipcode":"76550","id":"ap4bipqo1zr5"},"type":"Feature","geometry":null},{"properties":{"zipcode":"75835","id":"ap4biq5ayyau"},"type":"Feature","geometry":null},{"properties":{"zipcode":"78028","id":"ap4bipyarsz9"},"type":"Feature","geometry":null},{"properties":{"zipcode":"79761","id":"ap4bipwp0l5q"},"type":"Feature","geometry":null},{"properties":{"zipcode":"76301","id":"ap4bipzzx2fd"},"type":"Feature","geometry":null},{"properties":{"zipcode":"76011","id":"ap4biptyosj2"},"type":"Feature","geometry":null},{"properties":{"zipcode":"78216","id":"ap4biq4e75q8"},"type":"Feature","geometry":null},{"properties":{"zipcode":"77003","id":"ap4bipqiwswz"},"type":"Feature","geometry":null},{"properties":{"zipcode":"78520","id":"ap4biq2ds4ns"},"type":"Feature","geometry":null},{"properties":{"zipcode":"75325","id":"ap4biq4kznv0"},"type":"Feature","geometry":null},{"properties":{"zipcode":"75219","id":"ap4bipwm13kr"},"type":"Feature","geometry":null},{"properties":{"zipcode":"75034","id":"ap4bipv4ltc2"},"type":"Feature","geometry":null},{"properties":{"zipcode":"75703","id":"ap4biq04ywku"},"type":"Feature","geometry":null},{"properties":{"zipcode":"75604","id":"ap4bipz95n61"},"type":"Feature","geometry":null},{"properties":{"zipcode":"75604","id":"ap4biq05cs4s"},"type":"Feature","geometry":null},{"properties":{"zipcode":"75604","id":"ap4bipqc8rgo"},"type":"Feature","geometry":null},{"properties":{"zipcode":"75604","id":"ap4biq37wrn0"},"type":"Feature","geometry":null},{"properties":{"zipcode":"75605","id":"ap4biq144ier"},"type":"Feature","geometry":null},{"properties":{"zipcode":"77802","id":"ap4bipty73a7"},"type":"Feature","geometry":null},{"properties":{"zipcode":"77034","id":"ap4bipt9xcxi"},"type":"Feature","geometry":null},{"properties":{"zipcode":"78229","id":"ap4bipx19knp"},"type":"Feature","geometry":null},{"properties":{"zipcode":"75230","id":"ap4biq4rtgk1"},"type":"Feature","geometry":null},{"properties":{"zipcode":"76107","id":"ap4bipt7q3g0"},"type":"Feature","geometry":null},{"properties":{"zipcode":"77901","id":"ap4bipzznh7i"},"type":"Feature","geometry":null},{"properties":{"zipcode":"77904","id":"ap4bipw66jgq"},"type":"Feature","geometry":null},{"properties":{"zipcode":"75455","id":"ap4bipshwn5j"},"type":"Feature","geometry":null},{"properties":{"zipcode":"75204","id":"ap4bipyrf542"},"type":"Feature","geometry":null},{"properties":{"zipcode":"77833","id":"ap4bipsi584j"},"type":"Feature","geometry":null},{"properties":{"zipcode":"78217","id":"ap4biq0tmbl9"},"type":"Feature","geometry":null},{"properties":{"zipcode":"76801","id":"ap4bipuj0fra"},"type":"Feature","geometry":null},{"properties":{"zipcode":"79556","id":"ap4bipxw6liq"},"type":"Feature","geometry":null},{"properties":{"zipcode":"75201","id":"ap4bipygcdc6"},"type":"Feature","geometry":null},{"properties":{"zipcode":"75044","id":"ap4bipxjpm39"},"type":"Feature","geometry":null},{"properties":{"zipcode":"79102","id":"ap4bipz2f8ei"},"type":"Feature","geometry":null},{"properties":{"zipcode":"75110","id":"ap4bipyafhd5"},"type":"Feature","geometry":null},{"properties":{"zipcode":"77584","id":"ap4bipshkali"},"type":"Feature","geometry":null},{"properties":{"zipcode":"75071","id":"ap4biq1rjvxt"},"type":"Feature","geometry":null},{"properties":{"zipcode":"77550","id":"ap4biq14gkzq"},"type":"Feature","geometry":null},{"properties":{"zipcode":"76522","id":"ap4biptrtc9y"},"type":"Feature","geometry":null},{"properties":{"zipcode":"75460","id":"ap4biq5f531v"},"type":"Feature","geometry":null},{"properties":{"zipcode":"79925","id":"ap4biq5wedjf"},"type":"Feature","geometry":null},{"properties":{"zipcode":"75116","id":"ap4biq17watu"},"type":"Feature","geometry":null},{"properties":{"zipcode":"77414","id":"ap4biq5yx5u3"},"type":"Feature","geometry":null},{"properties":{"zipcode":"77437","id":"ap4bipzn6xhn"},"type":"Feature","geometry":null},{"properties":{"zipcode":"75067","id":"ap4bips695rp"},"type":"Feature","geometry":null},{"properties":{"zipcode":"76801","id":"ap4bipt8t866"},"type":"Feature","geometry":null},{"properties":{"zipcode":"76712","id":"ap4biq2ur5ng"},"type":"Feature","geometry":null},{"properties":{"zipcode":"76226","id":"ap4bipq6nbv8"},"type":"Feature","geometry":null},{"properties":{"zipcode":"77058","id":"ap4biq0nk8uj"},"type":"Feature","geometry":null},{"properties":{"zipcode":"77058","id":"ap4bipxludl1"},"type":"Feature","geometry":null},{"properties":{"zipcode":"77058","id":"ap4biprvbyq0"},"type":"Feature","geometry":null},{"properties":{"zipcode":"77058","id":"ap4biq5l8unh"},"type":"Feature","geometry":null},{"properties":{"zipcode":"76012","id":"ap4bipvpck1y"},"type":"Feature","geometry":null},{"properties":{"zipcode":"76015","id":"ap4bipyy0hbv"},"type":"Feature","geometry":null},{"properties":{"zipcode":"76111","id":"ap4biq64n8iw"},"type":"Feature","geometry":null},{"properties":{"zipcode":"78411","id":"ap4biq42p5zu"},"type":"Feature","geometry":null},{"properties":{"zipcode":"75081","id":"ap4bipuip0nl"},"type":"Feature","geometry":null},{"properties":{"zipcode":"75034","id":"ap4biq30c4re"},"type":"Feature","geometry":null},{"properties":{"zipcode":"75230","id":"ap4biq4gkpmp"},"type":"Feature","geometry":null},{"properties":{"zipcode":"76450","id":"ap4bipqerkzm"},"type":"Feature","geometry":null},{"properties":{"zipcode":"78411","id":"ap4bipzzh15n"},"type":"Feature","geometry":null},{"properties":{"zipcode":"76107","id":"ap4bipruabhp"},"type":"Feature","geometry":null},{"properties":{"zipcode":"78148","id":"ap4biptyz0k6"},"type":"Feature","geometry":null},{"properties":{"zipcode":"75494","id":"ap4biq55ayok"},"type":"Feature","geometry":null},{"properties":{"zipcode":"76234","id":"ap4bipwh8mc5"},"type":"Feature","geometry":null},{"properties":{"zipcode":"76230","id":"ap4biq3mh80t"},"type":"Feature","geometry":null},{"properties":{"zipcode":"76234","id":"ap4biq31wur5"},"type":"Feature","geometry":null},{"properties":{"zipcode":"75460","id":"ap4biq25bx4w"},"type":"Feature","geometry":null},{"properties":{"zipcode":"78228","id":"ap4biq4gfv15"},"type":"Feature","geometry":null},{"properties":{"zipcode":"78413","id":"ap4bips2kjew"},"type":"Feature","geometry":null},{"properties":{"zipcode":"78839","id":"ap4bipw9v79b"},"type":"Feature","geometry":null},{"properties":{"zipcode":"79415","id":"ap4bipwxi1zj"},"type":"Feature","geometry":null},{"properties":{"zipcode":"75401","id":"ap4bipt41xc4"},"type":"Feature","geometry":null},{"properties":{"zipcode":"76015","id":"ap4biq4j00nc"},"type":"Feature","geometry":null},{"properties":{"zipcode":"76109","id":"ap4bipw52k6z"},"type":"Feature","geometry":null},{"properties":{"zipcode":"77580","id":"ap4bipvu8gdx"},"type":"Feature","geometry":null},{"properties":{"zipcode":"75835","id":"ap4biptn8d6c"},"type":"Feature","geometry":null},{"properties":{"zipcode":"75090","id":"ap4bipxpwkma"},"type":"Feature","geometry":null},{"properties":{"zipcode":"78216","id":"ap4biq4to7iz"},"type":"Feature","geometry":null},{"properties":{"zipcode":"76701","id":"ap4biq4x6htc"},"type":"Feature","geometry":null},{"properties":{"zipcode":"77058","id":"ap4biq1c0e5p"},"type":"Feature","geometry":null},{"properties":{"zipcode":"75081","id":"ap4bipsic6gr"},"type":"Feature","geometry":null},{"properties":{"zipcode":"78756","id":"ap4bipwmap0z"},"type":"Feature","geometry":null},{"properties":{"zipcode":"78504","id":"ap4biq06ianm"},"type":"Feature","geometry":null},{"properties":{"zipcode":"76049","id":"ap4bipsgms6e"},"type":"Feature","geometry":null},{"properties":{"zipcode":"76801","id":"ap4bipu6745y"},"type":"Feature","geometry":null},{"properties":{"zipcode":"79105-1400","id":"ap4bipy6npm3"},"type":"Feature","geometry":null},{"properties":{"zipcode":"75503","id":"ap4biq2dyjcp"},"type":"Feature","geometry":null},{"properties":{"zipcode":"79832","id":"ap4bipsksv0h"},"type":"Feature","geometry":null},{"properties":{"zipcode":"76115","id":"ap4biq694xvh"},"type":"Feature","geometry":null},{"properties":{"zipcode":"79601","id":"ap4biq0duf2o"},"type":"Feature","geometry":null},{"properties":{"zipcode":"76802","id":"ap4bipsl7iva"},"type":"Feature","geometry":null},{"properties":{"zipcode":"76201","id":"ap4biprrf59i"},"type":"Feature","geometry":null},{"properties":{"zipcode":"77803","id":"ap4bipue29de"},"type":"Feature","geometry":null},{"properties":{"zipcode":"77320","id":"ap4bipy0xk2k"},"type":"Feature","geometry":null},{"properties":{"zipcode":"77375","id":"ap4bipq1pu1x"},"type":"Feature","geometry":null},{"properties":{"zipcode":"76063","id":"ap4bipviap38"},"type":"Feature","geometry":null},{"properties":{"zipcode":"75703-2457","id":"ap4biq3idbt1"},"type":"Feature","geometry":null},{"properties":{"zipcode":"79830","id":"ap4bipr3pthy"},"type":"Feature","geometry":null},{"properties":{"zipcode":"78130","id":"ap4bipvrv1am"},"type":"Feature","geometry":null},{"properties":{"zipcode":"75028","id":"ap4biptxvhin"},"type":"Feature","geometry":null},{"properties":{"zipcode":"77535","id":"ap4biq1z14fq"},"type":"Feature","geometry":null},{"properties":{"zipcode":"76107","id":"ap4bipz3fqya"},"type":"Feature","geometry":null},{"properties":{"zipcode":"78363","id":"ap4biq2wa46h"},"type":"Feature","geometry":null},{"properties":{"zipcode":"76031","id":"ap4biq647cyt"},"type":"Feature","geometry":null},{"properties":{"zipcode":"76031","id":"ap4bipx3a6ss"},"type":"Feature","geometry":null},{"properties":{"zipcode":"76022","id":"ap4bipqtnsgz"},"type":"Feature","geometry":null},{"properties":{"zipcode":"75248","id":"ap4biq2jh9mu"},"type":"Feature","geometry":null},{"properties":{"zipcode":"75254","id":"ap4bipqs352i"},"type":"Feature","geometry":null},{"properties":{"zipcode":"75254","id":"ap4bipwpowl2"},"type":"Feature","geometry":null},{"properties":{"zipcode":"76033","id":"ap4bipw3ng94"},"type":"Feature","geometry":null},{"properties":{"zipcode":"78028","id":"ap4biprv5uch"},"type":"Feature","geometry":null},{"properties":{"zipcode":"78411","id":"ap4bipybvu8t"},"type":"Feature","geometry":null},{"properties":{"zipcode":"76103","id":"ap4biq2cbj0e"},"type":"Feature","geometry":null},{"properties":{"zipcode":"78411","id":"ap4bipsyrulw"},"type":"Feature","geometry":null},{"properties":{"zipcode":"75093","id":"ap4biq0p0sqo"},"type":"Feature","geometry":null},{"properties":{"zipcode":"79065","id":"ap4biprpmz9m"},"type":"Feature","geometry":null},{"properties":{"zipcode":"76201","id":"ap4biq1xgmbz"},"type":"Feature","geometry":null},{"properties":{"zipcode":"77627","id":"ap4biq3f42rp"},"type":"Feature","geometry":null},{"properties":{"zipcode":"76450","id":"ap4biq60lr7q"},"type":"Feature","geometry":null},{"properties":{"zipcode":"75244","id":"ap4biq0mh7ns"},"type":"Feature","geometry":null},{"properties":{"zipcode":"75110","id":"ap4biptjzhux"},"type":"Feature","geometry":null},{"properties":{"zipcode":"79102","id":"ap4biq1dc0s2"},"type":"Feature","geometry":null},{"properties":{"zipcode":"75766","id":"ap4bipv7t7eq"},"type":"Feature","geometry":null},{"properties":{"zipcode":"75503","id":"ap4bipv08ug4"},"type":"Feature","geometry":null},{"properties":{"zipcode":"75077","id":"ap4biptjsf4h"},"type":"Feature","geometry":null},{"properties":{"zipcode":"75503","id":"ap4biq0jghj0"},"type":"Feature","geometry":null},{"properties":{"zipcode":"75093","id":"ap4biq5ffn2d"},"type":"Feature","geometry":null},{"properties":{"zipcode":"79602","id":"ap4bipufklhk"},"type":"Feature","geometry":null},{"properties":{"zipcode":"76308","id":"ap4biq4l99w7"},"type":"Feature","geometry":null},{"properties":{"zipcode":"76039","id":"ap4bipub60wt"},"type":"Feature","geometry":null},{"properties":{"zipcode":"76120","id":"ap4bipu0mpwy"},"type":"Feature","geometry":null},{"properties":{"zipcode":"76051","id":"ap4biq0m7al2"},"type":"Feature","geometry":null},{"properties":{"zipcode":"76048","id":"ap4bipzcdn6b"},"type":"Feature","geometry":null},{"properties":{"zipcode":"77642","id":"ap4biprarg99"},"type":"Feature","geometry":null},{"properties":{"zipcode":"77904","id":"ap4biq1b40vr"},"type":"Feature","geometry":null},{"properties":{"zipcode":"77521","id":"ap4biq08gfi3"},"type":"Feature","geometry":null},{"properties":{"zipcode":"77092","id":"ap4bipxn6585"},"type":"Feature","geometry":null},{"properties":{"zipcode":"77070","id":"ap4biq4lgq4o"},"type":"Feature","geometry":null},{"properties":{"zipcode":"76022","id":"ap4biprdh9v7"},"type":"Feature","geometry":null},{"properties":{"zipcode":"76120","id":"ap4bipxkpjpb"},"type":"Feature","geometry":null},{"properties":{"zipcode":"75093","id":"ap4biq5kkd0h"},"type":"Feature","geometry":null},{"properties":{"zipcode":"75206","id":"ap4biq0j8tl5"},"type":"Feature","geometry":null},{"properties":{"zipcode":"76710","id":"ap4bipq7g77c"},"type":"Feature","geometry":null},{"properties":{"zipcode":"75116","id":"ap4biq0y3y8d"},"type":"Feature","geometry":null},{"properties":{"zipcode":"75071","id":"ap4bipxbjsr1"},"type":"Feature","geometry":null},{"properties":{"zipcode":"77584","id":"ap4bipwmymtj"},"type":"Feature","geometry":null},{"properties":{"zipcode":"75071","id":"ap4biq3qmsif"},"type":"Feature","geometry":null},{"properties":{"zipcode":"78411","id":"ap4biq3g8a8d"},"type":"Feature","geometry":null},{"properties":{"zipcode":"78101","id":"ap4bipt6i0ef"},"type":"Feature","geometry":null},{"properties":{"zipcode":"77074","id":"ap4biq2t1s6z"},"type":"Feature","geometry":null},{"properties":{"zipcode":"76710","id":"ap4biq34i9wy"},"type":"Feature","geometry":null},{"properties":{"zipcode":"78028","id":"ap4bipsfcwgi"},"type":"Feature","geometry":null},{"properties":{"zipcode":"77429","id":"ap4biq1dapxu"},"type":"Feature","geometry":null},{"properties":{"zipcode":"78217","id":"ap4biq45ugr4"},"type":"Feature","geometry":null},{"properties":{"zipcode":"77701","id":"ap4bipuhbpsd"},"type":"Feature","geometry":null},{"properties":{"zipcode":"76051","id":"ap4biq604mfh"},"type":"Feature","geometry":null},{"properties":{"zipcode":"78130","id":"ap4biq24y1yk"},"type":"Feature","geometry":null},{"properties":{"zipcode":"78133","id":"ap4bipykvobh"},"type":"Feature","geometry":null},{"properties":{"zipcode":"76542","id":"ap4bipvenuhr"},"type":"Feature","geometry":null},{"properties":{"zipcode":"76109","id":"ap4bipvjgebs"},"type":"Feature","geometry":null},{"properties":{"zipcode":"77584","id":"ap4bipvqjfkg"},"type":"Feature","geometry":null},{"properties":{"zipcode":"76541","id":"ap4bipwmzd0j"},"type":"Feature","geometry":null},{"properties":{"zipcode":"78411","id":"ap4bipttoy4k"},"type":"Feature","geometry":null},{"properties":{"zipcode":"78411","id":"ap4bipyedsxw"},"type":"Feature","geometry":null},{"properties":{"zipcode":"76180","id":"ap4biq4e4m8i"},"type":"Feature","geometry":null},{"properties":{"zipcode":"75751","id":"ap4bipr5cdy2"},"type":"Feature","geometry":null},{"properties":{"zipcode":"76542","id":"ap4biprw0j0j"},"type":"Feature","geometry":null},{"properties":{"zipcode":"78801","id":"ap4bipszovfv"},"type":"Feature","geometry":null},{"properties":{"zipcode":"79424","id":"ap4biq2r1x32"},"type":"Feature","geometry":null},{"properties":{"zipcode":"78956-1117","id":"ap4biq3qrjs5"},"type":"Feature","geometry":null},{"properties":{"zipcode":"75067","id":"ap4bipzq4j9g"},"type":"Feature","geometry":null},{"properties":{"zipcode":"75223-1339","id":"ap4bipvxrozv"},"type":"Feature","geometry":null},{"properties":{"zipcode":"75214","id":"ap4bipx00fnz"},"type":"Feature","geometry":null},{"properties":{"zipcode":"77380","id":"ap4biq031dj4"},"type":"Feature","geometry":null},{"properties":{"zipcode":"79106","id":"ap4bipriq7ln"},"type":"Feature","geometry":null},{"properties":{"zipcode":"76164","id":"ap4bipwgcmwf"},"type":"Feature","geometry":null},{"properties":{"zipcode":"79601-5602","id":"ap4biq4ul8ro"},"type":"Feature","geometry":null},{"properties":{"zipcode":"76667","id":"ap4bipy07rzk"},"type":"Feature","geometry":null},{"properties":{"zipcode":"76667","id":"ap4biq32ujtx"},"type":"Feature","geometry":null},{"properties":{"zipcode":"76248","id":"ap4biprd0m2q"},"type":"Feature","geometry":null},{"properties":{"zipcode":"75234","id":"ap4bipxxzuu5"},"type":"Feature","geometry":null},{"properties":{"zipcode":"76513","id":"ap4biq1i63hr"},"type":"Feature","geometry":null},{"properties":{"zipcode":"75460","id":"ap4bipvy3l4z"},"type":"Feature","geometry":null},{"properties":{"zipcode":"79412","id":"ap4biprf0siv"},"type":"Feature","geometry":null},{"properties":{"zipcode":"78232","id":"ap4biq3feny4"},"type":"Feature","geometry":null},{"properties":{"zipcode":"75032","id":"ap4bipycv5rq"},"type":"Feature","geometry":null},{"properties":{"zipcode":"77015","id":"ap4biq6aphq7"},"type":"Feature","geometry":null},{"properties":{"zipcode":"78130","id":"ap4bipuap9r8"},"type":"Feature","geometry":null},{"properties":{"zipcode":"76201","id":"ap4biq1giwpt"},"type":"Feature","geometry":null},{"properties":{"zipcode":"77707","id":"ap4bipw16u4h"},"type":"Feature","geometry":null},{"properties":{"zipcode":"75081","id":"ap4biq43amb6"},"type":"Feature","geometry":null},{"properties":{"zipcode":"75069","id":"ap4bipw6i1ps"},"type":"Feature","geometry":null},{"properties":{"zipcode":"77019","id":"ap4biprovmbm"},"type":"Feature","geometry":null},{"properties":{"zipcode":"78013","id":"ap4bipzz8d0g"},"type":"Feature","geometry":null},{"properties":{"zipcode":"75801","id":"ap4bipzolmoz"},"type":"Feature","geometry":null},{"properties":{"zipcode":"76021","id":"ap4bipz7fmeh"},"type":"Feature","geometry":null},{"properties":{"zipcode":"75023","id":"ap4biq1atj4h"},"type":"Feature","geometry":null},{"properties":{"zipcode":"75402","id":"ap4bipsbpsy7"},"type":"Feature","geometry":null},{"properties":{"zipcode":"75001","id":"ap4biq22xfhg"},"type":"Feature","geometry":null},{"properties":{"zipcode":"76542","id":"ap4biq3vxcg0"},"type":"Feature","geometry":null},{"properties":{"zipcode":"75503","id":"ap4bipzbb4z7"},"type":"Feature","geometry":null},{"properties":{"zipcode":"77702","id":"ap4biq0fel36"},"type":"Feature","geometry":null},{"properties":{"zipcode":"75248","id":"ap4biq0fmv64"},"type":"Feature","geometry":null},{"properties":{"zipcode":"77702","id":"ap4bipsatpvl"},"type":"Feature","geometry":null},{"properties":{"zipcode":"77702","id":"ap4bipyyqi1a"},"type":"Feature","geometry":null},{"properties":{"zipcode":"75215","id":"ap4biq2iiiid"},"type":"Feature","geometry":null},{"properties":{"zipcode":"77380","id":"ap4biprin9xn"},"type":"Feature","geometry":null},{"properties":{"zipcode":"77092","id":"ap4bipwjyuqa"},"type":"Feature","geometry":null},{"properties":{"zipcode":"75090","id":"ap4biq2r2hv4"},"type":"Feature","geometry":null},{"properties":{"zipcode":"76710","id":"ap4biq4xh2i3"},"type":"Feature","geometry":null},{"properties":{"zipcode":"78216","id":"ap4bipt3k3wn"},"type":"Feature","geometry":null},{"properties":{"zipcode":"76548","id":"ap4bipzk0spd"},"type":"Feature","geometry":null},{"properties":{"zipcode":"78501","id":"ap4biq4wh33g"},"type":"Feature","geometry":null},{"properties":{"zipcode":"75028","id":"ap4bipylxwcy"},"type":"Feature","geometry":null},{"properties":{"zipcode":"76201","id":"ap4biq0tsy3s"},"type":"Feature","geometry":null},{"properties":{"zipcode":"75043","id":"ap4biq1w8my7"},"type":"Feature","geometry":null},{"properties":{"zipcode":"76643","id":"ap4bipr488r4"},"type":"Feature","geometry":null},{"properties":{"zipcode":"78642","id":"ap4bipu4hn24"},"type":"Feature","geometry":null},{"properties":{"zipcode":"77833","id":"ap4bipzqi7ta"},"type":"Feature","geometry":null},{"properties":{"zipcode":"77015","id":"ap4biq1a8tib"},"type":"Feature","geometry":null},{"properties":{"zipcode":"76205","id":"ap4bipt53a5l"},"type":"Feature","geometry":null},{"properties":{"zipcode":"75023","id":"ap4bipxaf63b"},"type":"Feature","geometry":null},{"properties":{"zipcode":"75043","id":"ap4bipxjznhx"},"type":"Feature","geometry":null},{"properties":{"zipcode":"76210","id":"ap4biq26fjd5"},"type":"Feature","geometry":null},{"properties":{"zipcode":"76086","id":"ap4biq0fgssj"},"type":"Feature","geometry":null},{"properties":{"zipcode":"76107","id":"ap4bipuxp0r7"},"type":"Feature","geometry":null},{"properties":{"zipcode":"76087","id":"ap4biprbmgop"},"type":"Feature","geometry":null},{"properties":{"zipcode":"75126","id":"ap4bipuijfcv"},"type":"Feature","geometry":null},{"properties":{"zipcode":"78041","id":"ap4bipzaxyxi"},"type":"Feature","geometry":null},{"properties":{"zipcode":"78041","id":"ap4biq2h3sgu"},"type":"Feature","geometry":null},{"properties":{"zipcode":"76542","id":"ap4bipv4338q"},"type":"Feature","geometry":null},{"properties":{"zipcode":"78041","id":"ap4biq2t7igu"},"type":"Feature","geometry":null},{"properties":{"zipcode":"77701-3834","id":"ap4bipy3wtru"},"type":"Feature","geometry":null},{"properties":{"zipcode":"77904","id":"ap4biq5u43ln"},"type":"Feature","geometry":null},{"properties":{"zipcode":"76522","id":"ap4biq01f9gf"},"type":"Feature","geometry":null},{"properties":{"zipcode":"79424","id":"ap4biq5iit8k"},"type":"Feature","geometry":null},{"properties":{"zipcode":"76528","id":"ap4biq07lf0k"},"type":"Feature","geometry":null},{"properties":{"zipcode":"76712","id":"ap4biq5rlqy4"},"type":"Feature","geometry":null},{"properties":{"zipcode":"77094","id":"ap4bipvylkc2"},"type":"Feature","geometry":null},{"properties":{"zipcode":"77651","id":"ap4bipqq4mwz"},"type":"Feature","geometry":null},{"properties":{"zipcode":"76022","id":"ap4bipq67r90"},"type":"Feature","geometry":null},{"properties":{"zipcode":"76051","id":"ap4bipxu7djs"},"type":"Feature","geometry":null},{"properties":{"zipcode":"76504","id":"ap4biq5q0gl6"},"type":"Feature","geometry":null},{"properties":{"zipcode":"76901","id":"ap4biq3az1hl"},"type":"Feature","geometry":null},{"properties":{"zipcode":"79602","id":"ap4bipy2eapj"},"type":"Feature","geometry":null},{"properties":{"zipcode":"78130","id":"ap4bipr2ol2i"},"type":"Feature","geometry":null},{"properties":{"zipcode":"76502","id":"ap4bipwn7rgm"},"type":"Feature","geometry":null},{"properties":{"zipcode":"77550","id":"ap4biq5ezztg"},"type":"Feature","geometry":null},{"properties":{"zipcode":"75670","id":"ap4bipuy6wom"},"type":"Feature","geometry":null},{"properties":{"zipcode":"76244","id":"ap4bipubb0ed"},"type":"Feature","geometry":null},{"properties":{"zipcode":"77450","id":"ap4biq3bczsd"},"type":"Feature","geometry":null},{"properties":{"zipcode":"76107","id":"ap4biprk6tn6"},"type":"Feature","geometry":null},{"properties":{"zipcode":"75254","id":"ap4bipwy8i0s"},"type":"Feature","geometry":null},{"properties":{"zipcode":"76201","id":"ap4bipq2l3um"},"type":"Feature","geometry":null},{"properties":{"zipcode":"77058","id":"ap4bipup00qb"},"type":"Feature","geometry":null},{"properties":{"zipcode":"76104","id":"ap4bipyerhwm"},"type":"Feature","geometry":null},{"properties":{"zipcode":"75605","id":"ap4biq0ru9lp"},"type":"Feature","geometry":null},{"properties":{"zipcode":"75604","id":"ap4bipyizsxy"},"type":"Feature","geometry":null},{"properties":{"zipcode":"75604","id":"ap4bippy3xqj"},"type":"Feature","geometry":null},{"properties":{"zipcode":"75601","id":"ap4biq00dqbu"},"type":"Feature","geometry":null},{"properties":{"zipcode":"79106","id":"ap4bipyfiyg1"},"type":"Feature","geometry":null},{"properties":{"zipcode":"79106","id":"ap4bipqui4g5"},"type":"Feature","geometry":null},{"properties":{"zipcode":"79106","id":"ap4bipw7mimh"},"type":"Feature","geometry":null},{"properties":{"zipcode":"78681","id":"ap4bipykqzpz"},"type":"Feature","geometry":null},{"properties":{"zipcode":"78028","id":"ap4biq1cd68f"},"type":"Feature","geometry":null},{"properties":{"zipcode":"75023","id":"ap4bipu8xw50"},"type":"Feature","geometry":null},{"properties":{"zipcode":"76401","id":"ap4bipxgbbfw"},"type":"Feature","geometry":null},{"properties":{"zipcode":"76262","id":"ap4biq4b6cdb"},"type":"Feature","geometry":null},{"properties":{"zipcode":"78130","id":"ap4bipyzd2kc"},"type":"Feature","geometry":null},{"properties":{"zipcode":"77058","id":"ap4bipzssnpn"},"type":"Feature","geometry":null},{"properties":{"zipcode":"75455","id":"ap4biq1ry64w"},"type":"Feature","geometry":null},{"properties":{"zipcode":"79601","id":"ap4bipzihvu0"},"type":"Feature","geometry":null},{"properties":{"zipcode":"76120","id":"ap4biq3k5z63"},"type":"Feature","geometry":null},{"properties":{"zipcode":"78155","id":"ap4biq63cneb"},"type":"Feature","geometry":null},{"properties":{"zipcode":"79602","id":"ap4biq3ygwpi"},"type":"Feature","geometry":null},{"properties":{"zipcode":"76903","id":"ap4biq1etv0g"},"type":"Feature","geometry":null},{"properties":{"zipcode":"75243","id":"ap4biprtn72e"},"type":"Feature","geometry":null},{"properties":{"zipcode":"77079","id":"ap4bipwz93se"},"type":"Feature","geometry":null},{"properties":{"zipcode":"77536","id":"ap4bipv5nvp4"},"type":"Feature","geometry":null},{"properties":{"zipcode":"77520","id":"ap4bipuucjxq"},"type":"Feature","geometry":null},{"properties":{"zipcode":"76063","id":"ap4bipthyj8e"},"type":"Feature","geometry":null},{"properties":{"zipcode":"75074","id":"ap4biq4lnx0g"},"type":"Feature","geometry":null},{"properties":{"zipcode":"76541","id":"ap4biptz6a5k"},"type":"Feature","geometry":null},{"properties":{"zipcode":"77904","id":"ap4bipy0tjpc"},"type":"Feature","geometry":null},{"properties":{"zipcode":"77904","id":"ap4biq28ofvn"},"type":"Feature","geometry":null},{"properties":{"zipcode":"77904","id":"ap4bipwk4blc"},"type":"Feature","geometry":null},{"properties":{"zipcode":"76040","id":"ap4bipx3jr4n"},"type":"Feature","geometry":null},{"properties":{"zipcode":"75219","id":"ap4biq1ctv50"},"type":"Feature","geometry":null},{"properties":{"zipcode":"76234","id":"ap4bipv37e3c"},"type":"Feature","geometry":null},{"properties":{"zipcode":"78213","id":"ap4bipyxdfw9"},"type":"Feature","geometry":null},{"properties":{"zipcode":"77079","id":"ap4bipqyy2n0"},"type":"Feature","geometry":null},{"properties":{"zipcode":"78213","id":"ap4bippz7szq"},"type":"Feature","geometry":null},{"properties":{"zipcode":"77562","id":"ap4bipt11t6q"},"type":"Feature","geometry":null},{"properties":{"zipcode":"76542","id":"ap4bips3uwt7"},"type":"Feature","geometry":null},{"properties":{"zipcode":"75007","id":"ap4bipxxmh3r"},"type":"Feature","geometry":null},{"properties":{"zipcode":"75002","id":"ap4biq3m9g3u"},"type":"Feature","geometry":null},{"properties":{"zipcode":"75057","id":"ap4bipv9yu1y"},"type":"Feature","geometry":null},{"properties":{"zipcode":"77027","id":"ap4biptmu35d"},"type":"Feature","geometry":null},{"properties":{"zipcode":"75150","id":"ap4bipqtcp61"},"type":"Feature","geometry":null},{"properties":{"zipcode":"78228","id":"ap4biprtn8xy"},"type":"Feature","geometry":null},{"properties":{"zipcode":"75228","id":"ap4bipwqzo4h"},"type":"Feature","geometry":null},{"properties":{"zipcode":"78226","id":"ap4biq0t7yx1"},"type":"Feature","geometry":null},{"properties":{"zipcode":"75228","id":"ap4bipwk5yds"},"type":"Feature","geometry":null},{"properties":{"zipcode":"77456","id":"ap4biq2sbhax"},"type":"Feature","geometry":null},{"properties":{"zipcode":"76201","id":"ap4bipzrkawd"},"type":"Feature","geometry":null},{"properties":{"zipcode":"75023","id":"ap4bipy680ev"},"type":"Feature","geometry":null},{"properties":{"zipcode":"75081","id":"ap4bipqs4ptq"},"type":"Feature","geometry":null},{"properties":{"zipcode":"78218","id":"ap4bipunjglx"},"type":"Feature","geometry":null},{"properties":{"zipcode":"78411","id":"ap4biq0jyy0k"},"type":"Feature","geometry":null},{"properties":{"zipcode":"76034","id":"ap4bipzaxwsn"},"type":"Feature","geometry":null},{"properties":{"zipcode":"75080","id":"ap4bipryez8h"},"type":"Feature","geometry":null},{"properties":{"zipcode":"76107","id":"ap4biprbz0s5"},"type":"Feature","geometry":null},{"properties":{"zipcode":"78504","id":"ap4biq3li39t"},"type":"Feature","geometry":null},{"properties":{"zipcode":"78539","id":"ap4bipsl2gzj"},"type":"Feature","geometry":null},{"properties":{"zipcode":"76115","id":"ap4biq4sezrp"},"type":"Feature","geometry":null},{"properties":{"zipcode":"75219","id":"ap4biprm5yzy"},"type":"Feature","geometry":null},{"properties":{"zipcode":"75604","id":"ap4bipwrdjn3"},"type":"Feature","geometry":null},{"properties":{"zipcode":"75065","id":"ap4bipy8c4vx"},"type":"Feature","geometry":null},{"properties":{"zipcode":"78213","id":"ap4bipxwoes3"},"type":"Feature","geometry":null},{"properties":{"zipcode":"75042","id":"ap4biq31evcc"},"type":"Feature","geometry":null},{"properties":{"zipcode":"79414","id":"ap4bipvvpisn"},"type":"Feature","geometry":null},{"properties":{"zipcode":"76021","id":"ap4bipzv7sna"},"type":"Feature","geometry":null},{"properties":{"zipcode":"75044","id":"ap4biq42p02k"},"type":"Feature","geometry":null},{"properties":{"zipcode":"76048","id":"ap4bipx4mbgw"},"type":"Feature","geometry":null},{"properties":{"zipcode":"77063","id":"ap4bipva04n0"},"type":"Feature","geometry":null},{"properties":{"zipcode":"75042","id":"ap4bipq13ucs"},"type":"Feature","geometry":null},{"properties":{"zipcode":"76051","id":"ap4biq4tq1lu"},"type":"Feature","geometry":null},{"properties":{"zipcode":"77346","id":"ap4bipre2281"},"type":"Feature","geometry":null},{"properties":{"zipcode":"76528","id":"ap4bipxzu37g"},"type":"Feature","geometry":null},{"properties":{"zipcode":"77375","id":"ap4bipq2jsn6"},"type":"Feature","geometry":null},{"properties":{"zipcode":"76504","id":"ap4bipu4nxpd"},"type":"Feature","geometry":null},{"properties":{"zipcode":"77380","id":"ap4bipwnjs14"},"type":"Feature","geometry":null},{"properties":{"zipcode":"76455","id":"ap4bipzbboyn"},"type":"Feature","geometry":null},{"properties":{"zipcode":"75214","id":"ap4bipri5vji"},"type":"Feature","geometry":null},{"properties":{"zipcode":"75904","id":"ap4biq53iefi"},"type":"Feature","geometry":null},{"properties":{"zipcode":"78552","id":"ap4bipu7y4y1"},"type":"Feature","geometry":null},{"properties":{"zipcode":"77018","id":"ap4biprfmgdc"},"type":"Feature","geometry":null},{"properties":{"zipcode":"76018","id":"ap4biq5l3m28"},"type":"Feature","geometry":null},{"properties":{"zipcode":"75087","id":"ap4bipsm768k"},"type":"Feature","geometry":null},{"properties":{"zipcode":"77014","id":"ap4biq5krh9m"},"type":"Feature","geometry":null},{"properties":{"zipcode":"76522","id":"ap4bipsduge0"},"type":"Feature","geometry":null},{"properties":{"zipcode":"77845","id":"ap4bipuqle2o"},"type":"Feature","geometry":null},{"properties":{"zipcode":"78212","id":"ap4bipshumwe"},"type":"Feature","geometry":null},{"properties":{"zipcode":"75042","id":"ap4bipwky8b7"},"type":"Feature","geometry":null},{"properties":{"zipcode":"75601","id":"ap4bipy943ug"},"type":"Feature","geometry":null},{"properties":{"zipcode":"78230","id":"ap4biq5eoukv"},"type":"Feature","geometry":null},{"properties":{"zipcode":"76092","id":"ap4bipra1xw7"},"type":"Feature","geometry":null},{"properties":{"zipcode":"78746","id":"ap4biprhwwc4"},"type":"Feature","geometry":null},{"properties":{"zipcode":"76137","id":"ap4biq4h6ax1"},"type":"Feature","geometry":null},{"properties":{"zipcode":"78041","id":"ap4bipzo0cwa"},"type":"Feature","geometry":null},{"properties":{"zipcode":"79605","id":"ap4biq0e3610"},"type":"Feature","geometry":null},{"properties":{"zipcode":"75182","id":"ap4bipr9v4v2"},"type":"Feature","geometry":null},{"properties":{"zipcode":"77414","id":"ap4bipz73fys"},"type":"Feature","geometry":null},{"properties":{"zipcode":"78041","id":"ap4biq07zrn4"},"type":"Feature","geometry":null},{"properties":{"zipcode":"77340","id":"ap4biq5j441g"},"type":"Feature","geometry":null},{"properties":{"zipcode":"77057","id":"ap4biq0y4605"},"type":"Feature","geometry":null},{"properties":{"zipcode":"76201","id":"ap4bipqgo4s8"},"type":"Feature","geometry":null},{"properties":{"zipcode":"79424","id":"ap4biprfmlz5"},"type":"Feature","geometry":null},{"properties":{"zipcode":"75062","id":"ap4bipuctu3p"},"type":"Feature","geometry":null},{"properties":{"zipcode":"78840","id":"ap4bipwwuvfs"},"type":"Feature","geometry":null},{"properties":{"zipcode":"75089","id":"ap4biptt2yyb"},"type":"Feature","geometry":null},{"properties":{"zipcode":"76244","id":"ap4bipqfeh4w"},"type":"Feature","geometry":null},{"properties":{"zipcode":"78238","id":"ap4bipv9mp2y"},"type":"Feature","geometry":null},{"properties":{"zipcode":"76006","id":"ap4bipszwb6n"},"type":"Feature","geometry":null},{"properties":{"zipcode":"76234","id":"ap4biq3d0epm"},"type":"Feature","geometry":null},{"properties":{"zipcode":"75077-2757","id":"ap4bipq53mre"},"type":"Feature","geometry":null},{"properties":{"zipcode":"76528","id":"ap4biptikcat"},"type":"Feature","geometry":null},{"properties":{"zipcode":"76021","id":"ap4biq4qxn5b"},"type":"Feature","geometry":null},{"properties":{"zipcode":"79902","id":"ap4biq6bkn8k"},"type":"Feature","geometry":null},{"properties":{"zipcode":"75228","id":"ap4biq3sbtcp"},"type":"Feature","geometry":null},{"properties":{"zipcode":"78382","id":"ap4bipsc9kfc"},"type":"Feature","geometry":null},{"properties":{"zipcode":"76063","id":"ap4bipz4fub0"},"type":"Feature","geometry":null},{"properties":{"zipcode":"76712","id":"ap4biq22vftn"},"type":"Feature","geometry":null},{"properties":{"zipcode":"78102","id":"ap4bipqagmy6"},"type":"Feature","geometry":null},{"properties":{"zipcode":"78070","id":"ap4biq4jrcg8"},"type":"Feature","geometry":null},{"properties":{"zipcode":"78218","id":"ap4biq40e3jt"},"type":"Feature","geometry":null},{"properties":{"zipcode":"75081","id":"ap4bipv9cqkk"},"type":"Feature","geometry":null},{"properties":{"zipcode":"76102","id":"ap4bipqo7ttw"},"type":"Feature","geometry":null},{"properties":{"zipcode":"76120","id":"ap4biq07o0p8"},"type":"Feature","geometry":null},{"properties":{"zipcode":"77904","id":"ap4biq4ps3z7"},"type":"Feature","geometry":null},{"properties":{"zipcode":"75243","id":"ap4bipy9se8a"},"type":"Feature","geometry":null},{"properties":{"zipcode":"78501","id":"ap4biptozo4w"},"type":"Feature","geometry":null},{"properties":{"zipcode":"76012","id":"ap4biq0rdtx1"},"type":"Feature","geometry":null},{"properties":{"zipcode":"79106","id":"ap4bipr5xfp4"},"type":"Feature","geometry":null},{"properties":{"zipcode":"78666","id":"ap4biq0wwxaj"},"type":"Feature","geometry":null},{"properties":{"zipcode":"76107","id":"ap4bipugdtnb"},"type":"Feature","geometry":null},{"properties":{"zipcode":"76063","id":"ap4biprqecqp"},"type":"Feature","geometry":null},{"properties":{"zipcode":"75069","id":"ap4biq3twemn"},"type":"Feature","geometry":null},{"properties":{"zipcode":"75081","id":"ap4bipt39p35"},"type":"Feature","geometry":null},{"properties":{"zipcode":"75081","id":"ap4biq2yd4z3"},"type":"Feature","geometry":null},{"properties":{"zipcode":"77027","id":"ap4biq3swyi1"},"type":"Feature","geometry":null},{"properties":{"zipcode":"78239","id":"ap4biq3uiu1m"},"type":"Feature","geometry":null},{"properties":{"zipcode":"79015","id":"ap4bipse1yy0"},"type":"Feature","geometry":null},{"properties":{"zipcode":"78114","id":"ap4biq3ogfb6"},"type":"Feature","geometry":null},{"properties":{"zipcode":"76102","id":"ap4biq2dd0la"},"type":"Feature","geometry":null},{"properties":{"zipcode":"75023","id":"ap4biq1ch773"},"type":"Feature","geometry":null},{"properties":{"zipcode":"76542","id":"ap4bipsq74pm"},"type":"Feature","geometry":null},{"properties":{"zipcode":"76501","id":"ap4bipsktg5k"},"type":"Feature","geometry":null},{"properties":{"zipcode":"75023","id":"ap4bipw0bs30"},"type":"Feature","geometry":null},{"properties":{"zipcode":"77375","id":"ap4bipz7jjhe"},"type":"Feature","geometry":null},{"properties":{"zipcode":"76667","id":"ap4biq1or514"},"type":"Feature","geometry":null},{"properties":{"zipcode":"76541","id":"ap4biq4ikoix"},"type":"Feature","geometry":null},{"properties":{"zipcode":"76504","id":"ap4bippzqvwi"},"type":"Feature","geometry":null},{"properties":{"zipcode":"78212","id":"ap4bipryam5x"},"type":"Feature","geometry":null},{"properties":{"zipcode":"75751","id":"ap4bipwt43jw"},"type":"Feature","geometry":null},{"properties":{"zipcode":"77346","id":"ap4bipwtna8s"},"type":"Feature","geometry":null},{"properties":{"zipcode":"76063","id":"ap4bipwfgs0h"},"type":"Feature","geometry":null},{"properties":{"zipcode":"78229","id":"ap4biq6eont0"},"type":"Feature","geometry":null},{"properties":{"zipcode":"78624","id":"ap4bipstpmom"},"type":"Feature","geometry":null},{"properties":{"zipcode":"76522","id":"ap4bipv6c329"},"type":"Feature","geometry":null},{"properties":{"zipcode":"75080","id":"ap4bipsi5w7v"},"type":"Feature","geometry":null},{"properties":{"zipcode":"75090","id":"ap4biq479gjx"},"type":"Feature","geometry":null},{"properties":{"zipcode":"76033","id":"ap4bipx8b5z7"},"type":"Feature","geometry":null},{"properties":{"zipcode":"76006","id":"ap4biq2i8mf4"},"type":"Feature","geometry":null},{"properties":{"zipcode":"79764","id":"ap4bipxoh8u9"},"type":"Feature","geometry":null},{"properties":{"zipcode":"77651","id":"ap4bipqfv857"},"type":"Feature","geometry":null},{"properties":{"zipcode":"75214","id":"ap4bipyrcd8b"},"type":"Feature","geometry":null},{"properties":{"zipcode":"76501","id":"ap4bips0j27n"},"type":"Feature","geometry":null},{"properties":{"zipcode":"79602","id":"ap4bipzmif7n"},"type":"Feature","geometry":null},{"properties":{"zipcode":"75069","id":"ap4biq17o1zc"},"type":"Feature","geometry":null},{"properties":{"zipcode":"78573","id":"ap4biq65e6hk"},"type":"Feature","geometry":null},{"properties":{"zipcode":"75001","id":"ap4biq0ajfzu"},"type":"Feature","geometry":null},{"properties":{"zipcode":"76201","id":"ap4biq5om8xs"},"type":"Feature","geometry":null},{"properties":{"zipcode":"76712","id":"ap4bipyn1uv2"},"type":"Feature","geometry":null},{"properties":{"zipcode":"79925","id":"ap4bipv7z9rk"},"type":"Feature","geometry":null},{"properties":{"zipcode":"77498","id":"ap4biq17d4hh"},"type":"Feature","geometry":null},{"properties":{"zipcode":"78155","id":"ap4biq4gnh3s"},"type":"Feature","geometry":null},{"properties":{"zipcode":"79706","id":"ap4bipsg0rql"},"type":"Feature","geometry":null},{"properties":{"zipcode":"75093","id":"ap4bipza4z1n"},"type":"Feature","geometry":null},{"properties":{"zipcode":"75057","id":"ap4biq1605p4"},"type":"Feature","geometry":null},{"properties":{"zipcode":"76548","id":"ap4biq1d4o0x"},"type":"Feature","geometry":null},{"properties":{"zipcode":"78209","id":"ap4bippznwno"},"type":"Feature","geometry":null},{"properties":{"zipcode":"77539","id":"ap4biq4bnuq3"},"type":"Feature","geometry":null},{"properties":{"zipcode":"75080","id":"ap4biq4trhgr"},"type":"Feature","geometry":null},{"properties":{"zipcode":"78226","id":"ap4biq50j9ns"},"type":"Feature","geometry":null},{"properties":{"zipcode":"78130","id":"ap4biptav9g1"},"type":"Feature","geometry":null},{"properties":{"zipcode":"77546","id":"ap4biq021ah5"},"type":"Feature","geometry":null},{"properties":{"zipcode":"76548","id":"ap4bipztyy2h"},"type":"Feature","geometry":null},{"properties":{"zipcode":"76548","id":"ap4biq3ljllb"},"type":"Feature","geometry":null},{"properties":{"zipcode":"76501","id":"ap4biq5xx2r3"},"type":"Feature","geometry":null},{"properties":{"zipcode":"78212","id":"ap4bipsvikyg"},"type":"Feature","geometry":null},{"properties":{"zipcode":"75234","id":"ap4biq4jc2su"},"type":"Feature","geometry":null},{"properties":{"zipcode":"76710","id":"ap4biq2bjc1q"},"type":"Feature","geometry":null},{"properties":{"zipcode":"76086","id":"ap4biprnwcta"},"type":"Feature","geometry":null},{"properties":{"zipcode":"77063","id":"ap4bipwttfht"},"type":"Feature","geometry":null},{"properties":{"zipcode":"75119","id":"ap4biptn7qkj"},"type":"Feature","geometry":null},{"properties":{"zipcode":"76401","id":"ap4bippzblkr"},"type":"Feature","geometry":null},{"properties":{"zipcode":"77511","id":"ap4biq533tsd"},"type":"Feature","geometry":null},{"properties":{"zipcode":"76542","id":"ap4biq0rw0ab"},"type":"Feature","geometry":null}],"is_temporal":false,"author":{"url":"","metadata":null,"contact_name":null,"contact_address":null,"source":null,"contact_phone":null},"source":"","pagination":{"sort":null,"start":0,"total":1012,"limit":1000000},"state":"parsed","tags":"","published":"2014-08-14T19:42:20-04:00","id":213005}