{"type":"FeatureCollection","data_type":"Dataset","url_type":null,"permissions":[{"permissions":{"download":true,"view":true},"group_id":"everyone"}],"classification":null,"title":"Area_2_10_2012","count":97,"stream_id":213011,"contributor":{"url":"http://geocommons.com/users/41497","name":"thebirdinthesky"},"data_attributes":null,"calculation_params":null,"icon_link":null,"link":"http://geocommons.com/overlays/213011.json","extent":[0.0,0.0,0.0,0.0],"geometry_types":null,"unique_name":null,"name":"Area_2_10_2012","feature_count":97,"description":"","next_feature":null,"is_raster":false,"short_classification":"Y","features":[{"properties":{"zipcode":"78660","id":"ap4bixpmyywh"},"type":"Feature","geometry":null},{"properties":{"zipcode":"78664","id":"ap4bixndvq1o"},"type":"Feature","geometry":null},{"properties":{"zipcode":"78640","id":"ap4bixlxr9se"},"type":"Feature","geometry":null},{"properties":{"zipcode":"78626","id":"ap4bixm9ttgi"},"type":"Feature","geometry":null},{"properties":{"zipcode":"78666","id":"ap4bixt4bkcx"},"type":"Feature","geometry":null},{"properties":{"zipcode":"78664","id":"ap4bixrhdnz2"},"type":"Feature","geometry":null},{"properties":{"zipcode":"78746","id":"ap4bixjf5el7"},"type":"Feature","geometry":null},{"properties":{"zipcode":"78666","id":"ap4bixmujox1"},"type":"Feature","geometry":null},{"properties":{"zipcode":"78621","id":"ap4bixvpeo7u"},"type":"Feature","geometry":null},{"properties":{"zipcode":"78628","id":"ap4bixnv9iwb"},"type":"Feature","geometry":null},{"properties":{"zipcode":"78660","id":"ap4bixmknabi"},"type":"Feature","geometry":null},{"properties":{"zipcode":"78681","id":"ap4bixr4aa3d"},"type":"Feature","geometry":null},{"properties":{"zipcode":"78660","id":"ap4bixpqdlod"},"type":"Feature","geometry":null},{"properties":{"zipcode":"78626","id":"ap4bixjzskfc"},"type":"Feature","geometry":null},{"properties":{"zipcode":"78628","id":"ap4bixti11bs"},"type":"Feature","geometry":null},{"properties":{"zipcode":"78666","id":"ap4bixm8b7nw"},"type":"Feature","geometry":null},{"properties":{"zipcode":"78641","id":"ap4bixxtrobf"},"type":"Feature","geometry":null},{"properties":{"zipcode":"78666","id":"ap4bixk4u5mn"},"type":"Feature","geometry":null},{"properties":{"zipcode":"78610","id":"ap4bixuqbizq"},"type":"Feature","geometry":null},{"properties":{"zipcode":"78666","id":"ap4bixwqaw9g"},"type":"Feature","geometry":null},{"properties":{"zipcode":"78666","id":"ap4bixx9zexd"},"type":"Feature","geometry":null},{"properties":{"zipcode":"78666","id":"ap4bixlfesm9"},"type":"Feature","geometry":null},{"properties":{"zipcode":"78654","id":"ap4bixoqes3d"},"type":"Feature","geometry":null},{"properties":{"zipcode":"78666","id":"ap4bixyrbua6"},"type":"Feature","geometry":null},{"properties":{"zipcode":"78628","id":"ap4bixkn9njt"},"type":"Feature","geometry":null},{"properties":{"zipcode":"78621","id":"ap4bixq1xxr5"},"type":"Feature","geometry":null},{"properties":{"zipcode":"78640","id":"ap4bixvo50lh"},"type":"Feature","geometry":null},{"properties":{"zipcode":"78666","id":"ap4bixkgb5fu"},"type":"Feature","geometry":null},{"properties":{"zipcode":"78602","id":"ap4bixv7bad4"},"type":"Feature","geometry":null},{"properties":{"zipcode":"78665","id":"ap4bixvfk8tm"},"type":"Feature","geometry":null},{"properties":{"zipcode":"78666","id":"ap4bixzf9uv6"},"type":"Feature","geometry":null},{"properties":{"zipcode":"78602","id":"ap4bixvy5c2a"},"type":"Feature","geometry":null},{"properties":{"zipcode":"78613","id":"ap4bixj5bi72"},"type":"Feature","geometry":null},{"properties":{"zipcode":"78654","id":"ap4bixyevdea"},"type":"Feature","geometry":null},{"properties":{"zipcode":"78610","id":"ap4bixyucysr"},"type":"Feature","geometry":null},{"properties":{"zipcode":"78664","id":"ap4bixkw1ncn"},"type":"Feature","geometry":null},{"properties":{"zipcode":"78628","id":"ap4bixyec61d"},"type":"Feature","geometry":null},{"properties":{"zipcode":"78654","id":"ap4bixv7iijc"},"type":"Feature","geometry":null},{"properties":{"zipcode":"78666","id":"ap4bixq9t7ui"},"type":"Feature","geometry":null},{"properties":{"zipcode":"78654","id":"ap4bixkynvyp"},"type":"Feature","geometry":null},{"properties":{"zipcode":"78681","id":"ap4bixkkjndz"},"type":"Feature","geometry":null},{"properties":{"zipcode":"78681","id":"ap4bixvf0441"},"type":"Feature","geometry":null},{"properties":{"zipcode":"78681","id":"ap4bixzceknn"},"type":"Feature","geometry":null},{"properties":{"zipcode":"78681","id":"ap4bixskyfg6"},"type":"Feature","geometry":null},{"properties":{"zipcode":"78660","id":"ap4bixtvsj7o"},"type":"Feature","geometry":null},{"properties":{"zipcode":"78628","id":"ap4bixx3mjfo"},"type":"Feature","geometry":null},{"properties":{"zipcode":"78666","id":"ap4bixsg3yjd"},"type":"Feature","geometry":null},{"properties":{"zipcode":"78626","id":"ap4bixmyrlmv"},"type":"Feature","geometry":null},{"properties":{"zipcode":"78757","id":"ap4bixxo03th"},"type":"Feature","geometry":null},{"properties":{"zipcode":"78664","id":"ap4bixkv8hvp"},"type":"Feature","geometry":null},{"properties":{"zipcode":"78640","id":"ap4bixo9gubw"},"type":"Feature","geometry":null},{"properties":{"zipcode":"78654","id":"ap4bixz3wrwt"},"type":"Feature","geometry":null},{"properties":{"zipcode":"78628","id":"ap4bixv4owb7"},"type":"Feature","geometry":null},{"properties":{"zipcode":"78628","id":"ap4bixlsrcc5"},"type":"Feature","geometry":null},{"properties":{"zipcode":"78626","id":"ap4bixze82pl"},"type":"Feature","geometry":null},{"properties":{"zipcode":"78660","id":"ap4bixsiolfk"},"type":"Feature","geometry":null},{"properties":{"zipcode":"78613","id":"ap4bixxp9hpm"},"type":"Feature","geometry":null},{"properties":{"zipcode":"78681","id":"ap4bixkpb4jr"},"type":"Feature","geometry":null},{"properties":{"zipcode":"78666","id":"ap4bixszdilg"},"type":"Feature","geometry":null},{"properties":{"zipcode":"78664","id":"ap4bixl7dv9n"},"type":"Feature","geometry":null},{"properties":{"zipcode":"78230","id":"ap4bixnlgjnr"},"type":"Feature","geometry":null},{"properties":{"zipcode":"78723","id":"ap4bixu3nodn"},"type":"Feature","geometry":null},{"properties":{"zipcode":"78666","id":"ap4bixpv3u1c"},"type":"Feature","geometry":null},{"properties":{"zipcode":"78627","id":"ap4bixtyijfe"},"type":"Feature","geometry":null},{"properties":{"zipcode":"76550","id":"ap4bixo92lvw"},"type":"Feature","geometry":null},{"properties":{"zipcode":"78681","id":"ap4bixw878ct"},"type":"Feature","geometry":null},{"properties":{"zipcode":"78626","id":"ap4bixlejmwc"},"type":"Feature","geometry":null},{"properties":{"zipcode":"78681","id":"ap4bixrqzn27"},"type":"Feature","geometry":null},{"properties":{"zipcode":"78613","id":"ap4bixs3u08o"},"type":"Feature","geometry":null},{"properties":{"zipcode":"78665","id":"ap4bixjiue5e"},"type":"Feature","geometry":null},{"properties":{"zipcode":"78664","id":"ap4bixmnpayx"},"type":"Feature","geometry":null},{"properties":{"zipcode":"78664","id":"ap4bixv2c1gb"},"type":"Feature","geometry":null},{"properties":{"zipcode":"78642","id":"ap4bixz7w2he"},"type":"Feature","geometry":null},{"properties":{"zipcode":"76502","id":"ap4bixr434y6"},"type":"Feature","geometry":null},{"properties":{"zipcode":"78660","id":"ap4bixou9f3d"},"type":"Feature","geometry":null},{"properties":{"zipcode":"78681","id":"ap4bixuu0zet"},"type":"Feature","geometry":null},{"properties":{"zipcode":"78654","id":"ap4bixuioz01"},"type":"Feature","geometry":null},{"properties":{"zipcode":"78666","id":"ap4bixvav4b8"},"type":"Feature","geometry":null},{"properties":{"zipcode":"78602","id":"ap4bixqct6yh"},"type":"Feature","geometry":null},{"properties":{"zipcode":"78957","id":"ap4bixxj74cv"},"type":"Feature","geometry":null},{"properties":{"zipcode":"78664","id":"ap4bixqd2tpu"},"type":"Feature","geometry":null},{"properties":{"zipcode":"78660","id":"ap4bixudwc5s"},"type":"Feature","geometry":null},{"properties":{"zipcode":"78666","id":"ap4bixz2nzpu"},"type":"Feature","geometry":null},{"properties":{"zipcode":"78666","id":"ap4bixpytaoc"},"type":"Feature","geometry":null},{"properties":{"zipcode":"78681","id":"ap4bixp3fn1c"},"type":"Feature","geometry":null},{"properties":{"zipcode":"76522","id":"ap4bixl6f1am"},"type":"Feature","geometry":null},{"properties":{"zipcode":"78602","id":"ap4bixlmukjf"},"type":"Feature","geometry":null},{"properties":{"zipcode":"78681","id":"ap4bixqtog5p"},"type":"Feature","geometry":null},{"properties":{"zipcode":"78628","id":"ap4bixlne9kw"},"type":"Feature","geometry":null},{"properties":{"zipcode":"78628","id":"ap4bixlbt0kb"},"type":"Feature","geometry":null},{"properties":{"zipcode":"78666","id":"ap4bixrb4fui"},"type":"Feature","geometry":null},{"properties":{"zipcode":"78664","id":"ap4bixt99t42"},"type":"Feature","geometry":null},{"properties":{"zipcode":"76502","id":"ap4bixuqicpj"},"type":"Feature","geometry":null},{"properties":{"zipcode":"78957","id":"ap4bixkmj591"},"type":"Feature","geometry":null},{"properties":{"zipcode":"78666","id":"ap4bixrc593u"},"type":"Feature","geometry":null},{"properties":{"zipcode":"78666","id":"ap4bixrshkvs"},"type":"Feature","geometry":null},{"properties":{"zipcode":"78612","id":"ap4bixkdpccf"},"type":"Feature","geometry":null}],"is_temporal":false,"author":{"url":"","metadata":null,"contact_name":null,"contact_address":null,"source":null,"contact_phone":null},"source":"","pagination":{"sort":null,"start":0,"total":97,"limit":1000000},"state":"parsed","tags":"","published":"2014-08-14T19:42:37-04:00","id":213011}