{"type":"FeatureCollection","data_type":"Dataset","url_type":null,"permissions":[{"permissions":{"download":true,"view":true},"group_id":"everyone"}],"classification":null,"title":"West_Coast_2_10_2012","count":191,"stream_id":213012,"contributor":{"url":"http://geocommons.com/users/41497","name":"thebirdinthesky"},"data_attributes":null,"calculation_params":null,"icon_link":null,"link":"http://geocommons.com/overlays/213012.json","extent":[0.0,0.0,0.0,0.0],"geometry_types":null,"unique_name":null,"name":"West_Coast_2_10_2012","feature_count":191,"description":"","next_feature":null,"is_raster":false,"short_classification":"Y","features":[{"properties":{"zipcode":"91316","id":"ap4bizjvay58"},"type":"Feature","geometry":null},{"properties":{"zipcode":"90266","id":"ap4bizqjezqk"},"type":"Feature","geometry":null},{"properties":{"zipcode":"98102","id":"ap4bizn4bkzc"},"type":"Feature","geometry":null},{"properties":{"zipcode":"94901-2143","id":"ap4bizfiiln2"},"type":"Feature","geometry":null},{"properties":{"zipcode":"94901","id":"ap4bizevmhha"},"type":"Feature","geometry":null},{"properties":{"zipcode":"98225-7816","id":"ap4bizq9qg59"},"type":"Feature","geometry":null},{"properties":{"zipcode":"94706","id":"ap4bizt6whks"},"type":"Feature","geometry":null},{"properties":{"zipcode":"95476","id":"ap4bizq7dmj8"},"type":"Feature","geometry":null},{"properties":{"zipcode":"95616","id":"ap4bizj9xxcx"},"type":"Feature","geometry":null},{"properties":{"zipcode":"96733","id":"ap4bizg7330s"},"type":"Feature","geometry":null},{"properties":{"zipcode":"94583","id":"ap4bizmaaaaz"},"type":"Feature","geometry":null},{"properties":{"zipcode":"95219","id":"ap4bizjm5iml"},"type":"Feature","geometry":null},{"properties":{"zipcode":"94010","id":"ap4bizhw7orn"},"type":"Feature","geometry":null},{"properties":{"zipcode":"91910","id":"ap4bizrqxa0z"},"type":"Feature","geometry":null},{"properties":{"zipcode":"91724","id":"ap4bize03lep"},"type":"Feature","geometry":null},{"properties":{"zipcode":"90212","id":"ap4bizs8abgq"},"type":"Feature","geometry":null},{"properties":{"zipcode":"94607","id":"ap4bizpm6fke"},"type":"Feature","geometry":null},{"properties":{"zipcode":"94598","id":"ap4bizrkgv20"},"type":"Feature","geometry":null},{"properties":{"zipcode":"90262","id":"ap4bizhis145"},"type":"Feature","geometry":null},{"properties":{"zipcode":"93727","id":"ap4bizgivf0q"},"type":"Feature","geometry":null},{"properties":{"zipcode":"93727","id":"ap4bizeptu88"},"type":"Feature","geometry":null},{"properties":{"zipcode":"93727","id":"ap4bizsfzkao"},"type":"Feature","geometry":null},{"properties":{"zipcode":"94102","id":"ap4bizssj0my"},"type":"Feature","geometry":null},{"properties":{"zipcode":"94070","id":"ap4bizlrs6nh"},"type":"Feature","geometry":null},{"properties":{"zipcode":"94044","id":"ap4biznspl4a"},"type":"Feature","geometry":null},{"properties":{"zipcode":"92116","id":"ap4bizohy4w7"},"type":"Feature","geometry":null},{"properties":{"zipcode":"94588","id":"ap4bizt2nyi1"},"type":"Feature","geometry":null},{"properties":{"zipcode":"94566","id":"ap4bizi95wvr"},"type":"Feature","geometry":null},{"properties":{"zipcode":"90069","id":"ap4bizo24vwk"},"type":"Feature","geometry":null},{"properties":{"zipcode":"95404","id":"ap4bizj872m5"},"type":"Feature","geometry":null},{"properties":{"zipcode":"94102","id":"ap4bizriru6b"},"type":"Feature","geometry":null},{"properties":{"zipcode":"97470","id":"ap4bizlhjl3p"},"type":"Feature","geometry":null},{"properties":{"zipcode":"95051","id":"ap4bizjvlw6y"},"type":"Feature","geometry":null},{"properties":{"zipcode":"92708","id":"ap4bizluepim"},"type":"Feature","geometry":null},{"properties":{"zipcode":"92705","id":"ap4bizpwouo9"},"type":"Feature","geometry":null},{"properties":{"zipcode":"92604","id":"ap4bizi6m6k2"},"type":"Feature","geometry":null},{"properties":{"zipcode":"93003","id":"ap4bize087cz"},"type":"Feature","geometry":null},{"properties":{"zipcode":"91208","id":"ap4bizj8jdfg"},"type":"Feature","geometry":null},{"properties":{"zipcode":"92584","id":"ap4bizj8r744"},"type":"Feature","geometry":null},{"properties":{"zipcode":"91321","id":"ap4bizlr8l6x"},"type":"Feature","geometry":null},{"properties":{"zipcode":"92626","id":"ap4biztppros"},"type":"Feature","geometry":null},{"properties":{"zipcode":"91320","id":"ap4bizo4rork"},"type":"Feature","geometry":null},{"properties":{"zipcode":"90505","id":"ap4bizqed9qn"},"type":"Feature","geometry":null},{"properties":{"zipcode":"95661","id":"ap4bizjtpufl"},"type":"Feature","geometry":null},{"properties":{"zipcode":"95354","id":"ap4bizl8bwhc"},"type":"Feature","geometry":null},{"properties":{"zipcode":"89502","id":"ap4bizso7z4a"},"type":"Feature","geometry":null},{"properties":{"zipcode":"95678","id":"ap4bizq4r9z3"},"type":"Feature","geometry":null},{"properties":{"zipcode":"89005","id":"ap4bizfxjvqw"},"type":"Feature","geometry":null},{"properties":{"zipcode":"89015","id":"ap4bizdn4mhk"},"type":"Feature","geometry":null},{"properties":{"zipcode":"89014","id":"ap4bizs3uqmg"},"type":"Feature","geometry":null},{"properties":{"zipcode":"91711","id":"ap4biziyyome"},"type":"Feature","geometry":null},{"properties":{"zipcode":"91711","id":"ap4bizny683h"},"type":"Feature","geometry":null},{"properties":{"zipcode":"94550","id":"ap4bizovd5t5"},"type":"Feature","geometry":null},{"properties":{"zipcode":"89052","id":"ap4bizmmofq9"},"type":"Feature","geometry":null},{"properties":{"zipcode":"89123","id":"ap4bizjtzaln"},"type":"Feature","geometry":null},{"properties":{"zipcode":"89052","id":"ap4bizsal4cs"},"type":"Feature","geometry":null},{"properties":{"zipcode":"89052","id":"ap4bizjhs6hl"},"type":"Feature","geometry":null},{"properties":{"zipcode":"92025","id":"ap4bizsjx4ll"},"type":"Feature","geometry":null},{"properties":{"zipcode":"94118","id":"ap4bizs47i4t"},"type":"Feature","geometry":null},{"properties":{"zipcode":"98248","id":"ap4biztndikt"},"type":"Feature","geometry":null},{"properties":{"zipcode":"99352","id":"ap4bizfnnw98"},"type":"Feature","geometry":null},{"properties":{"zipcode":"99352","id":"ap4bizo4xlek"},"type":"Feature","geometry":null},{"properties":{"zipcode":"95695","id":"ap4bizgssksx"},"type":"Feature","geometry":null},{"properties":{"zipcode":"97005","id":"ap4bizjut4h6"},"type":"Feature","geometry":null},{"properties":{"zipcode":"93561","id":"ap4bizf9upie"},"type":"Feature","geometry":null},{"properties":{"zipcode":"95503","id":"ap4biziiejcm"},"type":"Feature","geometry":null},{"properties":{"zipcode":"94606","id":"ap4bizjlyoyg"},"type":"Feature","geometry":null},{"properties":{"zipcode":"89119","id":"ap4bizsz892x"},"type":"Feature","geometry":null},{"properties":{"zipcode":"97205","id":"ap4bizsx0nfu"},"type":"Feature","geometry":null},{"properties":{"zipcode":"92103","id":"ap4bizqzv99y"},"type":"Feature","geometry":null},{"properties":{"zipcode":"99218","id":"ap4bizpvod40"},"type":"Feature","geometry":null},{"properties":{"zipcode":"95818","id":"ap4bizqhp91o"},"type":"Feature","geometry":null},{"properties":{"zipcode":"95354","id":"ap4bizsypxbz"},"type":"Feature","geometry":null},{"properties":{"zipcode":"95630","id":"ap4bizjn5p6w"},"type":"Feature","geometry":null},{"properties":{"zipcode":"95377","id":"ap4bizl581ny"},"type":"Feature","geometry":null},{"properties":{"zipcode":"89102","id":"ap4biziqipkb"},"type":"Feature","geometry":null},{"properties":{"zipcode":"93561","id":"ap4bizheey9j"},"type":"Feature","geometry":null},{"properties":{"zipcode":"92008","id":"ap4bizmchmr0"},"type":"Feature","geometry":null},{"properties":{"zipcode":"90601","id":"ap4bizdtwuq6"},"type":"Feature","geometry":null},{"properties":{"zipcode":"95356","id":"ap4bizt0lq8b"},"type":"Feature","geometry":null},{"properties":{"zipcode":"96701-5310","id":"ap4bizldzoun"},"type":"Feature","geometry":null},{"properties":{"zipcode":"97501","id":"ap4bizhoromj"},"type":"Feature","geometry":null},{"properties":{"zipcode":"97501","id":"ap4bizkvr1wv"},"type":"Feature","geometry":null},{"properties":{"zipcode":"90703","id":"ap4bizilvzfo"},"type":"Feature","geometry":null},{"properties":{"zipcode":"92866","id":"ap4bizle3n3e"},"type":"Feature","geometry":null},{"properties":{"zipcode":"97030","id":"ap4bizmcgfa0"},"type":"Feature","geometry":null},{"properties":{"zipcode":"95827","id":"ap4bizqe00dr"},"type":"Feature","geometry":null},{"properties":{"zipcode":"93036","id":"ap4bizgk03vh"},"type":"Feature","geometry":null},{"properties":{"zipcode":"97302-5000","id":"ap4biztouthy"},"type":"Feature","geometry":null},{"properties":{"zipcode":"95814","id":"ap4bizqxxvfw"},"type":"Feature","geometry":null},{"properties":{"zipcode":"95128","id":"ap4bizsfg97o"},"type":"Feature","geometry":null},{"properties":{"zipcode":"94704","id":"ap4bizsgibcl"},"type":"Feature","geometry":null},{"properties":{"zipcode":"94610","id":"ap4bizhh5nmh"},"type":"Feature","geometry":null},{"properties":{"zipcode":"98335","id":"ap4bizihwiqs"},"type":"Feature","geometry":null},{"properties":{"zipcode":"92253","id":"ap4bizeko9p2"},"type":"Feature","geometry":null},{"properties":{"zipcode":"92868","id":"ap4bize6flj6"},"type":"Feature","geometry":null},{"properties":{"zipcode":"91350","id":"ap4bizhaapxn"},"type":"Feature","geometry":null},{"properties":{"zipcode":"94611","id":"ap4bizduyv0e"},"type":"Feature","geometry":null},{"properties":{"zipcode":"95128","id":"ap4bizmwxwdu"},"type":"Feature","geometry":null},{"properties":{"zipcode":"92780-2941","id":"ap4biztes7ju"},"type":"Feature","geometry":null},{"properties":{"zipcode":"95816","id":"ap4bizhrhr9d"},"type":"Feature","geometry":null},{"properties":{"zipcode":"95816","id":"ap4bizg13s1u"},"type":"Feature","geometry":null},{"properties":{"zipcode":"94531","id":"ap4biznnfbwn"},"type":"Feature","geometry":null},{"properties":{"zipcode":"94523","id":"ap4bizjuh7wy"},"type":"Feature","geometry":null},{"properties":{"zipcode":"94523","id":"ap4bizofsj0k"},"type":"Feature","geometry":null},{"properties":{"zipcode":"94805","id":"ap4bizqruy62"},"type":"Feature","geometry":null},{"properties":{"zipcode":"92054","id":"ap4bizgn4njb"},"type":"Feature","geometry":null},{"properties":{"zipcode":"91942","id":"ap4bizt1pzid"},"type":"Feature","geometry":null},{"properties":{"zipcode":"98133","id":"ap4bizhcle9h"},"type":"Feature","geometry":null},{"properties":{"zipcode":"98104","id":"ap4biznz4jfj"},"type":"Feature","geometry":null},{"properties":{"zipcode":"98115","id":"ap4bizrbp284"},"type":"Feature","geometry":null},{"properties":{"zipcode":"98116","id":"ap4bizr9yb33"},"type":"Feature","geometry":null},{"properties":{"zipcode":"98104","id":"ap4bizkpn3zw"},"type":"Feature","geometry":null},{"properties":{"zipcode":"98020","id":"ap4bizkatml7"},"type":"Feature","geometry":null},{"properties":{"zipcode":"98072","id":"ap4bizrm20zw"},"type":"Feature","geometry":null},{"properties":{"zipcode":"98005","id":"ap4bizmq5sfi"},"type":"Feature","geometry":null},{"properties":{"zipcode":"98155","id":"ap4bizlh07bm"},"type":"Feature","geometry":null},{"properties":{"zipcode":"98201","id":"ap4bizntxod4"},"type":"Feature","geometry":null},{"properties":{"zipcode":"97031","id":"ap4bizhwnim1"},"type":"Feature","geometry":null},{"properties":{"zipcode":"98512","id":"ap4bizdoqpx3"},"type":"Feature","geometry":null},{"properties":{"zipcode":"98506","id":"ap4bizmoi3k0"},"type":"Feature","geometry":null},{"properties":{"zipcode":"98003","id":"ap4bizjgtjxh"},"type":"Feature","geometry":null},{"properties":{"zipcode":"98402","id":"ap4bizd9cgmy"},"type":"Feature","geometry":null},{"properties":{"zipcode":"98407","id":"ap4biztay7mo"},"type":"Feature","geometry":null},{"properties":{"zipcode":"98003","id":"ap4biztoe1z2"},"type":"Feature","geometry":null},{"properties":{"zipcode":"98512","id":"ap4bizkhy3gv"},"type":"Feature","geometry":null},{"properties":{"zipcode":"98383","id":"ap4bizdcjun0"},"type":"Feature","geometry":null},{"properties":{"zipcode":"98366","id":"ap4bizlbtg0e"},"type":"Feature","geometry":null},{"properties":{"zipcode":"98166","id":"ap4bizodvyyz"},"type":"Feature","geometry":null},{"properties":{"zipcode":"98201","id":"ap4bizmvvv5f"},"type":"Feature","geometry":null},{"properties":{"zipcode":"98501","id":"ap4bizl4ac36"},"type":"Feature","geometry":null},{"properties":{"zipcode":"98107","id":"ap4bizovz4vk"},"type":"Feature","geometry":null},{"properties":{"zipcode":"98188","id":"ap4bizksotx6"},"type":"Feature","geometry":null},{"properties":{"zipcode":"98663","id":"ap4bizoukkme"},"type":"Feature","geometry":null},{"properties":{"zipcode":"98661","id":"ap4bizonc4bc"},"type":"Feature","geometry":null},{"properties":{"zipcode":"98663","id":"ap4biznad2g3"},"type":"Feature","geometry":null},{"properties":{"zipcode":"98684","id":"ap4bizmjh0bo"},"type":"Feature","geometry":null},{"properties":{"zipcode":"98660","id":"ap4bizj2qji8"},"type":"Feature","geometry":null},{"properties":{"zipcode":"98038","id":"ap4bizk7n9tt"},"type":"Feature","geometry":null},{"properties":{"zipcode":"98003","id":"ap4bizhbypon"},"type":"Feature","geometry":null},{"properties":{"zipcode":"98038","id":"ap4bizeuaivs"},"type":"Feature","geometry":null},{"properties":{"zipcode":"98112","id":"ap4bizdj2ejj"},"type":"Feature","geometry":null},{"properties":{"zipcode":"98011","id":"ap4bizmq9ree"},"type":"Feature","geometry":null},{"properties":{"zipcode":"98661","id":"ap4bizgb5t25"},"type":"Feature","geometry":null},{"properties":{"zipcode":"98661","id":"ap4bizoniusa"},"type":"Feature","geometry":null},{"properties":{"zipcode":"98258","id":"ap4bizg1cqiy"},"type":"Feature","geometry":null},{"properties":{"zipcode":"94115","id":"ap4bizpxs57q"},"type":"Feature","geometry":null},{"properties":{"zipcode":"91910","id":"ap4bizqxbi3e"},"type":"Feature","geometry":null},{"properties":{"zipcode":"97470","id":"ap4bizgy17co"},"type":"Feature","geometry":null},{"properties":{"zipcode":"97470","id":"ap4bizfp3bw2"},"type":"Feature","geometry":null},{"properties":{"zipcode":"97471","id":"ap4bizgdod49"},"type":"Feature","geometry":null},{"properties":{"zipcode":"97701","id":"ap4bizdz40bo"},"type":"Feature","geometry":null},{"properties":{"zipcode":"97701","id":"ap4bizixxbrh"},"type":"Feature","geometry":null},{"properties":{"zipcode":"98362","id":"ap4bizdshbqb"},"type":"Feature","geometry":null},{"properties":{"zipcode":"97401","id":"ap4bizhr8smv"},"type":"Feature","geometry":null},{"properties":{"zipcode":"97401","id":"ap4bizp1usb1"},"type":"Feature","geometry":null},{"properties":{"zipcode":"97401","id":"ap4bizowc2pc"},"type":"Feature","geometry":null},{"properties":{"zipcode":"97470","id":"ap4bizq9hwbi"},"type":"Feature","geometry":null},{"properties":{"zipcode":"98908","id":"ap4biznb7gcq"},"type":"Feature","geometry":null},{"properties":{"zipcode":"98104","id":"ap4bizmm3lm0"},"type":"Feature","geometry":null},{"properties":{"zipcode":"91942","id":"ap4bizg46uc5"},"type":"Feature","geometry":null},{"properties":{"zipcode":"91767","id":"ap4bizrdrqrf"},"type":"Feature","geometry":null},{"properties":{"zipcode":"99503","id":"ap4bize8d8og"},"type":"Feature","geometry":null},{"properties":{"zipcode":"90025","id":"ap4bizsbyiqs"},"type":"Feature","geometry":null},{"properties":{"zipcode":"98225","id":"ap4bizgqg5m2"},"type":"Feature","geometry":null},{"properties":{"zipcode":"98226","id":"ap4bizobt9uu"},"type":"Feature","geometry":null},{"properties":{"zipcode":"91730","id":"ap4bizrbnx44"},"type":"Feature","geometry":null},{"properties":{"zipcode":"94118","id":"ap4bizgby3hl"},"type":"Feature","geometry":null},{"properties":{"zipcode":"92653","id":"ap4bizq4aoqs"},"type":"Feature","geometry":null},{"properties":{"zipcode":"89145","id":"ap4bizsc2o8a"},"type":"Feature","geometry":null},{"properties":{"zipcode":"93101","id":"ap4bizk5um4k"},"type":"Feature","geometry":null},{"properties":{"zipcode":"92108","id":"ap4bizpiv5zd"},"type":"Feature","geometry":null},{"properties":{"zipcode":"98115","id":"ap4bizqw5lzq"},"type":"Feature","geometry":null},{"properties":{"zipcode":"95126","id":"ap4bizmzwj4e"},"type":"Feature","geometry":null},{"properties":{"zipcode":"92612","id":"ap4bizqt6ucs"},"type":"Feature","geometry":null},{"properties":{"zipcode":"98532","id":"ap4bizldrnyc"},"type":"Feature","geometry":null},{"properties":{"zipcode":"95688","id":"ap4biznmyjoi"},"type":"Feature","geometry":null},{"properties":{"zipcode":"98105","id":"ap4bizrjj4qr"},"type":"Feature","geometry":null},{"properties":{"zipcode":"95661","id":"ap4bizme10nv"},"type":"Feature","geometry":null},{"properties":{"zipcode":"94558","id":"ap4bizq4wl0d"},"type":"Feature","geometry":null},{"properties":{"zipcode":"925915211","id":"ap4bizk17fu5"},"type":"Feature","geometry":null},{"properties":{"zipcode":"98290","id":"ap4bizp47sln"},"type":"Feature","geometry":null},{"properties":{"zipcode":"97214","id":"ap4bizleaetw"},"type":"Feature","geometry":null},{"properties":{"zipcode":"99218","id":"ap4biziw5ziq"},"type":"Feature","geometry":null},{"properties":{"zipcode":"91711","id":"ap4bizrs4i48"},"type":"Feature","geometry":null},{"properties":{"zipcode":"91730","id":"ap4bizruqip3"},"type":"Feature","geometry":null},{"properties":{"zipcode":"92656","id":"ap4bizqy1quv"},"type":"Feature","geometry":null},{"properties":{"zipcode":"92116","id":"ap4bizepjcbm"},"type":"Feature","geometry":null},{"properties":{"zipcode":"91320","id":"ap4bizt8qbd5"},"type":"Feature","geometry":null},{"properties":{"zipcode":"91364","id":"ap4bizgqf8c9"},"type":"Feature","geometry":null},{"properties":{"zipcode":"92656","id":"ap4bizlow7oa"},"type":"Feature","geometry":null}],"is_temporal":false,"author":{"url":"","metadata":null,"contact_name":null,"contact_address":null,"source":null,"contact_phone":null},"source":"","pagination":{"sort":null,"start":0,"total":191,"limit":1000000},"state":"parsed","tags":"","published":"2014-08-14T19:42:41-04:00","id":213012}