{"type":"FeatureCollection","data_type":"Dataset","url_type":null,"permissions":[{"permissions":{"download":true,"view":true},"group_id":"everyone"}],"classification":null,"title":"Texas_2_10_2012","count":1012,"stream_id":213013,"contributor":{"url":"http://geocommons.com/users/41497","name":"thebirdinthesky"},"data_attributes":null,"calculation_params":null,"icon_link":null,"link":"http://geocommons.com/overlays/213013.json","extent":[0.0,0.0,0.0,0.0],"geometry_types":null,"unique_name":null,"name":"Texas_2_10_2012","feature_count":1012,"description":"","next_feature":null,"is_raster":false,"short_classification":"Y","features":[{"properties":{"zipcode":"79106","id":"ap4bj0xvegri"},"type":"Feature","geometry":null},{"properties":{"zipcode":"75110","id":"ap4bj0xdlfa1"},"type":"Feature","geometry":null},{"properties":{"zipcode":"75230","id":"ap4bj0sgqt70"},"type":"Feature","geometry":null},{"properties":{"zipcode":"78550","id":"ap4bj0wj1sun"},"type":"Feature","geometry":null},{"properties":{"zipcode":"78411","id":"ap4bj16mqxsp"},"type":"Feature","geometry":null},{"properties":{"zipcode":"75904","id":"ap4bj136glf8"},"type":"Feature","geometry":null},{"properties":{"zipcode":"75604","id":"ap4bj175f2f5"},"type":"Feature","geometry":null},{"properties":{"zipcode":"77401","id":"ap4bj12wlm6z"},"type":"Feature","geometry":null},{"properties":{"zipcode":"76107","id":"ap4bj15nw3ji"},"type":"Feature","geometry":null},{"properties":{"zipcode":"77573","id":"ap4bj123fbrs"},"type":"Feature","geometry":null},{"properties":{"zipcode":"78041","id":"ap4bj14ykdji"},"type":"Feature","geometry":null},{"properties":{"zipcode":"76710","id":"ap4bj0v1tx6d"},"type":"Feature","geometry":null},{"properties":{"zipcode":"77068","id":"ap4bj0ux1v5y"},"type":"Feature","geometry":null},{"properties":{"zipcode":"77006","id":"ap4bj0to9yvw"},"type":"Feature","geometry":null},{"properties":{"zipcode":"77005","id":"ap4bj160ti96"},"type":"Feature","geometry":null},{"properties":{"zipcode":"77845","id":"ap4bj0zy57dq"},"type":"Feature","geometry":null},{"properties":{"zipcode":"77840","id":"ap4bj0xzij2r"},"type":"Feature","geometry":null},{"properties":{"zipcode":"76308","id":"ap4bj0s1bj2s"},"type":"Feature","geometry":null},{"properties":{"zipcode":"78212","id":"ap4bj0yh7ods"},"type":"Feature","geometry":null},{"properties":{"zipcode":"78209","id":"ap4bj0wu59a9"},"type":"Feature","geometry":null},{"properties":{"zipcode":"76108","id":"ap4bj10ztl98"},"type":"Feature","geometry":null},{"properties":{"zipcode":"77058","id":"ap4bj14q8a05"},"type":"Feature","geometry":null},{"properties":{"zipcode":"77590","id":"ap4bj156mzz5"},"type":"Feature","geometry":null},{"properties":{"zipcode":"75766","id":"ap4bj15fe17k"},"type":"Feature","geometry":null},{"properties":{"zipcode":"77074","id":"ap4bj0sfqajl"},"type":"Feature","geometry":null},{"properties":{"zipcode":"76424","id":"ap4bj12h88hr"},"type":"Feature","geometry":null},{"properties":{"zipcode":"75703","id":"ap4bj0z6be2x"},"type":"Feature","geometry":null},{"properties":{"zipcode":"79602","id":"ap4bj0wn3nv2"},"type":"Feature","geometry":null},{"properties":{"zipcode":"77477","id":"ap4bj0slqn9y"},"type":"Feature","geometry":null},{"properties":{"zipcode":"75208","id":"ap4bj16tkk16"},"type":"Feature","geometry":null},{"properties":{"zipcode":"75483","id":"ap4bj0var55k"},"type":"Feature","geometry":null},{"properties":{"zipcode":"77340","id":"ap4bj0xqel5x"},"type":"Feature","geometry":null},{"properties":{"zipcode":"79106","id":"ap4bj0r4iv0z"},"type":"Feature","geometry":null},{"properties":{"zipcode":"75503","id":"ap4bj0x84sny"},"type":"Feature","geometry":null},{"properties":{"zipcode":"76102","id":"ap4bj0vs6h0p"},"type":"Feature","geometry":null},{"properties":{"zipcode":"76201","id":"ap4bj0rsfmdu"},"type":"Feature","geometry":null},{"properties":{"zipcode":"75904","id":"ap4bj0x0l8y3"},"type":"Feature","geometry":null},{"properties":{"zipcode":"78228","id":"ap4bj0uxcxtc"},"type":"Feature","geometry":null},{"properties":{"zipcode":"78209","id":"ap4bj14jvb0d"},"type":"Feature","geometry":null},{"properties":{"zipcode":"76033","id":"ap4bj0z2o649"},"type":"Feature","geometry":null},{"properties":{"zipcode":"78602","id":"ap4bj11dz54q"},"type":"Feature","geometry":null},{"properties":{"zipcode":"78411","id":"ap4bj117dxfm"},"type":"Feature","geometry":null},{"properties":{"zipcode":"75230","id":"ap4bj14gx3b8"},"type":"Feature","geometry":null},{"properties":{"zipcode":"75604","id":"ap4bj0x6wz6l"},"type":"Feature","geometry":null},{"properties":{"zipcode":"75904","id":"ap4bj145hp23"},"type":"Feature","geometry":null},{"properties":{"zipcode":"79762","id":"ap4bj0vw1yyb"},"type":"Feature","geometry":null},{"properties":{"zipcode":"75208","id":"ap4bj15udhnf"},"type":"Feature","geometry":null},{"properties":{"zipcode":"75951-3510","id":"ap4bj13a3cwo"},"type":"Feature","geometry":null},{"properties":{"zipcode":"75208","id":"ap4bj0yimnix"},"type":"Feature","geometry":null},{"properties":{"zipcode":"75087-7321","id":"ap4bj15q1hsr"},"type":"Feature","geometry":null},{"properties":{"zipcode":"79106","id":"ap4bj12s7enk"},"type":"Feature","geometry":null},{"properties":{"zipcode":"78130","id":"ap4bj11rijll"},"type":"Feature","geometry":null},{"properties":{"zipcode":"77074","id":"ap4bj0yto2mw"},"type":"Feature","geometry":null},{"properties":{"zipcode":"77381","id":"ap4bj0vopwhc"},"type":"Feature","geometry":null},{"properties":{"zipcode":"79411","id":"ap4bj16minie"},"type":"Feature","geometry":null},{"properties":{"zipcode":"78840","id":"ap4bj12ze6ll"},"type":"Feature","geometry":null},{"properties":{"zipcode":"75803","id":"ap4bj0sk0ja4"},"type":"Feature","geometry":null},{"properties":{"zipcode":"78230","id":"ap4bj0rqav4z"},"type":"Feature","geometry":null},{"properties":{"zipcode":"76901","id":"ap4bj0xqfu1f"},"type":"Feature","geometry":null},{"properties":{"zipcode":"79904","id":"ap4bj16b18a7"},"type":"Feature","geometry":null},{"properties":{"zipcode":"75116","id":"ap4bj0wy0sdd"},"type":"Feature","geometry":null},{"properties":{"zipcode":"75110","id":"ap4bj10c3nse"},"type":"Feature","geometry":null},{"properties":{"zipcode":"78028","id":"ap4bj11sehp7"},"type":"Feature","geometry":null},{"properties":{"zipcode":"79705","id":"ap4bj0v1x3cn"},"type":"Feature","geometry":null},{"properties":{"zipcode":"79927","id":"ap4bj0yakmx5"},"type":"Feature","geometry":null},{"properties":{"zipcode":"78501","id":"ap4bj12zd1r2"},"type":"Feature","geometry":null},{"properties":{"zipcode":"75963","id":"ap4bj12vnh77"},"type":"Feature","geometry":null},{"properties":{"zipcode":"75238","id":"ap4bj13a85me"},"type":"Feature","geometry":null},{"properties":{"zipcode":"79903","id":"ap4bj125geyg"},"type":"Feature","geometry":null},{"properties":{"zipcode":"77027","id":"ap4bj140cthc"},"type":"Feature","geometry":null},{"properties":{"zipcode":"79159-0660","id":"ap4bj0usjxvw"},"type":"Feature","geometry":null},{"properties":{"zipcode":"77845","id":"ap4bj10wrrve"},"type":"Feature","geometry":null},{"properties":{"zipcode":"75503","id":"ap4bj17876zb"},"type":"Feature","geometry":null},{"properties":{"zipcode":"78064","id":"ap4bj102ubio"},"type":"Feature","geometry":null},{"properties":{"zipcode":"79424","id":"ap4bj163dq0k"},"type":"Feature","geometry":null},{"properties":{"zipcode":"75835","id":"ap4bj0tpdpqz"},"type":"Feature","geometry":null},{"properties":{"zipcode":"75462","id":"ap4bj16drgeu"},"type":"Feature","geometry":null},{"properties":{"zipcode":"76048","id":"ap4bj14a6zsh"},"type":"Feature","geometry":null},{"properties":{"zipcode":"75225","id":"ap4bj0qxuuc5"},"type":"Feature","geometry":null},{"properties":{"zipcode":"79912","id":"ap4bj0qxl5od"},"type":"Feature","geometry":null},{"properties":{"zipcode":"75206","id":"ap4bj118n7z2"},"type":"Feature","geometry":null},{"properties":{"zipcode":"76543","id":"ap4bj0txgxx4"},"type":"Feature","geometry":null},{"properties":{"zipcode":"77057","id":"ap4bj0v9nsha"},"type":"Feature","geometry":null},{"properties":{"zipcode":"75243","id":"ap4bj168whkz"},"type":"Feature","geometry":null},{"properties":{"zipcode":"77057","id":"ap4bj14n3iid"},"type":"Feature","geometry":null},{"properties":{"zipcode":"76107","id":"ap4bj12s11vg"},"type":"Feature","geometry":null},{"properties":{"zipcode":"76102","id":"ap4bj0z86wfv"},"type":"Feature","geometry":null},{"properties":{"zipcode":"77339","id":"ap4bj0tepl8e"},"type":"Feature","geometry":null},{"properties":{"zipcode":"78413","id":"ap4bj0ubr26q"},"type":"Feature","geometry":null},{"properties":{"zipcode":"76801","id":"ap4bj16hajby"},"type":"Feature","geometry":null},{"properties":{"zipcode":"76450","id":"ap4bj17b2gsc"},"type":"Feature","geometry":null},{"properties":{"zipcode":"76801","id":"ap4bj0zdtwsq"},"type":"Feature","geometry":null},{"properties":{"zipcode":"76522","id":"ap4bj0wk62zq"},"type":"Feature","geometry":null},{"properties":{"zipcode":"75150","id":"ap4bj0xuvs4x"},"type":"Feature","geometry":null},{"properties":{"zipcode":"76504","id":"ap4bj11huq33"},"type":"Feature","geometry":null},{"properties":{"zipcode":"77515","id":"ap4bj12s0f81"},"type":"Feature","geometry":null},{"properties":{"zipcode":"76384","id":"ap4bj0yxgq36"},"type":"Feature","geometry":null},{"properties":{"zipcode":"77706","id":"ap4bj16uym24"},"type":"Feature","geometry":null},{"properties":{"zipcode":"76904","id":"ap4bj14qxxcm"},"type":"Feature","geometry":null},{"properties":{"zipcode":"77074","id":"ap4bj14xuxkm"},"type":"Feature","geometry":null},{"properties":{"zipcode":"78213","id":"ap4bj11xpzs4"},"type":"Feature","geometry":null},{"properties":{"zipcode":"78228","id":"ap4bj0xq6y9o"},"type":"Feature","geometry":null},{"properties":{"zipcode":"76107","id":"ap4bj0sm4e9v"},"type":"Feature","geometry":null},{"properties":{"zipcode":"79602","id":"ap4bj15goghe"},"type":"Feature","geometry":null},{"properties":{"zipcode":"78229","id":"ap4bj11f732c"},"type":"Feature","geometry":null},{"properties":{"zipcode":"78401","id":"ap4bj12gwzrj"},"type":"Feature","geometry":null},{"properties":{"zipcode":"76107","id":"ap4bj142jd11"},"type":"Feature","geometry":null},{"properties":{"zipcode":"78229","id":"ap4bj0w223xk"},"type":"Feature","geometry":null},{"properties":{"zipcode":"75219","id":"ap4bj0z82d4i"},"type":"Feature","geometry":null},{"properties":{"zipcode":"75230","id":"ap4bj167r3k1"},"type":"Feature","geometry":null},{"properties":{"zipcode":"75230","id":"ap4bj16hdfiz"},"type":"Feature","geometry":null},{"properties":{"zipcode":"75219","id":"ap4bj0xwg8j7"},"type":"Feature","geometry":null},{"properties":{"zipcode":"76107","id":"ap4bj0xhlg78"},"type":"Feature","geometry":null},{"properties":{"zipcode":"77058","id":"ap4bj159y22b"},"type":"Feature","geometry":null},{"properties":{"zipcode":"75243","id":"ap4bj0ugwk2c"},"type":"Feature","geometry":null},{"properties":{"zipcode":"75240","id":"ap4bj0zsrq8a"},"type":"Feature","geometry":null},{"properties":{"zipcode":"77098","id":"ap4bj0sijjim"},"type":"Feature","geometry":null},{"properties":{"zipcode":"77058","id":"ap4bj110zvsv"},"type":"Feature","geometry":null},{"properties":{"zipcode":"77074","id":"ap4bj0x6tpir"},"type":"Feature","geometry":null},{"properties":{"zipcode":"76107","id":"ap4bj149v8xj"},"type":"Feature","geometry":null},{"properties":{"zipcode":"77024","id":"ap4bj0rw5a03"},"type":"Feature","geometry":null},{"properties":{"zipcode":"75160","id":"ap4bj11y3kq7"},"type":"Feature","geometry":null},{"properties":{"zipcode":"75081","id":"ap4bj12aj36f"},"type":"Feature","geometry":null},{"properties":{"zipcode":"76201","id":"ap4bj0y8jp1a"},"type":"Feature","geometry":null},{"properties":{"zipcode":"78205","id":"ap4bj14vn4s7"},"type":"Feature","geometry":null},{"properties":{"zipcode":"78212","id":"ap4bj11c6c5i"},"type":"Feature","geometry":null},{"properties":{"zipcode":"76301","id":"ap4bj0xbixb0"},"type":"Feature","geometry":null},{"properties":{"zipcode":"76701","id":"ap4bj0tikaxh"},"type":"Feature","geometry":null},{"properties":{"zipcode":"77477","id":"ap4bj14tw1vq"},"type":"Feature","geometry":null},{"properties":{"zipcode":"75081","id":"ap4bj0z4x5qj"},"type":"Feature","geometry":null},{"properties":{"zipcode":"77008","id":"ap4bj0t928y6"},"type":"Feature","geometry":null},{"properties":{"zipcode":"78213","id":"ap4bj0t936i2"},"type":"Feature","geometry":null},{"properties":{"zipcode":"78758","id":"ap4bj0t4i3yi"},"type":"Feature","geometry":null},{"properties":{"zipcode":"75142","id":"ap4bj0xlvo0x"},"type":"Feature","geometry":null},{"properties":{"zipcode":"79761","id":"ap4bj11snbhz"},"type":"Feature","geometry":null},{"properties":{"zipcode":"78504","id":"ap4bj0wigpk9"},"type":"Feature","geometry":null},{"properties":{"zipcode":"77058","id":"ap4bj0xgr1hm"},"type":"Feature","geometry":null},{"properties":{"zipcode":"76201","id":"ap4bj11qw0t7"},"type":"Feature","geometry":null},{"properties":{"zipcode":"78102","id":"ap4bj0yxi36s"},"type":"Feature","geometry":null},{"properties":{"zipcode":"79761","id":"ap4bj12s4jep"},"type":"Feature","geometry":null},{"properties":{"zipcode":"76240","id":"ap4bj0yz94bw"},"type":"Feature","geometry":null},{"properties":{"zipcode":"77054","id":"ap4bj0rosyt0"},"type":"Feature","geometry":null},{"properties":{"zipcode":"77702","id":"ap4bj0zgcd1w"},"type":"Feature","geometry":null},{"properties":{"zipcode":"76201","id":"ap4bj15zo8tx"},"type":"Feature","geometry":null},{"properties":{"zipcode":"75686","id":"ap4bj0xwbj2g"},"type":"Feature","geometry":null},{"properties":{"zipcode":"76201","id":"ap4bj0y4guf7"},"type":"Feature","geometry":null},{"properties":{"zipcode":"76201","id":"ap4bj0vp686j"},"type":"Feature","geometry":null},{"properties":{"zipcode":"76208","id":"ap4bj0wot2kb"},"type":"Feature","geometry":null},{"properties":{"zipcode":"77566","id":"ap4bj138ogl7"},"type":"Feature","geometry":null},{"properties":{"zipcode":"79902","id":"ap4bj1686d6a"},"type":"Feature","geometry":null},{"properties":{"zipcode":"77005","id":"ap4bj131088d"},"type":"Feature","geometry":null},{"properties":{"zipcode":"77079","id":"ap4bj14es685"},"type":"Feature","geometry":null},{"properties":{"zipcode":"77025","id":"ap4bj0s1ru5z"},"type":"Feature","geometry":null},{"properties":{"zipcode":"79720","id":"ap4bj0v4j3vt"},"type":"Feature","geometry":null},{"properties":{"zipcode":"77058","id":"ap4bj0tehtpa"},"type":"Feature","geometry":null},{"properties":{"zipcode":"77058","id":"ap4bj14lzzwj"},"type":"Feature","geometry":null},{"properties":{"zipcode":"77058","id":"ap4bj0ugepsk"},"type":"Feature","geometry":null},{"properties":{"zipcode":"77058","id":"ap4bj10ym77i"},"type":"Feature","geometry":null},{"properties":{"zipcode":"77840","id":"ap4bj131g4mi"},"type":"Feature","geometry":null},{"properties":{"zipcode":"78934","id":"ap4bj0sdudg1"},"type":"Feature","geometry":null},{"properties":{"zipcode":"79601","id":"ap4bj12yobbo"},"type":"Feature","geometry":null},{"properties":{"zipcode":"79606","id":"ap4bj0sazvgu"},"type":"Feature","geometry":null},{"properties":{"zipcode":"79601","id":"ap4bj164w3vc"},"type":"Feature","geometry":null},{"properties":{"zipcode":"79601","id":"ap4bj15o6vjz"},"type":"Feature","geometry":null},{"properties":{"zipcode":"77701","id":"ap4bj0qtxpti"},"type":"Feature","geometry":null},{"properties":{"zipcode":"79070","id":"ap4bj0zc4p7m"},"type":"Feature","geometry":null},{"properties":{"zipcode":"76710","id":"ap4bj0x3ln49"},"type":"Feature","geometry":null},{"properties":{"zipcode":"78213","id":"ap4bj0v4to7l"},"type":"Feature","geometry":null},{"properties":{"zipcode":"75081","id":"ap4bj0sosq1x"},"type":"Feature","geometry":null},{"properties":{"zipcode":"76201","id":"ap4bj10saspt"},"type":"Feature","geometry":null},{"properties":{"zipcode":"79106","id":"ap4bj15ypmkr"},"type":"Feature","geometry":null},{"properties":{"zipcode":"76450","id":"ap4bj0rd26g3"},"type":"Feature","geometry":null},{"properties":{"zipcode":"78028","id":"ap4bj0v41m6r"},"type":"Feature","geometry":null},{"properties":{"zipcode":"79602","id":"ap4bj0v0hh6y"},"type":"Feature","geometry":null},{"properties":{"zipcode":"78840","id":"ap4bj0rldhqi"},"type":"Feature","geometry":null},{"properties":{"zipcode":"75238","id":"ap4bj12faryg"},"type":"Feature","geometry":null},{"properties":{"zipcode":"75243","id":"ap4bj125zouq"},"type":"Feature","geometry":null},{"properties":{"zipcode":"75080","id":"ap4bj0wv58py"},"type":"Feature","geometry":null},{"properties":{"zipcode":"76180","id":"ap4bj0wvf1g2"},"type":"Feature","geometry":null},{"properties":{"zipcode":"77801","id":"ap4bj111o6ge"},"type":"Feature","geometry":null},{"properties":{"zipcode":"77801","id":"ap4bj12yvgbc"},"type":"Feature","geometry":null},{"properties":{"zipcode":"75243","id":"ap4bj0ze8ztd"},"type":"Feature","geometry":null},{"properties":{"zipcode":"75494","id":"ap4bj12uq18v"},"type":"Feature","geometry":null},{"properties":{"zipcode":"79601","id":"ap4bj12w86i4"},"type":"Feature","geometry":null},{"properties":{"zipcode":"76012","id":"ap4bj13s16mv"},"type":"Feature","geometry":null},{"properties":{"zipcode":"76107","id":"ap4bj12gf8gw"},"type":"Feature","geometry":null},{"properties":{"zipcode":"76107","id":"ap4bj0vmik0x"},"type":"Feature","geometry":null},{"properties":{"zipcode":"76016","id":"ap4bj0sh3wy0"},"type":"Feature","geometry":null},{"properties":{"zipcode":"76107","id":"ap4bj11kzcy7"},"type":"Feature","geometry":null},{"properties":{"zipcode":"76107","id":"ap4bj0z49il7"},"type":"Feature","geometry":null},{"properties":{"zipcode":"75703","id":"ap4bj0yo630k"},"type":"Feature","geometry":null},{"properties":{"zipcode":"76120","id":"ap4bj0yjocif"},"type":"Feature","geometry":null},{"properties":{"zipcode":"76132","id":"ap4bj0v1u389"},"type":"Feature","geometry":null},{"properties":{"zipcode":"75034","id":"ap4bj0rz755b"},"type":"Feature","geometry":null},{"properties":{"zipcode":"79029","id":"ap4bj10jqxg3"},"type":"Feature","geometry":null},{"properties":{"zipcode":"79605","id":"ap4bj0yna0a3"},"type":"Feature","geometry":null},{"properties":{"zipcode":"75219","id":"ap4bj0rc8tb7"},"type":"Feature","geometry":null},{"properties":{"zipcode":"79601","id":"ap4bj10zczdv"},"type":"Feature","geometry":null},{"properties":{"zipcode":"77060","id":"ap4bj0scy8zz"},"type":"Feature","geometry":null},{"properties":{"zipcode":"79412","id":"ap4bj0uw1hn4"},"type":"Feature","geometry":null},{"properties":{"zipcode":"79102","id":"ap4bj14m05bc"},"type":"Feature","geometry":null},{"properties":{"zipcode":"76205","id":"ap4bj0xb95y4"},"type":"Feature","geometry":null},{"properties":{"zipcode":"76104","id":"ap4bj14r7kdi"},"type":"Feature","geometry":null},{"properties":{"zipcode":"75081","id":"ap4bj0yep6uf"},"type":"Feature","geometry":null},{"properties":{"zipcode":"78840","id":"ap4bj0xsx87b"},"type":"Feature","geometry":null},{"properties":{"zipcode":"77058","id":"ap4bj0rpzck7"},"type":"Feature","geometry":null},{"properties":{"zipcode":"76201","id":"ap4bj0wn38rh"},"type":"Feature","geometry":null},{"properties":{"zipcode":"78229","id":"ap4bj16hwycy"},"type":"Feature","geometry":null},{"properties":{"zipcode":"78229","id":"ap4bj12a4hjf"},"type":"Feature","geometry":null},{"properties":{"zipcode":"75007","id":"ap4bj0zh5erm"},"type":"Feature","geometry":null},{"properties":{"zipcode":"75230","id":"ap4bj0s5scx5"},"type":"Feature","geometry":null},{"properties":{"zipcode":"77450","id":"ap4bj0yevrp4"},"type":"Feature","geometry":null},{"properties":{"zipcode":"78239","id":"ap4bj11luc0o"},"type":"Feature","geometry":null},{"properties":{"zipcode":"77801","id":"ap4bj10yz8up"},"type":"Feature","geometry":null},{"properties":{"zipcode":"75116","id":"ap4bj0sxqk7b"},"type":"Feature","geometry":null},{"properties":{"zipcode":"75116","id":"ap4bj0wndy1v"},"type":"Feature","geometry":null},{"properties":{"zipcode":"76513","id":"ap4bj119tdhg"},"type":"Feature","geometry":null},{"properties":{"zipcode":"79606","id":"ap4bj10aviva"},"type":"Feature","geometry":null},{"properties":{"zipcode":"75209","id":"ap4bj11lxxne"},"type":"Feature","geometry":null},{"properties":{"zipcode":"79904","id":"ap4bj1227fbu"},"type":"Feature","geometry":null},{"properties":{"zipcode":"77024","id":"ap4bj10dbxw2"},"type":"Feature","geometry":null},{"properties":{"zipcode":"75056","id":"ap4bj0vnnmpq"},"type":"Feature","geometry":null},{"properties":{"zipcode":"76201","id":"ap4bj13oja74"},"type":"Feature","geometry":null},{"properties":{"zipcode":"76504","id":"ap4bj0x79ykp"},"type":"Feature","geometry":null},{"properties":{"zipcode":"75703","id":"ap4bj11d8yu9"},"type":"Feature","geometry":null},{"properties":{"zipcode":"75081","id":"ap4bj11gyyzy"},"type":"Feature","geometry":null},{"properties":{"zipcode":"75182","id":"ap4bj0s2oj27"},"type":"Feature","geometry":null},{"properties":{"zipcode":"75110","id":"ap4bj0tiyydi"},"type":"Feature","geometry":null},{"properties":{"zipcode":"75010","id":"ap4bj0v0kha4"},"type":"Feature","geometry":null},{"properties":{"zipcode":"78550","id":"ap4bj14yrjtt"},"type":"Feature","geometry":null},{"properties":{"zipcode":"77079","id":"ap4bj11tzpj6"},"type":"Feature","geometry":null},{"properties":{"zipcode":"76013","id":"ap4bj0vu54zq"},"type":"Feature","geometry":null},{"properties":{"zipcode":"75104","id":"ap4bj0vwxcas"},"type":"Feature","geometry":null},{"properties":{"zipcode":"76710","id":"ap4bj0udt7m1"},"type":"Feature","geometry":null},{"properties":{"zipcode":"77706","id":"ap4bj143r9da"},"type":"Feature","geometry":null},{"properties":{"zipcode":"75503","id":"ap4bj16vbf6r"},"type":"Feature","geometry":null},{"properties":{"zipcode":"77058","id":"ap4bj0qyjw79"},"type":"Feature","geometry":null},{"properties":{"zipcode":"75090","id":"ap4bj0z04lm7"},"type":"Feature","geometry":null},{"properties":{"zipcode":"75090","id":"ap4bj14q0mw1"},"type":"Feature","geometry":null},{"properties":{"zipcode":"76116","id":"ap4bj16n8i9n"},"type":"Feature","geometry":null},{"properties":{"zipcode":"76132","id":"ap4bj0xj8dc6"},"type":"Feature","geometry":null},{"properties":{"zipcode":"75644","id":"ap4bj139kgfu"},"type":"Feature","geometry":null},{"properties":{"zipcode":"76712","id":"ap4bj16cmd41"},"type":"Feature","geometry":null},{"properties":{"zipcode":"75077","id":"ap4bj0sm1g0y"},"type":"Feature","geometry":null},{"properties":{"zipcode":"77063","id":"ap4bj0ryaumj"},"type":"Feature","geometry":null},{"properties":{"zipcode":"77581","id":"ap4bj0qwonzv"},"type":"Feature","geometry":null},{"properties":{"zipcode":"78552","id":"ap4bj0vthxai"},"type":"Feature","geometry":null},{"properties":{"zipcode":"76107","id":"ap4bj0vlonj7"},"type":"Feature","geometry":null},{"properties":{"zipcode":"76011","id":"ap4bj0zavc2x"},"type":"Feature","geometry":null},{"properties":{"zipcode":"78539","id":"ap4bj175ajoj"},"type":"Feature","geometry":null},{"properties":{"zipcode":"78130","id":"ap4bj139helo"},"type":"Feature","geometry":null},{"properties":{"zipcode":"78130","id":"ap4bj0ucgwaz"},"type":"Feature","geometry":null},{"properties":{"zipcode":"77904","id":"ap4bj1523b1q"},"type":"Feature","geometry":null},{"properties":{"zipcode":"76137","id":"ap4bj0wkxtj1"},"type":"Feature","geometry":null},{"properties":{"zipcode":"79106","id":"ap4bj1640zpq"},"type":"Feature","geometry":null},{"properties":{"zipcode":"79106","id":"ap4bj0r196yj"},"type":"Feature","geometry":null},{"properties":{"zipcode":"75904","id":"ap4bj0x99tup"},"type":"Feature","geometry":null},{"properties":{"zipcode":"78240","id":"ap4bj0wxdcj5"},"type":"Feature","geometry":null},{"properties":{"zipcode":"78213","id":"ap4bj0zoxywn"},"type":"Feature","geometry":null},{"properties":{"zipcode":"77535","id":"ap4bj0s63g8s"},"type":"Feature","geometry":null},{"properties":{"zipcode":"76107","id":"ap4bj0ylprmy"},"type":"Feature","geometry":null},{"properties":{"zipcode":"75006","id":"ap4bj0w7sdki"},"type":"Feature","geometry":null},{"properties":{"zipcode":"78403","id":"ap4bj13e1pbo"},"type":"Feature","geometry":null},{"properties":{"zipcode":"76111","id":"ap4bj13ofj5o"},"type":"Feature","geometry":null},{"properties":{"zipcode":"75231","id":"ap4bj10lzxl3"},"type":"Feature","geometry":null},{"properties":{"zipcode":"78209","id":"ap4bj15lewox"},"type":"Feature","geometry":null},{"properties":{"zipcode":"78229","id":"ap4bj0s7f553"},"type":"Feature","geometry":null},{"properties":{"zipcode":"76107","id":"ap4bj0yz504s"},"type":"Feature","geometry":null},{"properties":{"zipcode":"77079","id":"ap4bj13mq7op"},"type":"Feature","geometry":null},{"properties":{"zipcode":"77057","id":"ap4bj12j9fjk"},"type":"Feature","geometry":null},{"properties":{"zipcode":"77058","id":"ap4bj11lgknh"},"type":"Feature","geometry":null},{"properties":{"zipcode":"77019","id":"ap4bj11tcws3"},"type":"Feature","geometry":null},{"properties":{"zipcode":"77084","id":"ap4bj0x02kwa"},"type":"Feature","geometry":null},{"properties":{"zipcode":"77063","id":"ap4bj15cz4b3"},"type":"Feature","geometry":null},{"properties":{"zipcode":"78572","id":"ap4bj0zypxgo"},"type":"Feature","geometry":null},{"properties":{"zipcode":"77004","id":"ap4bj0x8cpwd"},"type":"Feature","geometry":null},{"properties":{"zipcode":"77042","id":"ap4bj14v8kzo"},"type":"Feature","geometry":null},{"properties":{"zipcode":"77054","id":"ap4bj1736fyo"},"type":"Feature","geometry":null},{"properties":{"zipcode":"77565","id":"ap4bj0s16pun"},"type":"Feature","geometry":null},{"properties":{"zipcode":"77429","id":"ap4bj0xnrsy1"},"type":"Feature","geometry":null},{"properties":{"zipcode":"76028","id":"ap4bj0xzsdpm"},"type":"Feature","geometry":null},{"properties":{"zipcode":"77380","id":"ap4bj166r4ep"},"type":"Feature","geometry":null},{"properties":{"zipcode":"77003","id":"ap4bj126w2xn"},"type":"Feature","geometry":null},{"properties":{"zipcode":"77057","id":"ap4bj0uzs1ti"},"type":"Feature","geometry":null},{"properties":{"zipcode":"73505","id":"ap4bj0zimrme"},"type":"Feature","geometry":null},{"properties":{"zipcode":"79410","id":"ap4bj14pfwhh"},"type":"Feature","geometry":null},{"properties":{"zipcode":"76825","id":"ap4bj13r27u9"},"type":"Feature","geometry":null},{"properties":{"zipcode":"75090","id":"ap4bj0tocr8m"},"type":"Feature","geometry":null},{"properties":{"zipcode":"77550","id":"ap4bj0ruakpv"},"type":"Feature","geometry":null},{"properties":{"zipcode":"76308","id":"ap4bj162y1r3"},"type":"Feature","geometry":null},{"properties":{"zipcode":"75702","id":"ap4bj13yfs84"},"type":"Feature","geometry":null},{"properties":{"zipcode":"78550","id":"ap4bj0uegseh"},"type":"Feature","geometry":null},{"properties":{"zipcode":"79603","id":"ap4bj0u2w98i"},"type":"Feature","geometry":null},{"properties":{"zipcode":"78362","id":"ap4bj0xr3mix"},"type":"Feature","geometry":null},{"properties":{"zipcode":"78504","id":"ap4bj13d27p7"},"type":"Feature","geometry":null},{"properties":{"zipcode":"76550","id":"ap4bj124v14u"},"type":"Feature","geometry":null},{"properties":{"zipcode":"76801","id":"ap4bj0u0yrrb"},"type":"Feature","geometry":null},{"properties":{"zipcode":"78414","id":"ap4bj0xsvxzc"},"type":"Feature","geometry":null},{"properties":{"zipcode":"77706","id":"ap4bj0yk8ss3"},"type":"Feature","geometry":null},{"properties":{"zipcode":"75703","id":"ap4bj0tnd4ju"},"type":"Feature","geometry":null},{"properties":{"zipcode":"79602","id":"ap4bj0x7qfch"},"type":"Feature","geometry":null},{"properties":{"zipcode":"78411","id":"ap4bj0sr02z3"},"type":"Feature","geometry":null},{"properties":{"zipcode":"79720","id":"ap4bj14fwnbb"},"type":"Feature","geometry":null},{"properties":{"zipcode":"77450","id":"ap4bj16q5w0j"},"type":"Feature","geometry":null},{"properties":{"zipcode":"76301","id":"ap4bj0tqw88l"},"type":"Feature","geometry":null},{"properties":{"zipcode":"75165","id":"ap4bj0zq0x2b"},"type":"Feature","geometry":null},{"properties":{"zipcode":"78945","id":"ap4bj0x80t93"},"type":"Feature","geometry":null},{"properties":{"zipcode":"77003","id":"ap4bj13rx4f7"},"type":"Feature","geometry":null},{"properties":{"zipcode":"75218","id":"ap4bj0suz16i"},"type":"Feature","geometry":null},{"properties":{"zipcode":"77979","id":"ap4bj0vx9ujo"},"type":"Feature","geometry":null},{"properties":{"zipcode":"79602","id":"ap4bj101g18e"},"type":"Feature","geometry":null},{"properties":{"zipcode":"75234","id":"ap4bj0y1fgt2"},"type":"Feature","geometry":null},{"properties":{"zipcode":"75230","id":"ap4bj0xw9nyw"},"type":"Feature","geometry":null},{"properties":{"zipcode":"77441","id":"ap4bj11dv8zz"},"type":"Feature","geometry":null},{"properties":{"zipcode":"79830","id":"ap4bj0s26o7l"},"type":"Feature","geometry":null},{"properties":{"zipcode":"77401","id":"ap4bj0sojypo"},"type":"Feature","geometry":null},{"properties":{"zipcode":"78501","id":"ap4bj0uglxhx"},"type":"Feature","geometry":null},{"properties":{"zipcode":"78155","id":"ap4bj0wpe44n"},"type":"Feature","geometry":null},{"properties":{"zipcode":"76102","id":"ap4bj16su6ni"},"type":"Feature","geometry":null},{"properties":{"zipcode":"75023","id":"ap4bj112g88u"},"type":"Feature","geometry":null},{"properties":{"zipcode":"75034","id":"ap4bj0wi6bkb"},"type":"Feature","geometry":null},{"properties":{"zipcode":"77840","id":"ap4bj0v5znr3"},"type":"Feature","geometry":null},{"properties":{"zipcode":"76541","id":"ap4bj0ruvs6t"},"type":"Feature","geometry":null},{"properties":{"zipcode":"78681","id":"ap4bj154tl2p"},"type":"Feature","geometry":null},{"properties":{"zipcode":"75503","id":"ap4bj14uolq8"},"type":"Feature","geometry":null},{"properties":{"zipcode":"79106","id":"ap4bj15dtel4"},"type":"Feature","geometry":null},{"properties":{"zipcode":"75503","id":"ap4bj0satd55"},"type":"Feature","geometry":null},{"properties":{"zipcode":"76107","id":"ap4bj12qvriq"},"type":"Feature","geometry":null},{"properties":{"zipcode":"77450","id":"ap4bj11mqh84"},"type":"Feature","geometry":null},{"properties":{"zipcode":"75115","id":"ap4bj0too9iy"},"type":"Feature","geometry":null},{"properties":{"zipcode":"75080","id":"ap4bj103a5s9"},"type":"Feature","geometry":null},{"properties":{"zipcode":"76103","id":"ap4bj1285zoz"},"type":"Feature","geometry":null},{"properties":{"zipcode":"76103","id":"ap4bj13chv0l"},"type":"Feature","geometry":null},{"properties":{"zipcode":"77706","id":"ap4bj0wpyx9c"},"type":"Feature","geometry":null},{"properties":{"zipcode":"75204","id":"ap4bj16gmsss"},"type":"Feature","geometry":null},{"properties":{"zipcode":"77034","id":"ap4bj13qvy61"},"type":"Feature","geometry":null},{"properties":{"zipcode":"75020","id":"ap4bj0zbj2r5"},"type":"Feature","geometry":null},{"properties":{"zipcode":"78504","id":"ap4bj15s49uo"},"type":"Feature","geometry":null},{"properties":{"zipcode":"77068","id":"ap4bj0th6bz0"},"type":"Feature","geometry":null},{"properties":{"zipcode":"75092","id":"ap4bj14qbkw0"},"type":"Feature","geometry":null},{"properties":{"zipcode":"79072","id":"ap4bj1434rdz"},"type":"Feature","geometry":null},{"properties":{"zipcode":"76031","id":"ap4bj0ywdu3v"},"type":"Feature","geometry":null},{"properties":{"zipcode":"77340","id":"ap4bj0synfgb"},"type":"Feature","geometry":null},{"properties":{"zipcode":"77301","id":"ap4bj1717bw3"},"type":"Feature","geometry":null},{"properties":{"zipcode":"77598","id":"ap4bj0rdjcfm"},"type":"Feature","geometry":null},{"properties":{"zipcode":"75090","id":"ap4bj0xzvlyx"},"type":"Feature","geometry":null},{"properties":{"zipcode":"76201","id":"ap4bj148ax8l"},"type":"Feature","geometry":null},{"properties":{"zipcode":"78213","id":"ap4bj0zh2dnv"},"type":"Feature","geometry":null},{"properties":{"zipcode":"76028","id":"ap4bj0whw73c"},"type":"Feature","geometry":null},{"properties":{"zipcode":"76104","id":"ap4bj15nzdnp"},"type":"Feature","geometry":null},{"properties":{"zipcode":"78155","id":"ap4bj0snm1x0"},"type":"Feature","geometry":null},{"properties":{"zipcode":"76107","id":"ap4bj14hc7rx"},"type":"Feature","geometry":null},{"properties":{"zipcode":"77701-3834","id":"ap4bj0vj0klt"},"type":"Feature","geometry":null},{"properties":{"zipcode":"76903","id":"ap4bj0vzhw7i"},"type":"Feature","geometry":null},{"properties":{"zipcode":"76504","id":"ap4bj0tjffsi"},"type":"Feature","geometry":null},{"properties":{"zipcode":"76022","id":"ap4bj0uq41r9"},"type":"Feature","geometry":null},{"properties":{"zipcode":"78861","id":"ap4bj0sjr6fx"},"type":"Feature","geometry":null},{"properties":{"zipcode":"75090","id":"ap4bj0s6xdw2"},"type":"Feature","geometry":null},{"properties":{"zipcode":"76135","id":"ap4bj0slf1g4"},"type":"Feature","geometry":null},{"properties":{"zipcode":"75081","id":"ap4bj15713tb"},"type":"Feature","geometry":null},{"properties":{"zipcode":"75028","id":"ap4bj16uhntl"},"type":"Feature","geometry":null},{"properties":{"zipcode":"78254","id":"ap4bj0rt2kg7"},"type":"Feature","geometry":null},{"properties":{"zipcode":"75227","id":"ap4bj0swdejq"},"type":"Feature","geometry":null},{"properties":{"zipcode":"77099","id":"ap4bj1608xi4"},"type":"Feature","geometry":null},{"properties":{"zipcode":"75219","id":"ap4bj11zg5lc"},"type":"Feature","geometry":null},{"properties":{"zipcode":"76712","id":"ap4bj0xgusfu"},"type":"Feature","geometry":null},{"properties":{"zipcode":"78602","id":"ap4bj106naul"},"type":"Feature","geometry":null},{"properties":{"zipcode":"76147","id":"ap4bj12m612z"},"type":"Feature","geometry":null},{"properties":{"zipcode":"78216","id":"ap4bj0wg2s8i"},"type":"Feature","geometry":null},{"properties":{"zipcode":"79106","id":"ap4bj0yryhgh"},"type":"Feature","geometry":null},{"properties":{"zipcode":"78205","id":"ap4bj0rh0f9y"},"type":"Feature","geometry":null},{"properties":{"zipcode":"77477","id":"ap4bj0z6a2yi"},"type":"Feature","geometry":null},{"properties":{"zipcode":"79705","id":"ap4bj0xhlw8b"},"type":"Feature","geometry":null},{"properties":{"zipcode":"76048","id":"ap4bj14cejz1"},"type":"Feature","geometry":null},{"properties":{"zipcode":"76244","id":"ap4bj0sqjvfw"},"type":"Feature","geometry":null},{"properties":{"zipcode":"76115","id":"ap4bj0vfgjij"},"type":"Feature","geometry":null},{"properties":{"zipcode":"75211","id":"ap4bj16ahp3b"},"type":"Feature","geometry":null},{"properties":{"zipcode":"77070","id":"ap4bj156ny5a"},"type":"Feature","geometry":null},{"properties":{"zipcode":"75204","id":"ap4bj0qy6yb2"},"type":"Feature","geometry":null},{"properties":{"zipcode":"75703","id":"ap4bj0wsti1d"},"type":"Feature","geometry":null},{"properties":{"zipcode":"76111","id":"ap4bj15tgx12"},"type":"Feature","geometry":null},{"properties":{"zipcode":"76053","id":"ap4bj13zc22x"},"type":"Feature","geometry":null},{"properties":{"zipcode":"76054","id":"ap4bj139hyib"},"type":"Feature","geometry":null},{"properties":{"zipcode":"79601","id":"ap4bj0uqp20y"},"type":"Feature","geometry":null},{"properties":{"zipcode":"79601","id":"ap4bj171fm6a"},"type":"Feature","geometry":null},{"properties":{"zipcode":"78114","id":"ap4bj0wdoq4h"},"type":"Feature","geometry":null},{"properties":{"zipcode":"77707","id":"ap4bj165psdj"},"type":"Feature","geometry":null},{"properties":{"zipcode":"77079","id":"ap4bj155tcmv"},"type":"Feature","geometry":null},{"properties":{"zipcode":"78624","id":"ap4bj14a60s4"},"type":"Feature","geometry":null},{"properties":{"zipcode":"77581","id":"ap4bj16c6z12"},"type":"Feature","geometry":null},{"properties":{"zipcode":"77590","id":"ap4bj12abulo"},"type":"Feature","geometry":null},{"properties":{"zipcode":"75703","id":"ap4bj0txf4v2"},"type":"Feature","geometry":null},{"properties":{"zipcode":"77571","id":"ap4bj125srfo"},"type":"Feature","geometry":null},{"properties":{"zipcode":"77901","id":"ap4bj12qi4hi"},"type":"Feature","geometry":null},{"properties":{"zipcode":"79925","id":"ap4bj0wpt9lh"},"type":"Feature","geometry":null},{"properties":{"zipcode":"79902","id":"ap4bj10r2jin"},"type":"Feature","geometry":null},{"properties":{"zipcode":"77074","id":"ap4bj0ra0hl2"},"type":"Feature","geometry":null},{"properties":{"zipcode":"75069","id":"ap4bj0rul482"},"type":"Feature","geometry":null},{"properties":{"zipcode":"75090","id":"ap4bj13maqmm"},"type":"Feature","geometry":null},{"properties":{"zipcode":"75090","id":"ap4bj0wbfbl3"},"type":"Feature","geometry":null},{"properties":{"zipcode":"78840","id":"ap4bj0uyj4d1"},"type":"Feature","geometry":null},{"properties":{"zipcode":"75401","id":"ap4bj128wemo"},"type":"Feature","geometry":null},{"properties":{"zipcode":"75090","id":"ap4bj0rb315k"},"type":"Feature","geometry":null},{"properties":{"zipcode":"75460","id":"ap4bj11wrwug"},"type":"Feature","geometry":null},{"properties":{"zipcode":"77027","id":"ap4bj13lufcl"},"type":"Feature","geometry":null},{"properties":{"zipcode":"77520","id":"ap4bj16jemvp"},"type":"Feature","geometry":null},{"properties":{"zipcode":"76903","id":"ap4bj0xa2nlz"},"type":"Feature","geometry":null},{"properties":{"zipcode":"77564","id":"ap4bj0w8tjbu"},"type":"Feature","geometry":null},{"properties":{"zipcode":"75243","id":"ap4bj12jx8v2"},"type":"Feature","geometry":null},{"properties":{"zipcode":"75201","id":"ap4bj16zb9d2"},"type":"Feature","geometry":null},{"properties":{"zipcode":"75961","id":"ap4bj158izri"},"type":"Feature","geometry":null},{"properties":{"zipcode":"79601","id":"ap4bj16ssrcd"},"type":"Feature","geometry":null},{"properties":{"zipcode":"76107","id":"ap4bj0zlfm61"},"type":"Feature","geometry":null},{"properties":{"zipcode":"78041","id":"ap4bj0x2ar4x"},"type":"Feature","geometry":null},{"properties":{"zipcode":"76904","id":"ap4bj0scbirp"},"type":"Feature","geometry":null},{"properties":{"zipcode":"76904","id":"ap4bj0z4y2af"},"type":"Feature","geometry":null},{"properties":{"zipcode":"77098","id":"ap4bj0rd6k4r"},"type":"Feature","geometry":null},{"properties":{"zipcode":"75002","id":"ap4bj0tratbo"},"type":"Feature","geometry":null},{"properties":{"zipcode":"79912","id":"ap4bj146ycwz"},"type":"Feature","geometry":null},{"properties":{"zipcode":"75801","id":"ap4bj104g6xb"},"type":"Feature","geometry":null},{"properties":{"zipcode":"78411","id":"ap4bj0sqfl0u"},"type":"Feature","geometry":null},{"properties":{"zipcode":"78411","id":"ap4bj11k66vu"},"type":"Feature","geometry":null},{"properties":{"zipcode":"78411","id":"ap4bj0t2fdkl"},"type":"Feature","geometry":null},{"properties":{"zipcode":"77901","id":"ap4bj15yv8dh"},"type":"Feature","geometry":null},{"properties":{"zipcode":"76164","id":"ap4bj0urz9nj"},"type":"Feature","geometry":null},{"properties":{"zipcode":"77056","id":"ap4bj0w9b9pn"},"type":"Feature","geometry":null},{"properties":{"zipcode":"76092","id":"ap4bj0yhi5g0"},"type":"Feature","geometry":null},{"properties":{"zipcode":"77414","id":"ap4bj0qy8yif"},"type":"Feature","geometry":null},{"properties":{"zipcode":"77015","id":"ap4bj14blalk"},"type":"Feature","geometry":null},{"properties":{"zipcode":"76017","id":"ap4bj15tn7ob"},"type":"Feature","geometry":null},{"properties":{"zipcode":"78209","id":"ap4bj0t6xn1w"},"type":"Feature","geometry":null},{"properties":{"zipcode":"77401","id":"ap4bj12toi44"},"type":"Feature","geometry":null},{"properties":{"zipcode":"77401","id":"ap4bj16ee4iy"},"type":"Feature","geometry":null},{"properties":{"zipcode":"75002","id":"ap4bj16p41in"},"type":"Feature","geometry":null},{"properties":{"zipcode":"77531","id":"ap4bj0x24a69"},"type":"Feature","geometry":null},{"properties":{"zipcode":"75503","id":"ap4bj10rnvia"},"type":"Feature","geometry":null},{"properties":{"zipcode":"75189","id":"ap4bj0vsya9s"},"type":"Feature","geometry":null},{"properties":{"zipcode":"75067","id":"ap4bj15kq9an"},"type":"Feature","geometry":null},{"properties":{"zipcode":"75028","id":"ap4bj0szoczm"},"type":"Feature","geometry":null},{"properties":{"zipcode":"77706","id":"ap4bj0x4o59e"},"type":"Feature","geometry":null},{"properties":{"zipcode":"77401","id":"ap4bj0sr33sv"},"type":"Feature","geometry":null},{"properties":{"zipcode":"75225","id":"ap4bj0wj7kgs"},"type":"Feature","geometry":null},{"properties":{"zipcode":"77019","id":"ap4bj10zznpt"},"type":"Feature","geometry":null},{"properties":{"zipcode":"75238","id":"ap4bj0zjuu58"},"type":"Feature","geometry":null},{"properties":{"zipcode":"75228","id":"ap4bj11tovb7"},"type":"Feature","geometry":null},{"properties":{"zipcode":"79606","id":"ap4bj10a6z5g"},"type":"Feature","geometry":null},{"properties":{"zipcode":"78934","id":"ap4bj0t37k2e"},"type":"Feature","geometry":null},{"properties":{"zipcode":"76401","id":"ap4bj136ow5j"},"type":"Feature","geometry":null},{"properties":{"zipcode":"79925","id":"ap4bj0zcex6y"},"type":"Feature","geometry":null},{"properties":{"zipcode":"75080","id":"ap4bj168fza0"},"type":"Feature","geometry":null},{"properties":{"zipcode":"75080","id":"ap4bj0qujk3j"},"type":"Feature","geometry":null},{"properties":{"zipcode":"77351","id":"ap4bj0yrqgvt"},"type":"Feature","geometry":null},{"properties":{"zipcode":"75150","id":"ap4bj119nm28"},"type":"Feature","geometry":null},{"properties":{"zipcode":"79072","id":"ap4bj11c1xx1"},"type":"Feature","geometry":null},{"properties":{"zipcode":"79072","id":"ap4bj0snbmm7"},"type":"Feature","geometry":null},{"properties":{"zipcode":"78207","id":"ap4bj0s3ggbt"},"type":"Feature","geometry":null},{"properties":{"zipcode":"79424","id":"ap4bj0uuw86b"},"type":"Feature","geometry":null},{"properties":{"zipcode":"75098","id":"ap4bj0tvw3bq"},"type":"Feature","geometry":null},{"properties":{"zipcode":"78041","id":"ap4bj15r4tlb"},"type":"Feature","geometry":null},{"properties":{"zipcode":"78041","id":"ap4bj155kgph"},"type":"Feature","geometry":null},{"properties":{"zipcode":"78041","id":"ap4bj0ve14xf"},"type":"Feature","geometry":null},{"properties":{"zipcode":"78041","id":"ap4bj0sipu9z"},"type":"Feature","geometry":null},{"properties":{"zipcode":"78041","id":"ap4bj0zta4a3"},"type":"Feature","geometry":null},{"properties":{"zipcode":"77702","id":"ap4bj0wbr5y6"},"type":"Feature","geometry":null},{"properties":{"zipcode":"78217","id":"ap4bj0w8ig5p"},"type":"Feature","geometry":null},{"properties":{"zipcode":"75160","id":"ap4bj0yj1uei"},"type":"Feature","geometry":null},{"properties":{"zipcode":"79007","id":"ap4bj14zofw1"},"type":"Feature","geometry":null},{"properties":{"zipcode":"79065","id":"ap4bj0v4k9zd"},"type":"Feature","geometry":null},{"properties":{"zipcode":"78640","id":"ap4bj13weif8"},"type":"Feature","geometry":null},{"properties":{"zipcode":"75043","id":"ap4bj14i6x34"},"type":"Feature","geometry":null},{"properties":{"zipcode":"75023","id":"ap4bj0rtw1iu"},"type":"Feature","geometry":null},{"properties":{"zipcode":"76542","id":"ap4bj0xsluho"},"type":"Feature","geometry":null},{"properties":{"zipcode":"76542","id":"ap4bj101vybl"},"type":"Feature","geometry":null},{"properties":{"zipcode":"78750","id":"ap4bj15fj3vz"},"type":"Feature","geometry":null},{"properties":{"zipcode":"76022","id":"ap4bj11b1hqb"},"type":"Feature","geometry":null},{"properties":{"zipcode":"76180","id":"ap4bj1006mm6"},"type":"Feature","geometry":null},{"properties":{"zipcode":"76180","id":"ap4bj0uu2rk8"},"type":"Feature","geometry":null},{"properties":{"zipcode":"76180","id":"ap4bj0s8idod"},"type":"Feature","geometry":null},{"properties":{"zipcode":"77380","id":"ap4bj10z7myw"},"type":"Feature","geometry":null},{"properties":{"zipcode":"77233","id":"ap4bj11avtkk"},"type":"Feature","geometry":null},{"properties":{"zipcode":"76380","id":"ap4bj0wo6cbx"},"type":"Feature","geometry":null},{"properties":{"zipcode":"77478","id":"ap4bj0zl3248"},"type":"Feature","geometry":null},{"properties":{"zipcode":"75503","id":"ap4bj15x75uf"},"type":"Feature","geometry":null},{"properties":{"zipcode":"77901","id":"ap4bj10j6t3r"},"type":"Feature","geometry":null},{"properties":{"zipcode":"78839","id":"ap4bj0w1y13e"},"type":"Feature","geometry":null},{"properties":{"zipcode":"78801","id":"ap4bj10hoyyy"},"type":"Feature","geometry":null},{"properties":{"zipcode":"75023","id":"ap4bj0vfa9z4"},"type":"Feature","geometry":null},{"properties":{"zipcode":"76104","id":"ap4bj0u7622l"},"type":"Feature","geometry":null},{"properties":{"zipcode":"79106","id":"ap4bj0xtmgun"},"type":"Feature","geometry":null},{"properties":{"zipcode":"76710","id":"ap4bj0quthvw"},"type":"Feature","geometry":null},{"properties":{"zipcode":"75150","id":"ap4bj0wju0kw"},"type":"Feature","geometry":null},{"properties":{"zipcode":"78520","id":"ap4bj0w1lkh1"},"type":"Feature","geometry":null},{"properties":{"zipcode":"75087","id":"ap4bj0w6cn90"},"type":"Feature","geometry":null},{"properties":{"zipcode":"75040","id":"ap4bj0y93qns"},"type":"Feature","geometry":null},{"properties":{"zipcode":"76006","id":"ap4bj0rn88ee"},"type":"Feature","geometry":null},{"properties":{"zipcode":"76904","id":"ap4bj0ypqwcb"},"type":"Feature","geometry":null},{"properties":{"zipcode":"77340","id":"ap4bj13fc4su"},"type":"Feature","geometry":null},{"properties":{"zipcode":"77340","id":"ap4bj14xt68p"},"type":"Feature","geometry":null},{"properties":{"zipcode":"76904","id":"ap4bj0v0cvgt"},"type":"Feature","geometry":null},{"properties":{"zipcode":"76903","id":"ap4bj0wfrmm3"},"type":"Feature","geometry":null},{"properties":{"zipcode":"77657","id":"ap4bj11lgh6j"},"type":"Feature","geometry":null},{"properties":{"zipcode":"75248","id":"ap4bj0th4qyh"},"type":"Feature","geometry":null},{"properties":{"zipcode":"76034","id":"ap4bj0vdige5"},"type":"Feature","geometry":null},{"properties":{"zipcode":"77904","id":"ap4bj0rsjyb2"},"type":"Feature","geometry":null},{"properties":{"zipcode":"77493","id":"ap4bj16fug5l"},"type":"Feature","geometry":null},{"properties":{"zipcode":"77450","id":"ap4bj15tnukw"},"type":"Feature","geometry":null},{"properties":{"zipcode":"79605","id":"ap4bj0s9iwps"},"type":"Feature","geometry":null},{"properties":{"zipcode":"75069","id":"ap4bj0tqte8h"},"type":"Feature","geometry":null},{"properties":{"zipcode":"78216","id":"ap4bj0wdyp8e"},"type":"Feature","geometry":null},{"properties":{"zipcode":"76133","id":"ap4bj0w9howz"},"type":"Feature","geometry":null},{"properties":{"zipcode":"79601","id":"ap4bj0us4ovf"},"type":"Feature","geometry":null},{"properties":{"zipcode":"77054","id":"ap4bj0vd47ks"},"type":"Feature","geometry":null},{"properties":{"zipcode":"75080","id":"ap4bj0z7032t"},"type":"Feature","geometry":null},{"properties":{"zipcode":"75703","id":"ap4bj16tqd0e"},"type":"Feature","geometry":null},{"properties":{"zipcode":"77521","id":"ap4bj0vp7brn"},"type":"Feature","geometry":null},{"properties":{"zipcode":"78217","id":"ap4bj10kf3jc"},"type":"Feature","geometry":null},{"properties":{"zipcode":"76205","id":"ap4bj13c8phw"},"type":"Feature","geometry":null},{"properties":{"zipcode":"75460","id":"ap4bj0sq5sbw"},"type":"Feature","geometry":null},{"properties":{"zipcode":"75460","id":"ap4bj0x812eq"},"type":"Feature","geometry":null},{"properties":{"zipcode":"77401","id":"ap4bj0r2sy6u"},"type":"Feature","geometry":null},{"properties":{"zipcode":"75234","id":"ap4bj0v7l6fl"},"type":"Feature","geometry":null},{"properties":{"zipcode":"78504","id":"ap4bj12s9h9w"},"type":"Feature","geometry":null},{"properties":{"zipcode":"75065","id":"ap4bj0utuhwp"},"type":"Feature","geometry":null},{"properties":{"zipcode":"79124","id":"ap4bj0v7wfcu"},"type":"Feature","geometry":null},{"properties":{"zipcode":"75013","id":"ap4bj0wkfptr"},"type":"Feature","geometry":null},{"properties":{"zipcode":"75104","id":"ap4bj0ut2qxc"},"type":"Feature","geometry":null},{"properties":{"zipcode":"78213","id":"ap4bj0uqrgpy"},"type":"Feature","geometry":null},{"properties":{"zipcode":"76021","id":"ap4bj171b7l5"},"type":"Feature","geometry":null},{"properties":{"zipcode":"76034","id":"ap4bj16sh9v3"},"type":"Feature","geometry":null},{"properties":{"zipcode":"75075","id":"ap4bj13hlq0u"},"type":"Feature","geometry":null},{"properties":{"zipcode":"77054","id":"ap4bj112jvkt"},"type":"Feature","geometry":null},{"properties":{"zipcode":"78258","id":"ap4bj12ojpw8"},"type":"Feature","geometry":null},{"properties":{"zipcode":"78247","id":"ap4bj0xt1xp5"},"type":"Feature","geometry":null},{"properties":{"zipcode":"79601","id":"ap4bj0rjvri8"},"type":"Feature","geometry":null},{"properties":{"zipcode":"75233","id":"ap4bj14afcs8"},"type":"Feature","geometry":null},{"properties":{"zipcode":"75551","id":"ap4bj0u5adwz"},"type":"Feature","geometry":null},{"properties":{"zipcode":"78577","id":"ap4bj0r9mbpk"},"type":"Feature","geometry":null},{"properties":{"zipcode":"76115","id":"ap4bj0xrhgwf"},"type":"Feature","geometry":null},{"properties":{"zipcode":"78942","id":"ap4bj0wc9oh4"},"type":"Feature","geometry":null},{"properties":{"zipcode":"77581","id":"ap4bj11ppa7g"},"type":"Feature","geometry":null},{"properties":{"zipcode":"76054","id":"ap4bj16h7atk"},"type":"Feature","geometry":null},{"properties":{"zipcode":"78052","id":"ap4bj0snndsv"},"type":"Feature","geometry":null},{"properties":{"zipcode":"75040","id":"ap4bj132o1fy"},"type":"Feature","geometry":null},{"properties":{"zipcode":"75229","id":"ap4bj16g3ud9"},"type":"Feature","geometry":null},{"properties":{"zipcode":"75254","id":"ap4bj11ll0qz"},"type":"Feature","geometry":null},{"properties":{"zipcode":"75116","id":"ap4bj127kcny"},"type":"Feature","geometry":null},{"properties":{"zipcode":"75209","id":"ap4bj0xrlfe2"},"type":"Feature","geometry":null},{"properties":{"zipcode":"77573","id":"ap4bj15xk4ti"},"type":"Feature","geometry":null},{"properties":{"zipcode":"75104","id":"ap4bj0zs517k"},"type":"Feature","geometry":null},{"properties":{"zipcode":"76107","id":"ap4bj0ravjqc"},"type":"Feature","geometry":null},{"properties":{"zipcode":"76240","id":"ap4bj12305zn"},"type":"Feature","geometry":null},{"properties":{"zipcode":"76048","id":"ap4bj14r97qq"},"type":"Feature","geometry":null},{"properties":{"zipcode":"78155","id":"ap4bj0wzmde0"},"type":"Feature","geometry":null},{"properties":{"zipcode":"75023","id":"ap4bj134zi8s"},"type":"Feature","geometry":null},{"properties":{"zipcode":"76701","id":"ap4bj0tl1teq"},"type":"Feature","geometry":null},{"properties":{"zipcode":"79762","id":"ap4bj0vj5dl0"},"type":"Feature","geometry":null},{"properties":{"zipcode":"77005","id":"ap4bj0s6hmag"},"type":"Feature","geometry":null},{"properties":{"zipcode":"75228","id":"ap4bj0wtrno0"},"type":"Feature","geometry":null},{"properties":{"zipcode":"76904","id":"ap4bj0wgfg9w"},"type":"Feature","geometry":null},{"properties":{"zipcode":"76903","id":"ap4bj1009k9j"},"type":"Feature","geometry":null},{"properties":{"zipcode":"75231","id":"ap4bj114ke5z"},"type":"Feature","geometry":null},{"properties":{"zipcode":"77380","id":"ap4bj11w0rla"},"type":"Feature","geometry":null},{"properties":{"zipcode":"76550","id":"ap4bj0rglzfr"},"type":"Feature","geometry":null},{"properties":{"zipcode":"75835","id":"ap4bj0xjojet"},"type":"Feature","geometry":null},{"properties":{"zipcode":"78028","id":"ap4bj0x2oxu2"},"type":"Feature","geometry":null},{"properties":{"zipcode":"79761","id":"ap4bj0tfyv6v"},"type":"Feature","geometry":null},{"properties":{"zipcode":"76301","id":"ap4bj0v9rabc"},"type":"Feature","geometry":null},{"properties":{"zipcode":"76011","id":"ap4bj0qv5nzs"},"type":"Feature","geometry":null},{"properties":{"zipcode":"78216","id":"ap4bj0uuhecl"},"type":"Feature","geometry":null},{"properties":{"zipcode":"77003","id":"ap4bj0yzqhtb"},"type":"Feature","geometry":null},{"properties":{"zipcode":"78520","id":"ap4bj0wmgl53"},"type":"Feature","geometry":null},{"properties":{"zipcode":"75325","id":"ap4bj0wy9k00"},"type":"Feature","geometry":null},{"properties":{"zipcode":"75219","id":"ap4bj13z3g6e"},"type":"Feature","geometry":null},{"properties":{"zipcode":"75034","id":"ap4bj15w7kkl"},"type":"Feature","geometry":null},{"properties":{"zipcode":"75703","id":"ap4bj0s5n0ns"},"type":"Feature","geometry":null},{"properties":{"zipcode":"75604","id":"ap4bj0zc4vlp"},"type":"Feature","geometry":null},{"properties":{"zipcode":"75604","id":"ap4bj12ohetp"},"type":"Feature","geometry":null},{"properties":{"zipcode":"75604","id":"ap4bj0v3w9sd"},"type":"Feature","geometry":null},{"properties":{"zipcode":"75604","id":"ap4bj0xokw9j"},"type":"Feature","geometry":null},{"properties":{"zipcode":"75605","id":"ap4bj0y6vhcs"},"type":"Feature","geometry":null},{"properties":{"zipcode":"77802","id":"ap4bj16mqwa6"},"type":"Feature","geometry":null},{"properties":{"zipcode":"77034","id":"ap4bj1247384"},"type":"Feature","geometry":null},{"properties":{"zipcode":"78229","id":"ap4bj0x76p3j"},"type":"Feature","geometry":null},{"properties":{"zipcode":"75230","id":"ap4bj0yxehvc"},"type":"Feature","geometry":null},{"properties":{"zipcode":"76107","id":"ap4bj0t6n5s4"},"type":"Feature","geometry":null},{"properties":{"zipcode":"77901","id":"ap4bj0vwn1d7"},"type":"Feature","geometry":null},{"properties":{"zipcode":"77904","id":"ap4bj0vbqo9y"},"type":"Feature","geometry":null},{"properties":{"zipcode":"75455","id":"ap4bj172yk9y"},"type":"Feature","geometry":null},{"properties":{"zipcode":"75204","id":"ap4bj0y6fzrr"},"type":"Feature","geometry":null},{"properties":{"zipcode":"77833","id":"ap4bj125oqwv"},"type":"Feature","geometry":null},{"properties":{"zipcode":"78217","id":"ap4bj0r2a4vk"},"type":"Feature","geometry":null},{"properties":{"zipcode":"76801","id":"ap4bj0xjq1m8"},"type":"Feature","geometry":null},{"properties":{"zipcode":"79556","id":"ap4bj0qx6s2w"},"type":"Feature","geometry":null},{"properties":{"zipcode":"75201","id":"ap4bj15gh9fl"},"type":"Feature","geometry":null},{"properties":{"zipcode":"75044","id":"ap4bj12ydfny"},"type":"Feature","geometry":null},{"properties":{"zipcode":"79102","id":"ap4bj0yqrso5"},"type":"Feature","geometry":null},{"properties":{"zipcode":"75110","id":"ap4bj101g09q"},"type":"Feature","geometry":null},{"properties":{"zipcode":"77584","id":"ap4bj14xbvkv"},"type":"Feature","geometry":null},{"properties":{"zipcode":"75071","id":"ap4bj0veb2ov"},"type":"Feature","geometry":null},{"properties":{"zipcode":"77550","id":"ap4bj113rfi8"},"type":"Feature","geometry":null},{"properties":{"zipcode":"76522","id":"ap4bj0s0uxuc"},"type":"Feature","geometry":null},{"properties":{"zipcode":"75460","id":"ap4bj0szts51"},"type":"Feature","geometry":null},{"properties":{"zipcode":"79925","id":"ap4bj12u1hx0"},"type":"Feature","geometry":null},{"properties":{"zipcode":"75116","id":"ap4bj15ubvlj"},"type":"Feature","geometry":null},{"properties":{"zipcode":"77414","id":"ap4bj12vtpu1"},"type":"Feature","geometry":null},{"properties":{"zipcode":"77437","id":"ap4bj0v8ekha"},"type":"Feature","geometry":null},{"properties":{"zipcode":"75067","id":"ap4bj113tojq"},"type":"Feature","geometry":null},{"properties":{"zipcode":"76801","id":"ap4bj0t5qg77"},"type":"Feature","geometry":null},{"properties":{"zipcode":"76712","id":"ap4bj0y37yht"},"type":"Feature","geometry":null},{"properties":{"zipcode":"76226","id":"ap4bj14h51an"},"type":"Feature","geometry":null},{"properties":{"zipcode":"77058","id":"ap4bj0y6moe4"},"type":"Feature","geometry":null},{"properties":{"zipcode":"77058","id":"ap4bj0ul2s33"},"type":"Feature","geometry":null},{"properties":{"zipcode":"77058","id":"ap4bj11kfif0"},"type":"Feature","geometry":null},{"properties":{"zipcode":"77058","id":"ap4bj178mtqk"},"type":"Feature","geometry":null},{"properties":{"zipcode":"76012","id":"ap4bj11tvsyg"},"type":"Feature","geometry":null},{"properties":{"zipcode":"76015","id":"ap4bj0zg85hd"},"type":"Feature","geometry":null},{"properties":{"zipcode":"76111","id":"ap4bj0t2mfqj"},"type":"Feature","geometry":null},{"properties":{"zipcode":"78411","id":"ap4bj0z8x1jd"},"type":"Feature","geometry":null},{"properties":{"zipcode":"75081","id":"ap4bj0vwjo6l"},"type":"Feature","geometry":null},{"properties":{"zipcode":"75034","id":"ap4bj16ea05q"},"type":"Feature","geometry":null},{"properties":{"zipcode":"75230","id":"ap4bj0roswpc"},"type":"Feature","geometry":null},{"properties":{"zipcode":"76450","id":"ap4bj0z9dffm"},"type":"Feature","geometry":null},{"properties":{"zipcode":"78411","id":"ap4bj13obje9"},"type":"Feature","geometry":null},{"properties":{"zipcode":"76107","id":"ap4bj0ybvgzq"},"type":"Feature","geometry":null},{"properties":{"zipcode":"78148","id":"ap4bj0vodnpm"},"type":"Feature","geometry":null},{"properties":{"zipcode":"75494","id":"ap4bj0z42kyq"},"type":"Feature","geometry":null},{"properties":{"zipcode":"76234","id":"ap4bj0wxf1th"},"type":"Feature","geometry":null},{"properties":{"zipcode":"76230","id":"ap4bj12geidh"},"type":"Feature","geometry":null},{"properties":{"zipcode":"76234","id":"ap4bj0sjnuip"},"type":"Feature","geometry":null},{"properties":{"zipcode":"75460","id":"ap4bj0vm07mu"},"type":"Feature","geometry":null},{"properties":{"zipcode":"78228","id":"ap4bj0yy7xaz"},"type":"Feature","geometry":null},{"properties":{"zipcode":"78413","id":"ap4bj0txvo5l"},"type":"Feature","geometry":null},{"properties":{"zipcode":"78839","id":"ap4bj0ybntv7"},"type":"Feature","geometry":null},{"properties":{"zipcode":"79415","id":"ap4bj0vprc07"},"type":"Feature","geometry":null},{"properties":{"zipcode":"75401","id":"ap4bj0vo86sg"},"type":"Feature","geometry":null},{"properties":{"zipcode":"76015","id":"ap4bj0sv5tgm"},"type":"Feature","geometry":null},{"properties":{"zipcode":"76109","id":"ap4bj0sc36gz"},"type":"Feature","geometry":null},{"properties":{"zipcode":"77580","id":"ap4bj13rktv7"},"type":"Feature","geometry":null},{"properties":{"zipcode":"75835","id":"ap4bj0spf3xx"},"type":"Feature","geometry":null},{"properties":{"zipcode":"75090","id":"ap4bj0zbrd87"},"type":"Feature","geometry":null},{"properties":{"zipcode":"78216","id":"ap4bj0r5hrck"},"type":"Feature","geometry":null},{"properties":{"zipcode":"76701","id":"ap4bj0w0krdg"},"type":"Feature","geometry":null},{"properties":{"zipcode":"77058","id":"ap4bj0s2kwc4"},"type":"Feature","geometry":null},{"properties":{"zipcode":"75081","id":"ap4bj0rdcln6"},"type":"Feature","geometry":null},{"properties":{"zipcode":"78756","id":"ap4bj16cufh2"},"type":"Feature","geometry":null},{"properties":{"zipcode":"78504","id":"ap4bj15ti183"},"type":"Feature","geometry":null},{"properties":{"zipcode":"76049","id":"ap4bj0wgvngh"},"type":"Feature","geometry":null},{"properties":{"zipcode":"76801","id":"ap4bj16xlkg0"},"type":"Feature","geometry":null},{"properties":{"zipcode":"79105-1400","id":"ap4bj13uyf14"},"type":"Feature","geometry":null},{"properties":{"zipcode":"75503","id":"ap4bj11ziu6e"},"type":"Feature","geometry":null},{"properties":{"zipcode":"79832","id":"ap4bj11nbmkm"},"type":"Feature","geometry":null},{"properties":{"zipcode":"76115","id":"ap4bj0yo8jng"},"type":"Feature","geometry":null},{"properties":{"zipcode":"79601","id":"ap4bj0v7hh0i"},"type":"Feature","geometry":null},{"properties":{"zipcode":"76802","id":"ap4bj0tmzhxf"},"type":"Feature","geometry":null},{"properties":{"zipcode":"76201","id":"ap4bj161i5jt"},"type":"Feature","geometry":null},{"properties":{"zipcode":"77803","id":"ap4bj13fs000"},"type":"Feature","geometry":null},{"properties":{"zipcode":"77320","id":"ap4bj0suqlk9"},"type":"Feature","geometry":null},{"properties":{"zipcode":"77375","id":"ap4bj10v71qp"},"type":"Feature","geometry":null},{"properties":{"zipcode":"76063","id":"ap4bj14avaj0"},"type":"Feature","geometry":null},{"properties":{"zipcode":"75703-2457","id":"ap4bj13b2ti4"},"type":"Feature","geometry":null},{"properties":{"zipcode":"79830","id":"ap4bj0v71tx5"},"type":"Feature","geometry":null},{"properties":{"zipcode":"78130","id":"ap4bj10oxedl"},"type":"Feature","geometry":null},{"properties":{"zipcode":"75028","id":"ap4bj0rouqbz"},"type":"Feature","geometry":null},{"properties":{"zipcode":"77535","id":"ap4bj10apljo"},"type":"Feature","geometry":null},{"properties":{"zipcode":"76107","id":"ap4bj12co4th"},"type":"Feature","geometry":null},{"properties":{"zipcode":"78363","id":"ap4bj129kgx3"},"type":"Feature","geometry":null},{"properties":{"zipcode":"76031","id":"ap4bj0tvj9mg"},"type":"Feature","geometry":null},{"properties":{"zipcode":"76031","id":"ap4bj0uhrf5q"},"type":"Feature","geometry":null},{"properties":{"zipcode":"76022","id":"ap4bj14jfyuf"},"type":"Feature","geometry":null},{"properties":{"zipcode":"75248","id":"ap4bj10zbc4m"},"type":"Feature","geometry":null},{"properties":{"zipcode":"75254","id":"ap4bj0zls8ez"},"type":"Feature","geometry":null},{"properties":{"zipcode":"75254","id":"ap4bj15qg1zz"},"type":"Feature","geometry":null},{"properties":{"zipcode":"76033","id":"ap4bj0tlvxdr"},"type":"Feature","geometry":null},{"properties":{"zipcode":"78028","id":"ap4bj16pexw8"},"type":"Feature","geometry":null},{"properties":{"zipcode":"78411","id":"ap4bj14rm1yc"},"type":"Feature","geometry":null},{"properties":{"zipcode":"76103","id":"ap4bj10249rn"},"type":"Feature","geometry":null},{"properties":{"zipcode":"78411","id":"ap4bj12oxd1v"},"type":"Feature","geometry":null},{"properties":{"zipcode":"75093","id":"ap4bj0xt1beh"},"type":"Feature","geometry":null},{"properties":{"zipcode":"79065","id":"ap4bj16wk2il"},"type":"Feature","geometry":null},{"properties":{"zipcode":"76201","id":"ap4bj10437jk"},"type":"Feature","geometry":null},{"properties":{"zipcode":"77627","id":"ap4bj126ohlt"},"type":"Feature","geometry":null},{"properties":{"zipcode":"76450","id":"ap4bj0xeeoti"},"type":"Feature","geometry":null},{"properties":{"zipcode":"75244","id":"ap4bj0yul1gz"},"type":"Feature","geometry":null},{"properties":{"zipcode":"75110","id":"ap4bj14h94m8"},"type":"Feature","geometry":null},{"properties":{"zipcode":"79102","id":"ap4bj0xw3v0e"},"type":"Feature","geometry":null},{"properties":{"zipcode":"75766","id":"ap4bj0ufw3d8"},"type":"Feature","geometry":null},{"properties":{"zipcode":"75503","id":"ap4bj0w72qd6"},"type":"Feature","geometry":null},{"properties":{"zipcode":"75077","id":"ap4bj11hkafb"},"type":"Feature","geometry":null},{"properties":{"zipcode":"75503","id":"ap4bj13klfd1"},"type":"Feature","geometry":null},{"properties":{"zipcode":"75093","id":"ap4bj11qd3da"},"type":"Feature","geometry":null},{"properties":{"zipcode":"79602","id":"ap4bj0wp0ljd"},"type":"Feature","geometry":null},{"properties":{"zipcode":"76308","id":"ap4bj0tot9ck"},"type":"Feature","geometry":null},{"properties":{"zipcode":"76039","id":"ap4bj10mr0wy"},"type":"Feature","geometry":null},{"properties":{"zipcode":"76120","id":"ap4bj14f14i8"},"type":"Feature","geometry":null},{"properties":{"zipcode":"76051","id":"ap4bj1695yvw"},"type":"Feature","geometry":null},{"properties":{"zipcode":"76048","id":"ap4bj165kctd"},"type":"Feature","geometry":null},{"properties":{"zipcode":"77642","id":"ap4bj0sbc9pi"},"type":"Feature","geometry":null},{"properties":{"zipcode":"77904","id":"ap4bj1218jce"},"type":"Feature","geometry":null},{"properties":{"zipcode":"77521","id":"ap4bj146ojla"},"type":"Feature","geometry":null},{"properties":{"zipcode":"77092","id":"ap4bj0st838m"},"type":"Feature","geometry":null},{"properties":{"zipcode":"77070","id":"ap4bj1133y41"},"type":"Feature","geometry":null},{"properties":{"zipcode":"76022","id":"ap4bj0s8bmuw"},"type":"Feature","geometry":null},{"properties":{"zipcode":"76120","id":"ap4bj0xvuuf3"},"type":"Feature","geometry":null},{"properties":{"zipcode":"75093","id":"ap4bj0w2mpud"},"type":"Feature","geometry":null},{"properties":{"zipcode":"75206","id":"ap4bj10t3r69"},"type":"Feature","geometry":null},{"properties":{"zipcode":"76710","id":"ap4bj14at6wk"},"type":"Feature","geometry":null},{"properties":{"zipcode":"75116","id":"ap4bj0t0fzug"},"type":"Feature","geometry":null},{"properties":{"zipcode":"75071","id":"ap4bj0swz4h1"},"type":"Feature","geometry":null},{"properties":{"zipcode":"77584","id":"ap4bj0rjttij"},"type":"Feature","geometry":null},{"properties":{"zipcode":"75071","id":"ap4bj0ylja4v"},"type":"Feature","geometry":null},{"properties":{"zipcode":"78411","id":"ap4bj0wdw3xp"},"type":"Feature","geometry":null},{"properties":{"zipcode":"78101","id":"ap4bj101k9lr"},"type":"Feature","geometry":null},{"properties":{"zipcode":"77074","id":"ap4bj11xbr80"},"type":"Feature","geometry":null},{"properties":{"zipcode":"76710","id":"ap4bj0rd2jr4"},"type":"Feature","geometry":null},{"properties":{"zipcode":"78028","id":"ap4bj0x6p502"},"type":"Feature","geometry":null},{"properties":{"zipcode":"77429","id":"ap4bj0u7h84x"},"type":"Feature","geometry":null},{"properties":{"zipcode":"78217","id":"ap4bj10lkc2j"},"type":"Feature","geometry":null},{"properties":{"zipcode":"77701","id":"ap4bj12bx0ew"},"type":"Feature","geometry":null},{"properties":{"zipcode":"76051","id":"ap4bj0vte752"},"type":"Feature","geometry":null},{"properties":{"zipcode":"78130","id":"ap4bj0xt4rrh"},"type":"Feature","geometry":null},{"properties":{"zipcode":"78133","id":"ap4bj0wpiesm"},"type":"Feature","geometry":null},{"properties":{"zipcode":"76542","id":"ap4bj0uw4gyi"},"type":"Feature","geometry":null},{"properties":{"zipcode":"76109","id":"ap4bj13tv5qc"},"type":"Feature","geometry":null},{"properties":{"zipcode":"77584","id":"ap4bj0scu7um"},"type":"Feature","geometry":null},{"properties":{"zipcode":"76541","id":"ap4bj0rwfqmx"},"type":"Feature","geometry":null},{"properties":{"zipcode":"78411","id":"ap4bj0z546gn"},"type":"Feature","geometry":null},{"properties":{"zipcode":"78411","id":"ap4bj12mb7cc"},"type":"Feature","geometry":null},{"properties":{"zipcode":"76180","id":"ap4bj13gchvr"},"type":"Feature","geometry":null},{"properties":{"zipcode":"75751","id":"ap4bj0vno9qc"},"type":"Feature","geometry":null},{"properties":{"zipcode":"76542","id":"ap4bj15k1ivl"},"type":"Feature","geometry":null},{"properties":{"zipcode":"78801","id":"ap4bj0yfxqgv"},"type":"Feature","geometry":null},{"properties":{"zipcode":"79424","id":"ap4bj0qxwv6e"},"type":"Feature","geometry":null},{"properties":{"zipcode":"78956-1117","id":"ap4bj0w0ljhm"},"type":"Feature","geometry":null},{"properties":{"zipcode":"75067","id":"ap4bj0tbs7lw"},"type":"Feature","geometry":null},{"properties":{"zipcode":"75223-1339","id":"ap4bj0xq5hc1"},"type":"Feature","geometry":null},{"properties":{"zipcode":"75214","id":"ap4bj158fkwz"},"type":"Feature","geometry":null},{"properties":{"zipcode":"77380","id":"ap4bj0w6vw7z"},"type":"Feature","geometry":null},{"properties":{"zipcode":"79106","id":"ap4bj0z4objh"},"type":"Feature","geometry":null},{"properties":{"zipcode":"76164","id":"ap4bj0rlnhs7"},"type":"Feature","geometry":null},{"properties":{"zipcode":"79601-5602","id":"ap4bj114qtqi"},"type":"Feature","geometry":null},{"properties":{"zipcode":"76667","id":"ap4bj0uw5l8q"},"type":"Feature","geometry":null},{"properties":{"zipcode":"76667","id":"ap4bj157vi3k"},"type":"Feature","geometry":null},{"properties":{"zipcode":"76248","id":"ap4bj14wdht7"},"type":"Feature","geometry":null},{"properties":{"zipcode":"75234","id":"ap4bj0rqih0i"},"type":"Feature","geometry":null},{"properties":{"zipcode":"76513","id":"ap4bj138tlap"},"type":"Feature","geometry":null},{"properties":{"zipcode":"75460","id":"ap4bj0x569er"},"type":"Feature","geometry":null},{"properties":{"zipcode":"79412","id":"ap4bj132zw66"},"type":"Feature","geometry":null},{"properties":{"zipcode":"78232","id":"ap4bj13hqh7q"},"type":"Feature","geometry":null},{"properties":{"zipcode":"75032","id":"ap4bj11apbg8"},"type":"Feature","geometry":null},{"properties":{"zipcode":"77015","id":"ap4bj13f4gt9"},"type":"Feature","geometry":null},{"properties":{"zipcode":"78130","id":"ap4bj12c3i3l"},"type":"Feature","geometry":null},{"properties":{"zipcode":"76201","id":"ap4bj0vl2trl"},"type":"Feature","geometry":null},{"properties":{"zipcode":"77707","id":"ap4bj139l11d"},"type":"Feature","geometry":null},{"properties":{"zipcode":"75081","id":"ap4bj0wlcouv"},"type":"Feature","geometry":null},{"properties":{"zipcode":"75069","id":"ap4bj0ztw4p1"},"type":"Feature","geometry":null},{"properties":{"zipcode":"77019","id":"ap4bj16ko9y2"},"type":"Feature","geometry":null},{"properties":{"zipcode":"78013","id":"ap4bj14udfuo"},"type":"Feature","geometry":null},{"properties":{"zipcode":"75801","id":"ap4bj16uv6ym"},"type":"Feature","geometry":null},{"properties":{"zipcode":"76021","id":"ap4bj167yu96"},"type":"Feature","geometry":null},{"properties":{"zipcode":"75023","id":"ap4bj0xoli4r"},"type":"Feature","geometry":null},{"properties":{"zipcode":"75402","id":"ap4bj0ui2e7o"},"type":"Feature","geometry":null},{"properties":{"zipcode":"75001","id":"ap4bj105ft4z"},"type":"Feature","geometry":null},{"properties":{"zipcode":"76542","id":"ap4bj1746bqk"},"type":"Feature","geometry":null},{"properties":{"zipcode":"75503","id":"ap4bj0x5px1o"},"type":"Feature","geometry":null},{"properties":{"zipcode":"77702","id":"ap4bj0v9a19v"},"type":"Feature","geometry":null},{"properties":{"zipcode":"75248","id":"ap4bj0zpln6p"},"type":"Feature","geometry":null},{"properties":{"zipcode":"77702","id":"ap4bj0sg8ywy"},"type":"Feature","geometry":null},{"properties":{"zipcode":"77702","id":"ap4bj15kcd3l"},"type":"Feature","geometry":null},{"properties":{"zipcode":"75215","id":"ap4bj14ugpiz"},"type":"Feature","geometry":null},{"properties":{"zipcode":"77380","id":"ap4bj0rs0e1l"},"type":"Feature","geometry":null},{"properties":{"zipcode":"77092","id":"ap4bj0vl9ic8"},"type":"Feature","geometry":null},{"properties":{"zipcode":"75090","id":"ap4bj11mo8vw"},"type":"Feature","geometry":null},{"properties":{"zipcode":"76710","id":"ap4bj0t0ngt2"},"type":"Feature","geometry":null},{"properties":{"zipcode":"78216","id":"ap4bj13i8g3t"},"type":"Feature","geometry":null},{"properties":{"zipcode":"76548","id":"ap4bj0xkao4t"},"type":"Feature","geometry":null},{"properties":{"zipcode":"78501","id":"ap4bj1186ify"},"type":"Feature","geometry":null},{"properties":{"zipcode":"75028","id":"ap4bj153ny1o"},"type":"Feature","geometry":null},{"properties":{"zipcode":"76201","id":"ap4bj0slmkws"},"type":"Feature","geometry":null},{"properties":{"zipcode":"75043","id":"ap4bj0vz9yur"},"type":"Feature","geometry":null},{"properties":{"zipcode":"76643","id":"ap4bj0zfra4o"},"type":"Feature","geometry":null},{"properties":{"zipcode":"78642","id":"ap4bj0s6vl2b"},"type":"Feature","geometry":null},{"properties":{"zipcode":"77833","id":"ap4bj0zr2590"},"type":"Feature","geometry":null},{"properties":{"zipcode":"77015","id":"ap4bj11ddhve"},"type":"Feature","geometry":null},{"properties":{"zipcode":"76205","id":"ap4bj0xra4ze"},"type":"Feature","geometry":null},{"properties":{"zipcode":"75023","id":"ap4bj0wztifo"},"type":"Feature","geometry":null},{"properties":{"zipcode":"75043","id":"ap4bj12kgo19"},"type":"Feature","geometry":null},{"properties":{"zipcode":"76210","id":"ap4bj0v6r6ic"},"type":"Feature","geometry":null},{"properties":{"zipcode":"76086","id":"ap4bj0zaffuz"},"type":"Feature","geometry":null},{"properties":{"zipcode":"76107","id":"ap4bj0s22eqy"},"type":"Feature","geometry":null},{"properties":{"zipcode":"76087","id":"ap4bj124bu57"},"type":"Feature","geometry":null},{"properties":{"zipcode":"75126","id":"ap4bj0yez4qo"},"type":"Feature","geometry":null},{"properties":{"zipcode":"78041","id":"ap4bj141aaox"},"type":"Feature","geometry":null},{"properties":{"zipcode":"78041","id":"ap4bj11p7zhp"},"type":"Feature","geometry":null},{"properties":{"zipcode":"76542","id":"ap4bj0xn2nbk"},"type":"Feature","geometry":null},{"properties":{"zipcode":"78041","id":"ap4bj0qyr6e4"},"type":"Feature","geometry":null},{"properties":{"zipcode":"77701-3834","id":"ap4bj128c2u2"},"type":"Feature","geometry":null},{"properties":{"zipcode":"77904","id":"ap4bj0ru7lr2"},"type":"Feature","geometry":null},{"properties":{"zipcode":"76522","id":"ap4bj0xq0j8r"},"type":"Feature","geometry":null},{"properties":{"zipcode":"79424","id":"ap4bj0wv38ro"},"type":"Feature","geometry":null},{"properties":{"zipcode":"76528","id":"ap4bj142te6g"},"type":"Feature","geometry":null},{"properties":{"zipcode":"76712","id":"ap4bj1125p90"},"type":"Feature","geometry":null},{"properties":{"zipcode":"77094","id":"ap4bj0rgboyz"},"type":"Feature","geometry":null},{"properties":{"zipcode":"77651","id":"ap4bj0tw2vaz"},"type":"Feature","geometry":null},{"properties":{"zipcode":"76022","id":"ap4bj10o97kf"},"type":"Feature","geometry":null},{"properties":{"zipcode":"76051","id":"ap4bj13w8y80"},"type":"Feature","geometry":null},{"properties":{"zipcode":"76504","id":"ap4bj12sk0pc"},"type":"Feature","geometry":null},{"properties":{"zipcode":"76901","id":"ap4bj14udz9n"},"type":"Feature","geometry":null},{"properties":{"zipcode":"79602","id":"ap4bj0u6g7hk"},"type":"Feature","geometry":null},{"properties":{"zipcode":"78130","id":"ap4bj0x50b3n"},"type":"Feature","geometry":null},{"properties":{"zipcode":"76502","id":"ap4bj14tusk0"},"type":"Feature","geometry":null},{"properties":{"zipcode":"77550","id":"ap4bj0yrl1q0"},"type":"Feature","geometry":null},{"properties":{"zipcode":"75670","id":"ap4bj0y5l8ke"},"type":"Feature","geometry":null},{"properties":{"zipcode":"76244","id":"ap4bj15miayb"},"type":"Feature","geometry":null},{"properties":{"zipcode":"77450","id":"ap4bj13znyw5"},"type":"Feature","geometry":null},{"properties":{"zipcode":"76107","id":"ap4bj168oyjy"},"type":"Feature","geometry":null},{"properties":{"zipcode":"75254","id":"ap4bj0zjuoj7"},"type":"Feature","geometry":null},{"properties":{"zipcode":"76201","id":"ap4bj0r9tz6d"},"type":"Feature","geometry":null},{"properties":{"zipcode":"77058","id":"ap4bj0vm26hw"},"type":"Feature","geometry":null},{"properties":{"zipcode":"76104","id":"ap4bj0y3fk5j"},"type":"Feature","geometry":null},{"properties":{"zipcode":"75605","id":"ap4bj0zwv912"},"type":"Feature","geometry":null},{"properties":{"zipcode":"75604","id":"ap4bj11rblzt"},"type":"Feature","geometry":null},{"properties":{"zipcode":"75604","id":"ap4bj12n5r5g"},"type":"Feature","geometry":null},{"properties":{"zipcode":"75601","id":"ap4bj16g1mms"},"type":"Feature","geometry":null},{"properties":{"zipcode":"79106","id":"ap4bj17az138"},"type":"Feature","geometry":null},{"properties":{"zipcode":"79106","id":"ap4bj1057rha"},"type":"Feature","geometry":null},{"properties":{"zipcode":"79106","id":"ap4bj0zfy9x2"},"type":"Feature","geometry":null},{"properties":{"zipcode":"78681","id":"ap4bj16zxbgx"},"type":"Feature","geometry":null},{"properties":{"zipcode":"78028","id":"ap4bj0wkjme2"},"type":"Feature","geometry":null},{"properties":{"zipcode":"75023","id":"ap4bj172vqzc"},"type":"Feature","geometry":null},{"properties":{"zipcode":"76401","id":"ap4bj10a87kd"},"type":"Feature","geometry":null},{"properties":{"zipcode":"76262","id":"ap4bj0qwprgk"},"type":"Feature","geometry":null},{"properties":{"zipcode":"78130","id":"ap4bj0z1jg4j"},"type":"Feature","geometry":null},{"properties":{"zipcode":"77058","id":"ap4bj0vmhaew"},"type":"Feature","geometry":null},{"properties":{"zipcode":"75455","id":"ap4bj0quq1xj"},"type":"Feature","geometry":null},{"properties":{"zipcode":"79601","id":"ap4bj14ncc8h"},"type":"Feature","geometry":null},{"properties":{"zipcode":"76120","id":"ap4bj10af7wb"},"type":"Feature","geometry":null},{"properties":{"zipcode":"78155","id":"ap4bj14oosii"},"type":"Feature","geometry":null},{"properties":{"zipcode":"79602","id":"ap4bj0wu2jqw"},"type":"Feature","geometry":null},{"properties":{"zipcode":"76903","id":"ap4bj16zkxi5"},"type":"Feature","geometry":null},{"properties":{"zipcode":"75243","id":"ap4bj15vdt66"},"type":"Feature","geometry":null},{"properties":{"zipcode":"77079","id":"ap4bj0r3c6po"},"type":"Feature","geometry":null},{"properties":{"zipcode":"77536","id":"ap4bj103cwhq"},"type":"Feature","geometry":null},{"properties":{"zipcode":"77520","id":"ap4bj0yk9snz"},"type":"Feature","geometry":null},{"properties":{"zipcode":"76063","id":"ap4bj0wfqv4u"},"type":"Feature","geometry":null},{"properties":{"zipcode":"75074","id":"ap4bj0s7gxul"},"type":"Feature","geometry":null},{"properties":{"zipcode":"76541","id":"ap4bj1686y3w"},"type":"Feature","geometry":null},{"properties":{"zipcode":"77904","id":"ap4bj0tkddn3"},"type":"Feature","geometry":null},{"properties":{"zipcode":"77904","id":"ap4bj0rppj6b"},"type":"Feature","geometry":null},{"properties":{"zipcode":"77904","id":"ap4bj0xzn2gq"},"type":"Feature","geometry":null},{"properties":{"zipcode":"76040","id":"ap4bj0y3u74i"},"type":"Feature","geometry":null},{"properties":{"zipcode":"75219","id":"ap4bj0twv7v0"},"type":"Feature","geometry":null},{"properties":{"zipcode":"76234","id":"ap4bj0vtvd5z"},"type":"Feature","geometry":null},{"properties":{"zipcode":"78213","id":"ap4bj0u7sqxy"},"type":"Feature","geometry":null},{"properties":{"zipcode":"77079","id":"ap4bj0shxyws"},"type":"Feature","geometry":null},{"properties":{"zipcode":"78213","id":"ap4bj107jspg"},"type":"Feature","geometry":null},{"properties":{"zipcode":"77562","id":"ap4bj10521lj"},"type":"Feature","geometry":null},{"properties":{"zipcode":"76542","id":"ap4bj0v8cyyy"},"type":"Feature","geometry":null},{"properties":{"zipcode":"75007","id":"ap4bj0tgvrmk"},"type":"Feature","geometry":null},{"properties":{"zipcode":"75002","id":"ap4bj13d70j8"},"type":"Feature","geometry":null},{"properties":{"zipcode":"75057","id":"ap4bj0ulv9gz"},"type":"Feature","geometry":null},{"properties":{"zipcode":"77027","id":"ap4bj140my9c"},"type":"Feature","geometry":null},{"properties":{"zipcode":"75150","id":"ap4bj0sdwj5f"},"type":"Feature","geometry":null},{"properties":{"zipcode":"78228","id":"ap4bj0zodnmz"},"type":"Feature","geometry":null},{"properties":{"zipcode":"75228","id":"ap4bj0srgc9y"},"type":"Feature","geometry":null},{"properties":{"zipcode":"78226","id":"ap4bj0vwo711"},"type":"Feature","geometry":null},{"properties":{"zipcode":"75228","id":"ap4bj0vhpzbw"},"type":"Feature","geometry":null},{"properties":{"zipcode":"77456","id":"ap4bj0u4zl0j"},"type":"Feature","geometry":null},{"properties":{"zipcode":"76201","id":"ap4bj0th8uj3"},"type":"Feature","geometry":null},{"properties":{"zipcode":"75023","id":"ap4bj0u01qkq"},"type":"Feature","geometry":null},{"properties":{"zipcode":"75081","id":"ap4bj0uzygb1"},"type":"Feature","geometry":null},{"properties":{"zipcode":"78218","id":"ap4bj12fa6kt"},"type":"Feature","geometry":null},{"properties":{"zipcode":"78411","id":"ap4bj0zau017"},"type":"Feature","geometry":null},{"properties":{"zipcode":"76034","id":"ap4bj12m1nxo"},"type":"Feature","geometry":null},{"properties":{"zipcode":"75080","id":"ap4bj0s8116c"},"type":"Feature","geometry":null},{"properties":{"zipcode":"76107","id":"ap4bj0xzs4wm"},"type":"Feature","geometry":null},{"properties":{"zipcode":"78504","id":"ap4bj16mlm6n"},"type":"Feature","geometry":null},{"properties":{"zipcode":"78539","id":"ap4bj0sdi5z9"},"type":"Feature","geometry":null},{"properties":{"zipcode":"76115","id":"ap4bj14zx2zh"},"type":"Feature","geometry":null},{"properties":{"zipcode":"75219","id":"ap4bj10bjaz6"},"type":"Feature","geometry":null},{"properties":{"zipcode":"75604","id":"ap4bj14ufcru"},"type":"Feature","geometry":null},{"properties":{"zipcode":"75065","id":"ap4bj0xtnyob"},"type":"Feature","geometry":null},{"properties":{"zipcode":"78213","id":"ap4bj0u7oege"},"type":"Feature","geometry":null},{"properties":{"zipcode":"75042","id":"ap4bj0y40ex5"},"type":"Feature","geometry":null},{"properties":{"zipcode":"79414","id":"ap4bj0xzenb7"},"type":"Feature","geometry":null},{"properties":{"zipcode":"76021","id":"ap4bj10tla8h"},"type":"Feature","geometry":null},{"properties":{"zipcode":"75044","id":"ap4bj15vr1hs"},"type":"Feature","geometry":null},{"properties":{"zipcode":"76048","id":"ap4bj13k8o5r"},"type":"Feature","geometry":null},{"properties":{"zipcode":"77063","id":"ap4bj0rxqs8u"},"type":"Feature","geometry":null},{"properties":{"zipcode":"75042","id":"ap4bj15y34rr"},"type":"Feature","geometry":null},{"properties":{"zipcode":"76051","id":"ap4bj0xvuir2"},"type":"Feature","geometry":null},{"properties":{"zipcode":"77346","id":"ap4bj0yo2ygj"},"type":"Feature","geometry":null},{"properties":{"zipcode":"76528","id":"ap4bj0yhzq2p"},"type":"Feature","geometry":null},{"properties":{"zipcode":"77375","id":"ap4bj0x2l4j1"},"type":"Feature","geometry":null},{"properties":{"zipcode":"76504","id":"ap4bj0w82c5k"},"type":"Feature","geometry":null},{"properties":{"zipcode":"77380","id":"ap4bj10qdaql"},"type":"Feature","geometry":null},{"properties":{"zipcode":"76455","id":"ap4bj0vua3rq"},"type":"Feature","geometry":null},{"properties":{"zipcode":"75214","id":"ap4bj0rqcydj"},"type":"Feature","geometry":null},{"properties":{"zipcode":"75904","id":"ap4bj0uinm5e"},"type":"Feature","geometry":null},{"properties":{"zipcode":"78552","id":"ap4bj0soke5i"},"type":"Feature","geometry":null},{"properties":{"zipcode":"77018","id":"ap4bj12y6a47"},"type":"Feature","geometry":null},{"properties":{"zipcode":"76018","id":"ap4bj0sne1lh"},"type":"Feature","geometry":null},{"properties":{"zipcode":"75087","id":"ap4bj12wjkq2"},"type":"Feature","geometry":null},{"properties":{"zipcode":"77014","id":"ap4bj0wxgv6b"},"type":"Feature","geometry":null},{"properties":{"zipcode":"76522","id":"ap4bj110eoex"},"type":"Feature","geometry":null},{"properties":{"zipcode":"77845","id":"ap4bj0uu1gu6"},"type":"Feature","geometry":null},{"properties":{"zipcode":"78212","id":"ap4bj10x11o7"},"type":"Feature","geometry":null},{"properties":{"zipcode":"75042","id":"ap4bj0x0efjp"},"type":"Feature","geometry":null},{"properties":{"zipcode":"75601","id":"ap4bj0w8mawm"},"type":"Feature","geometry":null},{"properties":{"zipcode":"78230","id":"ap4bj0v78m9f"},"type":"Feature","geometry":null},{"properties":{"zipcode":"76092","id":"ap4bj0rscqby"},"type":"Feature","geometry":null},{"properties":{"zipcode":"78746","id":"ap4bj15vl2lx"},"type":"Feature","geometry":null},{"properties":{"zipcode":"76137","id":"ap4bj0yk2orn"},"type":"Feature","geometry":null},{"properties":{"zipcode":"78041","id":"ap4bj11ol6fn"},"type":"Feature","geometry":null},{"properties":{"zipcode":"79605","id":"ap4bj11d3w6x"},"type":"Feature","geometry":null},{"properties":{"zipcode":"75182","id":"ap4bj0wzu111"},"type":"Feature","geometry":null},{"properties":{"zipcode":"77414","id":"ap4bj0vpg0a6"},"type":"Feature","geometry":null},{"properties":{"zipcode":"78041","id":"ap4bj16vnuz2"},"type":"Feature","geometry":null},{"properties":{"zipcode":"77340","id":"ap4bj0v1melr"},"type":"Feature","geometry":null},{"properties":{"zipcode":"77057","id":"ap4bj14ivze8"},"type":"Feature","geometry":null},{"properties":{"zipcode":"76201","id":"ap4bj10iul7u"},"type":"Feature","geometry":null},{"properties":{"zipcode":"79424","id":"ap4bj0r54c0t"},"type":"Feature","geometry":null},{"properties":{"zipcode":"75062","id":"ap4bj0t60vzv"},"type":"Feature","geometry":null},{"properties":{"zipcode":"78840","id":"ap4bj0r0jexz"},"type":"Feature","geometry":null},{"properties":{"zipcode":"75089","id":"ap4bj0wsu96y"},"type":"Feature","geometry":null},{"properties":{"zipcode":"76244","id":"ap4bj146xbfa"},"type":"Feature","geometry":null},{"properties":{"zipcode":"78238","id":"ap4bj15ingj0"},"type":"Feature","geometry":null},{"properties":{"zipcode":"76006","id":"ap4bj10771zj"},"type":"Feature","geometry":null},{"properties":{"zipcode":"76234","id":"ap4bj122gehy"},"type":"Feature","geometry":null},{"properties":{"zipcode":"75077-2757","id":"ap4bj0rhizlj"},"type":"Feature","geometry":null},{"properties":{"zipcode":"76528","id":"ap4bj0uwyw4d"},"type":"Feature","geometry":null},{"properties":{"zipcode":"76021","id":"ap4bj15657zs"},"type":"Feature","geometry":null},{"properties":{"zipcode":"79902","id":"ap4bj0u4nb91"},"type":"Feature","geometry":null},{"properties":{"zipcode":"75228","id":"ap4bj0rkkgl3"},"type":"Feature","geometry":null},{"properties":{"zipcode":"78382","id":"ap4bj13od8kj"},"type":"Feature","geometry":null},{"properties":{"zipcode":"76063","id":"ap4bj0r5prrc"},"type":"Feature","geometry":null},{"properties":{"zipcode":"76712","id":"ap4bj0rh4y0h"},"type":"Feature","geometry":null},{"properties":{"zipcode":"78102","id":"ap4bj12onll4"},"type":"Feature","geometry":null},{"properties":{"zipcode":"78070","id":"ap4bj0zssepg"},"type":"Feature","geometry":null},{"properties":{"zipcode":"78218","id":"ap4bj0utpppj"},"type":"Feature","geometry":null},{"properties":{"zipcode":"75081","id":"ap4bj0yu7svk"},"type":"Feature","geometry":null},{"properties":{"zipcode":"76102","id":"ap4bj0ydg4rf"},"type":"Feature","geometry":null},{"properties":{"zipcode":"76120","id":"ap4bj0tp2vcf"},"type":"Feature","geometry":null},{"properties":{"zipcode":"77904","id":"ap4bj0xhlt8e"},"type":"Feature","geometry":null},{"properties":{"zipcode":"75243","id":"ap4bj0vqy6jj"},"type":"Feature","geometry":null},{"properties":{"zipcode":"78501","id":"ap4bj16xi6ri"},"type":"Feature","geometry":null},{"properties":{"zipcode":"76012","id":"ap4bj0wey6xs"},"type":"Feature","geometry":null},{"properties":{"zipcode":"79106","id":"ap4bj13qwsnd"},"type":"Feature","geometry":null},{"properties":{"zipcode":"78666","id":"ap4bj0ruet34"},"type":"Feature","geometry":null},{"properties":{"zipcode":"76107","id":"ap4bj0v0m3ha"},"type":"Feature","geometry":null},{"properties":{"zipcode":"76063","id":"ap4bj14angcr"},"type":"Feature","geometry":null},{"properties":{"zipcode":"75069","id":"ap4bj0vs7s6l"},"type":"Feature","geometry":null},{"properties":{"zipcode":"75081","id":"ap4bj1677brj"},"type":"Feature","geometry":null},{"properties":{"zipcode":"75081","id":"ap4bj1453e40"},"type":"Feature","geometry":null},{"properties":{"zipcode":"77027","id":"ap4bj10bfdsg"},"type":"Feature","geometry":null},{"properties":{"zipcode":"78239","id":"ap4bj12juvuo"},"type":"Feature","geometry":null},{"properties":{"zipcode":"79015","id":"ap4bj177t34p"},"type":"Feature","geometry":null},{"properties":{"zipcode":"78114","id":"ap4bj0yid2xx"},"type":"Feature","geometry":null},{"properties":{"zipcode":"76102","id":"ap4bj13imbq0"},"type":"Feature","geometry":null},{"properties":{"zipcode":"75023","id":"ap4bj0rm3xp8"},"type":"Feature","geometry":null},{"properties":{"zipcode":"76542","id":"ap4bj0rfjkw8"},"type":"Feature","geometry":null},{"properties":{"zipcode":"76501","id":"ap4bj0r2gc4c"},"type":"Feature","geometry":null},{"properties":{"zipcode":"75023","id":"ap4bj0txycaw"},"type":"Feature","geometry":null},{"properties":{"zipcode":"77375","id":"ap4bj0qte6dd"},"type":"Feature","geometry":null},{"properties":{"zipcode":"76667","id":"ap4bj0ts17pg"},"type":"Feature","geometry":null},{"properties":{"zipcode":"76541","id":"ap4bj0s79c19"},"type":"Feature","geometry":null},{"properties":{"zipcode":"76504","id":"ap4bj0srq67g"},"type":"Feature","geometry":null},{"properties":{"zipcode":"78212","id":"ap4bj0u521r2"},"type":"Feature","geometry":null},{"properties":{"zipcode":"75751","id":"ap4bj12r92w8"},"type":"Feature","geometry":null},{"properties":{"zipcode":"77346","id":"ap4bj0zqt4m0"},"type":"Feature","geometry":null},{"properties":{"zipcode":"76063","id":"ap4bj0s2mwcv"},"type":"Feature","geometry":null},{"properties":{"zipcode":"78229","id":"ap4bj100vqkh"},"type":"Feature","geometry":null},{"properties":{"zipcode":"78624","id":"ap4bj0s48pf1"},"type":"Feature","geometry":null},{"properties":{"zipcode":"76522","id":"ap4bj15o8fvv"},"type":"Feature","geometry":null},{"properties":{"zipcode":"75080","id":"ap4bj12q2sc6"},"type":"Feature","geometry":null},{"properties":{"zipcode":"75090","id":"ap4bj15wgfg7"},"type":"Feature","geometry":null},{"properties":{"zipcode":"76033","id":"ap4bj0w7rssj"},"type":"Feature","geometry":null},{"properties":{"zipcode":"76006","id":"ap4bj0sta6hb"},"type":"Feature","geometry":null},{"properties":{"zipcode":"79764","id":"ap4bj0vnrcdl"},"type":"Feature","geometry":null},{"properties":{"zipcode":"77651","id":"ap4bj0vzgb9y"},"type":"Feature","geometry":null},{"properties":{"zipcode":"75214","id":"ap4bj0yer9hx"},"type":"Feature","geometry":null},{"properties":{"zipcode":"76501","id":"ap4bj0yxtkd4"},"type":"Feature","geometry":null},{"properties":{"zipcode":"79602","id":"ap4bj15c3hqp"},"type":"Feature","geometry":null},{"properties":{"zipcode":"75069","id":"ap4bj12l7o9s"},"type":"Feature","geometry":null},{"properties":{"zipcode":"78573","id":"ap4bj0snvk9y"},"type":"Feature","geometry":null},{"properties":{"zipcode":"75001","id":"ap4bj0rggos4"},"type":"Feature","geometry":null},{"properties":{"zipcode":"76201","id":"ap4bj114wiw1"},"type":"Feature","geometry":null},{"properties":{"zipcode":"76712","id":"ap4bj0w1mcym"},"type":"Feature","geometry":null},{"properties":{"zipcode":"79925","id":"ap4bj11r1un9"},"type":"Feature","geometry":null},{"properties":{"zipcode":"77498","id":"ap4bj0wkxcxu"},"type":"Feature","geometry":null},{"properties":{"zipcode":"78155","id":"ap4bj0vtaxv8"},"type":"Feature","geometry":null},{"properties":{"zipcode":"79706","id":"ap4bj124340v"},"type":"Feature","geometry":null},{"properties":{"zipcode":"75093","id":"ap4bj0rtk2zh"},"type":"Feature","geometry":null},{"properties":{"zipcode":"75057","id":"ap4bj0udjnyw"},"type":"Feature","geometry":null},{"properties":{"zipcode":"76548","id":"ap4bj16sb547"},"type":"Feature","geometry":null},{"properties":{"zipcode":"78209","id":"ap4bj0wkxshw"},"type":"Feature","geometry":null},{"properties":{"zipcode":"77539","id":"ap4bj0snjxst"},"type":"Feature","geometry":null},{"properties":{"zipcode":"75080","id":"ap4bj13qc86r"},"type":"Feature","geometry":null},{"properties":{"zipcode":"78226","id":"ap4bj15506pw"},"type":"Feature","geometry":null},{"properties":{"zipcode":"78130","id":"ap4bj0zgnlh3"},"type":"Feature","geometry":null},{"properties":{"zipcode":"77546","id":"ap4bj15cd2yt"},"type":"Feature","geometry":null},{"properties":{"zipcode":"76548","id":"ap4bj10upl5v"},"type":"Feature","geometry":null},{"properties":{"zipcode":"76548","id":"ap4bj0zq6ayx"},"type":"Feature","geometry":null},{"properties":{"zipcode":"76501","id":"ap4bj0zxsekb"},"type":"Feature","geometry":null},{"properties":{"zipcode":"78212","id":"ap4bj0sun222"},"type":"Feature","geometry":null},{"properties":{"zipcode":"75234","id":"ap4bj0whc19j"},"type":"Feature","geometry":null},{"properties":{"zipcode":"76710","id":"ap4bj0yd0stf"},"type":"Feature","geometry":null},{"properties":{"zipcode":"76086","id":"ap4bj0vrsfkg"},"type":"Feature","geometry":null},{"properties":{"zipcode":"77063","id":"ap4bj0rzrbus"},"type":"Feature","geometry":null},{"properties":{"zipcode":"75119","id":"ap4bj0x30rgk"},"type":"Feature","geometry":null},{"properties":{"zipcode":"76401","id":"ap4bj136b31f"},"type":"Feature","geometry":null},{"properties":{"zipcode":"77511","id":"ap4bj0yxfm6r"},"type":"Feature","geometry":null},{"properties":{"zipcode":"76542","id":"ap4bj0skpccw"},"type":"Feature","geometry":null}],"is_temporal":false,"author":{"url":"","metadata":null,"contact_name":null,"contact_address":null,"source":null,"contact_phone":null},"source":"","pagination":{"sort":null,"start":0,"total":1012,"limit":1000000},"state":"parsed","tags":"","published":"2014-08-14T19:42:44-04:00","id":213013}