{"type":"FeatureCollection","data_type":"Dataset","url_type":null,"permissions":[{"permissions":{"download":true,"view":true},"group_id":"everyone"}],"classification":null,"title":"East_Coast_2_10_2012","count":380,"stream_id":213007,"contributor":{"url":"http://geocommons.com/users/41497","name":"thebirdinthesky"},"data_attributes":null,"calculation_params":null,"icon_link":null,"link":"http://geocommons.com/overlays/213007.json","extent":[0.0,0.0,0.0,0.0],"geometry_types":null,"unique_name":null,"name":"East_Coast_2_10_2012","feature_count":380,"description":"","next_feature":null,"is_raster":false,"short_classification":"Y","features":[{"properties":{"zipcode":"28204","id":"ap4biso78w2w"},"type":"Feature","geometry":null},{"properties":{"zipcode":"32792","id":"ap4bispb0hmp"},"type":"Feature","geometry":null},{"properties":{"zipcode":"65804","id":"ap4bisitmidr"},"type":"Feature","geometry":null},{"properties":{"zipcode":"2043","id":"ap4biss9bj4l"},"type":"Feature","geometry":null},{"properties":{"zipcode":"33071","id":"ap4bishsqr8r"},"type":"Feature","geometry":null},{"properties":{"zipcode":"33071","id":"ap4biswlrmia"},"type":"Feature","geometry":null},{"properties":{"zipcode":"33071","id":"ap4bisr8cknm"},"type":"Feature","geometry":null},{"properties":{"zipcode":"27606","id":"ap4bisnxygps"},"type":"Feature","geometry":null},{"properties":{"zipcode":"2043","id":"ap4bisti80my"},"type":"Feature","geometry":null},{"properties":{"zipcode":"2043","id":"ap4bisrlzdnv"},"type":"Feature","geometry":null},{"properties":{"zipcode":"33603","id":"ap4bisv2gqta"},"type":"Feature","geometry":null},{"properties":{"zipcode":"33328","id":"ap4bisuiqu31"},"type":"Feature","geometry":null},{"properties":{"zipcode":"6880","id":"ap4bisqyhi1t"},"type":"Feature","geometry":null},{"properties":{"zipcode":"2043","id":"ap4bisihbd4t"},"type":"Feature","geometry":null},{"properties":{"zipcode":"65065","id":"ap4bistwis8h"},"type":"Feature","geometry":null},{"properties":{"zipcode":"65065","id":"ap4bisxjzda2"},"type":"Feature","geometry":null},{"properties":{"zipcode":"29482","id":"ap4bisrzs4cn"},"type":"Feature","geometry":null},{"properties":{"zipcode":"30342","id":"ap4bispurn9b"},"type":"Feature","geometry":null},{"properties":{"zipcode":"10001","id":"ap4bisja4p0o"},"type":"Feature","geometry":null},{"properties":{"zipcode":"49009","id":"ap4bisnppxqp"},"type":"Feature","geometry":null},{"properties":{"zipcode":"30907","id":"ap4bisqttqlb"},"type":"Feature","geometry":null},{"properties":{"zipcode":"22901","id":"ap4bisu5nloq"},"type":"Feature","geometry":null},{"properties":{"zipcode":"7090","id":"ap4bisqg29uy"},"type":"Feature","geometry":null},{"properties":{"zipcode":"45242","id":"ap4bisqdblp2"},"type":"Feature","geometry":null},{"properties":{"zipcode":"45238","id":"ap4bist2au69"},"type":"Feature","geometry":null},{"properties":{"zipcode":"45238","id":"ap4bisrjewa1"},"type":"Feature","geometry":null},{"properties":{"zipcode":"4330","id":"ap4bismo5ax6"},"type":"Feature","geometry":null},{"properties":{"zipcode":"1913","id":"ap4bisqpung1"},"type":"Feature","geometry":null},{"properties":{"zipcode":"2135","id":"ap4biswukf9p"},"type":"Feature","geometry":null},{"properties":{"zipcode":"11580","id":"ap4bisw5byud"},"type":"Feature","geometry":null},{"properties":{"zipcode":"30338","id":"ap4bisrd8j8z"},"type":"Feature","geometry":null},{"properties":{"zipcode":"10003","id":"ap4bisq16hha"},"type":"Feature","geometry":null},{"properties":{"zipcode":"30060","id":"ap4bisqyvmz1"},"type":"Feature","geometry":null},{"properties":{"zipcode":"10128","id":"ap4bisux8bem"},"type":"Feature","geometry":null},{"properties":{"zipcode":"2148","id":"ap4bisroy25o"},"type":"Feature","geometry":null},{"properties":{"zipcode":"33162","id":"ap4bisqz5sqf"},"type":"Feature","geometry":null},{"properties":{"zipcode":"31909","id":"ap4bisuu1tqn"},"type":"Feature","geometry":null},{"properties":{"zipcode":"48009","id":"ap4bisrrpvsk"},"type":"Feature","geometry":null},{"properties":{"zipcode":"47250","id":"ap4bisthfytt"},"type":"Feature","geometry":null},{"properties":{"zipcode":"10025","id":"ap4bisupnmws"},"type":"Feature","geometry":null},{"properties":{"zipcode":"10605","id":"ap4bisu33bqw"},"type":"Feature","geometry":null},{"properties":{"zipcode":"12208","id":"ap4bisjzj2vz"},"type":"Feature","geometry":null},{"properties":{"zipcode":"46220","id":"ap4bisl8uz2g"},"type":"Feature","geometry":null},{"properties":{"zipcode":"30907","id":"ap4bism71dhy"},"type":"Feature","geometry":null},{"properties":{"zipcode":"65102","id":"ap4bisrqjvzp"},"type":"Feature","geometry":null},{"properties":{"zipcode":"32401","id":"ap4bisrli5yp"},"type":"Feature","geometry":null},{"properties":{"zipcode":"65101","id":"ap4bishnbh25"},"type":"Feature","geometry":null},{"properties":{"zipcode":"3053","id":"ap4bisvoitam"},"type":"Feature","geometry":null},{"properties":{"zipcode":"20170","id":"ap4bisvdmr34"},"type":"Feature","geometry":null},{"properties":{"zipcode":"43205","id":"ap4bisocmwq3"},"type":"Feature","geometry":null},{"properties":{"zipcode":"33409","id":"ap4bisp6ckvq"},"type":"Feature","geometry":null},{"properties":{"zipcode":"33409","id":"ap4bist2t5ij"},"type":"Feature","geometry":null},{"properties":{"zipcode":"33467","id":"ap4bisrdpczl"},"type":"Feature","geometry":null},{"properties":{"zipcode":"19103","id":"ap4bisjsseg7"},"type":"Feature","geometry":null},{"properties":{"zipcode":"32065","id":"ap4biswh2pru"},"type":"Feature","geometry":null},{"properties":{"zipcode":"23505","id":"ap4bishxeafs"},"type":"Feature","geometry":null},{"properties":{"zipcode":"30341","id":"ap4biskdikh6"},"type":"Feature","geometry":null},{"properties":{"zipcode":"33409","id":"ap4bisv03efh"},"type":"Feature","geometry":null},{"properties":{"zipcode":"7052","id":"ap4bisp6i2e7"},"type":"Feature","geometry":null},{"properties":{"zipcode":"33139","id":"ap4bissidylu"},"type":"Feature","geometry":null},{"properties":{"zipcode":"23505","id":"ap4bisujqn8o"},"type":"Feature","geometry":null},{"properties":{"zipcode":"18235","id":"ap4bism3xjpa"},"type":"Feature","geometry":null},{"properties":{"zipcode":"43085","id":"ap4bisoo5d6a"},"type":"Feature","geometry":null},{"properties":{"zipcode":"30144","id":"ap4bishiluy9"},"type":"Feature","geometry":null},{"properties":{"zipcode":"43214","id":"ap4bisiqf7ct"},"type":"Feature","geometry":null},{"properties":{"zipcode":"64116","id":"ap4bisph6cjt"},"type":"Feature","geometry":null},{"properties":{"zipcode":"48009","id":"ap4bisjxkath"},"type":"Feature","geometry":null},{"properties":{"zipcode":"48917","id":"ap4bispeswlg"},"type":"Feature","geometry":null},{"properties":{"zipcode":"48917","id":"ap4bislbrwd9"},"type":"Feature","geometry":null},{"properties":{"zipcode":"34209","id":"ap4biswxo3cu"},"type":"Feature","geometry":null},{"properties":{"zipcode":"33763","id":"ap4bisllcpby"},"type":"Feature","geometry":null},{"properties":{"zipcode":"11787","id":"ap4bisvl6wgf"},"type":"Feature","geometry":null},{"properties":{"zipcode":"63123","id":"ap4bisq9dllg"},"type":"Feature","geometry":null},{"properties":{"zipcode":"32746","id":"ap4bisofilrt"},"type":"Feature","geometry":null},{"properties":{"zipcode":"32713","id":"ap4bisn95ia8"},"type":"Feature","geometry":null},{"properties":{"zipcode":"23505","id":"ap4bispph13m"},"type":"Feature","geometry":null},{"properties":{"zipcode":"23505","id":"ap4bishbm037"},"type":"Feature","geometry":null},{"properties":{"zipcode":"44805","id":"ap4bisqbutr3"},"type":"Feature","geometry":null},{"properties":{"zipcode":"10016","id":"ap4bislifsd6"},"type":"Feature","geometry":null},{"properties":{"zipcode":"14580","id":"ap4bisrtqlq2"},"type":"Feature","geometry":null},{"properties":{"zipcode":"2906","id":"ap4bisoo5wsc"},"type":"Feature","geometry":null},{"properties":{"zipcode":"19063","id":"ap4bisw4zdl5"},"type":"Feature","geometry":null},{"properties":{"zipcode":"44130","id":"ap4bisppr2xz"},"type":"Feature","geometry":null},{"properties":{"zipcode":"21286","id":"ap4bisl4qglh"},"type":"Feature","geometry":null},{"properties":{"zipcode":"10003","id":"ap4bisk3eh0b"},"type":"Feature","geometry":null},{"properties":{"zipcode":"33071","id":"ap4bisx3qfq5"},"type":"Feature","geometry":null},{"properties":{"zipcode":"33071","id":"ap4bishn08yw"},"type":"Feature","geometry":null},{"properties":{"zipcode":"10570","id":"ap4biso9nlcz"},"type":"Feature","geometry":null},{"properties":{"zipcode":"17013","id":"ap4bismw9888"},"type":"Feature","geometry":null},{"properties":{"zipcode":"8753","id":"ap4bisw54mgu"},"type":"Feature","geometry":null},{"properties":{"zipcode":"46202","id":"ap4bisobwhfb"},"type":"Feature","geometry":null},{"properties":{"zipcode":"4938","id":"ap4bistb4nki"},"type":"Feature","geometry":null},{"properties":{"zipcode":"3110","id":"ap4bisi6c4jz"},"type":"Feature","geometry":null},{"properties":{"zipcode":"44130","id":"ap4bistll17d"},"type":"Feature","geometry":null},{"properties":{"zipcode":"19608","id":"ap4bispqqkf2"},"type":"Feature","geometry":null},{"properties":{"zipcode":"19608","id":"ap4bistb2t3i"},"type":"Feature","geometry":null},{"properties":{"zipcode":"19608","id":"ap4bislxjge6"},"type":"Feature","geometry":null},{"properties":{"zipcode":"19608","id":"ap4bisni6dl6"},"type":"Feature","geometry":null},{"properties":{"zipcode":"45459","id":"ap4bisllb3sg"},"type":"Feature","geometry":null},{"properties":{"zipcode":"27604","id":"ap4bispxecch"},"type":"Feature","geometry":null},{"properties":{"zipcode":"27604","id":"ap4biso7egcq"},"type":"Feature","geometry":null},{"properties":{"zipcode":"63703","id":"ap4bisoev69l"},"type":"Feature","geometry":null},{"properties":{"zipcode":"1810","id":"ap4bisjcfews"},"type":"Feature","geometry":null},{"properties":{"zipcode":"44313","id":"ap4bisq8384m"},"type":"Feature","geometry":null},{"properties":{"zipcode":"30087","id":"ap4bisvou7sj"},"type":"Feature","geometry":null},{"properties":{"zipcode":"30214","id":"ap4bishzvucb"},"type":"Feature","geometry":null},{"properties":{"zipcode":"2886","id":"ap4bist84kz2"},"type":"Feature","geometry":null},{"properties":{"zipcode":"30214","id":"ap4bisska3l2"},"type":"Feature","geometry":null},{"properties":{"zipcode":"2906","id":"ap4bisulmsbo"},"type":"Feature","geometry":null},{"properties":{"zipcode":"33071","id":"ap4bisvg717w"},"type":"Feature","geometry":null},{"properties":{"zipcode":"19608","id":"ap4bisvoxwjt"},"type":"Feature","geometry":null},{"properties":{"zipcode":"19608","id":"ap4bismoknb8"},"type":"Feature","geometry":null},{"properties":{"zipcode":"27401","id":"ap4bisxjfakx"},"type":"Feature","geometry":null},{"properties":{"zipcode":"32714","id":"ap4bisi63a1s"},"type":"Feature","geometry":null},{"properties":{"zipcode":"1845","id":"ap4biswqjmu4"},"type":"Feature","geometry":null},{"properties":{"zipcode":"29841","id":"ap4bissubkai"},"type":"Feature","geometry":null},{"properties":{"zipcode":"6511","id":"ap4bisvppcn1"},"type":"Feature","geometry":null},{"properties":{"zipcode":"1913","id":"ap4bisoca5q9"},"type":"Feature","geometry":null},{"properties":{"zipcode":"65101","id":"ap4bisszzpxl"},"type":"Feature","geometry":null},{"properties":{"zipcode":"30143","id":"ap4bisjz9r9w"},"type":"Feature","geometry":null},{"properties":{"zipcode":"17013","id":"ap4biswagbfw"},"type":"Feature","geometry":null},{"properties":{"zipcode":"17013","id":"ap4bisljdqup"},"type":"Feature","geometry":null},{"properties":{"zipcode":"17013","id":"ap4bismltprf"},"type":"Feature","geometry":null},{"properties":{"zipcode":"17013","id":"ap4bisi753aq"},"type":"Feature","geometry":null},{"properties":{"zipcode":"17013","id":"ap4bisu5l79y"},"type":"Feature","geometry":null},{"properties":{"zipcode":"6614","id":"ap4bisvivuqx"},"type":"Feature","geometry":null},{"properties":{"zipcode":"33781","id":"ap4bisly9plo"},"type":"Feature","geometry":null},{"properties":{"zipcode":"4043","id":"ap4bisqgu4kq"},"type":"Feature","geometry":null},{"properties":{"zipcode":"45402","id":"ap4bisjfd465"},"type":"Feature","geometry":null},{"properties":{"zipcode":"44312","id":"ap4bissm9rvf"},"type":"Feature","geometry":null},{"properties":{"zipcode":"44305","id":"ap4bisocbbwi"},"type":"Feature","geometry":null},{"properties":{"zipcode":"32803","id":"ap4biswh3gyy"},"type":"Feature","geometry":null},{"properties":{"zipcode":"33071","id":"ap4bispvrqan"},"type":"Feature","geometry":null},{"properties":{"zipcode":"3801","id":"ap4bisr2chdg"},"type":"Feature","geometry":null},{"properties":{"zipcode":"46250","id":"ap4bispciscc"},"type":"Feature","geometry":null},{"properties":{"zipcode":"10901","id":"ap4bisi54m2k"},"type":"Feature","geometry":null},{"properties":{"zipcode":"10962","id":"ap4bisv5ctmd"},"type":"Feature","geometry":null},{"properties":{"zipcode":"33021","id":"ap4bisujt3j0"},"type":"Feature","geometry":null},{"properties":{"zipcode":"10003","id":"ap4bisq0599r"},"type":"Feature","geometry":null},{"properties":{"zipcode":"7860","id":"ap4bism4n2qs"},"type":"Feature","geometry":null},{"properties":{"zipcode":"63141","id":"ap4bisnp9r4j"},"type":"Feature","geometry":null},{"properties":{"zipcode":"33712","id":"ap4bisticp8z"},"type":"Feature","geometry":null},{"properties":{"zipcode":"34205","id":"ap4bisk45143"},"type":"Feature","geometry":null},{"properties":{"zipcode":"10011","id":"ap4bisu5qo85"},"type":"Feature","geometry":null},{"properties":{"zipcode":"33928","id":"ap4bisv58m8c"},"type":"Feature","geometry":null},{"properties":{"zipcode":"30329","id":"ap4bisttlm0v"},"type":"Feature","geometry":null},{"properties":{"zipcode":"49507","id":"ap4bisprrte4"},"type":"Feature","geometry":null},{"properties":{"zipcode":"32714","id":"ap4bist6e60e"},"type":"Feature","geometry":null},{"properties":{"zipcode":"32225","id":"ap4bishg7fd0"},"type":"Feature","geometry":null},{"properties":{"zipcode":"7405","id":"ap4bisn1uhx7"},"type":"Feature","geometry":null},{"properties":{"zipcode":"7005","id":"ap4bist181rm"},"type":"Feature","geometry":null},{"properties":{"zipcode":"30345","id":"ap4bislvnjvc"},"type":"Feature","geometry":null},{"properties":{"zipcode":"44685","id":"ap4bisqx1str"},"type":"Feature","geometry":null},{"properties":{"zipcode":"44663","id":"ap4bisu3mkwr"},"type":"Feature","geometry":null},{"properties":{"zipcode":"33441","id":"ap4bism0dcfp"},"type":"Feature","geometry":null},{"properties":{"zipcode":"32561","id":"ap4bisshbwdr"},"type":"Feature","geometry":null},{"properties":{"zipcode":"32503","id":"ap4bismf0v88"},"type":"Feature","geometry":null},{"properties":{"zipcode":"3301","id":"ap4bisizk66f"},"type":"Feature","geometry":null},{"properties":{"zipcode":"32714","id":"ap4bisuw8eeu"},"type":"Feature","geometry":null},{"properties":{"zipcode":"12110","id":"ap4bisltdi20"},"type":"Feature","geometry":null},{"properties":{"zipcode":"12205","id":"ap4bism1sij0"},"type":"Feature","geometry":null},{"properties":{"zipcode":"33024","id":"ap4bisjbx1r0"},"type":"Feature","geometry":null},{"properties":{"zipcode":"32504","id":"ap4bistfblkz"},"type":"Feature","geometry":null},{"properties":{"zipcode":"14424","id":"ap4bish9wclt"},"type":"Feature","geometry":null},{"properties":{"zipcode":"7871","id":"ap4bismdr48g"},"type":"Feature","geometry":null},{"properties":{"zipcode":"33071","id":"ap4bishkhrdd"},"type":"Feature","geometry":null},{"properties":{"zipcode":"45426","id":"ap4bisxedu45"},"type":"Feature","geometry":null},{"properties":{"zipcode":"45402","id":"ap4bisj7h551"},"type":"Feature","geometry":null},{"properties":{"zipcode":"6450","id":"ap4bisuyyegc"},"type":"Feature","geometry":null},{"properties":{"zipcode":"15216","id":"ap4bispa49o2"},"type":"Feature","geometry":null},{"properties":{"zipcode":"46208","id":"ap4bistcl6md"},"type":"Feature","geometry":null},{"properties":{"zipcode":"48104","id":"ap4bisogly4a"},"type":"Feature","geometry":null},{"properties":{"zipcode":"48201","id":"ap4bisuaydbp"},"type":"Feature","geometry":null},{"properties":{"zipcode":"18360","id":"ap4bishv8lym"},"type":"Feature","geometry":null},{"properties":{"zipcode":"02171-2122","id":"ap4bisiu06hw"},"type":"Feature","geometry":null},{"properties":{"zipcode":"63050","id":"ap4bisscphat"},"type":"Feature","geometry":null},{"properties":{"zipcode":"63044","id":"ap4bismr8cv0"},"type":"Feature","geometry":null},{"properties":{"zipcode":"63123","id":"ap4bisojmrbs"},"type":"Feature","geometry":null},{"properties":{"zipcode":"63628","id":"ap4bism2vn81"},"type":"Feature","geometry":null},{"properties":{"zipcode":"30329","id":"ap4bistrkl9c"},"type":"Feature","geometry":null},{"properties":{"zipcode":"20008","id":"ap4bisnvw9p2"},"type":"Feature","geometry":null},{"properties":{"zipcode":"49319","id":"ap4bisodde8u"},"type":"Feature","geometry":null},{"properties":{"zipcode":"43160","id":"ap4bismitjmr"},"type":"Feature","geometry":null},{"properties":{"zipcode":"43123","id":"ap4bisrv4pox"},"type":"Feature","geometry":null},{"properties":{"zipcode":"34744","id":"ap4bistyuvcm"},"type":"Feature","geometry":null},{"properties":{"zipcode":"45220","id":"ap4bispohiss"},"type":"Feature","geometry":null},{"properties":{"zipcode":"27104","id":"ap4bisnj1ecz"},"type":"Feature","geometry":null},{"properties":{"zipcode":"10016","id":"ap4bisktf0lt"},"type":"Feature","geometry":null},{"properties":{"zipcode":"10019","id":"ap4bisj88sn4"},"type":"Feature","geometry":null},{"properties":{"zipcode":"11743","id":"ap4bisn8nzfy"},"type":"Feature","geometry":null},{"properties":{"zipcode":"47025","id":"ap4bisxgkall"},"type":"Feature","geometry":null},{"properties":{"zipcode":"45030","id":"ap4biswka16k"},"type":"Feature","geometry":null},{"properties":{"zipcode":"10019","id":"ap4bislx1sew"},"type":"Feature","geometry":null},{"properties":{"zipcode":"10019","id":"ap4bisqewycu"},"type":"Feature","geometry":null},{"properties":{"zipcode":"34108","id":"ap4biswja6eo"},"type":"Feature","geometry":null},{"properties":{"zipcode":"6360","id":"ap4bishuosul"},"type":"Feature","geometry":null},{"properties":{"zipcode":"10128","id":"ap4bisqe6v5k"},"type":"Feature","geometry":null},{"properties":{"zipcode":"89118","id":"ap4bisptivc8"},"type":"Feature","geometry":null},{"properties":{"zipcode":"6074","id":"ap4bismfef6l"},"type":"Feature","geometry":null},{"properties":{"zipcode":"6074","id":"ap4bissy5zbh"},"type":"Feature","geometry":null},{"properties":{"zipcode":"3060","id":"ap4bisrd11gu"},"type":"Feature","geometry":null},{"properties":{"zipcode":"6798","id":"ap4biswapi5o"},"type":"Feature","geometry":null},{"properties":{"zipcode":"10010","id":"ap4bistp6xn2"},"type":"Feature","geometry":null},{"properties":{"zipcode":"25701","id":"ap4bisnteyyz"},"type":"Feature","geometry":null},{"properties":{"zipcode":"44305","id":"ap4bisq9wc6v"},"type":"Feature","geometry":null},{"properties":{"zipcode":"33606","id":"ap4bisuqymaz"},"type":"Feature","geometry":null},{"properties":{"zipcode":"33134","id":"ap4bisl8ml36"},"type":"Feature","geometry":null},{"properties":{"zipcode":"40207","id":"ap4bishtnp9m"},"type":"Feature","geometry":null},{"properties":{"zipcode":"10017","id":"ap4bistpmaen"},"type":"Feature","geometry":null},{"properties":{"zipcode":"40503","id":"ap4bisi70h7k"},"type":"Feature","geometry":null},{"properties":{"zipcode":"32714","id":"ap4bisk978xq"},"type":"Feature","geometry":null},{"properties":{"zipcode":"63701","id":"ap4bishvm1v2"},"type":"Feature","geometry":null},{"properties":{"zipcode":"25504","id":"ap4biss69vfn"},"type":"Feature","geometry":null},{"properties":{"zipcode":"28804","id":"ap4bisl6jgsk"},"type":"Feature","geometry":null},{"properties":{"zipcode":"19018","id":"ap4bisqkf3s8"},"type":"Feature","geometry":null},{"properties":{"zipcode":"21401","id":"ap4bislbgigl"},"type":"Feature","geometry":null},{"properties":{"zipcode":"11201","id":"ap4bisrbiwry"},"type":"Feature","geometry":null},{"properties":{"zipcode":"7073","id":"ap4bislndyxh"},"type":"Feature","geometry":null},{"properties":{"zipcode":"1028","id":"ap4bisvf5fhl"},"type":"Feature","geometry":null},{"properties":{"zipcode":"1106","id":"ap4bisuy6r0w"},"type":"Feature","geometry":null},{"properties":{"zipcode":"13203","id":"ap4bisrmqu5c"},"type":"Feature","geometry":null},{"properties":{"zipcode":"18104","id":"ap4bistzy70g"},"type":"Feature","geometry":null},{"properties":{"zipcode":"48867","id":"ap4bishialbl"},"type":"Feature","geometry":null},{"properties":{"zipcode":"6235","id":"ap4bisvmdxl2"},"type":"Feature","geometry":null},{"properties":{"zipcode":"28801","id":"ap4bisofnugk"},"type":"Feature","geometry":null},{"properties":{"zipcode":"27707","id":"ap4biskba88l"},"type":"Feature","geometry":null},{"properties":{"zipcode":"27607","id":"ap4biswhtqth"},"type":"Feature","geometry":null},{"properties":{"zipcode":"63701","id":"ap4bisi97qxd"},"type":"Feature","geometry":null},{"properties":{"zipcode":"10024","id":"ap4bissnnzuu"},"type":"Feature","geometry":null},{"properties":{"zipcode":"12603","id":"ap4bisq1qkx2"},"type":"Feature","geometry":null},{"properties":{"zipcode":"12942","id":"ap4bisi0pq4v"},"type":"Feature","geometry":null},{"properties":{"zipcode":"19103","id":"ap4bisii1xqk"},"type":"Feature","geometry":null},{"properties":{"zipcode":"22206","id":"ap4bisntd99q"},"type":"Feature","geometry":null},{"properties":{"zipcode":"44663","id":"ap4biss6u5d4"},"type":"Feature","geometry":null},{"properties":{"zipcode":"30132","id":"ap4bisrandm7"},"type":"Feature","geometry":null},{"properties":{"zipcode":"44663","id":"ap4bisoavx7o"},"type":"Feature","geometry":null},{"properties":{"zipcode":"44663","id":"ap4bish5azpz"},"type":"Feature","geometry":null},{"properties":{"zipcode":"28105","id":"ap4bishz9oda"},"type":"Feature","geometry":null},{"properties":{"zipcode":"28105","id":"ap4bisxji4tk"},"type":"Feature","geometry":null},{"properties":{"zipcode":"30122","id":"ap4bissa7lqe"},"type":"Feature","geometry":null},{"properties":{"zipcode":"30076","id":"ap4bispzqkj5"},"type":"Feature","geometry":null},{"properties":{"zipcode":"7419","id":"ap4bish9llr0"},"type":"Feature","geometry":null},{"properties":{"zipcode":"64801","id":"ap4bisq0zzj3"},"type":"Feature","geometry":null},{"properties":{"zipcode":"19904","id":"ap4biskz0p09"},"type":"Feature","geometry":null},{"properties":{"zipcode":"46368","id":"ap4bispxtuf4"},"type":"Feature","geometry":null},{"properties":{"zipcode":"46383","id":"ap4bisv90fhf"},"type":"Feature","geometry":null},{"properties":{"zipcode":"8840","id":"ap4biski8yxj"},"type":"Feature","geometry":null},{"properties":{"zipcode":"7040","id":"ap4bish5cgun"},"type":"Feature","geometry":null},{"properties":{"zipcode":"7435","id":"ap4bisoabbk2"},"type":"Feature","geometry":null},{"properties":{"zipcode":"8055","id":"ap4bispprm8w"},"type":"Feature","geometry":null},{"properties":{"zipcode":"14224","id":"ap4bissazdub"},"type":"Feature","geometry":null},{"properties":{"zipcode":"10924","id":"ap4bisw14iod"},"type":"Feature","geometry":null},{"properties":{"zipcode":"10924","id":"ap4bispbr8ti"},"type":"Feature","geometry":null},{"properties":{"zipcode":"31405","id":"ap4bistzvop3"},"type":"Feature","geometry":null},{"properties":{"zipcode":"30161","id":"ap4biswyalg3"},"type":"Feature","geometry":null},{"properties":{"zipcode":"30165","id":"ap4bisp1014g"},"type":"Feature","geometry":null},{"properties":{"zipcode":"31602","id":"ap4bisipg7wu"},"type":"Feature","geometry":null},{"properties":{"zipcode":"39817","id":"ap4bisor6beh"},"type":"Feature","geometry":null},{"properties":{"zipcode":"39819","id":"ap4bisjp2vnt"},"type":"Feature","geometry":null},{"properties":{"zipcode":"30606","id":"ap4bisuip6ws"},"type":"Feature","geometry":null},{"properties":{"zipcode":"30605","id":"ap4bisrrkvs1"},"type":"Feature","geometry":null},{"properties":{"zipcode":"30606","id":"ap4bisj08l5x"},"type":"Feature","geometry":null},{"properties":{"zipcode":"31906","id":"ap4bist5kejk"},"type":"Feature","geometry":null},{"properties":{"zipcode":"10457","id":"ap4bisrebrjd"},"type":"Feature","geometry":null},{"properties":{"zipcode":"31709","id":"ap4bisptjl15"},"type":"Feature","geometry":null},{"properties":{"zipcode":"8003","id":"ap4bismkdktq"},"type":"Feature","geometry":null},{"properties":{"zipcode":"30093","id":"ap4bishqe9u6"},"type":"Feature","geometry":null},{"properties":{"zipcode":"40502","id":"ap4biso3znc6"},"type":"Feature","geometry":null},{"properties":{"zipcode":"14111","id":"ap4bisw7106a"},"type":"Feature","geometry":null},{"properties":{"zipcode":"14221","id":"ap4bisuq7jwo"},"type":"Feature","geometry":null},{"properties":{"zipcode":"7871","id":"ap4bisiue84j"},"type":"Feature","geometry":null},{"properties":{"zipcode":"18342","id":"ap4bisw2bcvl"},"type":"Feature","geometry":null},{"properties":{"zipcode":"30214","id":"ap4bispoa8q3"},"type":"Feature","geometry":null},{"properties":{"zipcode":"7076","id":"ap4bisoj86pm"},"type":"Feature","geometry":null},{"properties":{"zipcode":"8234","id":"ap4bisngsi9m"},"type":"Feature","geometry":null},{"properties":{"zipcode":"30253","id":"ap4bisuleubk"},"type":"Feature","geometry":null},{"properties":{"zipcode":"32250","id":"ap4bisng5kno"},"type":"Feature","geometry":null},{"properties":{"zipcode":"32224","id":"ap4biskiisdn"},"type":"Feature","geometry":null},{"properties":{"zipcode":"6040","id":"ap4bisoen3rv"},"type":"Feature","geometry":null},{"properties":{"zipcode":"2828","id":"ap4bisu9zo17"},"type":"Feature","geometry":null},{"properties":{"zipcode":"6238","id":"ap4bisua0tx7"},"type":"Feature","geometry":null},{"properties":{"zipcode":"14623","id":"ap4bisqtkn4i"},"type":"Feature","geometry":null},{"properties":{"zipcode":"27705","id":"ap4bistf7041"},"type":"Feature","geometry":null},{"properties":{"zipcode":"48034","id":"ap4bisp7kcwx"},"type":"Feature","geometry":null},{"properties":{"zipcode":"33176","id":"ap4bisnvkbqp"},"type":"Feature","geometry":null},{"properties":{"zipcode":"2150","id":"ap4biskcfdo9"},"type":"Feature","geometry":null},{"properties":{"zipcode":"31406","id":"ap4bisrzk6te"},"type":"Feature","geometry":null},{"properties":{"zipcode":"18360","id":"ap4bistsd2mu"},"type":"Feature","geometry":null},{"properties":{"zipcode":"18940","id":"ap4bish5y0bj"},"type":"Feature","geometry":null},{"properties":{"zipcode":"18940","id":"ap4bism9xh43"},"type":"Feature","geometry":null},{"properties":{"zipcode":"19355","id":"ap4bisioz68b"},"type":"Feature","geometry":null},{"properties":{"zipcode":"40207","id":"ap4bissxnbeu"},"type":"Feature","geometry":null},{"properties":{"zipcode":"27546","id":"ap4bism51vku"},"type":"Feature","geometry":null},{"properties":{"zipcode":"44663","id":"ap4bisq19n16"},"type":"Feature","geometry":null},{"properties":{"zipcode":"44663","id":"ap4bisj10454"},"type":"Feature","geometry":null},{"properties":{"zipcode":"44622","id":"ap4biswzgkp5"},"type":"Feature","geometry":null},{"properties":{"zipcode":"10016","id":"ap4biswqb0nj"},"type":"Feature","geometry":null},{"properties":{"zipcode":"16505","id":"ap4bisjdcrzh"},"type":"Feature","geometry":null},{"properties":{"zipcode":"65401","id":"ap4bisv3gf9u"},"type":"Feature","geometry":null},{"properties":{"zipcode":"46383","id":"ap4bisqiw0wg"},"type":"Feature","geometry":null},{"properties":{"zipcode":"46383","id":"ap4bisnouh3a"},"type":"Feature","geometry":null},{"properties":{"zipcode":"32257","id":"ap4bisi9plk7"},"type":"Feature","geometry":null},{"properties":{"zipcode":"65201","id":"ap4bisihz5cs"},"type":"Feature","geometry":null},{"properties":{"zipcode":"22304","id":"ap4bisjtjwc5"},"type":"Feature","geometry":null},{"properties":{"zipcode":"2144","id":"ap4bisqvvs8s"},"type":"Feature","geometry":null},{"properties":{"zipcode":"5055","id":"ap4bismuirsu"},"type":"Feature","geometry":null},{"properties":{"zipcode":"65301","id":"ap4bismeusd9"},"type":"Feature","geometry":null},{"properties":{"zipcode":"48009","id":"ap4bisvs6ah9"},"type":"Feature","geometry":null},{"properties":{"zipcode":"19087","id":"ap4biswpf8u0"},"type":"Feature","geometry":null},{"properties":{"zipcode":"32257","id":"ap4biso67b93"},"type":"Feature","geometry":null},{"properties":{"zipcode":"32257","id":"ap4bisr7quzw"},"type":"Feature","geometry":null},{"properties":{"zipcode":"32257","id":"ap4bisq3tx80"},"type":"Feature","geometry":null},{"properties":{"zipcode":"65301","id":"ap4bisvsbtg6"},"type":"Feature","geometry":null},{"properties":{"zipcode":"65301","id":"ap4bismkbc0w"},"type":"Feature","geometry":null},{"properties":{"zipcode":"65301","id":"ap4bisw7gx23"},"type":"Feature","geometry":null},{"properties":{"zipcode":"46228","id":"ap4biskimpa1"},"type":"Feature","geometry":null},{"properties":{"zipcode":"27713","id":"ap4bisstpwef"},"type":"Feature","geometry":null},{"properties":{"zipcode":"27713","id":"ap4bisjahiz1"},"type":"Feature","geometry":null},{"properties":{"zipcode":"27615","id":"ap4bisoq23um"},"type":"Feature","geometry":null},{"properties":{"zipcode":"37919","id":"ap4bisn3sdrj"},"type":"Feature","geometry":null},{"properties":{"zipcode":"27713","id":"ap4biss0mjsm"},"type":"Feature","geometry":null},{"properties":{"zipcode":"27517","id":"ap4bisqw1oui"},"type":"Feature","geometry":null},{"properties":{"zipcode":"2740","id":"ap4bisq4y2dw"},"type":"Feature","geometry":null},{"properties":{"zipcode":"7630","id":"ap4bishso80t"},"type":"Feature","geometry":null},{"properties":{"zipcode":"46038","id":"ap4bisi7mhl3"},"type":"Feature","geometry":null},{"properties":{"zipcode":"2740","id":"ap4bispmb7sf"},"type":"Feature","geometry":null},{"properties":{"zipcode":"40351","id":"ap4bisk0trfi"},"type":"Feature","geometry":null},{"properties":{"zipcode":"32792","id":"ap4bistif7hi"},"type":"Feature","geometry":null},{"properties":{"zipcode":"2370","id":"ap4bisiq1q4o"},"type":"Feature","geometry":null},{"properties":{"zipcode":"28211","id":"ap4bisjlo6l0"},"type":"Feature","geometry":null},{"properties":{"zipcode":"29201","id":"ap4biste5s0r"},"type":"Feature","geometry":null},{"properties":{"zipcode":"33606","id":"ap4bisha91a1"},"type":"Feature","geometry":null},{"properties":{"zipcode":"31088","id":"ap4bismiyb0q"},"type":"Feature","geometry":null},{"properties":{"zipcode":"28117","id":"ap4biswolzjr"},"type":"Feature","geometry":null},{"properties":{"zipcode":"14221","id":"ap4bissgsk16"},"type":"Feature","geometry":null},{"properties":{"zipcode":"20874","id":"ap4bishyw55t"},"type":"Feature","geometry":null},{"properties":{"zipcode":"20874","id":"ap4biskcztc5"},"type":"Feature","geometry":null},{"properties":{"zipcode":"12208","id":"ap4bisi1kt0i"},"type":"Feature","geometry":null},{"properties":{"zipcode":"19103","id":"ap4bisvkxlv7"},"type":"Feature","geometry":null},{"properties":{"zipcode":"19103","id":"ap4bissv1wno"},"type":"Feature","geometry":null},{"properties":{"zipcode":"29102","id":"ap4bisu1yje0"},"type":"Feature","geometry":null},{"properties":{"zipcode":"19103","id":"ap4biswnbwp2"},"type":"Feature","geometry":null},{"properties":{"zipcode":"12585","id":"ap4bisi6c3yl"},"type":"Feature","geometry":null},{"properties":{"zipcode":"32257","id":"ap4bisouvhod"},"type":"Feature","geometry":null},{"properties":{"zipcode":"30064","id":"ap4bisnj3mlx"},"type":"Feature","geometry":null},{"properties":{"zipcode":"49930","id":"ap4bisly8n0p"},"type":"Feature","geometry":null},{"properties":{"zipcode":"12603","id":"ap4bisvpxvn8"},"type":"Feature","geometry":null},{"properties":{"zipcode":"44106","id":"ap4biswlw25x"},"type":"Feature","geometry":null},{"properties":{"zipcode":"28117","id":"ap4bisls3zsd"},"type":"Feature","geometry":null},{"properties":{"zipcode":"10017","id":"ap4biskstc0c"},"type":"Feature","geometry":null},{"properties":{"zipcode":"44106","id":"ap4bisszx8qs"},"type":"Feature","geometry":null},{"properties":{"zipcode":"20706","id":"ap4bisuel8pd"},"type":"Feature","geometry":null},{"properties":{"zipcode":"30046","id":"ap4biskqab1t"},"type":"Feature","geometry":null},{"properties":{"zipcode":"44107","id":"ap4bisp47ovj"},"type":"Feature","geometry":null},{"properties":{"zipcode":"44107","id":"ap4bisji3fww"},"type":"Feature","geometry":null},{"properties":{"zipcode":"44107","id":"ap4bisnv9m3l"},"type":"Feature","geometry":null},{"properties":{"zipcode":"44107","id":"ap4bishf22mo"},"type":"Feature","geometry":null},{"properties":{"zipcode":"44107","id":"ap4biss0ivsk"},"type":"Feature","geometry":null},{"properties":{"zipcode":"33155","id":"ap4bisl5iqkd"},"type":"Feature","geometry":null},{"properties":{"zipcode":"33155","id":"ap4bist3lmrn"},"type":"Feature","geometry":null},{"properties":{"zipcode":"33155","id":"ap4bismyhkcf"},"type":"Feature","geometry":null},{"properties":{"zipcode":"33155","id":"ap4bissi800y"},"type":"Feature","geometry":null},{"properties":{"zipcode":"49085","id":"ap4bisl18l2f"},"type":"Feature","geometry":null},{"properties":{"zipcode":"10001","id":"ap4bisp1pjm9"},"type":"Feature","geometry":null},{"properties":{"zipcode":"33157","id":"ap4bisifgei0"},"type":"Feature","geometry":null},{"properties":{"zipcode":"12309","id":"ap4bisuxpl0a"},"type":"Feature","geometry":null},{"properties":{"zipcode":"12866","id":"ap4bish5wx4j"},"type":"Feature","geometry":null},{"properties":{"zipcode":"21030","id":"ap4bisx466nj"},"type":"Feature","geometry":null},{"properties":{"zipcode":"6114","id":"ap4bisreitn8"},"type":"Feature","geometry":null},{"properties":{"zipcode":"20774","id":"ap4bissm17jz"},"type":"Feature","geometry":null},{"properties":{"zipcode":"33324","id":"ap4bisoko4b5"},"type":"Feature","geometry":null},{"properties":{"zipcode":"46131","id":"ap4biss6nsca"},"type":"Feature","geometry":null},{"properties":{"zipcode":"46131","id":"ap4bisi1a550"},"type":"Feature","geometry":null},{"properties":{"zipcode":"19141","id":"ap4bisnonoa3"},"type":"Feature","geometry":null},{"properties":{"zipcode":"40207","id":"ap4bisimr8rs"},"type":"Feature","geometry":null},{"properties":{"zipcode":"2128","id":"ap4biswfd674"},"type":"Feature","geometry":null},{"properties":{"zipcode":"8816","id":"ap4bisij16wt"},"type":"Feature","geometry":null},{"properties":{"zipcode":"48507","id":"ap4bisxjas6c"},"type":"Feature","geometry":null},{"properties":{"zipcode":"12801","id":"ap4bishopop2"},"type":"Feature","geometry":null},{"properties":{"zipcode":"10940","id":"ap4bislyr9a6"},"type":"Feature","geometry":null}],"is_temporal":false,"author":{"url":"","metadata":null,"contact_name":null,"contact_address":null,"source":null,"contact_phone":null},"source":"","pagination":{"sort":null,"start":0,"total":380,"limit":1000000},"state":"parsed","tags":"","published":"2014-08-14T19:42:26-04:00","id":213007}