{"type":"FeatureCollection","data_type":"Dataset","url_type":null,"permissions":[{"permissions":{"download":true,"view":true},"group_id":"everyone"}],"classification":null,"title":"Austin_2_10_2012","count":115,"stream_id":213018,"contributor":{"url":"http://geocommons.com/users/41497","name":"thebirdinthesky"},"data_attributes":null,"calculation_params":null,"icon_link":null,"link":"http://geocommons.com/overlays/213018.json","extent":[0.0,0.0,0.0,0.0],"geometry_types":null,"unique_name":null,"name":"Austin_2_10_2012","feature_count":115,"description":"","next_feature":null,"is_raster":false,"short_classification":"Y","features":[{"properties":{"zipcode":"78750","id":"ap4bj8rgtpkl"},"type":"Feature","geometry":null},{"properties":{"zipcode":"78751","id":"ap4bj8rk8izg"},"type":"Feature","geometry":null},{"properties":{"zipcode":"78704","id":"ap4bj8qnypci"},"type":"Feature","geometry":null},{"properties":{"zipcode":"78703","id":"ap4bj8mbtpqo"},"type":"Feature","geometry":null},{"properties":{"zipcode":"78741","id":"ap4bj8mfxm2z"},"type":"Feature","geometry":null},{"properties":{"zipcode":"78731","id":"ap4bj8tzoz6p"},"type":"Feature","geometry":null},{"properties":{"zipcode":"78729","id":"ap4bj8z1awis"},"type":"Feature","geometry":null},{"properties":{"zipcode":"78731","id":"ap4bj8ruqg3e"},"type":"Feature","geometry":null},{"properties":{"zipcode":"78723","id":"ap4bj8mnq38e"},"type":"Feature","geometry":null},{"properties":{"zipcode":"78745","id":"ap4bj8x6l2dq"},"type":"Feature","geometry":null},{"properties":{"zipcode":"78759","id":"ap4bj8nmgj19"},"type":"Feature","geometry":null},{"properties":{"zipcode":"78703","id":"ap4bj8r7aqkc"},"type":"Feature","geometry":null},{"properties":{"zipcode":"78759","id":"ap4bj8pnlqa0"},"type":"Feature","geometry":null},{"properties":{"zipcode":"78731","id":"ap4bj8usx4bv"},"type":"Feature","geometry":null},{"properties":{"zipcode":"78746","id":"ap4bj8y1wg0z"},"type":"Feature","geometry":null},{"properties":{"zipcode":"78705","id":"ap4bj8suldn8"},"type":"Feature","geometry":null},{"properties":{"zipcode":"78758","id":"ap4bj8vzjgjc"},"type":"Feature","geometry":null},{"properties":{"zipcode":"78705","id":"ap4bj8trtc6a"},"type":"Feature","geometry":null},{"properties":{"zipcode":"78786","id":"ap4bj8ytaglk"},"type":"Feature","geometry":null},{"properties":{"zipcode":"78727","id":"ap4bj90779hf"},"type":"Feature","geometry":null},{"properties":{"zipcode":"78757","id":"ap4bj8x0ecti"},"type":"Feature","geometry":null},{"properties":{"zipcode":"78753","id":"ap4bj8lk1940"},"type":"Feature","geometry":null},{"properties":{"zipcode":"78681","id":"ap4bj8snfjp2"},"type":"Feature","geometry":null},{"properties":{"zipcode":"78745","id":"ap4bj8ue2iae"},"type":"Feature","geometry":null},{"properties":{"zipcode":"78759","id":"ap4bj8sx1eyv"},"type":"Feature","geometry":null},{"properties":{"zipcode":"78759","id":"ap4bj8uh5jly"},"type":"Feature","geometry":null},{"properties":{"zipcode":"78731","id":"ap4bj8rq0mch"},"type":"Feature","geometry":null},{"properties":{"zipcode":"78640","id":"ap4bj8mys1jf"},"type":"Feature","geometry":null},{"properties":{"zipcode":"78746","id":"ap4bj8r17doi"},"type":"Feature","geometry":null},{"properties":{"zipcode":"78759","id":"ap4bj8uczfur"},"type":"Feature","geometry":null},{"properties":{"zipcode":"78756","id":"ap4bj8oj822s"},"type":"Feature","geometry":null},{"properties":{"zipcode":"78737","id":"ap4bj8kjukd5"},"type":"Feature","geometry":null},{"properties":{"zipcode":"78701","id":"ap4bj8u2em5k"},"type":"Feature","geometry":null},{"properties":{"zipcode":"78750","id":"ap4bj8mjfhby"},"type":"Feature","geometry":null},{"properties":{"zipcode":"78746","id":"ap4bj8tpv9fp"},"type":"Feature","geometry":null},{"properties":{"zipcode":"78746","id":"ap4bj8oruz40"},"type":"Feature","geometry":null},{"properties":{"zipcode":"78746","id":"ap4bj8qc9874"},"type":"Feature","geometry":null},{"properties":{"zipcode":"78752","id":"ap4bj8mnwmip"},"type":"Feature","geometry":null},{"properties":{"zipcode":"78660","id":"ap4bj8mu14hg"},"type":"Feature","geometry":null},{"properties":{"zipcode":"78729","id":"ap4bj8n3j6m8"},"type":"Feature","geometry":null},{"properties":{"zipcode":"78745","id":"ap4bj8q4kxqs"},"type":"Feature","geometry":null},{"properties":{"zipcode":"78759","id":"ap4bj8tjst04"},"type":"Feature","geometry":null},{"properties":{"zipcode":"78701","id":"ap4bj8z3gjhj"},"type":"Feature","geometry":null},{"properties":{"zipcode":"78757","id":"ap4bj8til2c3"},"type":"Feature","geometry":null},{"properties":{"zipcode":"78701","id":"ap4bj8q26xat"},"type":"Feature","geometry":null},{"properties":{"zipcode":"78746","id":"ap4bj8tk2n94"},"type":"Feature","geometry":null},{"properties":{"zipcode":"78705","id":"ap4bj8w0t9p4"},"type":"Feature","geometry":null},{"properties":{"zipcode":"78729","id":"ap4bj8zub8ms"},"type":"Feature","geometry":null},{"properties":{"zipcode":"78750","id":"ap4bj8lf4z7c"},"type":"Feature","geometry":null},{"properties":{"zipcode":"78759","id":"ap4bj8pgep0v"},"type":"Feature","geometry":null},{"properties":{"zipcode":"78704","id":"ap4bj8sw30w8"},"type":"Feature","geometry":null},{"properties":{"zipcode":"78758","id":"ap4bj8mbjg9h"},"type":"Feature","geometry":null},{"properties":{"zipcode":"78759","id":"ap4bj907snyq"},"type":"Feature","geometry":null},{"properties":{"zipcode":"78731","id":"ap4bj8qmn0zi"},"type":"Feature","geometry":null},{"properties":{"zipcode":"78704","id":"ap4bj8q1pclk"},"type":"Feature","geometry":null},{"properties":{"zipcode":"78757","id":"ap4bj8zvkxbd"},"type":"Feature","geometry":null},{"properties":{"zipcode":"78701","id":"ap4bj8lm3ita"},"type":"Feature","geometry":null},{"properties":{"zipcode":"78759","id":"ap4bj8y91huo"},"type":"Feature","geometry":null},{"properties":{"zipcode":"78728","id":"ap4bj8q7sb6m"},"type":"Feature","geometry":null},{"properties":{"zipcode":"78756","id":"ap4bj8phu4n8"},"type":"Feature","geometry":null},{"properties":{"zipcode":"78746","id":"ap4bj8qwqoik"},"type":"Feature","geometry":null},{"properties":{"zipcode":"78752","id":"ap4bj8p1gi1m"},"type":"Feature","geometry":null},{"properties":{"zipcode":"78750","id":"ap4bj8xro5w0"},"type":"Feature","geometry":null},{"properties":{"zipcode":"78723","id":"ap4bj8q0upzo"},"type":"Feature","geometry":null},{"properties":{"zipcode":"78752","id":"ap4bj8kjotww"},"type":"Feature","geometry":null},{"properties":{"zipcode":"78745","id":"ap4bj907lhb8"},"type":"Feature","geometry":null},{"properties":{"zipcode":"78746","id":"ap4bj8r55k60"},"type":"Feature","geometry":null},{"properties":{"zipcode":"78704","id":"ap4bj8ynszz8"},"type":"Feature","geometry":null},{"properties":{"zipcode":"78681","id":"ap4bj8tvbl6v"},"type":"Feature","geometry":null},{"properties":{"zipcode":"78704","id":"ap4bj8u7svmb"},"type":"Feature","geometry":null},{"properties":{"zipcode":"78759","id":"ap4bj8x98tut"},"type":"Feature","geometry":null},{"properties":{"zipcode":"78745","id":"ap4bj8npy62f"},"type":"Feature","geometry":null},{"properties":{"zipcode":"78748","id":"ap4bj8mrwcw6"},"type":"Feature","geometry":null},{"properties":{"zipcode":"78704","id":"ap4bj8t8ntk5"},"type":"Feature","geometry":null},{"properties":{"zipcode":"78737","id":"ap4bj8tru95y"},"type":"Feature","geometry":null},{"properties":{"zipcode":"78737","id":"ap4bj8maj2bt"},"type":"Feature","geometry":null},{"properties":{"zipcode":"78741","id":"ap4bj8nxkg3v"},"type":"Feature","geometry":null},{"properties":{"zipcode":"78746","id":"ap4bj8rpx4p5"},"type":"Feature","geometry":null},{"properties":{"zipcode":"78750","id":"ap4bj8vrybye"},"type":"Feature","geometry":null},{"properties":{"zipcode":"78750","id":"ap4bj8p5rykk"},"type":"Feature","geometry":null},{"properties":{"zipcode":"78759","id":"ap4bj8ua75b6"},"type":"Feature","geometry":null},{"properties":{"zipcode":"78734","id":"ap4bj8r4kk5r"},"type":"Feature","geometry":null},{"properties":{"zipcode":"78759","id":"ap4bj8ndw2bg"},"type":"Feature","geometry":null},{"properties":{"zipcode":"78731","id":"ap4bj8rf21dt"},"type":"Feature","geometry":null},{"properties":{"zipcode":"78734","id":"ap4bj8q3yzm6"},"type":"Feature","geometry":null},{"properties":{"zipcode":"78705","id":"ap4bj8rrkx3j"},"type":"Feature","geometry":null},{"properties":{"zipcode":"78705","id":"ap4bj8zerl7z"},"type":"Feature","geometry":null},{"properties":{"zipcode":"78746","id":"ap4bj8ncqckl"},"type":"Feature","geometry":null},{"properties":{"zipcode":"78731","id":"ap4bj8lokc09"},"type":"Feature","geometry":null},{"properties":{"zipcode":"78640","id":"ap4bj8zrp733"},"type":"Feature","geometry":null},{"properties":{"zipcode":"78759","id":"ap4bj90auiny"},"type":"Feature","geometry":null},{"properties":{"zipcode":"78746","id":"ap4bj8oy3ymm"},"type":"Feature","geometry":null},{"properties":{"zipcode":"78758","id":"ap4bj8sdskq1"},"type":"Feature","geometry":null},{"properties":{"zipcode":"78758","id":"ap4bj8mebu96"},"type":"Feature","geometry":null},{"properties":{"zipcode":"78745","id":"ap4bj8u0obt6"},"type":"Feature","geometry":null},{"properties":{"zipcode":"78703","id":"ap4bj8v3b43i"},"type":"Feature","geometry":null},{"properties":{"zipcode":"78745","id":"ap4bj8wi1g32"},"type":"Feature","geometry":null},{"properties":{"zipcode":"78759","id":"ap4bj8npj9h4"},"type":"Feature","geometry":null},{"properties":{"zipcode":"78704","id":"ap4bj8t6bfwv"},"type":"Feature","geometry":null},{"properties":{"zipcode":"78759","id":"ap4bj8mwnfl6"},"type":"Feature","geometry":null},{"properties":{"zipcode":"78750","id":"ap4bj8vjk2lh"},"type":"Feature","geometry":null},{"properties":{"zipcode":"78717","id":"ap4bj8lgla5y"},"type":"Feature","geometry":null},{"properties":{"zipcode":"78723","id":"ap4bj8l8y31e"},"type":"Feature","geometry":null},{"properties":{"zipcode":"78723","id":"ap4bj8x51r2n"},"type":"Feature","geometry":null},{"properties":{"zipcode":"78756","id":"ap4bj8z80ef6"},"type":"Feature","geometry":null},{"properties":{"zipcode":"78736","id":"ap4bj8rqcmij"},"type":"Feature","geometry":null},{"properties":{"zipcode":"78704","id":"ap4bj8l18dyz"},"type":"Feature","geometry":null},{"properties":{"zipcode":"78751","id":"ap4bj8ydkn3u"},"type":"Feature","geometry":null},{"properties":{"zipcode":"78757","id":"ap4bj8qvoci5"},"type":"Feature","geometry":null},{"properties":{"zipcode":"78704","id":"ap4bj8qudmh3"},"type":"Feature","geometry":null},{"properties":{"zipcode":"78757","id":"ap4bj8xjzv3y"},"type":"Feature","geometry":null},{"properties":{"zipcode":"78701","id":"ap4bj8xqzid5"},"type":"Feature","geometry":null},{"properties":{"zipcode":"78759","id":"ap4bj8khzggn"},"type":"Feature","geometry":null},{"properties":{"zipcode":"78704","id":"ap4bj8y3l9t7"},"type":"Feature","geometry":null},{"properties":{"zipcode":"78750","id":"ap4bj8sw55yn"},"type":"Feature","geometry":null}],"is_temporal":false,"author":{"url":"","metadata":null,"contact_name":null,"contact_address":null,"source":null,"contact_phone":null},"source":"","pagination":{"sort":null,"start":0,"total":115,"limit":1000000},"state":"parsed","tags":"","published":"2014-08-14T19:43:00-04:00","id":213018}