{"type":"FeatureCollection","data_type":"Dataset","url_type":null,"permissions":[{"permissions":{"download":true,"view":true},"group_id":"everyone"}],"classification":null,"title":"Customer_Last_AddCityZip","count":188,"stream_id":215194,"contributor":{"url":"http://geocommons.com/users/41892","name":"bradleytaftsmith"},"data_attributes":null,"calculation_params":null,"icon_link":null,"link":"http://geocommons.com/overlays/215194.json","extent":[-97.0679,27.8288,-94.847,30.1864],"geometry_types":["point"],"unique_name":null,"name":"Customer_Last_AddCityZip","feature_count":188,"description":"","next_feature":null,"is_raster":false,"short_classification":"Y","stats":{},"features":[{"properties":{"city":"Houston","zip":"77016","potential customers":"ACE Fabricators","geo_score":0.878,"phone":"713 686 4325","id":"a6ag75lxy4jo","geo_precision":"street","address":"7010 Furay Rd.","state":"Texas"},"type":"Feature","geometry":{"type":"Point","coordinates":[-95.285615,29.885384]}},{"properties":{"city":"Houston","zip":"77048","potential customers":"Active Signs &amp; Design","geo_score":0.625,"phone":"281 485 7003","id":"a6ag75n9uqaz","geo_precision":"street","address":"6510 S. Acres Dr","state":"Texas"},"type":"Feature","geometry":{"type":"Point","coordinates":[-95.356016,29.642407]}},{"properties":{"city":"Houston","zip":"77041","potential customers":"Acute Technological Services","geo_score":1.0,"phone":"281-331-4466","id":"a6ag75veuaih","geo_precision":"range","address":"11925 Brittmoore Park Dr.","state":"Texas"},"type":"Feature","geometry":{"type":"Point","coordinates":[-95.585461,29.85118]}},{"properties":{"city":"Pearland","zip":"77581","potential customers":"Advanced Cranes &amp; Hoists Services","geo_score":0.921,"phone":null,"id":"a6ag75jmaldp","geo_precision":"range","address":"1706 Roy Rd","state":"Texas"},"type":"Feature","geometry":{"type":"Point","coordinates":[-95.327885,29.587109]}},{"properties":{"city":"Channelview","zip":"77530","potential customers":"Advanced Fluid System","geo_score":0.607,"phone":null,"id":"a6ag75txemi6","geo_precision":"street","address":"15019 N. Brentwood St","state":"Texas"},"type":"Feature","geometry":{"type":"Point","coordinates":[-95.14436,29.778806]}},{"properties":{"city":"Alvin","zip":"77511","potential customers":"AHI Supply","geo_score":0.913,"phone":null,"id":"a6ag75syh0sp","geo_precision":"range","address":"2800 N Gordon St.","state":"Texas"},"type":"Feature","geometry":{"type":"Point","coordinates":[-95.245206,29.451981]}},{"properties":{"city":"Houston","zip":"77048","potential customers":"Alamo Transformer Supply Co.","geo_score":1.0,"phone":"281 894 8999","id":"a6ag75xf8axm","geo_precision":"range","address":"10220 Mykawa Rd.","state":"Texas"},"type":"Feature","geometry":{"type":"Point","coordinates":[-95.307725,29.631037]}},{"properties":{"city":"Houston","zip":"77092","potential customers":"Alarm Screens","geo_score":1.0,"phone":null,"id":"a6ag75zoijg2","geo_precision":"range","address":"10200 Hempstead Rd.","state":"Texas"},"type":"Feature","geometry":{"type":"Point","coordinates":[-95.461052,29.802198]}},{"properties":{"city":"Houston","zip":"77022","potential customers":"Alba's Custom Iron","geo_score":0.919,"phone":"713 695 9195","id":"a6ag75s1ikry","geo_precision":"range","address":"7105 Fulton St.","state":"Texas"},"type":"Feature","geometry":{"type":"Point","coordinates":[-95.376477,29.824437]}},{"properties":{"city":"Houston","zip":"77061","potential customers":"Alimak Hek","geo_score":1.0,"phone":null,"id":"a6ag75y65jss","geo_precision":"range","address":"8400 Villa Dr.","state":"Texas"},"type":"Feature","geometry":{"type":"Point","coordinates":[-95.296208,29.643632]}},{"properties":{"city":"Houston","zip":"77093","potential customers":"Alpha Fabricators","geo_score":0.837,"phone":null,"id":"a6ag75uyce60","geo_precision":"range","address":"10810 Eastex Fwy.","state":"Texas"},"type":"Feature","geometry":{"type":"Point","coordinates":[-95.330158,29.871102]}},{"properties":{"city":"West Point","zip":"78963","potential customers":"Aluma Screens","geo_score":0.807,"phone":null,"id":"a6ag75q6kent","geo_precision":"range","address":"1020 E Hwy 71","state":"Texas"},"type":"Feature","geometry":{"type":"Point","coordinates":[-97.021079,29.942134]}},{"properties":{"city":"Houston","zip":"77008","potential customers":"Aluminum Interiors","geo_score":0.951,"phone":"281 578 7097","id":"a6ag75pro93p","geo_precision":"range","address":"8410 Hempstead Rd.","state":"Texas"},"type":"Feature","geometry":{"type":"Point","coordinates":[-95.437232,29.785522]}},{"properties":{"city":"Houston","zip":"77087","potential customers":"Ambox","geo_score":0.902,"phone":null,"id":"a6ag75rmumbk","geo_precision":"street","address":"6040 Telephone Rd","state":"Texas"},"type":"Feature","geometry":{"type":"Point","coordinates":[-95.291754,29.678473]}},{"properties":{"city":"Houston","zip":"77081","potential customers":"Anchor Machine Works","geo_score":1.0,"phone":null,"id":"a6ag75pvfwmw","geo_precision":"range","address":"6211 Evergreen St.","state":"Texas"},"type":"Feature","geometry":{"type":"Point","coordinates":[-95.490987,29.698215]}},{"properties":{"city":"Pearland","zip":"77584","potential customers":"Anthony Welded Products Inc","geo_score":0.683,"phone":null,"id":"a6ag75z101mx","geo_precision":"range","address":"1854 Garden Rd","state":"Texas"},"type":"Feature","geometry":{"type":"Point","coordinates":[-95.321228,29.585096]}},{"properties":{"city":"Houston","zip":"77041","potential customers":"Associated Steel Fabricators","geo_score":1.0,"phone":"281 303 0847","id":"a6ag75pbbw2n","geo_precision":"range","address":"5100 Ashley Ct.","state":"Texas"},"type":"Feature","geometry":{"type":"Point","coordinates":[-95.576879,29.842039]}},{"properties":{"city":"Alvin","zip":"77511","potential customers":"Automatic Machine Co.","geo_score":0.913,"phone":null,"id":"a6ag75wvutbh","geo_precision":"range","address":"1301 West Willis St","state":"Texas"},"type":"Feature","geometry":{"type":"Point","coordinates":[-95.256501,29.424286]}},{"properties":{"city":"Houston","zip":"77064","potential customers":"BGRS  inc","geo_score":1.0,"phone":null,"id":"a6ag75n0dvbt","geo_precision":"range","address":"10440 Windfern Rd.","state":"Texas"},"type":"Feature","geometry":{"type":"Point","coordinates":[-95.547836,29.919638]}},{"properties":{"city":"Houston","zip":"77041","potential customers":"Bray Valve","geo_score":0.945,"phone":"281 421 9488","id":"a6ag75o8s86z","geo_precision":"range","address":"13333 Westland East Blvd","state":"Texas"},"type":"Feature","geometry":{"type":"Point","coordinates":[-95.604283,29.901637]}},{"properties":{"city":"Pearland","zip":"77581","potential customers":"Brookside Machine, Inc.","geo_score":0.868,"phone":null,"id":"a6ag75kff2dt","geo_precision":"range","address":"6432 Brookside Dr.","state":"Texas"},"type":"Feature","geometry":{"type":"Point","coordinates":[-95.306489,29.586271]}},{"properties":{"city":"Galveston","zip":"77554","potential customers":"Broome Welding &amp; Machine Co","geo_score":0.912,"phone":null,"id":"a6ag75knpw0m","geo_precision":"range","address":"7909 Bayside Ave.","state":"Texas"},"type":"Feature","geometry":{"type":"Point","coordinates":[-94.860728,29.289891]}},{"properties":{"city":"Pearland","zip":"77584","potential customers":"Bryant Welding Service","geo_score":1.0,"phone":null,"id":"a6ag75xgidip","geo_precision":"range","address":"3113 Hatfield Rd","state":"Texas"},"type":"Feature","geometry":{"type":"Point","coordinates":[-95.306068,29.552283]}},{"properties":{"city":"Houston","zip":"77048","potential customers":"Carroll Childers Company","geo_score":1.0,"phone":"(281)229-9650","id":"a6ag75u60az3","geo_precision":"range","address":"4922 Almeda Genoa Rd","state":"Texas"},"type":"Feature","geometry":{"type":"Point","coordinates":[-95.338924,29.620981]}},{"properties":{"city":"Houston","zip":"77047","potential customers":"CaseTech International","geo_score":1.0,"phone":"713 910 7447","id":"a6ag75qof3yw","geo_precision":"range","address":"195 Southbelt Industrial Dr.","state":"Texas"},"type":"Feature","geometry":{"type":"Point","coordinates":[-95.41883,29.585793]}},{"properties":{"city":"Pearland","zip":"77581","potential customers":"Casper Electric Corp.","geo_score":0.921,"phone":null,"id":"a6ag75ywf9ri","geo_precision":"range","address":"2230 County Road 124","state":"Texas"},"type":"Feature","geometry":{"type":"Point","coordinates":[-95.237074,29.525924]}},{"properties":{"city":"Pearland","zip":"77584","potential customers":"Center Drill Co.","geo_score":0.951,"phone":null,"id":"a6ag75uzeuth","geo_precision":"range","address":"3109 Wagon Trail Rd","state":"Texas"},"type":"Feature","geometry":{"type":"Point","coordinates":[-95.310171,29.550738]}},{"properties":{"city":"Houston","zip":"77061","potential customers":"Cerda","geo_score":0.812,"phone":null,"id":"a6ag75szbyeh","geo_precision":"street","address":"7425 Major St.","state":"Texas"},"type":"Feature","geometry":{"type":"Point","coordinates":[-95.292555,29.642432]}},{"properties":{"city":"Pasadena","zip":"77503","potential customers":"Channel Sheet Metal","geo_score":0.929,"phone":null,"id":"a6ag75qcdu6e","geo_precision":"range","address":"1908 Magnolia Dr.","state":"Texas"},"type":"Feature","geometry":{"type":"Point","coordinates":[-95.168357,29.685233]}},{"properties":{"city":"Houston","zip":"77029","potential customers":"CMC Steel Fabricators","geo_score":0.92,"phone":"(281) 304-0771","id":"a6ag75opbgtk","geo_precision":"range","address":"235 Portwall St.","state":"Texas"},"type":"Feature","geometry":{"type":"Point","coordinates":[-95.27937,29.78582]}},{"properties":{"city":"Houston","zip":"77064","potential customers":"Contractors Metal Works","geo_score":0.877,"phone":null,"id":"a6ag75qyd4r9","geo_precision":"range","address":"8707 Fairbanks Rd.","state":"Texas"},"type":"Feature","geometry":{"type":"Point","coordinates":[-95.524986,29.902662]}},{"properties":{"city":"Houston","zip":"77047","potential customers":"Cook Compression - Pearland operation","geo_score":1.0,"phone":"281 997 1543","id":"a6ag75pxank2","geo_precision":"range","address":"65 Southbelt Industrial Dr","state":"Texas"},"type":"Feature","geometry":{"type":"Point","coordinates":[-95.417693,29.585792]}},{"properties":{"city":"Houston","zip":"77075","potential customers":"Cooper Cameron Valves","geo_score":1.0,"phone":null,"id":"a6ag75wtkynd","geo_precision":"range","address":"8820 Meldrum Ln.","state":"Texas"},"type":"Feature","geometry":{"type":"Point","coordinates":[-95.259784,29.634327]}},{"properties":{"city":"Houston","zip":"77020","potential customers":"Cubeco Inc","geo_score":1.0,"phone":"713 694 1392","id":"a6ag75xif9x6","geo_precision":"range","address":"1415 Harris St.","state":"Texas"},"type":"Feature","geometry":{"type":"Point","coordinates":[-95.297806,29.762355]}},{"properties":{"city":"Houston","zip":"77053","potential customers":"Curtiss Kelly Inc","geo_score":1.0,"phone":null,"id":"a6ag75y1zeem","geo_precision":"range","address":"14875 Waterloo Dr.","state":"Texas"},"type":"Feature","geometry":{"type":"Point","coordinates":[-95.423701,29.610311]}},{"properties":{"city":"Pearland","zip":"77581","potential customers":"Davis Lynch, Inc","geo_score":0.921,"phone":null,"id":"a6ag75zb00yi","geo_precision":"range","address":"2005 Garden Rd.","state":"Texas"},"type":"Feature","geometry":{"type":"Point","coordinates":[-95.320962,29.574785]}},{"properties":{"city":"Houston","zip":"77075","potential customers":"EA Services","geo_score":1.0,"phone":null,"id":"a6ag75ymap37","geo_precision":"range","address":"8030 Hall Rd","state":"Texas"},"type":"Feature","geometry":{"type":"Point","coordinates":[-95.277885,29.601434]}},{"properties":{"city":"Houston","zip":"77061","potential customers":"Economy Metal Works, Inc","geo_score":0.941,"phone":"281-997-7273","id":"a6ag75kb5l5v","geo_precision":"range","address":"7522 S Santa Fe","state":"Texas"},"type":"Feature","geometry":{"type":"Point","coordinates":[-95.310607,29.647909]}},{"properties":{"city":"Missouri City","zip":"77489","potential customers":"EIM Corp.","geo_score":1.0,"phone":null,"id":"a6ag75x1x0ze","geo_precision":"range","address":"13840 Pike Rd","state":"Texas"},"type":"Feature","geometry":{"type":"Point","coordinates":[-95.543094,29.622797]}},{"properties":{"city":"Houston","zip":"77009","potential customers":"Eldred Sheet Metal Works","geo_score":1.0,"phone":"713 729 1100","id":"a6ag75qn5s00","geo_precision":"range","address":"3119 Chapman St.","state":"Texas"},"type":"Feature","geometry":{"type":"Point","coordinates":[-95.354018,29.789086]}},{"properties":{"city":"Houston","zip":"77064","potential customers":"EMS Assembly LLC","geo_score":0.878,"phone":null,"id":"a6ag75k80oa7","geo_precision":"range","address":"8807 Fallbrook Dr.","state":"Texas"},"type":"Feature","geometry":{"type":"Point","coordinates":[-95.55637,29.924356]}},{"properties":{"city":"Cypress","zip":"77433","potential customers":"Excel Metal Stamping","geo_score":1.0,"phone":null,"id":"a6ag75me0s85","geo_precision":"range","address":"20101 Schiel Rd","state":"Texas"},"type":"Feature","geometry":{"type":"Point","coordinates":[-95.726361,30.012812]}},{"properties":{"city":"Manvel","zip":"77578","potential customers":"E-Z Line Pipe Support Co.","geo_score":1.0,"phone":null,"id":"a6ag75psxj8n","geo_precision":"range","address":"21340 Highway 6","state":"Texas"},"type":"Feature","geometry":{"type":"Point","coordinates":[-95.342369,29.462471]}},{"properties":{"city":"Houston","zip":"77048","potential customers":"Fabco Specialties","geo_score":1.0,"phone":null,"id":"a6ag75xucl53","geo_precision":"range","address":"5608 Almeda Genoa Rd.","state":"Texas"},"type":"Feature","geometry":{"type":"Point","coordinates":[-95.33122,29.620939]}},{"properties":{"city":"Houston","zip":"77040","potential customers":"FabCorp inc","geo_score":0.916,"phone":"281 331 0088","id":"a6ag75wup58y","geo_precision":"range","address":"6951 W Little York Rd.","state":"Texas"},"type":"Feature","geometry":{"type":"Point","coordinates":[-95.495103,29.865695]}},{"properties":{"city":"Houston","zip":"77086","potential customers":"Fabricating Specialties","geo_score":1.0,"phone":null,"id":"a6ag75xfmqyi","geo_precision":"range","address":"6100 Romona Blvd.","state":"Texas"},"type":"Feature","geometry":{"type":"Point","coordinates":[-95.480616,29.908656]}},{"properties":{"city":"Houston","zip":"77045","potential customers":"Fabricating Unlimited","geo_score":0.902,"phone":"281 474 2697","id":"a6ag75ue391r","geo_precision":"range","address":"5410 Trafalgar Dr.","state":"Texas"},"type":"Feature","geometry":{"type":"Point","coordinates":[-95.462571,29.618003]}},{"properties":{"city":"Houston","zip":"77047","potential customers":"Fab-Rite Welding Co.","geo_score":0.963,"phone":null,"id":"a6ag75k4j8zl","geo_precision":"range","address":"206 Riley Rd.","state":"Texas"},"type":"Feature","geometry":{"type":"Point","coordinates":[-95.416834,29.591901]}},{"properties":{"city":"Houston","zip":"77049","potential customers":"Federal Steel SupPearland, TXy","geo_score":0.917,"phone":"877-727-7211","id":"a6ag75u0tbuj","geo_precision":"range","address":"17210 Beaumont Hwy.","state":"Texas"},"type":"Feature","geometry":{"type":"Point","coordinates":[-95.130317,29.867099]}},{"properties":{"city":"Houston","zip":"77075","potential customers":"Fluid Sealing Products","geo_score":1.0,"phone":null,"id":"a6ag75ss4nc9","geo_precision":"range","address":"8860 Scranton Street","state":"Texas"},"type":"Feature","geometry":{"type":"Point","coordinates":[-95.258897,29.643324]}},{"properties":{"city":"Houston","zip":"77075","potential customers":"Formers By Ernie","geo_score":1.0,"phone":null,"id":"a6ag75sql44i","geo_precision":"range","address":"7905 Almeda Genoa Rd.","state":"Texas"},"type":"Feature","geometry":{"type":"Point","coordinates":[-95.280718,29.625547]}},{"properties":{"city":"Houston","zip":"77018","potential customers":"Frameworks MFG","geo_score":0.959,"phone":"713 686 9475","id":"a6ag75vrjxhs","geo_precision":"range","address":"3801 Yale Street","state":"Texas"},"type":"Feature","geometry":{"type":"Point","coordinates":[-95.399596,29.820839]}},{"properties":{"city":"Houston","zip":"77041","potential customers":"G &amp; H Diversified MFG","geo_score":1.0,"phone":"409 744 0407","id":"a6ag75mekg7s","geo_precision":"range","address":"11660 Brittmoore Park Dr.","state":"Texas"},"type":"Feature","geometry":{"type":"Point","coordinates":[-95.584142,29.848462]}},{"properties":{"city":"Houston","zip":"77015","potential customers":"G P Steel Fabrication","geo_score":0.92,"phone":"713 644 4900","id":"a6ag75lp6q5k","geo_precision":"range","address":"1138 Beacon St.","state":"Texas"},"type":"Feature","geometry":{"type":"Point","coordinates":[-95.173776,29.773924]}},{"properties":{"city":"Houston","zip":"77087","potential customers":"General Metal Fabricating","geo_score":1.0,"phone":null,"id":"a6ag75uix39h","geo_precision":"range","address":"6495 Dixie Dr.","state":"Texas"},"type":"Feature","geometry":{"type":"Point","coordinates":[-95.314345,29.679447]}},{"properties":{"city":"Conroe","zip":"77385","potential customers":"Global Fabrication Services","geo_score":0.917,"phone":null,"id":"a6ag75nknjaa","geo_precision":"range","address":"9400 Forest Ln.","state":"Texas"},"type":"Feature","geometry":{"type":"Point","coordinates":[-95.441695,30.186371]}},{"properties":{"city":"Houston","zip":"77041","potential customers":"Grogan-Hazel Steel Inc","geo_score":1.0,"phone":"409 744 4538","id":"a6ag75kqa7fd","geo_precision":"range","address":"10547 Fisher Rd.","state":"Texas"},"type":"Feature","geometry":{"type":"Point","coordinates":[-95.558592,29.864023]}},{"properties":{"city":"Houston","zip":"77047","potential customers":"Gulf Coast Steel Inc","geo_score":1.0,"phone":"409 941 0727","id":"a6ag75jvm1mb","geo_precision":"range","address":"1320 Almeda Genoa Rd.","state":"Texas"},"type":"Feature","geometry":{"type":"Point","coordinates":[-95.403061,29.613845]}},{"properties":{"city":"Baytown","zip":"77521","potential customers":"H &amp; S Metals, Inc","geo_score":0.878,"phone":null,"id":"a6ag75x6bi2m","geo_precision":"range","address":"820 Sharon Ln.","state":"Texas"},"type":"Feature","geometry":{"type":"Point","coordinates":[-94.976312,29.802713]}},{"properties":{"city":"Houston","zip":"77092","potential customers":"Hemco Industries","geo_score":1.0,"phone":null,"id":"a6ag75rnpop2","geo_precision":"range","address":"2408 Karbach St.","state":"Texas"},"type":"Feature","geometry":{"type":"Point","coordinates":[-95.461299,29.809466]}},{"properties":{"city":"Houston","zip":"77054","potential customers":"Hendee Enterprises","geo_score":0.89,"phone":"(281) 540-3304","id":"a6ag75t5ou3z","geo_precision":"range","address":"9350 South Point Dr.","state":"Texas"},"type":"Feature","geometry":{"type":"Point","coordinates":[-95.410904,29.66697]}},{"properties":{"city":"Houston","zip":"77587","potential customers":"Herndon Fabricating Works","geo_score":0.959,"phone":null,"id":"a6ag75nhohys","geo_precision":"range","address":"911 Pennsylvania St.","state":"Texas"},"type":"Feature","geometry":{"type":"Point","coordinates":[-95.24104,29.660533]}},{"properties":{"city":"Houston","zip":"77064","potential customers":"Hoelscher Weatherstrip MFG","geo_score":0.497,"phone":null,"id":"a6ag75rt79gb","geo_precision":"street","address":"10111 Houston Oaks Dr","state":"Texas"},"type":"Feature","geometry":{"type":"Point","coordinates":[-95.536526,29.873872]}},{"properties":{"city":"Houston","zip":"77092","potential customers":"Hollywood Steel","geo_score":0.916,"phone":null,"id":"a6ag75jt1pht","geo_precision":"range","address":"6322 W 34th St.","state":"Texas"},"type":"Feature","geometry":{"type":"Point","coordinates":[-95.482486,29.818849]}},{"properties":{"city":"Houston","zip":"77015","potential customers":"Houston Fab Truck Rigging","geo_score":0.92,"phone":"713 644 1931","id":"a6ag75p0y7fd","geo_precision":"range","address":"1124 Keyport Ln.","state":"Texas"},"type":"Feature","geometry":{"type":"Point","coordinates":[-95.214413,29.769868]}},{"properties":{"city":"Houston","zip":"77040","potential customers":"Hydradyne-Tad Inc","geo_score":0.48,"phone":"281 337 6311","id":"a6ag75ocidvo","geo_precision":"street","address":"7330 W. Sam Houston Pkwy","state":"Texas"},"type":"Feature","geometry":{"type":"Point","coordinates":[-95.551228,29.902818]}},{"properties":{"city":"Houston","zip":"77084","potential customers":"Hyundai Heavy Industries","geo_score":0.805,"phone":null,"id":"a6ag75zpar3x","geo_precision":"street","address":"1400 Broadfield Blvd #110","state":"Texas"},"type":"Feature","geometry":{"type":"Point","coordinates":[-95.659917,29.788945]}},{"properties":{"city":"Houston","zip":"77587","potential customers":"Industrial &amp; Marine Spec","geo_score":0.959,"phone":null,"id":"a6ag75xuac0u","geo_precision":"range","address":"1206 Georgia St.","state":"Texas"},"type":"Feature","geometry":{"type":"Point","coordinates":[-95.246542,29.660429]}},{"properties":{"city":"Houston","zip":"77029","potential customers":"J &amp; A Energy Fab","geo_score":0.726,"phone":"(281)261-3843","id":"a6ag75z7b5ng","geo_precision":"street","address":"221 Portwall St. #3","state":"Texas"},"type":"Feature","geometry":{"type":"Point","coordinates":[-95.281052,29.786078]}},{"properties":{"city":"Houston","zip":"77087","potential customers":"J &amp; J Fabrication","geo_score":1.0,"phone":null,"id":"a6ag75xp8v3x","geo_precision":"range","address":"6440 Mayfair st","state":"Texas"},"type":"Feature","geometry":{"type":"Point","coordinates":[-95.312664,29.688149]}},{"properties":{"city":"Spring","zip":"77380","potential customers":"J E F Fabrication inc","geo_score":0.911,"phone":null,"id":"a6ag75zdrfbk","geo_precision":"range","address":"25803 Oak Ridge Dr.","state":"Texas"},"type":"Feature","geometry":{"type":"Point","coordinates":[-95.447562,30.135292]}},{"properties":{"city":"Alvin","zip":"77511","potential customers":"J W Hall Enterprises","geo_score":0.913,"phone":null,"id":"a6ag75zo8thw","geo_precision":"range","address":"17713 Elizabeth Rd.","state":"Texas"},"type":"Feature","geometry":{"type":"Point","coordinates":[-95.168427,29.383357]}},{"properties":{"city":"Houston","zip":"77087","potential customers":"Jarco Steel Inc","geo_score":1.0,"phone":null,"id":"a6ag75nisunn","geo_precision":"range","address":"6105 Nunn St.","state":"Texas"},"type":"Feature","geometry":{"type":"Point","coordinates":[-95.311217,29.676418]}},{"properties":{"city":"Houston","zip":"77039","potential customers":"Javelina Fluid Products","geo_score":0.902,"phone":"713 473 2878","id":"a6ag75nowvu8","geo_precision":"range","address":"910 Pinafore Ln.","state":"Texas"},"type":"Feature","geometry":{"type":"Point","coordinates":[-95.374932,29.922112]}},{"properties":{"city":"Houston","zip":"77012","potential customers":"Jestex Inc","geo_score":1.0,"phone":"713 641 5509","id":"a6ag75plwssg","geo_precision":"range","address":"8107 E Magnolia St.","state":"Texas"},"type":"Feature","geometry":{"type":"Point","coordinates":[-95.27831,29.719346]}},{"properties":{"city":"Houston","zip":"77587","potential customers":"Joe's Quality Welding &amp; Fab","geo_score":0.959,"phone":null,"id":"a6ag75ncmm4u","geo_precision":"range","address":"1210 Virginia St.","state":"Texas"},"type":"Feature","geometry":{"type":"Point","coordinates":[-95.24582,29.659612]}},{"properties":{"city":"Houston","zip":"77041","potential customers":"Joint Holdings Basic Metal","geo_score":0.721,"phone":"281-485-0795","id":"a6ag75r7ipnv","geo_precision":"street","address":"11921 FM 529 Rd.","state":"Texas"},"type":"Feature","geometry":{"type":"Point","coordinates":[-95.620734,29.879451]}},{"properties":{"city":"Houston","zip":"77085","potential customers":"Kami Eisemann","geo_score":1.0,"phone":null,"id":"a6ag75l4mlnf","geo_precision":"range","address":"12300 Zavalla St.","state":"Texas"},"type":"Feature","geometry":{"type":"Point","coordinates":[-95.50128,29.628333]}},{"properties":{"city":"Houston","zip":"77041","potential customers":"Kawneer Co","geo_score":1.0,"phone":"281-997-0122","id":"a6ag75qmrldb","geo_precision":"range","address":"6615 Roxburgh Dr.","state":"Texas"},"type":"Feature","geometry":{"type":"Point","coordinates":[-95.556166,29.864799]}},{"properties":{"city":"Aransas Pass","zip":"78335","potential customers":"Kellogg, Brown Root Intl","geo_score":0.805,"phone":null,"id":"a6ag75o5qsfk","geo_precision":"range","address":"224 State Hwy 361","state":"Texas"},"type":"Feature","geometry":{"type":"Point","coordinates":[-97.067918,27.828845]}},{"properties":{"city":"Houston","zip":"77060","potential customers":"Kits Industries","geo_score":1.0,"phone":null,"id":"a6ag75ugqamz","geo_precision":"range","address":"14131 Henry Rd.","state":"Texas"},"type":"Feature","geometry":{"type":"Point","coordinates":[-95.382641,29.905488]}},{"properties":{"city":"Houston","zip":"77092","potential customers":"L B Foster Co","geo_score":0.878,"phone":null,"id":"a6ag75lbr4zg","geo_precision":"range","address":"6500 Langfield Rd.","state":"Texas"},"type":"Feature","geometry":{"type":"Point","coordinates":[-95.500132,29.858385]}},{"properties":{"city":"Alvin","zip":"77511","potential customers":"LNS Industrial Machine","geo_score":0.913,"phone":null,"id":"a6ag75trx4hs","geo_precision":"range","address":"19200 North Highway 35","state":"Texas"},"type":"Feature","geometry":{"type":"Point","coordinates":[-95.249487,29.505793]}},{"properties":{"city":"Houston","zip":"77041","potential customers":"Longhorn Steel &amp; Flamecutting","geo_score":0.721,"phone":"281-485-5399","id":"a6ag75rkzqmo","geo_precision":"street","address":"11921 FM 529 Rd.","state":"Texas"},"type":"Feature","geometry":{"type":"Point","coordinates":[-95.620734,29.879451]}},{"properties":{"city":"Houston","zip":"77093","potential customers":"M I L Ltd","geo_score":0.959,"phone":null,"id":"a6ag75pvljb7","geo_precision":"range","address":"9119 Weedy Ln.","state":"Texas"},"type":"Feature","geometry":{"type":"Point","coordinates":[-95.335954,29.843804]}},{"properties":{"city":"Houston","zip":"77022","potential customers":"Mach Industrial Group","geo_score":0.919,"phone":"(713) 699-9543?","id":"a6ag75v6949n","geo_precision":"range","address":"6119 Fulton St.","state":"Texas"},"type":"Feature","geometry":{"type":"Point","coordinates":[-95.369878,29.814201]}},{"properties":{"city":"Houston","zip":"77020","potential customers":"Madewell LLC","geo_score":1.0,"phone":"713 691 5200","id":"a6ag75l2vxlj","geo_precision":"range","address":"1330 Boyles St.","state":"Texas"},"type":"Feature","geometry":{"type":"Point","coordinates":[-95.299467,29.763607]}},{"properties":{"city":"Houston","zip":"77066","potential customers":"Magnum Precision Fabrication","geo_score":1.0,"phone":null,"id":"a6ag75y5ale3","geo_precision":"range","address":"12450 Cutten Rd.","state":"Texas"},"type":"Feature","geometry":{"type":"Point","coordinates":[-95.528405,29.961283]}},{"properties":{"city":"Houston","zip":"77075","potential customers":"Magnum Welding and Fab","geo_score":0.878,"phone":null,"id":"a6ag75ncnpbr","geo_precision":"range","address":"7322 Almeda-Genoa Road","state":"Texas"},"type":"Feature","geometry":{"type":"Point","coordinates":[-95.292756,29.620809]}},{"properties":{"city":"Houston","zip":"77018","potential customers":"Mancuso Harley-Davidson","geo_score":0.959,"phone":"713 956 0754","id":"a6ag75tsq3ls","geo_precision":"range","address":"535 North Loop Freeway","state":"Texas"},"type":"Feature","geometry":{"type":"Point","coordinates":[-95.392932,29.814242]}},{"properties":{"city":"Houston","zip":"77008","potential customers":"Manufactured Component parts","geo_score":0.868,"phone":"713 988 0400","id":"a6ag75kupgil","geo_precision":"range","address":"3001 W 11th St.","state":"Texas"},"type":"Feature","geometry":{"type":"Point","coordinates":[-95.432047,29.789237]}},{"properties":{"city":"Houston","zip":"77067","potential customers":"Medcalf Fabrication Inc","geo_score":1.0,"phone":null,"id":"a6ag75qiajdw","geo_precision":"range","address":"1703 Hugh Rd.","state":"Texas"},"type":"Feature","geometry":{"type":"Point","coordinates":[-95.448344,29.959789]}},{"properties":{"city":"Houston","zip":"77587","potential customers":"Mekong Precision Works","geo_score":0.959,"phone":"713-943-0340","id":"a6ag75tk42qk","geo_precision":"range","address":"202 Main St.","state":"Texas"},"type":"Feature","geometry":{"type":"Point","coordinates":[-95.249288,29.669539]}},{"properties":{"city":"Alvin","zip":"77511","potential customers":"Metal Craftsman","geo_score":0.807,"phone":null,"id":"a6ag75q8xw9e","geo_precision":"range","address":"659 County Rd 351","state":"Texas"},"type":"Feature","geometry":{"type":"Point","coordinates":[-95.217965,29.436542]}},{"properties":{"city":"Houston","zip":"77040","potential customers":"Metallic Products","geo_score":0.741,"phone":"800 745 0133","id":"a6ag75yy46zz","geo_precision":"range","address":"7777 Hollister","state":"Texas"},"type":"Feature","geometry":{"type":"Point","coordinates":[-95.506905,29.867637]}},{"properties":{"city":"Houston","zip":"77056","potential customers":"Metals USA Inc","geo_score":0.805,"phone":"281-485-5257","id":"a6ag75kummlg","geo_precision":"street","address":"1 Riverway #1100","state":"Texas"},"type":"Feature","geometry":{"type":"Point","coordinates":[-95.462144,29.761415]}},{"properties":{"city":"Houston","zip":"77017","potential customers":"Metfab Inc","geo_score":1.0,"phone":"713 462 6161","id":"a6ag75qm7ger","geo_precision":"range","address":"314 Allen Genoa Rd.","state":"Texas"},"type":"Feature","geometry":{"type":"Point","coordinates":[-95.24435,29.704825]}},{"properties":{"city":"Seabrook","zip":"77586","potential customers":"Miller's Machine &amp; Welding","geo_score":0.914,"phone":"281 474 2697","id":"a6ag75qhb8xi","geo_precision":"range","address":"1209 Bayport Boulevard","state":"Texas"},"type":"Feature","geometry":{"type":"Point","coordinates":[-95.025641,29.562823]}},{"properties":{"city":"Houston","zip":"77048","potential customers":"Mobil Steel Intl","geo_score":1.0,"phone":"713 676 3011","id":"a6ag75ztjhqt","geo_precision":"range","address":"13830 S Wayside Dr.","state":"Texas"},"type":"Feature","geometry":{"type":"Point","coordinates":[-95.3178,29.609643]}},{"properties":{"city":"Houston","zip":"77020","potential customers":"Modern Welding Co of Texas","geo_score":0.805,"phone":"281 590 1505","id":"a6ag75yg5ttm","geo_precision":"street","address":"715 Sakowitz St.","state":"Texas"},"type":"Feature","geometry":{"type":"Point","coordinates":[-95.313589,29.769792]}},{"properties":{"city":"Houston","zip":"77047","potential customers":"N-Line Valves","geo_score":1.0,"phone":"713 941 3785","id":"a6ag75rkxm5d","geo_precision":"range","address":"14814 Park Almeda Drive","state":"Texas"},"type":"Feature","geometry":{"type":"Point","coordinates":[-95.420764,29.591338]}},{"properties":{"city":"Houston","zip":"77015","potential customers":"North Shore Supply Co","geo_score":0.862,"phone":"713 688 8588","id":"a6ag75xldval","geo_precision":"range","address":"12944 Market Street Rd.","state":"Texas"},"type":"Feature","geometry":{"type":"Point","coordinates":[-95.199384,29.767882]}},{"properties":{"city":"Houston","zip":"77083","potential customers":"Ober &amp; Sons","geo_score":1.0,"phone":null,"id":"a6ag75x3zfhp","geo_precision":"range","address":"7755 Synott Rd.","state":"Texas"},"type":"Feature","geometry":{"type":"Point","coordinates":[-95.614533,29.692667]}},{"properties":{"city":"Pearland","zip":"77581","potential customers":"Owens Racing Engines","geo_score":0.921,"phone":null,"id":"a6ag75kiodps","geo_precision":"range","address":"2308 North Austin Ave","state":"Texas"},"type":"Feature","geometry":{"type":"Point","coordinates":[-95.292507,29.565368]}},{"properties":{"city":"Houston","zip":"77044","potential customers":"Partin Management","geo_score":0.915,"phone":"281-997-9200","id":"a6ag75q3jnn5","geo_precision":"range","address":"12543 Robert E Lee Rd.","state":"Texas"},"type":"Feature","geometry":{"type":"Point","coordinates":[-95.210392,29.842382]}},{"properties":{"city":"Houston","zip":"77027","potential customers":"Petrosin Energy","geo_score":0.622,"phone":"281 367 9333","id":"a6ag75kbvmpk","geo_precision":"street","address":"1535 W. Loop S #200","state":"Texas"},"type":"Feature","geometry":{"type":"Point","coordinates":[-95.455278,29.758082]}},{"properties":{"city":"Spring","zip":"77388","potential customers":"Pickup Specialties","geo_score":0.927,"phone":null,"id":"a6ag75ljxtb4","geo_precision":"range","address":"2445 FM 2920 Road","state":"Texas"},"type":"Feature","geometry":{"type":"Point","coordinates":[-95.453398,30.070495]}},{"properties":{"city":"Houston","zip":"77051","potential customers":"Piping Tech. &amp; Products","geo_score":1.0,"phone":"(713)645-4973","id":"a6ag75ljxtxq","geo_precision":"range","address":"3701 Holmes Rd.","state":"Texas"},"type":"Feature","geometry":{"type":"Point","coordinates":[-95.371303,29.678055]}},{"properties":{"city":"Houston","zip":"77008","potential customers":"Quality Linings &amp; Fabrications","geo_score":0.868,"phone":"281 879 8968","id":"a6ag75xmqg5p","geo_precision":"range","address":"3601 W 12th St.","state":"Texas"},"type":"Feature","geometry":{"type":"Point","coordinates":[-95.444586,29.791563]}},{"properties":{"city":"Houston","zip":"77003","potential customers":"Quietaire Corp","geo_score":1.0,"phone":"(713) 991-7600","id":"a6ag75ku33lj","geo_precision":"range","address":"505 N Hutcheson St.","state":"Texas"},"type":"Feature","geometry":{"type":"Point","coordinates":[-95.333461,29.755271]}},{"properties":{"city":"Houston","zip":"77041","potential customers":"R &amp; N Manufacturing","geo_score":1.0,"phone":"281-648-9400","id":"a6ag75r0k8ue","geo_precision":"range","address":"6417 Cunningham Rd.","state":"Texas"},"type":"Feature","geometry":{"type":"Point","coordinates":[-95.581455,29.860938]}},{"properties":{"city":"Houston","zip":"77018","potential customers":"R E Campbell Co","geo_score":0.959,"phone":"713 644 6705","id":"a6ag75n2jcu4","geo_precision":"range","address":"3502 Pinemont Dr.","state":"Texas"},"type":"Feature","geometry":{"type":"Point","coordinates":[-95.432792,29.841121]}},{"properties":{"city":"San Leon","zip":"77539","potential customers":"RB Mosher Co.","geo_score":0.806,"phone":null,"id":"a6ag75r9r0o7","geo_precision":"street","address":"5902 FM 517","state":"Texas"},"type":"Feature","geometry":{"type":"Point","coordinates":[-95.006853,29.47017]}},{"properties":{"city":"Houston","zip":"77075","potential customers":"Redline Ind","geo_score":1.0,"phone":null,"id":"a6ag75ztixmh","geo_precision":"range","address":"8401 Mosley Rd.","state":"Texas"},"type":"Feature","geometry":{"type":"Point","coordinates":[-95.253647,29.647862]}},{"properties":{"city":"Houston","zip":"77040","potential customers":"Rice Metal Fabricators","geo_score":0.916,"phone":"281 331 6741","id":"a6ag75q3soll","geo_precision":"range","address":"13824 Hempstead Rd.","state":"Texas"},"type":"Feature","geometry":{"type":"Point","coordinates":[-95.525961,29.848787]}},{"properties":{"city":"Houston","zip":"77065","potential customers":"Richey Enterprises","geo_score":1.0,"phone":null,"id":"a6ag75s3m091","geo_precision":"range","address":"12823 Aste Ln","state":"Texas"},"type":"Feature","geometry":{"type":"Point","coordinates":[-95.614337,29.940548]}},{"properties":{"city":"Houston","zip":"77075","potential customers":"Rig-a-Lite","geo_score":1.0,"phone":null,"id":"a6ag75z0ov62","geo_precision":"range","address":"8500 Hansen Rd","state":"Texas"},"type":"Feature","geometry":{"type":"Point","coordinates":[-95.258153,29.644782]}},{"properties":{"city":"Houston","zip":"77064","potential customers":"Rjglobal Wika","geo_score":0.963,"phone":null,"id":"a6ag75vm0m2p","geo_precision":"range","address":"10910 W Sam Houston Pkwy N","state":"Texas"},"type":"Feature","geometry":{"type":"Point","coordinates":[-95.554888,29.922832]}},{"properties":{"city":"Houston","zip":"77009","potential customers":"Robert S Henry Co","geo_score":1.0,"phone":"281 405 2010","id":"a6ag75mnyono","geo_precision":"range","address":"3120 Gano St","state":"Texas"},"type":"Feature","geometry":{"type":"Point","coordinates":[-95.354996,29.789086]}},{"properties":{"city":"Pearland","zip":"77581","potential customers":"Rollac Shutter","geo_score":0.799,"phone":null,"id":"a6ag75ymkccf","geo_precision":"range","address":"5331 West Orange St.","state":"Texas"},"type":"Feature","geometry":{"type":"Point","coordinates":[-95.301275,29.569143]}},{"properties":{"city":"Houston","zip":"77093","potential customers":"Ross Metal Works","geo_score":0.959,"phone":null,"id":"a6ag75kk4z05","geo_precision":"range","address":"1910 Turner Dr","state":"Texas"},"type":"Feature","geometry":{"type":"Point","coordinates":[-95.354481,29.851731]}},{"properties":{"city":"Houston","zip":"77092","potential customers":"Sharon Steel","geo_score":1.0,"phone":null,"id":"a6ag75zblqfw","geo_precision":"range","address":"5915 Milwee St.","state":"Texas"},"type":"Feature","geometry":{"type":"Point","coordinates":[-95.476356,29.822206]}},{"properties":{"city":"Texas City","zip":"77590","potential customers":"Sikes Fabricating Co","geo_score":0.87,"phone":null,"id":"a6ag75og2igk","geo_precision":"range","address":"3416 3rd Ave S","state":"Texas"},"type":"Feature","geometry":{"type":"Point","coordinates":[-94.947131,29.38081]}},{"properties":{"city":"Pasadena","zip":"77503","potential customers":"Simmons Fabricators","geo_score":0.929,"phone":null,"id":"a6ag75qb5x8o","geo_precision":"range","address":"2418 Beverly Rd.","state":"Texas"},"type":"Feature","geometry":{"type":"Point","coordinates":[-95.147821,29.677695]}},{"properties":{"city":"Houston","zip":"77039","potential customers":"SMI Manufacturing","geo_score":0.902,"phone":"281 487 1396","id":"a6ag75jt7kt3","geo_precision":"range","address":"13312 E Hardy Rd","state":"Texas"},"type":"Feature","geometry":{"type":"Point","coordinates":[-95.373455,29.906863]}},{"properties":{"city":"Houston","zip":"77075","potential customers":"Southwestern Lighting Products Inc","geo_score":1.0,"phone":null,"id":"a6ag75mf4sjv","geo_precision":"range","address":"9941 Rowlett Rd","state":"Texas"},"type":"Feature","geometry":{"type":"Point","coordinates":[-95.233984,29.624357]}},{"properties":{"city":"Baytown","zip":"77520","potential customers":"Specialty Products &amp; Fab","geo_score":0.902,"phone":null,"id":"a6ag75ls9lvz","geo_precision":"range","address":"15181 Lakeview Dr.","state":"Texas"},"type":"Feature","geometry":{"type":"Point","coordinates":[-94.847005,29.761825]}},{"properties":{"city":"Houston","zip":"77055","potential customers":"SPF Corp of America","geo_score":0.915,"phone":"281-339-3382","id":"a6ag75pk2386","geo_precision":"range","address":"11505 Todd St.","state":"Texas"},"type":"Feature","geometry":{"type":"Point","coordinates":[-95.479957,29.815326]}},{"properties":{"city":"Houston","zip":"77047","potential customers":"Stainless Steel Custom Fab","geo_score":1.0,"phone":"713 944 0942","id":"a6ag75su9tog","geo_precision":"range","address":"2116 Almeda Genoa Rd","state":"Texas"},"type":"Feature","geometry":{"type":"Point","coordinates":[-95.391135,29.61399]}},{"properties":{"city":"Houston","zip":"77041","potential customers":"Steel Designs Inc","geo_score":1.0,"phone":null,"id":"a6ag75zlg1ut","geo_precision":"range","address":"13303 Emmett Rd.","state":"Texas"},"type":"Feature","geometry":{"type":"Point","coordinates":[-95.614015,29.871805]}},{"properties":{"city":"Houston","zip":"77075","potential customers":"Steel SupPearland, TXy","geo_score":1.0,"phone":null,"id":"a6ag75m3yqaa","geo_precision":"range","address":"10600 Telephone Rd","state":"Texas"},"type":"Feature","geometry":{"type":"Point","coordinates":[-95.285541,29.611655]}},{"properties":{"city":"Galveston","zip":"77554","potential customers":"Steven-Sharon Corp","geo_score":1.0,"phone":null,"id":"a6ag75rsx44f","geo_precision":"range","address":"7701 Harborside Dr.","state":"Texas"},"type":"Feature","geometry":{"type":"Point","coordinates":[-94.859732,29.292239]}},{"properties":{"city":"Houston","zip":"77015","potential customers":"Summit Steel Fab","geo_score":0.92,"phone":"713 681 2426","id":"a6ag75ys2yw3","geo_precision":"range","address":"2004 Federal Rd.","state":"Texas"},"type":"Feature","geometry":{"type":"Point","coordinates":[-95.212796,29.75279]}},{"properties":{"city":"Houston","zip":"77092","potential customers":"Superior Grating Inc","geo_score":1.0,"phone":null,"id":"a6ag75y2cny7","geo_precision":"range","address":"3006 April Ln","state":"Texas"},"type":"Feature","geometry":{"type":"Point","coordinates":[-95.472624,29.813531]}},{"properties":{"city":"Houston","zip":"77051","potential customers":"Sweco Fab Inc","geo_score":1.0,"phone":"409 744 9222","id":"a6ag75n84v8l","geo_precision":"range","address":"3701 Holmes Rd.","state":"Texas"},"type":"Feature","geometry":{"type":"Point","coordinates":[-95.371303,29.678055]}},{"properties":{"city":"Houston","zip":"77002","potential customers":"Texas Cold Finished Steel","geo_score":0.916,"phone":"713-946-1235","id":"a6ag75yw7ix1","geo_precision":"range","address":"1300 Baker St.","state":"Texas"},"type":"Feature","geometry":{"type":"Point","coordinates":[-95.355336,29.763651]}},{"properties":{"city":"Houston","zip":"77091","potential customers":"Thom E Sisk Inc","geo_score":1.0,"phone":null,"id":"a6ag75qm8ev7","geo_precision":"range","address":"5902 N Houston Rosslyn Rd.","state":"Texas"},"type":"Feature","geometry":{"type":"Point","coordinates":[-95.474876,29.852527]}},{"properties":{"city":"Houston","zip":"77041","potential customers":"Tradco Inc","geo_score":1.0,"phone":"(281-485-1911","id":"a6ag75p0ois1","geo_precision":"range","address":"9400 Bamboo Rd.","state":"Texas"},"type":"Feature","geometry":{"type":"Point","coordinates":[-95.527459,29.847907]}},{"properties":{"city":"Pearland","zip":"77581","potential customers":"Trucks Unlimited","geo_score":0.879,"phone":null,"id":"a6ag75madors","geo_precision":"range","address":"2720 Westminister","state":"Texas"},"type":"Feature","geometry":{"type":"Point","coordinates":[-95.266547,29.560974]}},{"properties":{"city":"Houston","zip":"77051","potential customers":"Tube Bending LLC","geo_score":1.0,"phone":"(713)329-5500","id":"a6ag75r9kyn6","geo_precision":"range","address":"2906 Holmes Rd.","state":"Texas"},"type":"Feature","geometry":{"type":"Point","coordinates":[-95.38392,29.67436]}},{"properties":{"city":"Houston","zip":"77040","potential customers":"Turboweld","geo_score":0.916,"phone":"(281) 648-2911","id":"a6ag75ml8cvp","geo_precision":"range","address":"6951 W Little York Rd.","state":"Texas"},"type":"Feature","geometry":{"type":"Point","coordinates":[-95.495103,29.865695]}},{"properties":{"city":"Houston","zip":"77093","potential customers":"United Mechanics","geo_score":0.959,"phone":null,"id":"a6ag75p0m1hp","geo_precision":"range","address":"2210 Hartwick Rd.","state":"Texas"},"type":"Feature","geometry":{"type":"Point","coordinates":[-95.351039,29.884667]}},{"properties":{"city":"Houston","zip":"77069","potential customers":"United Steel Fabricators","geo_score":0.74,"phone":null,"id":"a6ag75m0t2bx","geo_precision":"street","address":"4606 Fm 1960 Rd W #210","state":"Texas"},"type":"Feature","geometry":{"type":"Point","coordinates":[-95.498393,29.987835]}},{"properties":{"city":"Houston","zip":"77093","potential customers":"Universal Ornaments","geo_score":0.959,"phone":null,"id":"a6ag75tobi7v","geo_precision":"range","address":"2305 Bennington St.","state":"Texas"},"type":"Feature","geometry":{"type":"Point","coordinates":[-95.348064,29.82185]}},{"properties":{"city":"Houston","zip":"77049","potential customers":"Uribe Steel","geo_score":0.537,"phone":"832 603 3761","id":"a6ag75xosi2r","geo_precision":"street","address":"7213 Miller Rd. 2","state":"Texas"},"type":"Feature","geometry":{"type":"Point","coordinates":[-95.343769,29.740429]}},{"properties":{"city":"Houston","zip":"77051","potential customers":"US Bellows","geo_score":1.0,"phone":"(281) 987-2115","id":"a6ag75tk2wkn","geo_precision":"range","address":"3701 Holmes Rd.","state":"Texas"},"type":"Feature","geometry":{"type":"Point","coordinates":[-95.371303,29.678055]}},{"properties":{"city":"Houston","zip":"77051","potential customers":"V &amp; L Fabricators","geo_score":1.0,"phone":"281-353-8677","id":"a6ag75qrm7ox","geo_precision":"range","address":"4311 Holmes Rd.","state":"Texas"},"type":"Feature","geometry":{"type":"Point","coordinates":[-95.359562,29.681696]}},{"properties":{"city":"Houston","zip":"77093","potential customers":"Vickery Street Fabricators","geo_score":0.959,"phone":null,"id":"a6ag75uoltsz","geo_precision":"range","address":"4525 Saunders Rd.","state":"Texas"},"type":"Feature","geometry":{"type":"Point","coordinates":[-95.324464,29.865084]}},{"properties":{"city":"Houston","zip":"77020","potential customers":"Walkup Co","geo_score":1.0,"phone":"713 699 1500","id":"a6ag75sqhql0","geo_precision":"range","address":"5945 Armour Dr.","state":"Texas"},"type":"Feature","geometry":{"type":"Point","coordinates":[-95.305735,29.757774]}},{"properties":{"city":"Houston","zip":"77023","potential customers":"Woodland Blinds","geo_score":1.0,"phone":"281 367 2032","id":"a6ag75wefamm","geo_precision":"range","address":"6120 Griggs Rd.","state":"Texas"},"type":"Feature","geometry":{"type":"Point","coordinates":[-95.316919,29.701838]}},{"properties":{"city":"Alvin","zip":"77511","potential customers":"Woven Metal Inc","geo_score":0.83,"phone":null,"id":"a6ag75x5j0fn","geo_precision":"range","address":"1201 FM 517 Road","state":"Texas"},"type":"Feature","geometry":{"type":"Point","coordinates":[-95.213193,29.429928]}},{"properties":{"city":"League City","zip":"77573","potential customers":"Zeb's Metalcraft","geo_score":0.747,"phone":null,"id":"a6ag75xe253u","geo_precision":"street","address":"2805 Highway 3","state":"Texas"},"type":"Feature","geometry":{"type":"Point","coordinates":[-95.076448,29.487475]}},{"properties":{"city":"Manvel","zip":"77578","potential customers":"G &amp; B Machine Works","geo_score":0.463,"phone":null,"id":"a6ag75x3k36d","geo_precision":"street","address":"4830 Del Borro Rd.","state":"Texas"},"type":"Feature","geometry":{"type":"Point","coordinates":[-95.302962,29.530728]}},{"properties":{"city":"Houston","zip":"77047","potential customers":"GPR Machine LP","geo_score":1.0,"phone":null,"id":"a6ag75sl9t8y","geo_precision":"range","address":"14805 Park Almeda Dr.","state":"Texas"},"type":"Feature","geometry":{"type":"Point","coordinates":[-95.420765,29.591389]}},{"properties":{"city":"Pearland","zip":"77581","potential customers":"G. B. Industry Co.","geo_score":0.921,"phone":null,"id":"a6ag75titw3u","geo_precision":"range","address":"17411 County Road 127","state":"Texas"},"type":"Feature","geometry":{"type":"Point","coordinates":[-95.236479,29.523581]}},{"properties":{"city":"Pearland","zip":"77581","potential customers":"Glass Machine Shop","geo_score":0.921,"phone":null,"id":"a6ag75pr87dy","geo_precision":"range","address":"2550 Westgate St.","state":"Texas"},"type":"Feature","geometry":{"type":"Point","coordinates":[-95.34264,29.559561]}},{"properties":{"city":"Houston","zip":"77075","potential customers":"Grant Machine &amp; Mfg","geo_score":1.0,"phone":null,"id":"a6ag75vesz0g","geo_precision":"range","address":"8303 Hansen Rd.","state":"Texas"},"type":"Feature","geometry":{"type":"Point","coordinates":[-95.258218,29.647649]}},{"properties":{"city":"Pearland","zip":"77584","potential customers":"H&amp;R Operator Services, Inc.","geo_score":0.805,"phone":"281-485-4477","id":"a6ag75ykwtka","geo_precision":"street","address":"7407 Fite Rd.","state":"Texas"},"type":"Feature","geometry":{"type":"Point","coordinates":[-95.328156,29.55208]}},{"properties":{"city":"Pearland","zip":"77584","potential customers":"Halford, Jr. Welding Co.","geo_score":1.0,"phone":"281-489-4272","id":"a6ag75mbs0ax","geo_precision":"range","address":"6661 Amie Ln.","state":"Texas"},"type":"Feature","geometry":{"type":"Point","coordinates":[-95.303382,29.524353]}},{"properties":{"city":"Houston","zip":"77075","potential customers":"Higginbotham's B&amp;M Machine Works","geo_score":1.0,"phone":"713-941-1854","id":"a6ag75nl52ds","geo_precision":"range","address":"8353 Mosley Rd.","state":"Texas"},"type":"Feature","geometry":{"type":"Point","coordinates":[-95.253667,29.648563]}},{"properties":{"city":"Pearland","zip":"77581","potential customers":"Hopper Oil Tool Co.","geo_score":0.921,"phone":null,"id":"a6ag75oehbti","geo_precision":"range","address":"2413 Roy Rd.","state":"Texas"},"type":"Feature","geometry":{"type":"Point","coordinates":[-95.327204,29.569239]}},{"properties":{"city":"Pearland","zip":"77581","potential customers":"Houston Tubulars","geo_score":0.921,"phone":null,"id":"a6ag75lthy5t","geo_precision":"range","address":"13600 Hatfield Rd.","state":"Texas"},"type":"Feature","geometry":{"type":"Point","coordinates":[-95.307914,29.569908]}},{"properties":{"city":"Houston","zip":"77047","potential customers":"Hydramotion, Inc.","geo_score":0.61,"phone":null,"id":"a6ag75jy5otk","geo_precision":"street","address":"16710 Buffalo Speedway","state":"Texas"},"type":"Feature","geometry":{"type":"Point","coordinates":[-95.430701,29.61354]}},{"properties":{"city":"Houston","zip":"77047","potential customers":"Hydraulic Fabricators, Inc.","geo_score":0.357,"phone":null,"id":"a6ag75mtjsom","geo_precision":"street","address":"110 S. Belt Industrial Dr.","state":"Texas"},"type":"Feature","geometry":{"type":"Point","coordinates":[-95.38026,29.657076]}},{"properties":{"city":"Pearland","zip":"77584","potential customers":"Hyper Products &amp; Services","geo_score":1.0,"phone":null,"id":"a6ag75n0c837","geo_precision":"range","address":"8405 Industrial Dr.","state":"Texas"},"type":"Feature","geometry":{"type":"Point","coordinates":[-95.269666,29.52858]}},{"properties":{"city":"Houston","zip":"77048","potential customers":"Hyseco, Inc.","geo_score":1.0,"phone":null,"id":"a6ag75o3lizg","geo_precision":"range","address":"5900 Almeda-Genoa Rd.","state":"Texas"},"type":"Feature","geometry":{"type":"Point","coordinates":[-95.317745,29.6209]}},{"properties":{"city":"Pearland","zip":"77584","potential customers":"Intercontinental Machine, Inc.","geo_score":1.0,"phone":null,"id":"a6ag75zva4o2","geo_precision":"range","address":"4271 Magnolia St.","state":"Texas"},"type":"Feature","geometry":{"type":"Point","coordinates":[-95.286127,29.54545]}},{"properties":{"city":"Pearland","zip":"77584","potential customers":"Intrinsic Safety Equipment of Texas","geo_score":1.0,"phone":null,"id":"a6ag75kfxxm4","geo_precision":"range","address":"3902 Magnolia St.","state":"Texas"},"type":"Feature","geometry":{"type":"Point","coordinates":[-95.281402,29.546206]}},{"properties":{"city":"Houston","zip":"77047","potential customers":"K. W. Electric Inc.","geo_score":0.963,"phone":null,"id":"a6ag75n6y4p3","geo_precision":"range","address":"100 Riley Rd.","state":"Texas"},"type":"Feature","geometry":{"type":"Point","coordinates":[-95.423538,29.591829]}},{"properties":{"city":"Pearland","zip":"77581","potential customers":"Kemlon Products &amp; Development","geo_score":0.527,"phone":null,"id":"a6ag75q9sr51","geo_precision":"street","address":"1424 N. Main St.","state":"Texas"},"type":"Feature","geometry":{"type":"Point","coordinates":[-95.250433,29.507261]}},{"properties":{"city":"Houston","zip":"77075","potential customers":"Lutes &amp; Co.","geo_score":1.0,"phone":null,"id":"a6ag75t50vtm","geo_precision":"range","address":"8645 Moers Rd.","state":"Texas"},"type":"Feature","geometry":{"type":"Point","coordinates":[-95.262506,29.64141]}},{"properties":{"city":"Houston","zip":"77078","potential customers":"MMLJ Inc.","geo_score":0.805,"phone":null,"id":"a6ag75qhfxir","geo_precision":"range","address":"5711 Schurmier Rd.","state":"Texas"},"type":"Feature","geometry":{"type":"Point","coordinates":[-95.322655,29.607631]}},{"properties":{"city":"Houston","zip":"77075","potential customers":"Magnum Welding &amp; Fabricating","geo_score":0.878,"phone":null,"id":"a6ag7600og4q","geo_precision":"range","address":"7322 Almeda-Genoa Road","state":"Texas"},"type":"Feature","geometry":{"type":"Point","coordinates":[-95.292756,29.620809]}},{"properties":{"city":"Houston","zip":"77048","potential customers":"Mathis Iron Works","geo_score":1.0,"phone":null,"id":"a6ag75lit7dj","geo_precision":"range","address":"6003 Allison Rd.","state":"Texas"},"type":"Feature","geometry":{"type":"Point","coordinates":[-95.314926,29.61646]}},{"properties":{"city":"Houston","zip":"77047","potential customers":"Maverick Precision Mfg.","geo_score":1.0,"phone":null,"id":"a6ag75yhe2ua","geo_precision":"range","address":"13604 Almeda School Rd.","state":"Texas"},"type":"Feature","geometry":{"type":"Point","coordinates":[-95.417467,29.609954]}},{"properties":{"city":"Pearland","zip":"77581","potential customers":"Merit Machine","geo_score":0.921,"phone":null,"id":"a6ag75ted5bz","geo_precision":"range","address":"2054 Oday Rd.","state":"Texas"},"type":"Feature","geometry":{"type":"Point","coordinates":[-95.314872,29.586197]}},{"properties":{"city":"Houston","zip":"77075","potential customers":"Metaltech Service Center","geo_score":1.0,"phone":null,"id":"a6ag75xvsw9w","geo_precision":"range","address":"9915 Monroe Rd.","state":"Texas"},"type":"Feature","geometry":{"type":"Point","coordinates":[-95.266775,29.621857]}},{"properties":{"city":"Pearland","zip":"77584","potential customers":"Moore's Machine shop","geo_score":0.927,"phone":null,"id":"a6ag75ojy1uz","geo_precision":"range","address":"3806 FM 1128 Rd.","state":"Texas"},"type":"Feature","geometry":{"type":"Point","coordinates":[-95.330462,29.5267]}},{"properties":{"city":"Pearland","zip":"77581","potential customers":"NRL, Inc.","geo_score":0.921,"phone":null,"id":"a6ag75rwfzt4","geo_precision":"range","address":"1616 N Main St.","state":"Texas"},"type":"Feature","geometry":{"type":"Point","coordinates":[-95.286374,29.580389]}},{"properties":{"city":"Houston","zip":"77048","potential customers":"Oil States International","geo_score":1.0,"phone":null,"id":"a6ag75n7qsqd","geo_precision":"range","address":"5819 Almeda Genoa Rd.","state":"Texas"},"type":"Feature","geometry":{"type":"Point","coordinates":[-95.319435,29.620915]}},{"properties":{"city":"Pearland","zip":"77584","potential customers":"Olson Machine Shop","geo_score":1.0,"phone":null,"id":"a6ag75q6bwfj","geo_precision":"range","address":"4525 County Road 91","state":"Texas"},"type":"Feature","geometry":{"type":"Point","coordinates":[-95.34718,29.55181]}},{"properties":{"city":"Pearland","zip":"77581","potential customers":"One H Studio","geo_score":0.921,"phone":null,"id":"a6ag75qpci6d","geo_precision":"range","address":"1605 Rayburn Ln.","state":"Texas"},"type":"Feature","geometry":{"type":"Point","coordinates":[-95.230451,29.549249]}},{"properties":{"city":"Pearland","zip":"77581","potential customers":"Pearland Box Co.","geo_score":0.804,"phone":null,"id":"a6ag75twtidf","geo_precision":"range","address":"3904 3rd St.","state":"Texas"},"type":"Feature","geometry":{"type":"Point","coordinates":[-95.281937,29.553794]}},{"properties":{"city":"Pearland","zip":"77581","potential customers":"Pipehunter","geo_score":0.921,"phone":null,"id":"a6ag75z074ti","geo_precision":"range","address":"1617 Garden Rd.","state":"Texas"},"type":"Feature","geometry":{"type":"Point","coordinates":[-95.321227,29.585039]}},{"properties":{"city":"Manvel","zip":"77578","potential customers":"Production Wireline &amp; Cased Hole Services","geo_score":0.902,"phone":null,"id":"a6ag75ng0z14","geo_precision":"range","address":"20504 Morris Rd.","state":"Texas"},"type":"Feature","geometry":{"type":"Point","coordinates":[-95.352145,29.465786]}},{"properties":{"city":"Pearland","zip":"77581","potential customers":"ProFax","geo_score":0.921,"phone":null,"id":"a6ag75t272io","geo_precision":"range","address":"1603 N Main St.","state":"Texas"},"type":"Feature","geometry":{"type":"Point","coordinates":[-95.286353,29.579659]}},{"properties":{"city":"Houston","zip":"77048","potential customers":"Quest-Tec Solutions, Inc.","geo_score":0.614,"phone":null,"id":"a6ag75yffi4s","geo_precision":"street","address":"13960 S. Wayside Dr.","state":"Texas"},"type":"Feature","geometry":{"type":"Point","coordinates":[-95.317782,29.616479]}},{"properties":{"city":"Houston","zip":"77034","potential customers":"Facility Solutions Group","geo_score":0.871,"phone":null,"id":"a6ag75obee4b","geo_precision":"range","address":"12009 Almeda Genoa St.","state":"Texas"},"type":"Feature","geometry":{"type":"Point","coordinates":[-95.214313,29.62235]}}],"is_temporal":false,"author":{"url":"","metadata":null,"contact_name":null,"contact_address":null,"source":null,"contact_phone":null},"source":"","pagination":{"sort":null,"start":0,"total":188,"limit":1000000},"state":"complete","tags":"","published":"2014-08-14T22:57:56-04:00","id":215194}