{"type":"FeatureCollection","data_type":"Dataset","url_type":null,"permissions":[{"permissions":{"download":true,"view":true},"group_id":"everyone"}],"classification":null,"title":"TELESALES","count":986,"stream_id":215865,"contributor":{"url":"http://geocommons.com/users/41990","name":"chrisellis"},"data_attributes":null,"calculation_params":null,"icon_link":null,"link":"http://geocommons.com/overlays/215865.json","extent":[-125.07,-38.8833,107.167,54.2334],"geometry_types":["point"],"unique_name":null,"name":"TELESALES","feature_count":986,"description":"","next_feature":null,"is_raster":false,"short_classification":"Y","stats":{"area_code":{"max":989,"variance":53905.8173422845,"mean":590.566937119675,"stdev":232.176263520379,"min":201,"median":662}},"features":[{"properties":{"city":"Jersey City","area_code":201,"geo_score":0.0,"id":"a6hevbjf75lg","geo_precision":"unmatched","state":"NJ"},"type":"Feature","geometry":null},{"properties":{"city":"Washington","area_code":202,"geo_score":0.0,"id":"a6hevbkd3sjh","geo_precision":"unmatched","state":"DC"},"type":"Feature","geometry":null},{"properties":{"city":"Washington","area_code":202,"geo_score":0.0,"id":"a6hevbrbf9et","geo_precision":"unmatched","state":"DC"},"type":"Feature","geometry":null},{"properties":{"city":"New Haven","area_code":203,"geo_score":0.0,"id":"a6hevbjge2bu","geo_precision":"unmatched","state":"CT"},"type":"Feature","geometry":null},{"properties":{"city":"New Haven","area_code":203,"geo_score":0.0,"id":"a6hevbiqs4lc","geo_precision":"unmatched","state":"CT"},"type":"Feature","geometry":null},{"properties":{"city":"Birmingham","area_code":205,"geo_score":0.0,"id":"a6hevbr6kjrh","geo_precision":"unmatched","state":"AL"},"type":"Feature","geometry":null},{"properties":{"city":"Birmingham","area_code":205,"geo_score":0.0,"id":"a6hevbjtarhk","geo_precision":"unmatched","state":"AL"},"type":"Feature","geometry":null},{"properties":{"city":"Birmingham","area_code":205,"geo_score":0.0,"id":"a6hevbsrro8j","geo_precision":"unmatched","state":"AL"},"type":"Feature","geometry":null},{"properties":{"city":"Birmingham","area_code":205,"geo_score":0.0,"id":"a6hevbsmk4xv","geo_precision":"unmatched","state":"AL"},"type":"Feature","geometry":null},{"properties":{"city":"Birmingham","area_code":205,"geo_score":0.0,"id":"a6hevbi41qap","geo_precision":"unmatched","state":"AL"},"type":"Feature","geometry":null},{"properties":{"city":"Birmingham","area_code":205,"geo_score":0.0,"id":"a6hevbgfox6c","geo_precision":"unmatched","state":"AL"},"type":"Feature","geometry":null},{"properties":{"city":"Birmingham","area_code":205,"geo_score":0.0,"id":"a6hevbup1ome","geo_precision":"unmatched","state":"AL"},"type":"Feature","geometry":null},{"properties":{"city":"Birmingham","area_code":205,"geo_score":0.0,"id":"a6hevbgpsau1","geo_precision":"unmatched","state":"AL"},"type":"Feature","geometry":null},{"properties":{"city":"Birmingham","area_code":205,"geo_score":0.0,"id":"a6hevbiaxhih","geo_precision":"unmatched","state":"AL"},"type":"Feature","geometry":null},{"properties":{"city":"Birmingham","area_code":205,"geo_score":0.0,"id":"a6hevbl09n7e","geo_precision":"unmatched","state":"AL"},"type":"Feature","geometry":null},{"properties":{"city":"Birmingham","area_code":205,"geo_score":0.0,"id":"a6hevbq1nykb","geo_precision":"unmatched","state":"AL"},"type":"Feature","geometry":null},{"properties":{"city":"Birmingham","area_code":205,"geo_score":0.0,"id":"a6hevbqoxle8","geo_precision":"unmatched","state":"AL"},"type":"Feature","geometry":null},{"properties":{"city":"Birmingham","area_code":205,"geo_score":0.0,"id":"a6hevbu23r4m","geo_precision":"unmatched","state":"AL"},"type":"Feature","geometry":null},{"properties":{"city":"Birmingham","area_code":205,"geo_score":0.0,"id":"a6hevbus1xsq","geo_precision":"unmatched","state":"AL"},"type":"Feature","geometry":null},{"properties":{"city":"Birmingham","area_code":205,"geo_score":0.0,"id":"a6hevbgl1o1l","geo_precision":"unmatched","state":"AL"},"type":"Feature","geometry":null},{"properties":{"city":"Birmingham","area_code":205,"geo_score":0.0,"id":"a6hevbfbq0ll","geo_precision":"unmatched","state":"AL"},"type":"Feature","geometry":null},{"properties":{"city":"Birmingham","area_code":205,"geo_score":0.0,"id":"a6hevbh0hbbh","geo_precision":"unmatched","state":"AL"},"type":"Feature","geometry":null},{"properties":{"city":"Portland","area_code":207,"geo_score":0.0,"id":"a6hevbijo70d","geo_precision":"unmatched","state":"ME"},"type":"Feature","geometry":null},{"properties":{"city":"Portland","area_code":207,"geo_score":0.0,"id":"a6hevbm8et75","geo_precision":"unmatched","state":"ME"},"type":"Feature","geometry":null},{"properties":{"city":"Portland","area_code":207,"geo_score":0.0,"id":"a6hevbuktrrb","geo_precision":"unmatched","state":"ME"},"type":"Feature","geometry":null},{"properties":{"city":"Portland","area_code":207,"geo_score":0.0,"id":"a6hevbtmcbir","geo_precision":"unmatched","state":"ME"},"type":"Feature","geometry":null},{"properties":{"city":"Portland","area_code":207,"geo_score":0.0,"id":"a6hevbtp0fkq","geo_precision":"unmatched","state":"ME"},"type":"Feature","geometry":null},{"properties":{"city":"Boise","area_code":208,"geo_score":0.914,"id":"a6hevbltfg5j","geo_precision":"zip","state":"ID"},"type":"Feature","geometry":{"type":"Point","coordinates":[95.9574,5.2872]}},{"properties":{"city":"Boise","area_code":208,"geo_score":0.914,"id":"a6hevbldmi7d","geo_precision":"zip","state":"ID"},"type":"Feature","geometry":{"type":"Point","coordinates":[95.9574,5.2872]}},{"properties":{"city":"Modesto","area_code":209,"geo_score":0.9,"id":"a6hevbqosdd6","geo_precision":"zip","state":"CA"},"type":"Feature","geometry":{"type":"Point","coordinates":[-79.749646949,46.383396729]}},{"properties":{"city":"Modesto","area_code":209,"geo_score":0.9,"id":"a6hevbjw4avc","geo_precision":"zip","state":"CA"},"type":"Feature","geometry":{"type":"Point","coordinates":[-79.749646949,46.383396729]}},{"properties":{"city":"Modesto","area_code":209,"geo_score":0.9,"id":"a6hevbuu2kxt","geo_precision":"zip","state":"CA"},"type":"Feature","geometry":{"type":"Point","coordinates":[-79.749646949,46.383396729]}},{"properties":{"city":"Modesto","area_code":209,"geo_score":0.9,"id":"a6hevbm1dly9","geo_precision":"zip","state":"CA"},"type":"Feature","geometry":{"type":"Point","coordinates":[-79.749646949,46.383396729]}},{"properties":{"city":"Modesto","area_code":209,"geo_score":0.9,"id":"a6hevbri7v9h","geo_precision":"zip","state":"CA"},"type":"Feature","geometry":{"type":"Point","coordinates":[-79.749646949,46.383396729]}},{"properties":{"city":"San Antonio","area_code":210,"geo_score":0.0,"id":"a6hevbnf9b4c","geo_precision":"unmatched","state":"TX"},"type":"Feature","geometry":null},{"properties":{"city":"San Antonio","area_code":210,"geo_score":0.0,"id":"a6hevbkgjvti","geo_precision":"unmatched","state":"TX"},"type":"Feature","geometry":null},{"properties":{"city":"San Antonio","area_code":210,"geo_score":0.0,"id":"a6hevbf7g7jy","geo_precision":"unmatched","state":"TX"},"type":"Feature","geometry":null},{"properties":{"city":"San Antonio","area_code":210,"geo_score":0.0,"id":"a6hevbtbavc4","geo_precision":"unmatched","state":"TX"},"type":"Feature","geometry":null},{"properties":{"city":"San Antonio","area_code":210,"geo_score":0.0,"id":"a6hevbh0q2tt","geo_precision":"unmatched","state":"TX"},"type":"Feature","geometry":null},{"properties":{"city":"San Antonio","area_code":210,"geo_score":0.0,"id":"a6hevbv245rt","geo_precision":"unmatched","state":"TX"},"type":"Feature","geometry":null},{"properties":{"city":"San Antonio","area_code":210,"geo_score":0.0,"id":"a6hevbf5bmw7","geo_precision":"unmatched","state":"TX"},"type":"Feature","geometry":null},{"properties":{"city":"San Antonio","area_code":210,"geo_score":0.0,"id":"a6hevbk7m0q3","geo_precision":"unmatched","state":"TX"},"type":"Feature","geometry":null},{"properties":{"city":"San Antonio","area_code":210,"geo_score":0.0,"id":"a6hevbhxyxvh","geo_precision":"unmatched","state":"TX"},"type":"Feature","geometry":null},{"properties":{"city":"San Antonio","area_code":210,"geo_score":0.0,"id":"a6hevbqsl3a2","geo_precision":"unmatched","state":"TX"},"type":"Feature","geometry":null},{"properties":{"city":"San Antonio","area_code":210,"geo_score":0.0,"id":"a6hevbv0q5jw","geo_precision":"unmatched","state":"TX"},"type":"Feature","geometry":null},{"properties":{"city":"San Antonio","area_code":210,"geo_score":0.0,"id":"a6hevbhxh87a","geo_precision":"unmatched","state":"TX"},"type":"Feature","geometry":null},{"properties":{"city":"San Antonio","area_code":210,"geo_score":0.0,"id":"a6hevbn3teah","geo_precision":"unmatched","state":"TX"},"type":"Feature","geometry":null},{"properties":{"city":"San Antonio","area_code":210,"geo_score":0.0,"id":"a6hevbmov02x","geo_precision":"unmatched","state":"TX"},"type":"Feature","geometry":null},{"properties":{"city":"San Antonio","area_code":210,"geo_score":0.0,"id":"a6hevbhiuivs","geo_precision":"unmatched","state":"TX"},"type":"Feature","geometry":null},{"properties":{"city":"San Antonio","area_code":210,"geo_score":0.0,"id":"a6hevbikazug","geo_precision":"unmatched","state":"TX"},"type":"Feature","geometry":null},{"properties":{"city":"San Antonio","area_code":210,"geo_score":0.0,"id":"a6hevbjddr4q","geo_precision":"unmatched","state":"TX"},"type":"Feature","geometry":null},{"properties":{"city":"San Antonio","area_code":210,"geo_score":0.0,"id":"a6hevbs07tia","geo_precision":"unmatched","state":"TX"},"type":"Feature","geometry":null},{"properties":{"city":"San Antonio","area_code":210,"geo_score":0.0,"id":"a6hevblc7ipo","geo_precision":"unmatched","state":"TX"},"type":"Feature","geometry":null},{"properties":{"city":"San Antonio","area_code":210,"geo_score":0.0,"id":"a6hevbi744ep","geo_precision":"unmatched","state":"TX"},"type":"Feature","geometry":null},{"properties":{"city":"San Antonio","area_code":210,"geo_score":0.0,"id":"a6hevbf6tipf","geo_precision":"unmatched","state":"TX"},"type":"Feature","geometry":null},{"properties":{"city":"San Antonio","area_code":210,"geo_score":0.0,"id":"a6hevbnhnc2n","geo_precision":"unmatched","state":"TX"},"type":"Feature","geometry":null},{"properties":{"city":"San Antonio","area_code":210,"geo_score":0.0,"id":"a6hevbhcb9bx","geo_precision":"unmatched","state":"TX"},"type":"Feature","geometry":null},{"properties":{"city":"San Antonio","area_code":210,"geo_score":0.0,"id":"a6hevbeydu8h","geo_precision":"unmatched","state":"TX"},"type":"Feature","geometry":null},{"properties":{"city":"San Antonio","area_code":210,"geo_score":0.0,"id":"a6hevbhbodat","geo_precision":"unmatched","state":"TX"},"type":"Feature","geometry":null},{"properties":{"city":"San Antonio","area_code":210,"geo_score":0.0,"id":"a6hevbtup951","geo_precision":"unmatched","state":"TX"},"type":"Feature","geometry":null},{"properties":{"city":"Dallas","area_code":214,"geo_score":0.0,"id":"a6hevbt4zu9o","geo_precision":"unmatched","state":"TX"},"type":"Feature","geometry":null},{"properties":{"city":"Dallas","area_code":214,"geo_score":0.0,"id":"a6hevbrusm7j","geo_precision":"unmatched","state":"TX"},"type":"Feature","geometry":null},{"properties":{"city":"Dallas","area_code":214,"geo_score":0.0,"id":"a6hevbqjsjjr","geo_precision":"unmatched","state":"TX"},"type":"Feature","geometry":null},{"properties":{"city":"Dallas","area_code":214,"geo_score":0.0,"id":"a6hevbk23dgp","geo_precision":"unmatched","state":"TX"},"type":"Feature","geometry":null},{"properties":{"city":"Dallas","area_code":214,"geo_score":0.0,"id":"a6hevbmo31ag","geo_precision":"unmatched","state":"TX"},"type":"Feature","geometry":null},{"properties":{"city":"Dallas","area_code":214,"geo_score":0.0,"id":"a6hevbsfubcz","geo_precision":"unmatched","state":"TX"},"type":"Feature","geometry":null},{"properties":{"city":"Dallas","area_code":214,"geo_score":0.0,"id":"a6hevbh444wm","geo_precision":"unmatched","state":"TX"},"type":"Feature","geometry":null},{"properties":{"city":"Dallas","area_code":214,"geo_score":0.0,"id":"a6hevbsm2cyg","geo_precision":"unmatched","state":"TX"},"type":"Feature","geometry":null},{"properties":{"city":"Dallas","area_code":214,"geo_score":0.0,"id":"a6hevbkg9shm","geo_precision":"unmatched","state":"TX"},"type":"Feature","geometry":null},{"properties":{"city":"Dallas","area_code":214,"geo_score":0.0,"id":"a6hevbtt452b","geo_precision":"unmatched","state":"TX"},"type":"Feature","geometry":null},{"properties":{"city":"Philadelphia","area_code":215,"geo_score":0.912,"id":"a6hevbo7k30s","geo_precision":"zip","state":"PA"},"type":"Feature","geometry":{"type":"Point","coordinates":[-81.4,7.9833333]}},{"properties":{"city":"Philadelphia","area_code":215,"geo_score":0.912,"id":"a6hevbgsxupw","geo_precision":"zip","state":"PA"},"type":"Feature","geometry":{"type":"Point","coordinates":[-81.4,7.9833333]}},{"properties":{"city":"Philadelphia","area_code":215,"geo_score":0.912,"id":"a6hevbqsfako","geo_precision":"zip","state":"PA"},"type":"Feature","geometry":{"type":"Point","coordinates":[-81.4,7.9833333]}},{"properties":{"city":"Philadelphia","area_code":215,"geo_score":0.912,"id":"a6hevbtc3hyb","geo_precision":"zip","state":"PA"},"type":"Feature","geometry":{"type":"Point","coordinates":[-81.4,7.9833333]}},{"properties":{"city":"Philadelphia","area_code":215,"geo_score":0.912,"id":"a6hevbulm826","geo_precision":"zip","state":"PA"},"type":"Feature","geometry":{"type":"Point","coordinates":[-81.4,7.9833333]}},{"properties":{"city":"Philadelphia","area_code":215,"geo_score":0.912,"id":"a6hevbkqqp2w","geo_precision":"zip","state":"PA"},"type":"Feature","geometry":{"type":"Point","coordinates":[-81.4,7.9833333]}},{"properties":{"city":"Philadelphia","area_code":215,"geo_score":0.912,"id":"a6hevblq4xuo","geo_precision":"zip","state":"PA"},"type":"Feature","geometry":{"type":"Point","coordinates":[-81.4,7.9833333]}},{"properties":{"city":"Philadelphia","area_code":215,"geo_score":0.912,"id":"a6hevbmarvkt","geo_precision":"zip","state":"PA"},"type":"Feature","geometry":{"type":"Point","coordinates":[-81.4,7.9833333]}},{"properties":{"city":"Philadelphia","area_code":215,"geo_score":0.912,"id":"a6hevbh27imr","geo_precision":"zip","state":"PA"},"type":"Feature","geometry":{"type":"Point","coordinates":[-81.4,7.9833333]}},{"properties":{"city":"Cleveland","area_code":216,"geo_score":0.0,"id":"a6hevbnnlehi","geo_precision":"unmatched","state":"OH"},"type":"Feature","geometry":null},{"properties":{"city":"Cleveland","area_code":216,"geo_score":0.0,"id":"a6hevbpgck8x","geo_precision":"unmatched","state":"OH"},"type":"Feature","geometry":null},{"properties":{"city":"Cleveland","area_code":216,"geo_score":0.0,"id":"a6hevblkavif","geo_precision":"unmatched","state":"OH"},"type":"Feature","geometry":null},{"properties":{"city":"Gary","area_code":219,"geo_score":0.943,"id":"a6hevbjkqbd4","geo_precision":"zip","state":"IN"},"type":"Feature","geometry":{"type":"Point","coordinates":[88.4,22.6333333]}},{"properties":{"city":"Baton Rouge","area_code":225,"geo_score":0.0,"id":"a6hevbj5xjfk","geo_precision":"unmatched","state":"LA"},"type":"Feature","geometry":null},{"properties":{"city":"Baton Rouge","area_code":225,"geo_score":0.0,"id":"a6hevbfb5dg9","geo_precision":"unmatched","state":"LA"},"type":"Feature","geometry":null},{"properties":{"city":"Baton Rouge","area_code":225,"geo_score":0.0,"id":"a6hevbod4asv","geo_precision":"unmatched","state":"LA"},"type":"Feature","geometry":null},{"properties":{"city":"Baton Rouge","area_code":225,"geo_score":0.0,"id":"a6hevblpposc","geo_precision":"unmatched","state":"LA"},"type":"Feature","geometry":null},{"properties":{"city":"Baton Rouge","area_code":225,"geo_score":0.0,"id":"a6hevbnsxvfp","geo_precision":"unmatched","state":"LA"},"type":"Feature","geometry":null},{"properties":{"city":"Baton Rouge","area_code":225,"geo_score":0.0,"id":"a6hevbf7kh1j","geo_precision":"unmatched","state":"LA"},"type":"Feature","geometry":null},{"properties":{"city":"Gulfport","area_code":228,"geo_score":0.0,"id":"a6hevbq4aj4g","geo_precision":"unmatched","state":"MS"},"type":"Feature","geometry":null},{"properties":{"city":"Gulfport","area_code":228,"geo_score":0.0,"id":"a6hevbq97a54","geo_precision":"unmatched","state":"MS"},"type":"Feature","geometry":null},{"properties":{"city":"Gulfport","area_code":228,"geo_score":0.0,"id":"a6hevbf62co2","geo_precision":"unmatched","state":"MS"},"type":"Feature","geometry":null},{"properties":{"city":"Gulfport","area_code":228,"geo_score":0.0,"id":"a6hevbmsvlbu","geo_precision":"unmatched","state":"MS"},"type":"Feature","geometry":null},{"properties":{"city":"Albany","area_code":229,"geo_score":0.0,"id":"a6hevbrtox05","geo_precision":"unmatched","state":"GA"},"type":"Feature","geometry":null},{"properties":{"city":"Albany","area_code":229,"geo_score":0.0,"id":"a6hevbut687e","geo_precision":"unmatched","state":"GA"},"type":"Feature","geometry":null},{"properties":{"city":"Albany","area_code":229,"geo_score":0.0,"id":"a6hevboz2awz","geo_precision":"unmatched","state":"GA"},"type":"Feature","geometry":null},{"properties":{"city":"Muskegon","area_code":231,"geo_score":0.0,"id":"a6hevboyeiew","geo_precision":"unmatched","state":"MI"},"type":"Feature","geometry":null},{"properties":{"city":"Royal Oak","area_code":248,"geo_score":0.0,"id":"a6hevbkr1nvv","geo_precision":"unmatched","state":"MI"},"type":"Feature","geometry":null},{"properties":{"city":"Royal Oak","area_code":248,"geo_score":0.0,"id":"a6hevbfbdk8d","geo_precision":"unmatched","state":"MI"},"type":"Feature","geometry":null},{"properties":{"city":"Royal Oak","area_code":248,"geo_score":0.0,"id":"a6hevbhy44q3","geo_precision":"unmatched","state":"MI"},"type":"Feature","geometry":null},{"properties":{"city":"Royal Oak","area_code":248,"geo_score":0.0,"id":"a6hevbmlcmjv","geo_precision":"unmatched","state":"MI"},"type":"Feature","geometry":null},{"properties":{"city":"Royal Oak","area_code":248,"geo_score":0.0,"id":"a6hevblfr19r","geo_precision":"unmatched","state":"MI"},"type":"Feature","geometry":null},{"properties":{"city":"Royal Oak","area_code":248,"geo_score":0.0,"id":"a6hevbu494jo","geo_precision":"unmatched","state":"MI"},"type":"Feature","geometry":null},{"properties":{"city":"Mobile","area_code":251,"geo_score":0.0,"id":"a6hevblhxts9","geo_precision":"unmatched","state":"AL"},"type":"Feature","geometry":null},{"properties":{"city":"Mobile","area_code":251,"geo_score":0.0,"id":"a6hevbp6i0vk","geo_precision":"unmatched","state":"AL"},"type":"Feature","geometry":null},{"properties":{"city":"Mobile","area_code":251,"geo_score":0.0,"id":"a6hevbpgu9rk","geo_precision":"unmatched","state":"AL"},"type":"Feature","geometry":null},{"properties":{"city":"Mobile","area_code":251,"geo_score":0.0,"id":"a6hevbmn3f82","geo_precision":"unmatched","state":"AL"},"type":"Feature","geometry":null},{"properties":{"city":"Mobile","area_code":251,"geo_score":0.0,"id":"a6hevbhy9r23","geo_precision":"unmatched","state":"AL"},"type":"Feature","geometry":null},{"properties":{"city":"Mobile","area_code":251,"geo_score":0.0,"id":"a6hevbg1ulwt","geo_precision":"unmatched","state":"AL"},"type":"Feature","geometry":null},{"properties":{"city":"Mobile","area_code":251,"geo_score":0.0,"id":"a6hevbk76n7f","geo_precision":"unmatched","state":"AL"},"type":"Feature","geometry":null},{"properties":{"city":"Mobile","area_code":251,"geo_score":0.0,"id":"a6hevbs5nbmm","geo_precision":"unmatched","state":"AL"},"type":"Feature","geometry":null},{"properties":{"city":"Greenville","area_code":252,"geo_score":0.0,"id":"a6hevbrxd9dx","geo_precision":"unmatched","state":"NC"},"type":"Feature","geometry":null},{"properties":{"city":"Greenville","area_code":252,"geo_score":0.0,"id":"a6hevbg5k0w4","geo_precision":"unmatched","state":"NC"},"type":"Feature","geometry":null},{"properties":{"city":"Greenville","area_code":252,"geo_score":0.0,"id":"a6hevbohm1eb","geo_precision":"unmatched","state":"NC"},"type":"Feature","geometry":null},{"properties":{"city":"Greenville","area_code":252,"geo_score":0.0,"id":"a6hevbjcs64t","geo_precision":"unmatched","state":"NC"},"type":"Feature","geometry":null},{"properties":{"city":"Greenville","area_code":252,"geo_score":0.0,"id":"a6hevbmcxrgu","geo_precision":"unmatched","state":"NC"},"type":"Feature","geometry":null},{"properties":{"city":"Greenville","area_code":252,"geo_score":0.0,"id":"a6hevbq1ajz1","geo_precision":"unmatched","state":"NC"},"type":"Feature","geometry":null},{"properties":{"city":"Greenville","area_code":252,"geo_score":0.0,"id":"a6hevbtqrvs4","geo_precision":"unmatched","state":"NC"},"type":"Feature","geometry":null},{"properties":{"city":"Greenville","area_code":252,"geo_score":0.0,"id":"a6hevbjbdk80","geo_precision":"unmatched","state":"NC"},"type":"Feature","geometry":null},{"properties":{"city":"Huntsville","area_code":256,"geo_score":0.0,"id":"a6hevblrim5w","geo_precision":"unmatched","state":"AL"},"type":"Feature","geometry":null},{"properties":{"city":"Huntsville","area_code":256,"geo_score":0.0,"id":"a6hevbpks7ft","geo_precision":"unmatched","state":"AL"},"type":"Feature","geometry":null},{"properties":{"city":"Huntsville","area_code":256,"geo_score":0.0,"id":"a6hevbjugbkz","geo_precision":"unmatched","state":"AL"},"type":"Feature","geometry":null},{"properties":{"city":"Huntsville","area_code":256,"geo_score":0.0,"id":"a6hevbq0rat5","geo_precision":"unmatched","state":"AL"},"type":"Feature","geometry":null},{"properties":{"city":"Huntsville","area_code":256,"geo_score":0.0,"id":"a6hevbv2n5rz","geo_precision":"unmatched","state":"AL"},"type":"Feature","geometry":null},{"properties":{"city":"Huntsville","area_code":256,"geo_score":0.0,"id":"a6hevbli50iu","geo_precision":"unmatched","state":"AL"},"type":"Feature","geometry":null},{"properties":{"city":"Racine","area_code":262,"geo_score":0.0,"id":"a6hevbi9e0j0","geo_precision":"unmatched","state":"WI"},"type":"Feature","geometry":null},{"properties":{"city":"Racine","area_code":262,"geo_score":0.0,"id":"a6hevblondzc","geo_precision":"unmatched","state":"WI"},"type":"Feature","geometry":null},{"properties":{"city":"Racine","area_code":262,"geo_score":0.0,"id":"a6hevbn5medz","geo_precision":"unmatched","state":"WI"},"type":"Feature","geometry":null},{"properties":{"city":"Racine","area_code":262,"geo_score":0.0,"id":"a6hevbu9qot9","geo_precision":"unmatched","state":"WI"},"type":"Feature","geometry":null},{"properties":{"city":"Doylestown","area_code":267,"geo_score":0.0,"id":"a6hevbvbcf1r","geo_precision":"unmatched","state":"PA"},"type":"Feature","geometry":null},{"properties":{"city":"Doylestown","area_code":267,"geo_score":0.0,"id":"a6hevblljsum","geo_precision":"unmatched","state":"PA"},"type":"Feature","geometry":null},{"properties":{"city":"Woodland","area_code":269,"geo_score":0.0,"id":"a6hevbl5ltg2","geo_precision":"unmatched","state":"MI"},"type":"Feature","geometry":null},{"properties":{"city":"Bowling Green","area_code":270,"geo_score":0.0,"id":"a6hevbv144f1","geo_precision":"unmatched","state":"KY"},"type":"Feature","geometry":null},{"properties":{"city":"Bowling Green","area_code":270,"geo_score":0.0,"id":"a6hevbhgk70a","geo_precision":"unmatched","state":"KY"},"type":"Feature","geometry":null},{"properties":{"city":"Bowling Green","area_code":270,"geo_score":0.0,"id":"a6hevbhtuuul","geo_precision":"unmatched","state":"KY"},"type":"Feature","geometry":null},{"properties":{"city":"Bowling Green","area_code":270,"geo_score":0.0,"id":"a6hevbflycoa","geo_precision":"unmatched","state":"KY"},"type":"Feature","geometry":null},{"properties":{"city":"Martinsville","area_code":276,"geo_score":0.0,"id":"a6hevbgxybd1","geo_precision":"unmatched","state":"VA"},"type":"Feature","geometry":null},{"properties":{"city":"Martinsville","area_code":276,"geo_score":0.0,"id":"a6hevbmmvha6","geo_precision":"unmatched","state":"VA"},"type":"Feature","geometry":null},{"properties":{"city":"Houston","area_code":281,"geo_score":0.0,"id":"a6hevbfm4uct","geo_precision":"unmatched","state":"TX"},"type":"Feature","geometry":null},{"properties":{"city":"Houston","area_code":281,"geo_score":0.0,"id":"a6hevbjwursn","geo_precision":"unmatched","state":"TX"},"type":"Feature","geometry":null},{"properties":{"city":"Houston","area_code":281,"geo_score":0.0,"id":"a6hevbmalgjp","geo_precision":"unmatched","state":"TX"},"type":"Feature","geometry":null},{"properties":{"city":"Houston","area_code":281,"geo_score":0.0,"id":"a6hevbmmwndb","geo_precision":"unmatched","state":"TX"},"type":"Feature","geometry":null},{"properties":{"city":"Houston","area_code":281,"geo_score":0.0,"id":"a6hevbpjtful","geo_precision":"unmatched","state":"TX"},"type":"Feature","geometry":null},{"properties":{"city":"Rockville","area_code":301,"geo_score":0.0,"id":"a6hevbmb7l3s","geo_precision":"unmatched","state":"MD"},"type":"Feature","geometry":null},{"properties":{"city":"Rockville","area_code":301,"geo_score":0.0,"id":"a6hevbu8z7pl","geo_precision":"unmatched","state":"MD"},"type":"Feature","geometry":null},{"properties":{"city":"Rockville","area_code":301,"geo_score":0.0,"id":"a6hevbmz2xx2","geo_precision":"unmatched","state":"MD"},"type":"Feature","geometry":null},{"properties":{"city":"Rockville","area_code":301,"geo_score":0.0,"id":"a6hevbiznglq","geo_precision":"unmatched","state":"MD"},"type":"Feature","geometry":null},{"properties":{"city":"Wilmington","area_code":302,"geo_score":0.0,"id":"a6hevbfofptc","geo_precision":"unmatched","state":"DE"},"type":"Feature","geometry":null},{"properties":{"city":"Wilmington","area_code":302,"geo_score":0.0,"id":"a6hevbfqv96r","geo_precision":"unmatched","state":"DE"},"type":"Feature","geometry":null},{"properties":{"city":"Wilmington","area_code":302,"geo_score":0.0,"id":"a6hevbndss4q","geo_precision":"unmatched","state":"DE"},"type":"Feature","geometry":null},{"properties":{"city":"Denver","area_code":303,"geo_score":0.0,"id":"a6hevbjfqf40","geo_precision":"unmatched","state":"CO"},"type":"Feature","geometry":null},{"properties":{"city":"Denver","area_code":303,"geo_score":0.0,"id":"a6hevbke7p5x","geo_precision":"unmatched","state":"CO"},"type":"Feature","geometry":null},{"properties":{"city":"Denver","area_code":303,"geo_score":0.0,"id":"a6hevbgyszk4","geo_precision":"unmatched","state":"CO"},"type":"Feature","geometry":null},{"properties":{"city":"Denver","area_code":303,"geo_score":0.0,"id":"a6hevbuz7nac","geo_precision":"unmatched","state":"CO"},"type":"Feature","geometry":null},{"properties":{"city":"Charleston","area_code":304,"geo_score":0.0,"id":"a6hevbransog","geo_precision":"unmatched","state":"WV"},"type":"Feature","geometry":null},{"properties":{"city":"Cheyenne","area_code":307,"geo_score":0.0,"id":"a6hevbvefsuz","geo_precision":"unmatched","state":"WY"},"type":"Feature","geometry":null},{"properties":{"city":"Cheyenne","area_code":307,"geo_score":0.0,"id":"a6hevbqf7r04","geo_precision":"unmatched","state":"WY"},"type":"Feature","geometry":null},{"properties":{"city":"Cheyenne","area_code":307,"geo_score":0.0,"id":"a6hevbq3d3ig","geo_precision":"unmatched","state":"WY"},"type":"Feature","geometry":null},{"properties":{"city":"Grand Island","area_code":308,"geo_score":0.87,"id":"a6hevbfawteq","geo_precision":"zip","state":"NE"},"type":"Feature","geometry":{"type":"Point","coordinates":[3.0833333,12.2666667]}},{"properties":{"city":"Grand Island","area_code":308,"geo_score":0.87,"id":"a6hevbu76s9e","geo_precision":"zip","state":"NE"},"type":"Feature","geometry":{"type":"Point","coordinates":[3.0833333,12.2666667]}},{"properties":{"city":"Grand Island","area_code":308,"geo_score":0.87,"id":"a6hevbiaj7ui","geo_precision":"zip","state":"NE"},"type":"Feature","geometry":{"type":"Point","coordinates":[3.0833333,12.2666667]}},{"properties":{"city":"Peoria","area_code":309,"geo_score":0.0,"id":"a6hevbses76r","geo_precision":"unmatched","state":"IL"},"type":"Feature","geometry":null},{"properties":{"city":"Los Angeles","area_code":310,"geo_score":0.9,"id":"a6hevbsvffh7","geo_precision":"zip","state":"CA"},"type":"Feature","geometry":{"type":"Point","coordinates":[-55.598110211,49.949945903]}},{"properties":{"city":"Los Angeles","area_code":310,"geo_score":0.9,"id":"a6hevbm8s9px","geo_precision":"zip","state":"CA"},"type":"Feature","geometry":{"type":"Point","coordinates":[-55.598110211,49.949945903]}},{"properties":{"city":"Los Angeles","area_code":310,"geo_score":0.9,"id":"a6hevbfy4nyi","geo_precision":"zip","state":"CA"},"type":"Feature","geometry":{"type":"Point","coordinates":[-55.598110211,49.949945903]}},{"properties":{"city":"Chicago","area_code":312,"geo_score":0.0,"id":"a6hevbmzaxcs","geo_precision":"unmatched","state":"IL"},"type":"Feature","geometry":null},{"properties":{"city":"Detroit","area_code":313,"geo_score":0.0,"id":"a6hevbi0mlfg","geo_precision":"unmatched","state":"MI"},"type":"Feature","geometry":null},{"properties":{"city":"Detroit","area_code":313,"geo_score":0.0,"id":"a6hevbmmug04","geo_precision":"unmatched","state":"MI"},"type":"Feature","geometry":null},{"properties":{"city":"Detroit","area_code":313,"geo_score":0.0,"id":"a6hevbtkhdwo","geo_precision":"unmatched","state":"MI"},"type":"Feature","geometry":null},{"properties":{"city":"Saint Louis","area_code":314,"geo_score":0.0,"id":"a6hevbtxgmnf","geo_precision":"unmatched","state":"MO"},"type":"Feature","geometry":null},{"properties":{"city":"Saint Louis","area_code":314,"geo_score":0.0,"id":"a6hevbrkyoih","geo_precision":"unmatched","state":"MO"},"type":"Feature","geometry":null},{"properties":{"city":"Saint Louis","area_code":314,"geo_score":0.0,"id":"a6hevblaey72","geo_precision":"unmatched","state":"MO"},"type":"Feature","geometry":null},{"properties":{"city":"Saint Louis","area_code":314,"geo_score":0.0,"id":"a6hevbkeaz9q","geo_precision":"unmatched","state":"MO"},"type":"Feature","geometry":null},{"properties":{"city":"Saint Louis","area_code":314,"geo_score":0.0,"id":"a6hevbgajmbf","geo_precision":"unmatched","state":"MO"},"type":"Feature","geometry":null},{"properties":{"city":"Saint Louis","area_code":314,"geo_score":0.0,"id":"a6hevbuvue39","geo_precision":"unmatched","state":"MO"},"type":"Feature","geometry":null},{"properties":{"city":"Saint Louis","area_code":314,"geo_score":0.0,"id":"a6hevbqnr24l","geo_precision":"unmatched","state":"MO"},"type":"Feature","geometry":null},{"properties":{"city":"Saint Louis","area_code":314,"geo_score":0.0,"id":"a6hevblfon6b","geo_precision":"unmatched","state":"MO"},"type":"Feature","geometry":null},{"properties":{"city":"Saint Louis","area_code":314,"geo_score":0.0,"id":"a6hevbfeq1lo","geo_precision":"unmatched","state":"MO"},"type":"Feature","geometry":null},{"properties":{"city":"Saint Louis","area_code":314,"geo_score":0.0,"id":"a6hevbpfrxll","geo_precision":"unmatched","state":"MO"},"type":"Feature","geometry":null},{"properties":{"city":"Indianapolis","area_code":317,"geo_score":0.0,"id":"a6hevbi9mfvo","geo_precision":"unmatched","state":"IN"},"type":"Feature","geometry":null},{"properties":{"city":"Indianapolis","area_code":317,"geo_score":0.0,"id":"a6hevbtm7qil","geo_precision":"unmatched","state":"IN"},"type":"Feature","geometry":null},{"properties":{"city":"Shreveport","area_code":318,"geo_score":0.0,"id":"a6hevbkaiym3","geo_precision":"unmatched","state":"LA"},"type":"Feature","geometry":null},{"properties":{"city":"Shreveport","area_code":318,"geo_score":0.0,"id":"a6hevbf605lf","geo_precision":"unmatched","state":"LA"},"type":"Feature","geometry":null},{"properties":{"city":"Shreveport","area_code":318,"geo_score":0.0,"id":"a6hevbu8prl8","geo_precision":"unmatched","state":"LA"},"type":"Feature","geometry":null},{"properties":{"city":"Shreveport","area_code":318,"geo_score":0.0,"id":"a6hevbjnek56","geo_precision":"unmatched","state":"LA"},"type":"Feature","geometry":null},{"properties":{"city":"Cedar Rapids","area_code":319,"geo_score":0.0,"id":"a6hevbn61j3u","geo_precision":"unmatched","state":"IA"},"type":"Feature","geometry":null},{"properties":{"city":"Menard","area_code":325,"geo_score":0.0,"id":"a6hevbtif81j","geo_precision":"unmatched","state":"TX"},"type":"Feature","geometry":null},{"properties":{"city":"Akron","area_code":330,"geo_score":0.0,"id":"a6hevbg7kj86","geo_precision":"unmatched","state":"OH"},"type":"Feature","geometry":null},{"properties":{"city":"Akron","area_code":330,"geo_score":0.0,"id":"a6hevbjrce8j","geo_precision":"unmatched","state":"OH"},"type":"Feature","geometry":null},{"properties":{"city":"Akron","area_code":330,"geo_score":0.0,"id":"a6hevbkc51yp","geo_precision":"unmatched","state":"OH"},"type":"Feature","geometry":null},{"properties":{"city":"Akron","area_code":330,"geo_score":0.0,"id":"a6hevbvbjwe0","geo_precision":"unmatched","state":"OH"},"type":"Feature","geometry":null},{"properties":{"city":"Montgomery","area_code":334,"geo_score":0.0,"id":"a6hevbnurp63","geo_precision":"unmatched","state":"AL"},"type":"Feature","geometry":null},{"properties":{"city":"Montgomery","area_code":334,"geo_score":0.0,"id":"a6hevbexa5dm","geo_precision":"unmatched","state":"AL"},"type":"Feature","geometry":null},{"properties":{"city":"Montgomery","area_code":334,"geo_score":0.0,"id":"a6hevbmb8ic5","geo_precision":"unmatched","state":"AL"},"type":"Feature","geometry":null},{"properties":{"city":"Montgomery","area_code":334,"geo_score":0.0,"id":"a6hevbk7vezo","geo_precision":"unmatched","state":"AL"},"type":"Feature","geometry":null},{"properties":{"city":"Montgomery","area_code":334,"geo_score":0.0,"id":"a6hevbl39q6p","geo_precision":"unmatched","state":"AL"},"type":"Feature","geometry":null},{"properties":{"city":"Montgomery","area_code":334,"geo_score":0.0,"id":"a6hevbrnrm7u","geo_precision":"unmatched","state":"AL"},"type":"Feature","geometry":null},{"properties":{"city":"Montgomery","area_code":334,"geo_score":0.0,"id":"a6hevbjw5gvn","geo_precision":"unmatched","state":"AL"},"type":"Feature","geometry":null},{"properties":{"city":"Montgomery","area_code":334,"geo_score":0.0,"id":"a6hevbf5oagd","geo_precision":"unmatched","state":"AL"},"type":"Feature","geometry":null},{"properties":{"city":"Montgomery","area_code":334,"geo_score":0.0,"id":"a6hevbv9xncx","geo_precision":"unmatched","state":"AL"},"type":"Feature","geometry":null},{"properties":{"city":"Montgomery","area_code":334,"geo_score":0.0,"id":"a6hevbgct5vj","geo_precision":"unmatched","state":"AL"},"type":"Feature","geometry":null},{"properties":{"city":"Montgomery","area_code":334,"geo_score":0.0,"id":"a6hevbf84u3t","geo_precision":"unmatched","state":"AL"},"type":"Feature","geometry":null},{"properties":{"city":"Montgomery","area_code":334,"geo_score":0.0,"id":"a6hevbnw20a0","geo_precision":"unmatched","state":"AL"},"type":"Feature","geometry":null},{"properties":{"city":"Montgomery","area_code":334,"geo_score":0.0,"id":"a6hevbf9l63e","geo_precision":"unmatched","state":"AL"},"type":"Feature","geometry":null},{"properties":{"city":"Greensboro","area_code":336,"geo_score":0.0,"id":"a6hevbpkskuo","geo_precision":"unmatched","state":"NC"},"type":"Feature","geometry":null},{"properties":{"city":"Greensboro","area_code":336,"geo_score":0.0,"id":"a6hevbil0zdu","geo_precision":"unmatched","state":"NC"},"type":"Feature","geometry":null},{"properties":{"city":"Greensboro","area_code":336,"geo_score":0.0,"id":"a6hevbkeczjl","geo_precision":"unmatched","state":"NC"},"type":"Feature","geometry":null},{"properties":{"city":"Greensboro","area_code":336,"geo_score":0.0,"id":"a6hevbgrcwo9","geo_precision":"unmatched","state":"NC"},"type":"Feature","geometry":null},{"properties":{"city":"Greensboro","area_code":336,"geo_score":0.0,"id":"a6hevbrkgf4t","geo_precision":"unmatched","state":"NC"},"type":"Feature","geometry":null},{"properties":{"city":"Greensboro","area_code":336,"geo_score":0.0,"id":"a6hevbtlpukv","geo_precision":"unmatched","state":"NC"},"type":"Feature","geometry":null},{"properties":{"city":"Greensboro","area_code":336,"geo_score":0.0,"id":"a6hevbfeu1ul","geo_precision":"unmatched","state":"NC"},"type":"Feature","geometry":null},{"properties":{"city":"Greensboro","area_code":336,"geo_score":0.0,"id":"a6hevbqukj6c","geo_precision":"unmatched","state":"NC"},"type":"Feature","geometry":null},{"properties":{"city":"Greensboro","area_code":336,"geo_score":0.0,"id":"a6hevbgqhgu6","geo_precision":"unmatched","state":"NC"},"type":"Feature","geometry":null},{"properties":{"city":"Greensboro","area_code":336,"geo_score":0.0,"id":"a6hevbs3zr9x","geo_precision":"unmatched","state":"NC"},"type":"Feature","geometry":null},{"properties":{"city":"Greensboro","area_code":336,"geo_score":0.0,"id":"a6hevbtivywh","geo_precision":"unmatched","state":"NC"},"type":"Feature","geometry":null},{"properties":{"city":"Greensboro","area_code":336,"geo_score":0.0,"id":"a6hevbmxmji7","geo_precision":"unmatched","state":"NC"},"type":"Feature","geometry":null},{"properties":{"city":"Greensboro","area_code":336,"geo_score":0.0,"id":"a6hevbkibajp","geo_precision":"unmatched","state":"NC"},"type":"Feature","geometry":null},{"properties":{"city":"Greensboro","area_code":336,"geo_score":0.0,"id":"a6hevbpvl3ny","geo_precision":"unmatched","state":"NC"},"type":"Feature","geometry":null},{"properties":{"city":"Greensboro","area_code":336,"geo_score":0.0,"id":"a6hevbj9z3r5","geo_precision":"unmatched","state":"NC"},"type":"Feature","geometry":null},{"properties":{"city":"Greensboro","area_code":336,"geo_score":0.0,"id":"a6hevbir2etn","geo_precision":"unmatched","state":"NC"},"type":"Feature","geometry":null},{"properties":{"city":"Lafayette","area_code":337,"geo_score":0.0,"id":"a6hevbtajxgk","geo_precision":"unmatched","state":"LA"},"type":"Feature","geometry":null},{"properties":{"city":"Lafayette","area_code":337,"geo_score":0.0,"id":"a6hevbiip6jb","geo_precision":"unmatched","state":"LA"},"type":"Feature","geometry":null},{"properties":{"city":"Lafayette","area_code":337,"geo_score":0.0,"id":"a6hevboz67zq","geo_precision":"unmatched","state":"LA"},"type":"Feature","geometry":null},{"properties":{"city":"Lafayette","area_code":337,"geo_score":0.0,"id":"a6hevblrt0hu","geo_precision":"unmatched","state":"LA"},"type":"Feature","geometry":null},{"properties":{"city":"Gainesville","area_code":352,"geo_score":0.0,"id":"a6hevbn5y21w","geo_precision":"unmatched","state":"FL"},"type":"Feature","geometry":null},{"properties":{"city":"Corpus Christi","area_code":361,"geo_score":0.0,"id":"a6hevbjupb4t","geo_precision":"unmatched","state":"TX"},"type":"Feature","geometry":null},{"properties":{"city":"Corpus Christi","area_code":361,"geo_score":0.0,"id":"a6hevbfr2ohr","geo_precision":"unmatched","state":"TX"},"type":"Feature","geometry":null},{"properties":{"city":"Corpus Christi","area_code":361,"geo_score":0.0,"id":"a6hevbip5gnt","geo_precision":"unmatched","state":"TX"},"type":"Feature","geometry":null},{"properties":{"city":"Corpus Christi","area_code":361,"geo_score":0.0,"id":"a6hevbmhqo1v","geo_precision":"unmatched","state":"TX"},"type":"Feature","geometry":null},{"properties":{"city":"Omaha","area_code":402,"geo_score":0.0,"id":"a6hevbglfew2","geo_precision":"unmatched","state":"NE"},"type":"Feature","geometry":null},{"properties":{"city":"Omaha","area_code":402,"geo_score":0.0,"id":"a6hevbto4yh3","geo_precision":"unmatched","state":"NE"},"type":"Feature","geometry":null},{"properties":{"city":"Omaha","area_code":402,"geo_score":0.0,"id":"a6hevbnlgwww","geo_precision":"unmatched","state":"NE"},"type":"Feature","geometry":null},{"properties":{"city":"Omaha","area_code":402,"geo_score":0.0,"id":"a6hevbot7ti4","geo_precision":"unmatched","state":"NE"},"type":"Feature","geometry":null},{"properties":{"city":"Omaha","area_code":402,"geo_score":0.0,"id":"a6hevbgs8skn","geo_precision":"unmatched","state":"NE"},"type":"Feature","geometry":null},{"properties":{"city":"Omaha","area_code":402,"geo_score":0.0,"id":"a6hevbkzi7pm","geo_precision":"unmatched","state":"NE"},"type":"Feature","geometry":null},{"properties":{"city":"Omaha","area_code":402,"geo_score":0.0,"id":"a6hevbhhwz3p","geo_precision":"unmatched","state":"NE"},"type":"Feature","geometry":null},{"properties":{"city":"Omaha","area_code":402,"geo_score":0.0,"id":"a6hevbirzh37","geo_precision":"unmatched","state":"NE"},"type":"Feature","geometry":null},{"properties":{"city":"Omaha","area_code":402,"geo_score":0.0,"id":"a6hevbn0zp3c","geo_precision":"unmatched","state":"NE"},"type":"Feature","geometry":null},{"properties":{"city":"Omaha","area_code":402,"geo_score":0.0,"id":"a6hevbmmnhdl","geo_precision":"unmatched","state":"NE"},"type":"Feature","geometry":null},{"properties":{"city":"Omaha","area_code":402,"geo_score":0.0,"id":"a6hevbhefrqr","geo_precision":"unmatched","state":"NE"},"type":"Feature","geometry":null},{"properties":{"city":"Omaha","area_code":402,"geo_score":0.0,"id":"a6hevbk21pm5","geo_precision":"unmatched","state":"NE"},"type":"Feature","geometry":null},{"properties":{"city":"Omaha","area_code":402,"geo_score":0.0,"id":"a6hevbs4zghc","geo_precision":"unmatched","state":"NE"},"type":"Feature","geometry":null},{"properties":{"city":"Omaha","area_code":402,"geo_score":0.0,"id":"a6hevbvdjahi","geo_precision":"unmatched","state":"NE"},"type":"Feature","geometry":null},{"properties":{"city":"Omaha","area_code":402,"geo_score":0.0,"id":"a6hevbofabuh","geo_precision":"unmatched","state":"NE"},"type":"Feature","geometry":null},{"properties":{"city":"Omaha","area_code":402,"geo_score":0.0,"id":"a6hevbj7ru3x","geo_precision":"unmatched","state":"NE"},"type":"Feature","geometry":null},{"properties":{"city":"Omaha","area_code":402,"geo_score":0.0,"id":"a6hevbv0yy0i","geo_precision":"unmatched","state":"NE"},"type":"Feature","geometry":null},{"properties":{"city":"Omaha","area_code":402,"geo_score":0.0,"id":"a6hevbokb1l4","geo_precision":"unmatched","state":"NE"},"type":"Feature","geometry":null},{"properties":{"city":"Omaha","area_code":402,"geo_score":0.0,"id":"a6hevbt5wxgx","geo_precision":"unmatched","state":"NE"},"type":"Feature","geometry":null},{"properties":{"city":"Omaha","area_code":402,"geo_score":0.0,"id":"a6hevbglvls2","geo_precision":"unmatched","state":"NE"},"type":"Feature","geometry":null},{"properties":{"city":"Omaha","area_code":402,"geo_score":0.0,"id":"a6hevbhe8dyz","geo_precision":"unmatched","state":"NE"},"type":"Feature","geometry":null},{"properties":{"city":"Omaha","area_code":402,"geo_score":0.0,"id":"a6hevbpolr00","geo_precision":"unmatched","state":"NE"},"type":"Feature","geometry":null},{"properties":{"city":"Omaha","area_code":402,"geo_score":0.0,"id":"a6hevbgzndsf","geo_precision":"unmatched","state":"NE"},"type":"Feature","geometry":null},{"properties":{"city":"Omaha","area_code":402,"geo_score":0.0,"id":"a6hevbo66jen","geo_precision":"unmatched","state":"NE"},"type":"Feature","geometry":null},{"properties":{"city":"Omaha","area_code":402,"geo_score":0.0,"id":"a6hevbrbkch2","geo_precision":"unmatched","state":"NE"},"type":"Feature","geometry":null},{"properties":{"city":"Omaha","area_code":402,"geo_score":0.0,"id":"a6hevbml3h8f","geo_precision":"unmatched","state":"NE"},"type":"Feature","geometry":null},{"properties":{"city":"Omaha","area_code":402,"geo_score":0.0,"id":"a6hevbue7wyv","geo_precision":"unmatched","state":"NE"},"type":"Feature","geometry":null},{"properties":{"city":"Omaha","area_code":402,"geo_score":0.0,"id":"a6hevbpp97nw","geo_precision":"unmatched","state":"NE"},"type":"Feature","geometry":null},{"properties":{"city":"Omaha","area_code":402,"geo_score":0.0,"id":"a6hevbqd1sev","geo_precision":"unmatched","state":"NE"},"type":"Feature","geometry":null},{"properties":{"city":"Omaha","area_code":402,"geo_score":0.0,"id":"a6hevbo2rmcg","geo_precision":"unmatched","state":"NE"},"type":"Feature","geometry":null},{"properties":{"city":"Omaha","area_code":402,"geo_score":0.0,"id":"a6hevbsqch9b","geo_precision":"unmatched","state":"NE"},"type":"Feature","geometry":null},{"properties":{"city":"Omaha","area_code":402,"geo_score":0.0,"id":"a6hevbjx3n8k","geo_precision":"unmatched","state":"NE"},"type":"Feature","geometry":null},{"properties":{"city":"Omaha","area_code":402,"geo_score":0.0,"id":"a6hevbj8xybq","geo_precision":"unmatched","state":"NE"},"type":"Feature","geometry":null},{"properties":{"city":"Omaha","area_code":402,"geo_score":0.0,"id":"a6hevblhqd0n","geo_precision":"unmatched","state":"NE"},"type":"Feature","geometry":null},{"properties":{"city":"Omaha","area_code":402,"geo_score":0.0,"id":"a6hevbufmnmv","geo_precision":"unmatched","state":"NE"},"type":"Feature","geometry":null},{"properties":{"city":"Omaha","area_code":402,"geo_score":0.0,"id":"a6hevbi0xb2h","geo_precision":"unmatched","state":"NE"},"type":"Feature","geometry":null},{"properties":{"city":"Omaha","area_code":402,"geo_score":0.0,"id":"a6hevbipse03","geo_precision":"unmatched","state":"NE"},"type":"Feature","geometry":null},{"properties":{"city":"Omaha","area_code":402,"geo_score":0.0,"id":"a6hevbtfuhzo","geo_precision":"unmatched","state":"NE"},"type":"Feature","geometry":null},{"properties":{"city":"Omaha","area_code":402,"geo_score":0.0,"id":"a6hevbqjkahm","geo_precision":"unmatched","state":"NE"},"type":"Feature","geometry":null},{"properties":{"city":"Omaha","area_code":402,"geo_score":0.0,"id":"a6hevbib5gje","geo_precision":"unmatched","state":"NE"},"type":"Feature","geometry":null},{"properties":{"city":"Omaha","area_code":402,"geo_score":0.0,"id":"a6hevbtm2izl","geo_precision":"unmatched","state":"NE"},"type":"Feature","geometry":null},{"properties":{"city":"Omaha","area_code":402,"geo_score":0.0,"id":"a6hevbtion73","geo_precision":"unmatched","state":"NE"},"type":"Feature","geometry":null},{"properties":{"city":"Omaha","area_code":402,"geo_score":0.0,"id":"a6hevbfy9qsb","geo_precision":"unmatched","state":"NE"},"type":"Feature","geometry":null},{"properties":{"city":"Omaha","area_code":402,"geo_score":0.0,"id":"a6hevbpa0rpw","geo_precision":"unmatched","state":"NE"},"type":"Feature","geometry":null},{"properties":{"city":"Omaha","area_code":402,"geo_score":0.0,"id":"a6hevbiefss0","geo_precision":"unmatched","state":"NE"},"type":"Feature","geometry":null},{"properties":{"city":"Omaha","area_code":402,"geo_score":0.0,"id":"a6hevbmcpf1g","geo_precision":"unmatched","state":"NE"},"type":"Feature","geometry":null},{"properties":{"city":"Omaha","area_code":402,"geo_score":0.0,"id":"a6hevbgnwhe1","geo_precision":"unmatched","state":"NE"},"type":"Feature","geometry":null},{"properties":{"city":"Omaha","area_code":402,"geo_score":0.0,"id":"a6hevbtsawdv","geo_precision":"unmatched","state":"NE"},"type":"Feature","geometry":null},{"properties":{"city":"Omaha","area_code":402,"geo_score":0.0,"id":"a6hevbt1lhdj","geo_precision":"unmatched","state":"NE"},"type":"Feature","geometry":null},{"properties":{"city":"Omaha","area_code":402,"geo_score":0.0,"id":"a6hevbjz3msc","geo_precision":"unmatched","state":"NE"},"type":"Feature","geometry":null},{"properties":{"city":"Omaha","area_code":402,"geo_score":0.0,"id":"a6hevbg8ygag","geo_precision":"unmatched","state":"NE"},"type":"Feature","geometry":null},{"properties":{"city":"Omaha","area_code":402,"geo_score":0.0,"id":"a6hevbsrbuuc","geo_precision":"unmatched","state":"NE"},"type":"Feature","geometry":null},{"properties":{"city":"Omaha","area_code":402,"geo_score":0.0,"id":"a6hevbhl3pyh","geo_precision":"unmatched","state":"NE"},"type":"Feature","geometry":null},{"properties":{"city":"Omaha","area_code":402,"geo_score":0.0,"id":"a6hevbke6qot","geo_precision":"unmatched","state":"NE"},"type":"Feature","geometry":null},{"properties":{"city":"Omaha","area_code":402,"geo_score":0.0,"id":"a6hevbrub76d","geo_precision":"unmatched","state":"NE"},"type":"Feature","geometry":null},{"properties":{"city":"Omaha","area_code":402,"geo_score":0.0,"id":"a6hevbjjphyq","geo_precision":"unmatched","state":"NE"},"type":"Feature","geometry":null},{"properties":{"city":"Omaha","area_code":402,"geo_score":0.0,"id":"a6hevbnd5jqo","geo_precision":"unmatched","state":"NE"},"type":"Feature","geometry":null},{"properties":{"city":"Omaha","area_code":402,"geo_score":0.0,"id":"a6hevbik5a69","geo_precision":"unmatched","state":"NE"},"type":"Feature","geometry":null},{"properties":{"city":"Omaha","area_code":402,"geo_score":0.0,"id":"a6hevbgz9dyg","geo_precision":"unmatched","state":"NE"},"type":"Feature","geometry":null},{"properties":{"city":"Omaha","area_code":402,"geo_score":0.0,"id":"a6hevbqwkk24","geo_precision":"unmatched","state":"NE"},"type":"Feature","geometry":null},{"properties":{"city":"Omaha","area_code":402,"geo_score":0.0,"id":"a6hevbo0s5mf","geo_precision":"unmatched","state":"NE"},"type":"Feature","geometry":null},{"properties":{"city":"Omaha","area_code":402,"geo_score":0.0,"id":"a6hevbscoiaz","geo_precision":"unmatched","state":"NE"},"type":"Feature","geometry":null},{"properties":{"city":"Omaha","area_code":402,"geo_score":0.0,"id":"a6hevbt03z7m","geo_precision":"unmatched","state":"NE"},"type":"Feature","geometry":null},{"properties":{"city":"Atlanta","area_code":404,"geo_score":0.0,"id":"a6hevbjzqgdd","geo_precision":"unmatched","state":"GA"},"type":"Feature","geometry":null},{"properties":{"city":"Atlanta","area_code":404,"geo_score":0.0,"id":"a6hevbn32ghi","geo_precision":"unmatched","state":"GA"},"type":"Feature","geometry":null},{"properties":{"city":"Atlanta","area_code":404,"geo_score":0.0,"id":"a6hevbq6ngha","geo_precision":"unmatched","state":"GA"},"type":"Feature","geometry":null},{"properties":{"city":"Atlanta","area_code":404,"geo_score":0.0,"id":"a6hevbr9x0jk","geo_precision":"unmatched","state":"GA"},"type":"Feature","geometry":null},{"properties":{"city":"Atlanta","area_code":404,"geo_score":0.0,"id":"a6hevbpu9tti","geo_precision":"unmatched","state":"GA"},"type":"Feature","geometry":null},{"properties":{"city":"Oklahoma City","area_code":405,"geo_score":0.0,"id":"a6hevbr34m27","geo_precision":"unmatched","state":"OK"},"type":"Feature","geometry":null},{"properties":{"city":"Oklahoma City","area_code":405,"geo_score":0.0,"id":"a6hevbfbi4wh","geo_precision":"unmatched","state":"OK"},"type":"Feature","geometry":null},{"properties":{"city":"Oklahoma City","area_code":405,"geo_score":0.0,"id":"a6hevbgidk0c","geo_precision":"unmatched","state":"OK"},"type":"Feature","geometry":null},{"properties":{"city":"Orlando","area_code":407,"geo_score":0.0,"id":"a6hevbk16xzd","geo_precision":"unmatched","state":"FL"},"type":"Feature","geometry":null},{"properties":{"city":"San Jose","area_code":408,"geo_score":0.898,"id":"a6hevbt56nf6","geo_precision":"zip","state":"CA"},"type":"Feature","geometry":{"type":"Point","coordinates":[-106.667951345,51.450072503]}},{"properties":{"city":"Beaumont","area_code":409,"geo_score":0.0,"id":"a6hevbr6wbve","geo_precision":"unmatched","state":"TX"},"type":"Feature","geometry":null},{"properties":{"city":"Beaumont","area_code":409,"geo_score":0.0,"id":"a6hevbfxghxy","geo_precision":"unmatched","state":"TX"},"type":"Feature","geometry":null},{"properties":{"city":"Baltimore","area_code":410,"geo_score":0.0,"id":"a6hevbsi0c5a","geo_precision":"unmatched","state":"MD"},"type":"Feature","geometry":null},{"properties":{"city":"Baltimore","area_code":410,"geo_score":0.0,"id":"a6hevbr10yt6","geo_precision":"unmatched","state":"MD"},"type":"Feature","geometry":null},{"properties":{"city":"Baltimore","area_code":410,"geo_score":0.0,"id":"a6hevbjiigfc","geo_precision":"unmatched","state":"MD"},"type":"Feature","geometry":null},{"properties":{"city":"Pittsburgh","area_code":412,"geo_score":0.0,"id":"a6hevbieyyzo","geo_precision":"unmatched","state":"PA"},"type":"Feature","geometry":null},{"properties":{"city":"Pittsburgh","area_code":412,"geo_score":0.0,"id":"a6hevbpav9xk","geo_precision":"unmatched","state":"PA"},"type":"Feature","geometry":null},{"properties":{"city":"Springfield","area_code":413,"geo_score":0.0,"id":"a6hevbi11bcb","geo_precision":"unmatched","state":"MA"},"type":"Feature","geometry":null},{"properties":{"city":"Springfield","area_code":413,"geo_score":0.0,"id":"a6hevbop36f2","geo_precision":"unmatched","state":"MA"},"type":"Feature","geometry":null},{"properties":{"city":"Milwaukee","area_code":414,"geo_score":0.0,"id":"a6hevbg0gvc2","geo_precision":"unmatched","state":"WI"},"type":"Feature","geometry":null},{"properties":{"city":"Milwaukee","area_code":414,"geo_score":0.0,"id":"a6hevbhbaptj","geo_precision":"unmatched","state":"WI"},"type":"Feature","geometry":null},{"properties":{"city":"Milwaukee","area_code":414,"geo_score":0.0,"id":"a6hevbfn8e6r","geo_precision":"unmatched","state":"WI"},"type":"Feature","geometry":null},{"properties":{"city":"Milwaukee","area_code":414,"geo_score":0.0,"id":"a6hevbhgkeht","geo_precision":"unmatched","state":"WI"},"type":"Feature","geometry":null},{"properties":{"city":"Milwaukee","area_code":414,"geo_score":0.0,"id":"a6hevbjoyybk","geo_precision":"unmatched","state":"WI"},"type":"Feature","geometry":null},{"properties":{"city":"Milwaukee","area_code":414,"geo_score":0.0,"id":"a6hevbt27eja","geo_precision":"unmatched","state":"WI"},"type":"Feature","geometry":null},{"properties":{"city":"San Francisco","area_code":415,"geo_score":0.901,"id":"a6hevbp71elm","geo_precision":"zip","state":"CA"},"type":"Feature","geometry":{"type":"Point","coordinates":[-76.432700044,44.800114145]}},{"properties":{"city":"Toledo","area_code":419,"geo_score":0.0,"id":"a6hevblrx9lh","geo_precision":"unmatched","state":"OH"},"type":"Feature","geometry":null},{"properties":{"city":"Toledo","area_code":419,"geo_score":0.0,"id":"a6hevbh1yf18","geo_precision":"unmatched","state":"OH"},"type":"Feature","geometry":null},{"properties":{"city":"Toledo","area_code":419,"geo_score":0.0,"id":"a6hevbqxvrh0","geo_precision":"unmatched","state":"OH"},"type":"Feature","geometry":null},{"properties":{"city":"Toledo","area_code":419,"geo_score":0.0,"id":"a6hevbj0tbqd","geo_precision":"unmatched","state":"OH"},"type":"Feature","geometry":null},{"properties":{"city":"Chattanooga","area_code":423,"geo_score":0.948,"id":"a6hevbtn4hyq","geo_precision":"zip","state":"TN"},"type":"Feature","geometry":{"type":"Point","coordinates":[8.7847222,33.7575]}},{"properties":{"city":"Chattanooga","area_code":423,"geo_score":0.948,"id":"a6hevbidhvzl","geo_precision":"zip","state":"TN"},"type":"Feature","geometry":{"type":"Point","coordinates":[8.7847222,33.7575]}},{"properties":{"city":"Balmorhea","area_code":432,"geo_score":0.0,"id":"a6hevbo0brs2","geo_precision":"unmatched","state":"TX"},"type":"Feature","geometry":null},{"properties":{"city":"Balmorhea","area_code":432,"geo_score":0.0,"id":"a6hevbmnifo7","geo_precision":"unmatched","state":"TX"},"type":"Feature","geometry":null},{"properties":{"city":"Lynchburg","area_code":434,"geo_score":0.0,"id":"a6hevbr1ubub","geo_precision":"unmatched","state":"VA"},"type":"Feature","geometry":null},{"properties":{"city":"Lynchburg","area_code":434,"geo_score":0.0,"id":"a6hevbv96g2d","geo_precision":"unmatched","state":"VA"},"type":"Feature","geometry":null},{"properties":{"city":"Lynchburg","area_code":434,"geo_score":0.0,"id":"a6hevbglxqbj","geo_precision":"unmatched","state":"VA"},"type":"Feature","geometry":null},{"properties":{"city":"Lynchburg","area_code":434,"geo_score":0.0,"id":"a6hevbupbwzc","geo_precision":"unmatched","state":"VA"},"type":"Feature","geometry":null},{"properties":{"city":"Lynchburg","area_code":434,"geo_score":0.0,"id":"a6hevbjn3c33","geo_precision":"unmatched","state":"VA"},"type":"Feature","geometry":null},{"properties":{"city":"Lynchburg","area_code":434,"geo_score":0.0,"id":"a6hevblyhftk","geo_precision":"unmatched","state":"VA"},"type":"Feature","geometry":null},{"properties":{"city":"Lynchburg","area_code":434,"geo_score":0.0,"id":"a6hevbfzs0qy","geo_precision":"unmatched","state":"VA"},"type":"Feature","geometry":null},{"properties":{"city":"Cleveland","area_code":440,"geo_score":0.0,"id":"a6hevbuy4htk","geo_precision":"unmatched","state":"OH"},"type":"Feature","geometry":null},{"properties":{"city":"Plano","area_code":469,"geo_score":0.0,"id":"a6hevbtaa31z","geo_precision":"unmatched","state":"TX"},"type":"Feature","geometry":null},{"properties":{"city":"Plano","area_code":469,"geo_score":0.0,"id":"a6hevbit99oq","geo_precision":"unmatched","state":"TX"},"type":"Feature","geometry":null},{"properties":{"city":"New Haven","area_code":475,"geo_score":0.0,"id":"a6hevbh8n9ao","geo_precision":"unmatched","state":"CT"},"type":"Feature","geometry":null},{"properties":{"city":"Macon","area_code":478,"geo_score":0.911,"id":"a6hevbklisyn","geo_precision":"zip","state":"GA"},"type":"Feature","geometry":{"type":"Point","coordinates":[9.8666667,-1.6833333]}},{"properties":{"city":"Dover","area_code":479,"geo_score":0.905,"id":"a6hevbmgt8r3","geo_precision":"zip","state":"AR"},"type":"Feature","geometry":{"type":"Point","coordinates":[-62.3,-37.95]}},{"properties":{"city":"Dover","area_code":479,"geo_score":0.905,"id":"a6hevbm87pzo","geo_precision":"zip","state":"AR"},"type":"Feature","geometry":{"type":"Point","coordinates":[-62.3,-37.95]}},{"properties":{"city":"Mesa","area_code":480,"geo_score":0.893,"id":"a6hevbngzllw","geo_precision":"zip","state":"AZ"},"type":"Feature","geometry":{"type":"Point","coordinates":[46.4055556,39.6938889]}},{"properties":{"city":"Mesa","area_code":480,"geo_score":0.893,"id":"a6hevbh3e66l","geo_precision":"zip","state":"AZ"},"type":"Feature","geometry":{"type":"Point","coordinates":[46.4055556,39.6938889]}},{"properties":{"city":"Mesa","area_code":480,"geo_score":0.893,"id":"a6hevbualf6x","geo_precision":"zip","state":"AZ"},"type":"Feature","geometry":{"type":"Point","coordinates":[46.4055556,39.6938889]}},{"properties":{"city":"Exton","area_code":484,"geo_score":0.0,"id":"a6hevbqthuez","geo_precision":"unmatched","state":"PA"},"type":"Feature","geometry":null},{"properties":{"city":"Little Rock","area_code":501,"geo_score":0.886,"id":"a6hevbs7ylfo","geo_precision":"zip","state":"AR"},"type":"Feature","geometry":{"type":"Point","coordinates":[-59.7,-38.8833333]}},{"properties":{"city":"Louisville","area_code":502,"geo_score":0.0,"id":"a6hevboxf041","geo_precision":"unmatched","state":"KY"},"type":"Feature","geometry":null},{"properties":{"city":"Louisville","area_code":502,"geo_score":0.0,"id":"a6hevbkraxdg","geo_precision":"unmatched","state":"KY"},"type":"Feature","geometry":null},{"properties":{"city":"Louisville","area_code":502,"geo_score":0.0,"id":"a6hevbp5wloh","geo_precision":"unmatched","state":"KY"},"type":"Feature","geometry":null},{"properties":{"city":"Louisville","area_code":502,"geo_score":0.0,"id":"a6hevbhsrxbs","geo_precision":"unmatched","state":"KY"},"type":"Feature","geometry":null},{"properties":{"city":"Louisville","area_code":502,"geo_score":0.0,"id":"a6hevbh9m76f","geo_precision":"unmatched","state":"KY"},"type":"Feature","geometry":null},{"properties":{"city":"Louisville","area_code":502,"geo_score":0.0,"id":"a6hevbs7ky5i","geo_precision":"unmatched","state":"KY"},"type":"Feature","geometry":null},{"properties":{"city":"Louisville","area_code":502,"geo_score":0.0,"id":"a6hevbk1bet4","geo_precision":"unmatched","state":"KY"},"type":"Feature","geometry":null},{"properties":{"city":"Louisville","area_code":502,"geo_score":0.0,"id":"a6hevbkthab5","geo_precision":"unmatched","state":"KY"},"type":"Feature","geometry":null},{"properties":{"city":"Portland","area_code":503,"geo_score":0.0,"id":"a6hevbfr75yv","geo_precision":"unmatched","state":"OR"},"type":"Feature","geometry":null},{"properties":{"city":"New Orleans","area_code":504,"geo_score":0.886,"id":"a6hevblaxsdo","geo_precision":"zip","state":"LA"},"type":"Feature","geometry":{"type":"Point","coordinates":[107.1666667,15.35]}},{"properties":{"city":"New Orleans","area_code":504,"geo_score":0.886,"id":"a6hevbtclfpz","geo_precision":"zip","state":"LA"},"type":"Feature","geometry":{"type":"Point","coordinates":[107.1666667,15.35]}},{"properties":{"city":"New Orleans","area_code":504,"geo_score":0.886,"id":"a6hevbpzpu7b","geo_precision":"zip","state":"LA"},"type":"Feature","geometry":{"type":"Point","coordinates":[107.1666667,15.35]}},{"properties":{"city":"New Orleans","area_code":504,"geo_score":0.886,"id":"a6hevbupzv5h","geo_precision":"zip","state":"LA"},"type":"Feature","geometry":{"type":"Point","coordinates":[107.1666667,15.35]}},{"properties":{"city":"New Orleans","area_code":504,"geo_score":0.886,"id":"a6hevbumelfi","geo_precision":"zip","state":"LA"},"type":"Feature","geometry":{"type":"Point","coordinates":[107.1666667,15.35]}},{"properties":{"city":"Albuquerque","area_code":505,"geo_score":0.0,"id":"a6hevbv98u8h","geo_precision":"unmatched","state":"NM"},"type":"Feature","geometry":null},{"properties":{"city":"Albuquerque","area_code":505,"geo_score":0.0,"id":"a6hevbrlnphz","geo_precision":"unmatched","state":"NM"},"type":"Feature","geometry":null},{"properties":{"city":"Albuquerque","area_code":505,"geo_score":0.0,"id":"a6hevbftxolm","geo_precision":"unmatched","state":"NM"},"type":"Feature","geometry":null},{"properties":{"city":"Albuquerque","area_code":505,"geo_score":0.0,"id":"a6hevbpup1z6","geo_precision":"unmatched","state":"NM"},"type":"Feature","geometry":null},{"properties":{"city":"Albuquerque","area_code":505,"geo_score":0.0,"id":"a6hevbj0a97t","geo_precision":"unmatched","state":"NM"},"type":"Feature","geometry":null},{"properties":{"city":"Worcester","area_code":508,"geo_score":0.0,"id":"a6hevbocce5w","geo_precision":"unmatched","state":"MA"},"type":"Feature","geometry":null},{"properties":{"city":"Worcester","area_code":508,"geo_score":0.0,"id":"a6hevbhwg0gw","geo_precision":"unmatched","state":"MA"},"type":"Feature","geometry":null},{"properties":{"city":"Spokane","area_code":509,"geo_score":0.0,"id":"a6hevbj70108","geo_precision":"unmatched","state":"WA"},"type":"Feature","geometry":null},{"properties":{"city":"Oakland","area_code":510,"geo_score":1.0,"id":"a6hevbgjxfs3","geo_precision":"zip","state":"CA"},"type":"Feature","geometry":{"type":"Point","coordinates":[-64.365452081,44.450153375]}},{"properties":{"city":"Oakland","area_code":510,"geo_score":1.0,"id":"a6hevbsyyfnq","geo_precision":"zip","state":"CA"},"type":"Feature","geometry":{"type":"Point","coordinates":[-64.365452081,44.450153375]}},{"properties":{"city":"Oakland","area_code":510,"geo_score":1.0,"id":"a6hevbjp1vzd","geo_precision":"zip","state":"CA"},"type":"Feature","geometry":{"type":"Point","coordinates":[-64.365452081,44.450153375]}},{"properties":{"city":"Oakland","area_code":510,"geo_score":1.0,"id":"a6hevbmssgir","geo_precision":"zip","state":"CA"},"type":"Feature","geometry":{"type":"Point","coordinates":[-64.365452081,44.450153375]}},{"properties":{"city":"Austin","area_code":512,"geo_score":0.0,"id":"a6hevbrckoac","geo_precision":"unmatched","state":"TX"},"type":"Feature","geometry":null},{"properties":{"city":"Austin","area_code":512,"geo_score":0.0,"id":"a6hevbo5d13m","geo_precision":"unmatched","state":"TX"},"type":"Feature","geometry":null},{"properties":{"city":"Austin","area_code":512,"geo_score":0.0,"id":"a6hevbrczyvm","geo_precision":"unmatched","state":"TX"},"type":"Feature","geometry":null},{"properties":{"city":"Austin","area_code":512,"geo_score":0.0,"id":"a6hevbqtipx0","geo_precision":"unmatched","state":"TX"},"type":"Feature","geometry":null},{"properties":{"city":"Austin","area_code":512,"geo_score":0.0,"id":"a6hevbipuwjq","geo_precision":"unmatched","state":"TX"},"type":"Feature","geometry":null},{"properties":{"city":"Cincinnati","area_code":513,"geo_score":0.0,"id":"a6hevbuauf5l","geo_precision":"unmatched","state":"OH"},"type":"Feature","geometry":null},{"properties":{"city":"Cincinnati","area_code":513,"geo_score":0.0,"id":"a6hevbqyrz59","geo_precision":"unmatched","state":"OH"},"type":"Feature","geometry":null},{"properties":{"city":"Cincinnati","area_code":513,"geo_score":0.0,"id":"a6hevbvapyun","geo_precision":"unmatched","state":"OH"},"type":"Feature","geometry":null},{"properties":{"city":"Lansing","area_code":517,"geo_score":0.0,"id":"a6hevbra1lsk","geo_precision":"unmatched","state":"MI"},"type":"Feature","geometry":null},{"properties":{"city":"Lansing","area_code":517,"geo_score":0.0,"id":"a6hevbr48es7","geo_precision":"unmatched","state":"MI"},"type":"Feature","geometry":null},{"properties":{"city":"Tucson","area_code":520,"geo_score":0.0,"id":"a6hevbfd3qxi","geo_precision":"unmatched","state":"AZ"},"type":"Feature","geometry":null},{"properties":{"city":"Tucson","area_code":520,"geo_score":0.0,"id":"a6hevbu4pjr6","geo_precision":"unmatched","state":"AZ"},"type":"Feature","geometry":null},{"properties":{"city":"Chico","area_code":530,"geo_score":1.0,"id":"a6hevbngqnkh","geo_precision":"zip","state":"CA"},"type":"Feature","geometry":{"type":"Point","coordinates":[-65.682008766,51.566808518]}},{"properties":{"city":"Chico","area_code":530,"geo_score":1.0,"id":"a6hevbjug5w4","geo_precision":"zip","state":"CA"},"type":"Feature","geometry":{"type":"Point","coordinates":[-65.682008766,51.566808518]}},{"properties":{"city":"Chico","area_code":530,"geo_score":1.0,"id":"a6hevbmbmqu8","geo_precision":"zip","state":"CA"},"type":"Feature","geometry":{"type":"Point","coordinates":[-65.682008766,51.566808518]}},{"properties":{"city":"Chico","area_code":530,"geo_score":1.0,"id":"a6hevbhc0se9","geo_precision":"zip","state":"CA"},"type":"Feature","geometry":{"type":"Point","coordinates":[-65.682008766,51.566808518]}},{"properties":{"city":"Chico","area_code":530,"geo_score":1.0,"id":"a6hevbpodf5t","geo_precision":"zip","state":"CA"},"type":"Feature","geometry":{"type":"Point","coordinates":[-65.682008766,51.566808518]}},{"properties":{"city":"Chico","area_code":530,"geo_score":1.0,"id":"a6hevbfe3m10","geo_precision":"zip","state":"CA"},"type":"Feature","geometry":{"type":"Point","coordinates":[-65.682008766,51.566808518]}},{"properties":{"city":"Roanoke","area_code":540,"geo_score":0.0,"id":"a6hevbgklnl8","geo_precision":"unmatched","state":"VA"},"type":"Feature","geometry":null},{"properties":{"city":"Roanoke","area_code":540,"geo_score":0.0,"id":"a6hevbfcn62j","geo_precision":"unmatched","state":"VA"},"type":"Feature","geometry":null},{"properties":{"city":"Roanoke","area_code":540,"geo_score":0.0,"id":"a6hevbse8i2b","geo_precision":"unmatched","state":"VA"},"type":"Feature","geometry":null},{"properties":{"city":"Roanoke","area_code":540,"geo_score":0.0,"id":"a6hevbpwej52","geo_precision":"unmatched","state":"VA"},"type":"Feature","geometry":null},{"properties":{"city":"Roanoke","area_code":540,"geo_score":0.0,"id":"a6hevbjdn51d","geo_precision":"unmatched","state":"VA"},"type":"Feature","geometry":null},{"properties":{"city":"Roanoke","area_code":540,"geo_score":0.0,"id":"a6hevbfhxfki","geo_precision":"unmatched","state":"VA"},"type":"Feature","geometry":null},{"properties":{"city":"Roanoke","area_code":540,"geo_score":0.0,"id":"a6hevbi4vkxg","geo_precision":"unmatched","state":"VA"},"type":"Feature","geometry":null},{"properties":{"city":"Roanoke","area_code":540,"geo_score":0.0,"id":"a6hevbhdpdwd","geo_precision":"unmatched","state":"VA"},"type":"Feature","geometry":null},{"properties":{"city":"Roanoke","area_code":540,"geo_score":0.0,"id":"a6hevbnx0cpi","geo_precision":"unmatched","state":"VA"},"type":"Feature","geometry":null},{"properties":{"city":"Roanoke","area_code":540,"geo_score":0.0,"id":"a6hevbkzm80a","geo_precision":"unmatched","state":"VA"},"type":"Feature","geometry":null},{"properties":{"city":"Roanoke","area_code":540,"geo_score":0.0,"id":"a6hevbotl1jj","geo_precision":"unmatched","state":"VA"},"type":"Feature","geometry":null},{"properties":{"city":"Roanoke","area_code":540,"geo_score":0.0,"id":"a6hevbs1gcib","geo_precision":"unmatched","state":"VA"},"type":"Feature","geometry":null},{"properties":{"city":"Roanoke","area_code":540,"geo_score":0.0,"id":"a6hevbi8uzvp","geo_precision":"unmatched","state":"VA"},"type":"Feature","geometry":null},{"properties":{"city":"Roanoke","area_code":540,"geo_score":0.0,"id":"a6hevbqsvosd","geo_precision":"unmatched","state":"VA"},"type":"Feature","geometry":null},{"properties":{"city":"Roanoke","area_code":540,"geo_score":0.0,"id":"a6hevbnq2cph","geo_precision":"unmatched","state":"VA"},"type":"Feature","geometry":null},{"properties":{"city":"Roanoke","area_code":540,"geo_score":0.0,"id":"a6hevbgkh0l2","geo_precision":"unmatched","state":"VA"},"type":"Feature","geometry":null},{"properties":{"city":"Roanoke","area_code":540,"geo_score":0.0,"id":"a6hevbjailk5","geo_precision":"unmatched","state":"VA"},"type":"Feature","geometry":null},{"properties":{"city":"Eugene","area_code":541,"geo_score":0.0,"id":"a6hevbtxg8b1","geo_precision":"unmatched","state":"OR"},"type":"Feature","geometry":null},{"properties":{"city":"Fresno","area_code":559,"geo_score":0.98,"id":"a6hevbpifsph","geo_precision":"zip","state":"CA"},"type":"Feature","geometry":{"type":"Point","coordinates":[-110.801757578,54.233441361]}},{"properties":{"city":"Fresno","area_code":559,"geo_score":0.98,"id":"a6hevbf5dfje","geo_precision":"zip","state":"CA"},"type":"Feature","geometry":{"type":"Point","coordinates":[-110.801757578,54.233441361]}},{"properties":{"city":"Fresno","area_code":559,"geo_score":0.98,"id":"a6hevbi8vvho","geo_precision":"zip","state":"CA"},"type":"Feature","geometry":{"type":"Point","coordinates":[-110.801757578,54.233441361]}},{"properties":{"city":"Fresno","area_code":559,"geo_score":0.98,"id":"a6hevbo2f16u","geo_precision":"zip","state":"CA"},"type":"Feature","geometry":{"type":"Point","coordinates":[-110.801757578,54.233441361]}},{"properties":{"city":"Fresno","area_code":559,"geo_score":0.98,"id":"a6hevbl6icss","geo_precision":"zip","state":"CA"},"type":"Feature","geometry":{"type":"Point","coordinates":[-110.801757578,54.233441361]}},{"properties":{"city":"West Palm Beach","area_code":561,"geo_score":0.0,"id":"a6hevbqf24rb","geo_precision":"unmatched","state":"FL"},"type":"Feature","geometry":null},{"properties":{"city":"Long Beach","area_code":562,"geo_score":0.857,"id":"a6hevbfj7eua","geo_precision":"zip","state":"CA"},"type":"Feature","geometry":{"type":"Point","coordinates":[-74.549179628,49.933438264]}},{"properties":{"city":"Long Beach","area_code":562,"geo_score":0.857,"id":"a6hevbryhk9t","geo_precision":"zip","state":"CA"},"type":"Feature","geometry":{"type":"Point","coordinates":[-74.549179628,49.933438264]}},{"properties":{"city":"Davenport","area_code":563,"geo_score":0.0,"id":"a6hevbr4btw2","geo_precision":"unmatched","state":"IA"},"type":"Feature","geometry":null},{"properties":{"city":"New Riegel","area_code":567,"geo_score":0.0,"id":"a6hevbf12314","geo_precision":"unmatched","state":"OH"},"type":"Feature","geometry":null},{"properties":{"city":"Scranton","area_code":570,"geo_score":0.0,"id":"a6hevbqffmyw","geo_precision":"unmatched","state":"PA"},"type":"Feature","geometry":null},{"properties":{"city":"Scranton","area_code":570,"geo_score":0.0,"id":"a6hevbmkf23w","geo_precision":"unmatched","state":"PA"},"type":"Feature","geometry":null},{"properties":{"city":"Scranton","area_code":570,"geo_score":0.0,"id":"a6hevbgd51mx","geo_precision":"unmatched","state":"PA"},"type":"Feature","geometry":null},{"properties":{"city":"Herndon","area_code":571,"geo_score":0.0,"id":"a6hevbugguuk","geo_precision":"unmatched","state":"VA"},"type":"Feature","geometry":null},{"properties":{"city":"Herndon","area_code":571,"geo_score":0.0,"id":"a6hevbs3pb09","geo_precision":"unmatched","state":"VA"},"type":"Feature","geometry":null},{"properties":{"city":"Columbia","area_code":573,"geo_score":0.0,"id":"a6hevbs6vkzf","geo_precision":"unmatched","state":"MO"},"type":"Feature","geometry":null},{"properties":{"city":"Columbia","area_code":573,"geo_score":0.0,"id":"a6hevboc7fb9","geo_precision":"unmatched","state":"MO"},"type":"Feature","geometry":null},{"properties":{"city":"Columbia","area_code":573,"geo_score":0.0,"id":"a6hevbkzyd1y","geo_precision":"unmatched","state":"MO"},"type":"Feature","geometry":null},{"properties":{"city":"Columbia","area_code":573,"geo_score":0.0,"id":"a6hevbm8rdde","geo_precision":"unmatched","state":"MO"},"type":"Feature","geometry":null},{"properties":{"city":"Columbia","area_code":573,"geo_score":0.0,"id":"a6hevbtvncno","geo_precision":"unmatched","state":"MO"},"type":"Feature","geometry":null},{"properties":{"city":"Macy","area_code":574,"geo_score":0.893,"id":"a6hevbul4r5f","geo_precision":"zip","state":"IN"},"type":"Feature","geometry":{"type":"Point","coordinates":[75.3166667,29.9833333]}},{"properties":{"city":"Eagle Nest","area_code":575,"geo_score":0.0,"id":"a6hevbsy7i17","geo_precision":"unmatched","state":"NM"},"type":"Feature","geometry":null},{"properties":{"city":"Eagle Nest","area_code":575,"geo_score":0.0,"id":"a6hevbud2b67","geo_precision":"unmatched","state":"NM"},"type":"Feature","geometry":null},{"properties":{"city":"Lawton","area_code":580,"geo_score":0.0,"id":"a6hevbpyma06","geo_precision":"unmatched","state":"OK"},"type":"Feature","geometry":null},{"properties":{"city":"Roseville","area_code":586,"geo_score":0.0,"id":"a6hevbkutnoi","geo_precision":"unmatched","state":"MI"},"type":"Feature","geometry":null},{"properties":{"city":"Roseville","area_code":586,"geo_score":0.0,"id":"a6hevbppin8w","geo_precision":"unmatched","state":"MI"},"type":"Feature","geometry":null},{"properties":{"city":"Roseville","area_code":586,"geo_score":0.0,"id":"a6hevbf23crh","geo_precision":"unmatched","state":"MI"},"type":"Feature","geometry":null},{"properties":{"city":"Jackson","area_code":601,"geo_score":0.0,"id":"a6hevbhdel9u","geo_precision":"unmatched","state":"MS"},"type":"Feature","geometry":null},{"properties":{"city":"Jackson","area_code":601,"geo_score":0.0,"id":"a6hevbtqg328","geo_precision":"unmatched","state":"MS"},"type":"Feature","geometry":null},{"properties":{"city":"Jackson","area_code":601,"geo_score":0.0,"id":"a6hevbi1prwb","geo_precision":"unmatched","state":"MS"},"type":"Feature","geometry":null},{"properties":{"city":"Jackson","area_code":601,"geo_score":0.0,"id":"a6hevbr4agc2","geo_precision":"unmatched","state":"MS"},"type":"Feature","geometry":null},{"properties":{"city":"Jackson","area_code":601,"geo_score":0.0,"id":"a6hevbge20um","geo_precision":"unmatched","state":"MS"},"type":"Feature","geometry":null},{"properties":{"city":"Jackson","area_code":601,"geo_score":0.0,"id":"a6hevbuwavqp","geo_precision":"unmatched","state":"MS"},"type":"Feature","geometry":null},{"properties":{"city":"Jackson","area_code":601,"geo_score":0.0,"id":"a6hevbu6i0ph","geo_precision":"unmatched","state":"MS"},"type":"Feature","geometry":null},{"properties":{"city":"Jackson","area_code":601,"geo_score":0.0,"id":"a6hevbjynmu6","geo_precision":"unmatched","state":"MS"},"type":"Feature","geometry":null},{"properties":{"city":"Jackson","area_code":601,"geo_score":0.0,"id":"a6hevbfdetoh","geo_precision":"unmatched","state":"MS"},"type":"Feature","geometry":null},{"properties":{"city":"Jackson","area_code":601,"geo_score":0.0,"id":"a6hevbqrlidj","geo_precision":"unmatched","state":"MS"},"type":"Feature","geometry":null},{"properties":{"city":"Jackson","area_code":601,"geo_score":0.0,"id":"a6hevbfp0sqz","geo_precision":"unmatched","state":"MS"},"type":"Feature","geometry":null},{"properties":{"city":"Jackson","area_code":601,"geo_score":0.0,"id":"a6hevbubaz8r","geo_precision":"unmatched","state":"MS"},"type":"Feature","geometry":null},{"properties":{"city":"Sioux Falls","area_code":605,"geo_score":0.871,"id":"a6hevbip8szk","geo_precision":"zip","state":"SD"},"type":"Feature","geometry":{"type":"Point","coordinates":[36.0833333,20.2833333]}},{"properties":{"city":"London","area_code":606,"geo_score":0.0,"id":"a6hevbi9p0uk","geo_precision":"unmatched","state":"KY"},"type":"Feature","geometry":null},{"properties":{"city":"London","area_code":606,"geo_score":0.0,"id":"a6hevbjff055","geo_precision":"unmatched","state":"KY"},"type":"Feature","geometry":null},{"properties":{"city":"Madison","area_code":608,"geo_score":0.0,"id":"a6hevbkfhy0c","geo_precision":"unmatched","state":"WI"},"type":"Feature","geometry":null},{"properties":{"city":"Madison","area_code":608,"geo_score":0.0,"id":"a6hevbpzxavf","geo_precision":"unmatched","state":"WI"},"type":"Feature","geometry":null},{"properties":{"city":"Madison","area_code":608,"geo_score":0.0,"id":"a6hevbovbxbd","geo_precision":"unmatched","state":"WI"},"type":"Feature","geometry":null},{"properties":{"city":"Atlantic City","area_code":609,"geo_score":0.0,"id":"a6hevbq9xsku","geo_precision":"unmatched","state":"NJ"},"type":"Feature","geometry":null},{"properties":{"city":"Atlantic City","area_code":609,"geo_score":0.0,"id":"a6hevbrwx4wo","geo_precision":"unmatched","state":"NJ"},"type":"Feature","geometry":null},{"properties":{"city":"Atlantic City","area_code":609,"geo_score":0.0,"id":"a6hevbff4cgv","geo_precision":"unmatched","state":"NJ"},"type":"Feature","geometry":null},{"properties":{"city":"Atlantic City","area_code":609,"geo_score":0.0,"id":"a6hevbmubd2u","geo_precision":"unmatched","state":"NJ"},"type":"Feature","geometry":null},{"properties":{"city":"Atlantic City","area_code":609,"geo_score":0.0,"id":"a6hevbo9p4x8","geo_precision":"unmatched","state":"NJ"},"type":"Feature","geometry":null},{"properties":{"city":"Atlantic City","area_code":609,"geo_score":0.0,"id":"a6hevbngd091","geo_precision":"unmatched","state":"NJ"},"type":"Feature","geometry":null},{"properties":{"city":"Reading","area_code":610,"geo_score":0.0,"id":"a6hevbp1ltyu","geo_precision":"unmatched","state":"PA"},"type":"Feature","geometry":null},{"properties":{"city":"Reading","area_code":610,"geo_score":0.0,"id":"a6hevbg0r1hi","geo_precision":"unmatched","state":"PA"},"type":"Feature","geometry":null},{"properties":{"city":"Reading","area_code":610,"geo_score":0.0,"id":"a6hevbtfxgdw","geo_precision":"unmatched","state":"PA"},"type":"Feature","geometry":null},{"properties":{"city":"Reading","area_code":610,"geo_score":0.0,"id":"a6hevbhjufdd","geo_precision":"unmatched","state":"PA"},"type":"Feature","geometry":null},{"properties":{"city":"Reading","area_code":610,"geo_score":0.0,"id":"a6hevbijofzx","geo_precision":"unmatched","state":"PA"},"type":"Feature","geometry":null},{"properties":{"city":"Reading","area_code":610,"geo_score":0.0,"id":"a6hevbqtrqfv","geo_precision":"unmatched","state":"PA"},"type":"Feature","geometry":null},{"properties":{"city":"Reading","area_code":610,"geo_score":0.0,"id":"a6hevbrh2vyw","geo_precision":"unmatched","state":"PA"},"type":"Feature","geometry":null},{"properties":{"city":"Minneapolis","area_code":612,"geo_score":0.0,"id":"a6hevbf0f3iw","geo_precision":"unmatched","state":"MN"},"type":"Feature","geometry":null},{"properties":{"city":"Columbus","area_code":614,"geo_score":0.0,"id":"a6hevbpng5o8","geo_precision":"unmatched","state":"OH"},"type":"Feature","geometry":null},{"properties":{"city":"Columbus","area_code":614,"geo_score":0.0,"id":"a6hevbo1f0ib","geo_precision":"unmatched","state":"OH"},"type":"Feature","geometry":null},{"properties":{"city":"Columbus","area_code":614,"geo_score":0.0,"id":"a6hevbrvwfyu","geo_precision":"unmatched","state":"OH"},"type":"Feature","geometry":null},{"properties":{"city":"Columbus","area_code":614,"geo_score":0.0,"id":"a6hevbnlqluv","geo_precision":"unmatched","state":"OH"},"type":"Feature","geometry":null},{"properties":{"city":"Nashville","area_code":615,"geo_score":0.0,"id":"a6hevbv99cqm","geo_precision":"unmatched","state":"TN"},"type":"Feature","geometry":null},{"properties":{"city":"Nashville","area_code":615,"geo_score":0.0,"id":"a6hevbia4k2u","geo_precision":"unmatched","state":"TN"},"type":"Feature","geometry":null},{"properties":{"city":"Nashville","area_code":615,"geo_score":0.0,"id":"a6hevbgvl9xr","geo_precision":"unmatched","state":"TN"},"type":"Feature","geometry":null},{"properties":{"city":"Nashville","area_code":615,"geo_score":0.0,"id":"a6hevbjdzf4h","geo_precision":"unmatched","state":"TN"},"type":"Feature","geometry":null},{"properties":{"city":"Nashville","area_code":615,"geo_score":0.0,"id":"a6hevbk6t8vb","geo_precision":"unmatched","state":"TN"},"type":"Feature","geometry":null},{"properties":{"city":"Boston","area_code":617,"geo_score":0.929,"id":"a6hevbutynbw","geo_precision":"zip","state":"MA"},"type":"Feature","geometry":{"type":"Point","coordinates":[-7.15,31.96]}},{"properties":{"city":"Boston","area_code":617,"geo_score":0.929,"id":"a6hevbtj65dz","geo_precision":"zip","state":"MA"},"type":"Feature","geometry":{"type":"Point","coordinates":[-7.15,31.96]}},{"properties":{"city":"Boston","area_code":617,"geo_score":0.929,"id":"a6hevbv2xr9j","geo_precision":"zip","state":"MA"},"type":"Feature","geometry":{"type":"Point","coordinates":[-7.15,31.96]}},{"properties":{"city":"Belleville","area_code":618,"geo_score":0.0,"id":"a6hevbk3kmfe","geo_precision":"unmatched","state":"IL"},"type":"Feature","geometry":null},{"properties":{"city":"Belleville","area_code":618,"geo_score":0.0,"id":"a6hevbp7eddt","geo_precision":"unmatched","state":"IL"},"type":"Feature","geometry":null},{"properties":{"city":"Phoenix","area_code":623,"geo_score":0.0,"id":"a6hevbqcqiir","geo_precision":"unmatched","state":"AZ"},"type":"Feature","geometry":null},{"properties":{"city":"Phoenix","area_code":623,"geo_score":0.0,"id":"a6hevbu8xlpz","geo_precision":"unmatched","state":"AZ"},"type":"Feature","geometry":null},{"properties":{"city":"Alhambra","area_code":626,"geo_score":1.0,"id":"a6hevbiju81u","geo_precision":"zip","state":"CA"},"type":"Feature","geometry":{"type":"Point","coordinates":[-114.668743538,52.333415779]}},{"properties":{"city":"Alhambra","area_code":626,"geo_score":1.0,"id":"a6hevbhvyf20","geo_precision":"zip","state":"CA"},"type":"Feature","geometry":{"type":"Point","coordinates":[-114.668743538,52.333415779]}},{"properties":{"city":"Naperville","area_code":630,"geo_score":0.0,"id":"a6hevbn9p51t","geo_precision":"unmatched","state":"IL"},"type":"Feature","geometry":null},{"properties":{"city":"Naperville","area_code":630,"geo_score":0.0,"id":"a6hevbgorehy","geo_precision":"unmatched","state":"IL"},"type":"Feature","geometry":null},{"properties":{"city":"Huntington","area_code":631,"geo_score":0.0,"id":"a6hevbs6tin0","geo_precision":"unmatched","state":"NY"},"type":"Feature","geometry":null},{"properties":{"city":"Harvester","area_code":636,"geo_score":0.0,"id":"a6hevbjtpfhd","geo_precision":"unmatched","state":"MO"},"type":"Feature","geometry":null},{"properties":{"city":"Harvester","area_code":636,"geo_score":0.0,"id":"a6hevbm1kp06","geo_precision":"unmatched","state":"MO"},"type":"Feature","geometry":null},{"properties":{"city":"Mason City","area_code":641,"geo_score":0.0,"id":"a6hevbf9fx6p","geo_precision":"unmatched","state":"IA"},"type":"Feature","geometry":null},{"properties":{"city":"Mason City","area_code":641,"geo_score":0.0,"id":"a6hevbnkg2k9","geo_precision":"unmatched","state":"IA"},"type":"Feature","geometry":null},{"properties":{"city":"Tupelo","area_code":662,"geo_score":0.0,"id":"a6hevbrjp1v1","geo_precision":"unmatched","state":"MS"},"type":"Feature","geometry":null},{"properties":{"city":"Tupelo","area_code":662,"geo_score":0.0,"id":"a6hevbs7fs1a","geo_precision":"unmatched","state":"MS"},"type":"Feature","geometry":null},{"properties":{"city":"Tupelo","area_code":662,"geo_score":0.0,"id":"a6hevblgazkm","geo_precision":"unmatched","state":"MS"},"type":"Feature","geometry":null},{"properties":{"city":"Tupelo","area_code":662,"geo_score":0.0,"id":"a6hevbinnsj6","geo_precision":"unmatched","state":"MS"},"type":"Feature","geometry":null},{"properties":{"city":"Tupelo","area_code":662,"geo_score":0.0,"id":"a6hevbmuh759","geo_precision":"unmatched","state":"MS"},"type":"Feature","geometry":null},{"properties":{"city":"Tupelo","area_code":662,"geo_score":0.0,"id":"a6hevbmv66qd","geo_precision":"unmatched","state":"MS"},"type":"Feature","geometry":null},{"properties":{"city":"Atlanta","area_code":678,"geo_score":0.0,"id":"a6hevbu809sf","geo_precision":"unmatched","state":"GA"},"type":"Feature","geometry":null},{"properties":{"city":"Atlanta","area_code":678,"geo_score":0.0,"id":"a6hevbn01d0x","geo_precision":"unmatched","state":"GA"},"type":"Feature","geometry":null},{"properties":{"city":"Atlanta","area_code":678,"geo_score":0.0,"id":"a6hevbhxd4dv","geo_precision":"unmatched","state":"GA"},"type":"Feature","geometry":null},{"properties":{"city":"Atlanta","area_code":678,"geo_score":0.0,"id":"a6hevbgcqa9p","geo_precision":"unmatched","state":"GA"},"type":"Feature","geometry":null},{"properties":{"city":"Atlanta","area_code":678,"geo_score":0.0,"id":"a6hevbuzpins","geo_precision":"unmatched","state":"GA"},"type":"Feature","geometry":null},{"properties":{"city":"Fargo","area_code":701,"geo_score":0.0,"id":"a6hevbsx7gi5","geo_precision":"unmatched","state":"ND"},"type":"Feature","geometry":null},{"properties":{"city":"Fargo","area_code":701,"geo_score":0.0,"id":"a6hevbm8gdif","geo_precision":"unmatched","state":"ND"},"type":"Feature","geometry":null},{"properties":{"city":"Fargo","area_code":701,"geo_score":0.0,"id":"a6hevbgy4jdt","geo_precision":"unmatched","state":"ND"},"type":"Feature","geometry":null},{"properties":{"city":"Las Vegas","area_code":702,"geo_score":0.0,"id":"a6hevbmh436j","geo_precision":"unmatched","state":"NV"},"type":"Feature","geometry":null},{"properties":{"city":"Las Vegas","area_code":702,"geo_score":0.0,"id":"a6hevbn8vx8q","geo_precision":"unmatched","state":"NV"},"type":"Feature","geometry":null},{"properties":{"city":"Las Vegas","area_code":702,"geo_score":0.0,"id":"a6hevbqq38ez","geo_precision":"unmatched","state":"NV"},"type":"Feature","geometry":null},{"properties":{"city":"Las Vegas","area_code":702,"geo_score":0.0,"id":"a6hevblc7j0f","geo_precision":"unmatched","state":"NV"},"type":"Feature","geometry":null},{"properties":{"city":"Las Vegas","area_code":702,"geo_score":0.0,"id":"a6hevbrqjlwl","geo_precision":"unmatched","state":"NV"},"type":"Feature","geometry":null},{"properties":{"city":"Las Vegas","area_code":702,"geo_score":0.0,"id":"a6hevbfsbv80","geo_precision":"unmatched","state":"NV"},"type":"Feature","geometry":null},{"properties":{"city":"Las Vegas","area_code":702,"geo_score":0.0,"id":"a6hevbhp10j0","geo_precision":"unmatched","state":"NV"},"type":"Feature","geometry":null},{"properties":{"city":"Las Vegas","area_code":702,"geo_score":0.0,"id":"a6hevbi2tzxj","geo_precision":"unmatched","state":"NV"},"type":"Feature","geometry":null},{"properties":{"city":"Las Vegas","area_code":702,"geo_score":0.0,"id":"a6hevbtk4d0h","geo_precision":"unmatched","state":"NV"},"type":"Feature","geometry":null},{"properties":{"city":"Las Vegas","area_code":702,"geo_score":0.0,"id":"a6hevbux8tdw","geo_precision":"unmatched","state":"NV"},"type":"Feature","geometry":null},{"properties":{"city":"Alexandria","area_code":703,"geo_score":0.0,"id":"a6hevblks6d3","geo_precision":"unmatched","state":"VA"},"type":"Feature","geometry":null},{"properties":{"city":"Alexandria","area_code":703,"geo_score":0.0,"id":"a6hevbidjt8b","geo_precision":"unmatched","state":"VA"},"type":"Feature","geometry":null},{"properties":{"city":"Alexandria","area_code":703,"geo_score":0.0,"id":"a6hevbsb0pd3","geo_precision":"unmatched","state":"VA"},"type":"Feature","geometry":null},{"properties":{"city":"Alexandria","area_code":703,"geo_score":0.0,"id":"a6hevbhceqfh","geo_precision":"unmatched","state":"VA"},"type":"Feature","geometry":null},{"properties":{"city":"Alexandria","area_code":703,"geo_score":0.0,"id":"a6hevbewwqhm","geo_precision":"unmatched","state":"VA"},"type":"Feature","geometry":null},{"properties":{"city":"Alexandria","area_code":703,"geo_score":0.0,"id":"a6hevbjcorog","geo_precision":"unmatched","state":"VA"},"type":"Feature","geometry":null},{"properties":{"city":"Alexandria","area_code":703,"geo_score":0.0,"id":"a6hevblixuii","geo_precision":"unmatched","state":"VA"},"type":"Feature","geometry":null},{"properties":{"city":"Alexandria","area_code":703,"geo_score":0.0,"id":"a6hevbmkowk6","geo_precision":"unmatched","state":"VA"},"type":"Feature","geometry":null},{"properties":{"city":"Alexandria","area_code":703,"geo_score":0.0,"id":"a6hevbqo7abn","geo_precision":"unmatched","state":"VA"},"type":"Feature","geometry":null},{"properties":{"city":"Alexandria","area_code":703,"geo_score":0.0,"id":"a6hevbss3po0","geo_precision":"unmatched","state":"VA"},"type":"Feature","geometry":null},{"properties":{"city":"Alexandria","area_code":703,"geo_score":0.0,"id":"a6hevbk94h8c","geo_precision":"unmatched","state":"VA"},"type":"Feature","geometry":null},{"properties":{"city":"Alexandria","area_code":703,"geo_score":0.0,"id":"a6hevbid2vtw","geo_precision":"unmatched","state":"VA"},"type":"Feature","geometry":null},{"properties":{"city":"Alexandria","area_code":703,"geo_score":0.0,"id":"a6hevblnxn6g","geo_precision":"unmatched","state":"VA"},"type":"Feature","geometry":null},{"properties":{"city":"Alexandria","area_code":703,"geo_score":0.0,"id":"a6hevbm2cdcb","geo_precision":"unmatched","state":"VA"},"type":"Feature","geometry":null},{"properties":{"city":"Charlotte","area_code":704,"geo_score":0.0,"id":"a6hevbnc5bve","geo_precision":"unmatched","state":"NC"},"type":"Feature","geometry":null},{"properties":{"city":"Charlotte","area_code":704,"geo_score":0.0,"id":"a6hevbt3cg1b","geo_precision":"unmatched","state":"NC"},"type":"Feature","geometry":null},{"properties":{"city":"Charlotte","area_code":704,"geo_score":0.0,"id":"a6hevblrsxff","geo_precision":"unmatched","state":"NC"},"type":"Feature","geometry":null},{"properties":{"city":"Charlotte","area_code":704,"geo_score":0.0,"id":"a6hevblv7ek7","geo_precision":"unmatched","state":"NC"},"type":"Feature","geometry":null},{"properties":{"city":"Charlotte","area_code":704,"geo_score":0.0,"id":"a6hevbip7i4c","geo_precision":"unmatched","state":"NC"},"type":"Feature","geometry":null},{"properties":{"city":"Charlotte","area_code":704,"geo_score":0.0,"id":"a6hevbf6earr","geo_precision":"unmatched","state":"NC"},"type":"Feature","geometry":null},{"properties":{"city":"Charlotte","area_code":704,"geo_score":0.0,"id":"a6hevbmcld78","geo_precision":"unmatched","state":"NC"},"type":"Feature","geometry":null},{"properties":{"city":"Charlotte","area_code":704,"geo_score":0.0,"id":"a6hevbooaumc","geo_precision":"unmatched","state":"NC"},"type":"Feature","geometry":null},{"properties":{"city":"Charlotte","area_code":704,"geo_score":0.0,"id":"a6hevbi4qns2","geo_precision":"unmatched","state":"NC"},"type":"Feature","geometry":null},{"properties":{"city":"Charlotte","area_code":704,"geo_score":0.0,"id":"a6hevbmavm70","geo_precision":"unmatched","state":"NC"},"type":"Feature","geometry":null},{"properties":{"city":"Charlotte","area_code":704,"geo_score":0.0,"id":"a6hevbk68d97","geo_precision":"unmatched","state":"NC"},"type":"Feature","geometry":null},{"properties":{"city":"Charlotte","area_code":704,"geo_score":0.0,"id":"a6hevbuqq5n4","geo_precision":"unmatched","state":"NC"},"type":"Feature","geometry":null},{"properties":{"city":"Charlotte","area_code":704,"geo_score":0.0,"id":"a6hevbiccxbp","geo_precision":"unmatched","state":"NC"},"type":"Feature","geometry":null},{"properties":{"city":"Charlotte","area_code":704,"geo_score":0.0,"id":"a6hevblcgzkj","geo_precision":"unmatched","state":"NC"},"type":"Feature","geometry":null},{"properties":{"city":"Charlotte","area_code":704,"geo_score":0.0,"id":"a6hevbf7d3c2","geo_precision":"unmatched","state":"NC"},"type":"Feature","geometry":null},{"properties":{"city":"Charlotte","area_code":704,"geo_score":0.0,"id":"a6hevbnhn3hq","geo_precision":"unmatched","state":"NC"},"type":"Feature","geometry":null},{"properties":{"city":"Charlotte","area_code":704,"geo_score":0.0,"id":"a6hevbhrctc3","geo_precision":"unmatched","state":"NC"},"type":"Feature","geometry":null},{"properties":{"city":"Charlotte","area_code":704,"geo_score":0.0,"id":"a6hevbhbkgn3","geo_precision":"unmatched","state":"NC"},"type":"Feature","geometry":null},{"properties":{"city":"Charlotte","area_code":704,"geo_score":0.0,"id":"a6hevbt3ugfl","geo_precision":"unmatched","state":"NC"},"type":"Feature","geometry":null},{"properties":{"city":"Charlotte","area_code":704,"geo_score":0.0,"id":"a6hevbg6bnim","geo_precision":"unmatched","state":"NC"},"type":"Feature","geometry":null},{"properties":{"city":"Charlotte","area_code":704,"geo_score":0.0,"id":"a6hevbgm65sq","geo_precision":"unmatched","state":"NC"},"type":"Feature","geometry":null},{"properties":{"city":"Charlotte","area_code":704,"geo_score":0.0,"id":"a6hevbgnalmt","geo_precision":"unmatched","state":"NC"},"type":"Feature","geometry":null},{"properties":{"city":"Charlotte","area_code":704,"geo_score":0.0,"id":"a6hevbncm14d","geo_precision":"unmatched","state":"NC"},"type":"Feature","geometry":null},{"properties":{"city":"Stroud","area_code":705,"geo_score":0.0,"id":"a6hevbptuezl","geo_precision":"unmatched","state":"ON"},"type":"Feature","geometry":null},{"properties":{"city":"Stroud","area_code":705,"geo_score":0.0,"id":"a6hevbmrzfg5","geo_precision":"unmatched","state":"ON"},"type":"Feature","geometry":null},{"properties":{"city":"Stroud","area_code":705,"geo_score":0.0,"id":"a6hevbjl8w87","geo_precision":"unmatched","state":"ON"},"type":"Feature","geometry":null},{"properties":{"city":"Stroud","area_code":705,"geo_score":0.0,"id":"a6hevbpn9diw","geo_precision":"unmatched","state":"ON"},"type":"Feature","geometry":null},{"properties":{"city":"Stroud","area_code":705,"geo_score":0.0,"id":"a6hevbq6uta1","geo_precision":"unmatched","state":"ON"},"type":"Feature","geometry":null},{"properties":{"city":"Stroud","area_code":705,"geo_score":0.0,"id":"a6hevbicdrsh","geo_precision":"unmatched","state":"ON"},"type":"Feature","geometry":null},{"properties":{"city":"Stroud","area_code":705,"geo_score":0.0,"id":"a6hevbpcjonl","geo_precision":"unmatched","state":"ON"},"type":"Feature","geometry":null},{"properties":{"city":"Stroud","area_code":705,"geo_score":0.0,"id":"a6hevbum1qxt","geo_precision":"unmatched","state":"ON"},"type":"Feature","geometry":null},{"properties":{"city":"Stroud","area_code":705,"geo_score":0.0,"id":"a6hevbolenoy","geo_precision":"unmatched","state":"ON"},"type":"Feature","geometry":null},{"properties":{"city":"Stroud","area_code":705,"geo_score":0.0,"id":"a6hevbsopo70","geo_precision":"unmatched","state":"ON"},"type":"Feature","geometry":null},{"properties":{"city":"Stroud","area_code":705,"geo_score":0.0,"id":"a6hevbtfudj7","geo_precision":"unmatched","state":"ON"},"type":"Feature","geometry":null},{"properties":{"city":"Stroud","area_code":705,"geo_score":0.0,"id":"a6hevbmgh7al","geo_precision":"unmatched","state":"ON"},"type":"Feature","geometry":null},{"properties":{"city":"Stroud","area_code":705,"geo_score":0.0,"id":"a6hevbfr11jg","geo_precision":"unmatched","state":"ON"},"type":"Feature","geometry":null},{"properties":{"city":"Stroud","area_code":705,"geo_score":0.0,"id":"a6hevbq9gw7l","geo_precision":"unmatched","state":"ON"},"type":"Feature","geometry":null},{"properties":{"city":"Stroud","area_code":705,"geo_score":0.0,"id":"a6hevbutmavv","geo_precision":"unmatched","state":"ON"},"type":"Feature","geometry":null},{"properties":{"city":"Augusta","area_code":706,"geo_score":0.0,"id":"a6hevbou2yka","geo_precision":"unmatched","state":"GA"},"type":"Feature","geometry":null},{"properties":{"city":"Augusta","area_code":706,"geo_score":0.0,"id":"a6hevboog808","geo_precision":"unmatched","state":"GA"},"type":"Feature","geometry":null},{"properties":{"city":"Augusta","area_code":706,"geo_score":0.0,"id":"a6hevbg1jpgv","geo_precision":"unmatched","state":"GA"},"type":"Feature","geometry":null},{"properties":{"city":"Augusta","area_code":706,"geo_score":0.0,"id":"a6hevbty365y","geo_precision":"unmatched","state":"GA"},"type":"Feature","geometry":null},{"properties":{"city":"Augusta","area_code":706,"geo_score":0.0,"id":"a6hevbta3x8a","geo_precision":"unmatched","state":"GA"},"type":"Feature","geometry":null},{"properties":{"city":"Augusta","area_code":706,"geo_score":0.0,"id":"a6hevbh43n1f","geo_precision":"unmatched","state":"GA"},"type":"Feature","geometry":null},{"properties":{"city":"Augusta","area_code":706,"geo_score":0.0,"id":"a6hevbq0qse0","geo_precision":"unmatched","state":"GA"},"type":"Feature","geometry":null},{"properties":{"city":"Augusta","area_code":706,"geo_score":0.0,"id":"a6hevbim7q1h","geo_precision":"unmatched","state":"GA"},"type":"Feature","geometry":null},{"properties":{"city":"Augusta","area_code":706,"geo_score":0.0,"id":"a6hevbu0wwvm","geo_precision":"unmatched","state":"GA"},"type":"Feature","geometry":null},{"properties":{"city":"Augusta","area_code":706,"geo_score":0.0,"id":"a6hevbfasf85","geo_precision":"unmatched","state":"GA"},"type":"Feature","geometry":null},{"properties":{"city":"Augusta","area_code":706,"geo_score":0.0,"id":"a6hevbfa6bin","geo_precision":"unmatched","state":"GA"},"type":"Feature","geometry":null},{"properties":{"city":"Augusta","area_code":706,"geo_score":0.0,"id":"a6hevbiw1t3r","geo_precision":"unmatched","state":"GA"},"type":"Feature","geometry":null},{"properties":{"city":"Augusta","area_code":706,"geo_score":0.0,"id":"a6hevbkznpvf","geo_precision":"unmatched","state":"GA"},"type":"Feature","geometry":null},{"properties":{"city":"Augusta","area_code":706,"geo_score":0.0,"id":"a6hevbj35ebg","geo_precision":"unmatched","state":"GA"},"type":"Feature","geometry":null},{"properties":{"city":"Augusta","area_code":706,"geo_score":0.0,"id":"a6hevbug646x","geo_precision":"unmatched","state":"GA"},"type":"Feature","geometry":null},{"properties":{"city":"Augusta","area_code":706,"geo_score":0.0,"id":"a6hevbguwk63","geo_precision":"unmatched","state":"GA"},"type":"Feature","geometry":null},{"properties":{"city":"Augusta","area_code":706,"geo_score":0.0,"id":"a6hevbjhzwat","geo_precision":"unmatched","state":"GA"},"type":"Feature","geometry":null},{"properties":{"city":"Augusta","area_code":706,"geo_score":0.0,"id":"a6hevbll2k7z","geo_precision":"unmatched","state":"GA"},"type":"Feature","geometry":null},{"properties":{"city":"Augusta","area_code":706,"geo_score":0.0,"id":"a6hevbnyr16z","geo_precision":"unmatched","state":"GA"},"type":"Feature","geometry":null},{"properties":{"city":"Augusta","area_code":706,"geo_score":0.0,"id":"a6hevbtgak60","geo_precision":"unmatched","state":"GA"},"type":"Feature","geometry":null},{"properties":{"city":"Augusta","area_code":706,"geo_score":0.0,"id":"a6hevbgt3k6t","geo_precision":"unmatched","state":"GA"},"type":"Feature","geometry":null},{"properties":{"city":"Augusta","area_code":706,"geo_score":0.0,"id":"a6hevbn4vcw2","geo_precision":"unmatched","state":"GA"},"type":"Feature","geometry":null},{"properties":{"city":"Augusta","area_code":706,"geo_score":0.0,"id":"a6hevblesy7z","geo_precision":"unmatched","state":"GA"},"type":"Feature","geometry":null},{"properties":{"city":"Augusta","area_code":706,"geo_score":0.0,"id":"a6hevbfik1jc","geo_precision":"unmatched","state":"GA"},"type":"Feature","geometry":null},{"properties":{"city":"Augusta","area_code":706,"geo_score":0.0,"id":"a6hevbq28dyc","geo_precision":"unmatched","state":"GA"},"type":"Feature","geometry":null},{"properties":{"city":"Augusta","area_code":706,"geo_score":0.0,"id":"a6hevbtcb3fq","geo_precision":"unmatched","state":"GA"},"type":"Feature","geometry":null},{"properties":{"city":"Augusta","area_code":706,"geo_score":0.0,"id":"a6hevbqwyjgi","geo_precision":"unmatched","state":"GA"},"type":"Feature","geometry":null},{"properties":{"city":"Augusta","area_code":706,"geo_score":0.0,"id":"a6hevbooolz4","geo_precision":"unmatched","state":"GA"},"type":"Feature","geometry":null},{"properties":{"city":"Santa Rosa","area_code":707,"geo_score":0.873,"id":"a6hevbli3eqw","geo_precision":"zip","state":"CA"},"type":"Feature","geometry":{"type":"Point","coordinates":[-65.982163159,45.983439133]}},{"properties":{"city":"Santa Rosa","area_code":707,"geo_score":0.873,"id":"a6hevbhei69k","geo_precision":"zip","state":"CA"},"type":"Feature","geometry":{"type":"Point","coordinates":[-65.982163159,45.983439133]}},{"properties":{"city":"Santa Rosa","area_code":707,"geo_score":0.873,"id":"a6hevbgrd6vc","geo_precision":"zip","state":"CA"},"type":"Feature","geometry":{"type":"Point","coordinates":[-65.982163159,45.983439133]}},{"properties":{"city":"Santa Rosa","area_code":707,"geo_score":0.873,"id":"a6hevbfgstzc","geo_precision":"zip","state":"CA"},"type":"Feature","geometry":{"type":"Point","coordinates":[-65.982163159,45.983439133]}},{"properties":{"city":"Santa Rosa","area_code":707,"geo_score":0.873,"id":"a6hevbt8i5az","geo_precision":"zip","state":"CA"},"type":"Feature","geometry":{"type":"Point","coordinates":[-65.982163159,45.983439133]}},{"properties":{"city":"Santa Rosa","area_code":707,"geo_score":0.873,"id":"a6hevbp1pygk","geo_precision":"zip","state":"CA"},"type":"Feature","geometry":{"type":"Point","coordinates":[-65.982163159,45.983439133]}},{"properties":{"city":"Santa Rosa","area_code":707,"geo_score":0.873,"id":"a6hevbh9b8ca","geo_precision":"zip","state":"CA"},"type":"Feature","geometry":{"type":"Point","coordinates":[-65.982163159,45.983439133]}},{"properties":{"city":"Oak Park","area_code":708,"geo_score":0.0,"id":"a6hevbtk4yom","geo_precision":"unmatched","state":"IL"},"type":"Feature","geometry":null},{"properties":{"city":"Oak Park","area_code":708,"geo_score":0.0,"id":"a6hevblhvbhq","geo_precision":"unmatched","state":"IL"},"type":"Feature","geometry":null},{"properties":{"city":"Oak Park","area_code":708,"geo_score":0.0,"id":"a6hevbh3kadb","geo_precision":"unmatched","state":"IL"},"type":"Feature","geometry":null},{"properties":{"city":"Oak Park","area_code":708,"geo_score":0.0,"id":"a6hevbuf74n2","geo_precision":"unmatched","state":"IL"},"type":"Feature","geometry":null},{"properties":{"city":"Oak Park","area_code":708,"geo_score":0.0,"id":"a6hevbn5uqys","geo_precision":"unmatched","state":"IL"},"type":"Feature","geometry":null},{"properties":{"city":"Oak Park","area_code":708,"geo_score":0.0,"id":"a6hevbi7n11w","geo_precision":"unmatched","state":"IL"},"type":"Feature","geometry":null},{"properties":{"city":"Oak Park","area_code":708,"geo_score":0.0,"id":"a6hevbvbqlnu","geo_precision":"unmatched","state":"IL"},"type":"Feature","geometry":null},{"properties":{"city":"Oak Park","area_code":708,"geo_score":0.0,"id":"a6hevbv8mnwi","geo_precision":"unmatched","state":"IL"},"type":"Feature","geometry":null},{"properties":{"city":"Oak Park","area_code":708,"geo_score":0.0,"id":"a6hevbkhb31e","geo_precision":"unmatched","state":"IL"},"type":"Feature","geometry":null},{"properties":{"city":"Fermeuse","area_code":709,"geo_score":0.0,"id":"a6hevbuyhrze","geo_precision":"unmatched","state":"NL"},"type":"Feature","geometry":null},{"properties":{"city":"Fermeuse","area_code":709,"geo_score":0.0,"id":"a6hevbf8f1rh","geo_precision":"unmatched","state":"NL"},"type":"Feature","geometry":null},{"properties":{"city":"Fermeuse","area_code":709,"geo_score":0.0,"id":"a6hevbv4s10e","geo_precision":"unmatched","state":"NL"},"type":"Feature","geometry":null},{"properties":{"city":"Fermeuse","area_code":709,"geo_score":0.0,"id":"a6hevbollhtx","geo_precision":"unmatched","state":"NL"},"type":"Feature","geometry":null},{"properties":{"city":"Fermeuse","area_code":709,"geo_score":0.0,"id":"a6hevbi7v34e","geo_precision":"unmatched","state":"NL"},"type":"Feature","geometry":null},{"properties":{"city":"Fermeuse","area_code":709,"geo_score":0.0,"id":"a6hevbkg2qvu","geo_precision":"unmatched","state":"NL"},"type":"Feature","geometry":null},{"properties":{"city":"Fermeuse","area_code":709,"geo_score":0.0,"id":"a6hevblt5ns4","geo_precision":"unmatched","state":"NL"},"type":"Feature","geometry":null},{"properties":{"city":"Fermeuse","area_code":709,"geo_score":0.0,"id":"a6hevbmjz4tv","geo_precision":"unmatched","state":"NL"},"type":"Feature","geometry":null},{"properties":{"city":"Fermeuse","area_code":709,"geo_score":0.0,"id":"a6hevbgvu23v","geo_precision":"unmatched","state":"NL"},"type":"Feature","geometry":null},{"properties":{"city":"Fermeuse","area_code":709,"geo_score":0.0,"id":"a6hevbszqg3w","geo_precision":"unmatched","state":"NL"},"type":"Feature","geometry":null},{"properties":{"city":"Fermeuse","area_code":709,"geo_score":0.0,"id":"a6hevbn94i8e","geo_precision":"unmatched","state":"NL"},"type":"Feature","geometry":null},{"properties":{"city":"Fermeuse","area_code":709,"geo_score":0.0,"id":"a6hevbfu3e4y","geo_precision":"unmatched","state":"NL"},"type":"Feature","geometry":null},{"properties":{"city":"Fermeuse","area_code":709,"geo_score":0.0,"id":"a6hevbvbrvft","geo_precision":"unmatched","state":"NL"},"type":"Feature","geometry":null},{"properties":{"city":"Fermeuse","area_code":709,"geo_score":0.0,"id":"a6hevbpecpuq","geo_precision":"unmatched","state":"NL"},"type":"Feature","geometry":null},{"properties":{"city":"Fermeuse","area_code":709,"geo_score":0.0,"id":"a6hevbgu9rps","geo_precision":"unmatched","state":"NL"},"type":"Feature","geometry":null},{"properties":{"city":"Fermeuse","area_code":709,"geo_score":0.0,"id":"a6hevbr4nco5","geo_precision":"unmatched","state":"NL"},"type":"Feature","geometry":null},{"properties":{"city":"Fermeuse","area_code":709,"geo_score":0.0,"id":"a6hevbsr24ju","geo_precision":"unmatched","state":"NL"},"type":"Feature","geometry":null},{"properties":{"city":"Fermeuse","area_code":709,"geo_score":0.0,"id":"a6hevbfdmptk","geo_precision":"unmatched","state":"NL"},"type":"Feature","geometry":null},{"properties":{"city":"Fermeuse","area_code":709,"geo_score":0.0,"id":"a6hevbotha57","geo_precision":"unmatched","state":"NL"},"type":"Feature","geometry":null},{"properties":{"city":"Fermeuse","area_code":709,"geo_score":0.0,"id":"a6hevbht3zfb","geo_precision":"unmatched","state":"NL"},"type":"Feature","geometry":null},{"properties":{"city":"Fermeuse","area_code":709,"geo_score":0.0,"id":"a6hevbgotmiv","geo_precision":"unmatched","state":"NL"},"type":"Feature","geometry":null},{"properties":{"city":"Fermeuse","area_code":709,"geo_score":0.0,"id":"a6hevbn49fa9","geo_precision":"unmatched","state":"NL"},"type":"Feature","geometry":null},{"properties":{"city":"Fermeuse","area_code":709,"geo_score":0.0,"id":"a6hevbp4rr4h","geo_precision":"unmatched","state":"NL"},"type":"Feature","geometry":null},{"properties":{"city":"Sioux City","area_code":712,"geo_score":0.0,"id":"a6hevblc5pjt","geo_precision":"unmatched","state":"IA"},"type":"Feature","geometry":null},{"properties":{"city":"Sioux City","area_code":712,"geo_score":0.0,"id":"a6hevbi3tueh","geo_precision":"unmatched","state":"IA"},"type":"Feature","geometry":null},{"properties":{"city":"Sioux City","area_code":712,"geo_score":0.0,"id":"a6hevbich3gb","geo_precision":"unmatched","state":"IA"},"type":"Feature","geometry":null},{"properties":{"city":"Sioux City","area_code":712,"geo_score":0.0,"id":"a6hevbosbq0o","geo_precision":"unmatched","state":"IA"},"type":"Feature","geometry":null},{"properties":{"city":"Sioux City","area_code":712,"geo_score":0.0,"id":"a6hevbgx64ms","geo_precision":"unmatched","state":"IA"},"type":"Feature","geometry":null},{"properties":{"city":"Sioux City","area_code":712,"geo_score":0.0,"id":"a6hevbo0qznx","geo_precision":"unmatched","state":"IA"},"type":"Feature","geometry":null},{"properties":{"city":"Sioux City","area_code":712,"geo_score":0.0,"id":"a6hevblcpm2v","geo_precision":"unmatched","state":"IA"},"type":"Feature","geometry":null},{"properties":{"city":"Sioux City","area_code":712,"geo_score":0.0,"id":"a6hevbgeu8rr","geo_precision":"unmatched","state":"IA"},"type":"Feature","geometry":null},{"properties":{"city":"Sioux City","area_code":712,"geo_score":0.0,"id":"a6hevbsehg6y","geo_precision":"unmatched","state":"IA"},"type":"Feature","geometry":null},{"properties":{"city":"Sioux City","area_code":712,"geo_score":0.0,"id":"a6hevbnpwzye","geo_precision":"unmatched","state":"IA"},"type":"Feature","geometry":null},{"properties":{"city":"Sioux City","area_code":712,"geo_score":0.0,"id":"a6hevbkwv4c9","geo_precision":"unmatched","state":"IA"},"type":"Feature","geometry":null},{"properties":{"city":"Sioux City","area_code":712,"geo_score":0.0,"id":"a6hevbn2kler","geo_precision":"unmatched","state":"IA"},"type":"Feature","geometry":null},{"properties":{"city":"Sioux City","area_code":712,"geo_score":0.0,"id":"a6hevbkemqv0","geo_precision":"unmatched","state":"IA"},"type":"Feature","geometry":null},{"properties":{"city":"Sioux City","area_code":712,"geo_score":0.0,"id":"a6hevbqkc9q7","geo_precision":"unmatched","state":"IA"},"type":"Feature","geometry":null},{"properties":{"city":"Sioux City","area_code":712,"geo_score":0.0,"id":"a6hevbs9vh0o","geo_precision":"unmatched","state":"IA"},"type":"Feature","geometry":null},{"properties":{"city":"Sioux City","area_code":712,"geo_score":0.0,"id":"a6hevbnwd6dc","geo_precision":"unmatched","state":"IA"},"type":"Feature","geometry":null},{"properties":{"city":"Sioux City","area_code":712,"geo_score":0.0,"id":"a6hevbganj7a","geo_precision":"unmatched","state":"IA"},"type":"Feature","geometry":null},{"properties":{"city":"Sioux City","area_code":712,"geo_score":0.0,"id":"a6hevbkdj4ys","geo_precision":"unmatched","state":"IA"},"type":"Feature","geometry":null},{"properties":{"city":"Houston","area_code":713,"geo_score":0.0,"id":"a6hevbngg31v","geo_precision":"unmatched","state":"TX"},"type":"Feature","geometry":null},{"properties":{"city":"Houston","area_code":713,"geo_score":0.0,"id":"a6hevbsiccav","geo_precision":"unmatched","state":"TX"},"type":"Feature","geometry":null},{"properties":{"city":"Houston","area_code":713,"geo_score":0.0,"id":"a6hevbtain24","geo_precision":"unmatched","state":"TX"},"type":"Feature","geometry":null},{"properties":{"city":"Houston","area_code":713,"geo_score":0.0,"id":"a6hevbk85okd","geo_precision":"unmatched","state":"TX"},"type":"Feature","geometry":null},{"properties":{"city":"Houston","area_code":713,"geo_score":0.0,"id":"a6hevbg1rkvy","geo_precision":"unmatched","state":"TX"},"type":"Feature","geometry":null},{"properties":{"city":"Houston","area_code":713,"geo_score":0.0,"id":"a6hevbrf5s68","geo_precision":"unmatched","state":"TX"},"type":"Feature","geometry":null},{"properties":{"city":"Houston","area_code":713,"geo_score":0.0,"id":"a6hevbnixh85","geo_precision":"unmatched","state":"TX"},"type":"Feature","geometry":null},{"properties":{"city":"Houston","area_code":713,"geo_score":0.0,"id":"a6hevblpkx5m","geo_precision":"unmatched","state":"TX"},"type":"Feature","geometry":null},{"properties":{"city":"Houston","area_code":713,"geo_score":0.0,"id":"a6hevbr7xtx7","geo_precision":"unmatched","state":"TX"},"type":"Feature","geometry":null},{"properties":{"city":"Houston","area_code":713,"geo_score":0.0,"id":"a6hevbnz4u10","geo_precision":"unmatched","state":"TX"},"type":"Feature","geometry":null},{"properties":{"city":"Houston","area_code":713,"geo_score":0.0,"id":"a6hevbgwgzlp","geo_precision":"unmatched","state":"TX"},"type":"Feature","geometry":null},{"properties":{"city":"Houston","area_code":713,"geo_score":0.0,"id":"a6hevbq1giir","geo_precision":"unmatched","state":"TX"},"type":"Feature","geometry":null},{"properties":{"city":"Santa Ana","area_code":714,"geo_score":0.875,"id":"a6hevbo6r8w5","geo_precision":"zip","state":"CA"},"type":"Feature","geometry":{"type":"Point","coordinates":[-92.583646306,51.150050509]}},{"properties":{"city":"Santa Ana","area_code":714,"geo_score":0.875,"id":"a6hevbqas19b","geo_precision":"zip","state":"CA"},"type":"Feature","geometry":{"type":"Point","coordinates":[-92.583646306,51.150050509]}},{"properties":{"city":"Eau Claire","area_code":715,"geo_score":0.0,"id":"a6hevbps62qc","geo_precision":"unmatched","state":"WI"},"type":"Feature","geometry":null},{"properties":{"city":"Eau Claire","area_code":715,"geo_score":0.0,"id":"a6hevbt3gsnz","geo_precision":"unmatched","state":"WI"},"type":"Feature","geometry":null},{"properties":{"city":"Eau Claire","area_code":715,"geo_score":0.0,"id":"a6hevbpcht8u","geo_precision":"unmatched","state":"WI"},"type":"Feature","geometry":null},{"properties":{"city":"Buffalo","area_code":716,"geo_score":0.0,"id":"a6hevbu58t05","geo_precision":"unmatched","state":"NY"},"type":"Feature","geometry":null},{"properties":{"city":"Lancaster","area_code":717,"geo_score":0.943,"id":"a6hevblrnnoa","geo_precision":"zip","state":"PA"},"type":"Feature","geometry":{"type":"Point","coordinates":[-79.1333333,8.95]}},{"properties":{"city":"Lancaster","area_code":717,"geo_score":0.943,"id":"a6hevbqqfv1p","geo_precision":"zip","state":"PA"},"type":"Feature","geometry":{"type":"Point","coordinates":[-79.1333333,8.95]}},{"properties":{"city":"Lancaster","area_code":717,"geo_score":0.943,"id":"a6hevbjzuym2","geo_precision":"zip","state":"PA"},"type":"Feature","geometry":{"type":"Point","coordinates":[-79.1333333,8.95]}},{"properties":{"city":"Lancaster","area_code":717,"geo_score":0.943,"id":"a6hevbtvacmv","geo_precision":"zip","state":"PA"},"type":"Feature","geometry":{"type":"Point","coordinates":[-79.1333333,8.95]}},{"properties":{"city":"Brooklyn","area_code":718,"geo_score":0.0,"id":"a6hevbh432ge","geo_precision":"unmatched","state":"NY"},"type":"Feature","geometry":null},{"properties":{"city":"Brooklyn","area_code":718,"geo_score":0.0,"id":"a6hevbibb8yc","geo_precision":"unmatched","state":"NY"},"type":"Feature","geometry":null},{"properties":{"city":"Colorado Springs","area_code":719,"geo_score":0.933,"id":"a6hevbswm75f","geo_precision":"zip","state":"CO"},"type":"Feature","geometry":{"type":"Point","coordinates":[-75.2666667,10.6666667]}},{"properties":{"city":"Colorado Springs","area_code":719,"geo_score":0.933,"id":"a6hevbl2wok7","geo_precision":"zip","state":"CO"},"type":"Feature","geometry":{"type":"Point","coordinates":[-75.2666667,10.6666667]}},{"properties":{"city":"Denver","area_code":720,"geo_score":0.0,"id":"a6hevbtiwxd7","geo_precision":"unmatched","state":"CO"},"type":"Feature","geometry":null},{"properties":{"city":"Denver","area_code":720,"geo_score":0.0,"id":"a6hevbpax40i","geo_precision":"unmatched","state":"CO"},"type":"Feature","geometry":null},{"properties":{"city":"Denver","area_code":720,"geo_score":0.0,"id":"a6hevblr664m","geo_precision":"unmatched","state":"CO"},"type":"Feature","geometry":null},{"properties":{"city":"Denver","area_code":720,"geo_score":0.0,"id":"a6hevbk6ycqn","geo_precision":"unmatched","state":"CO"},"type":"Feature","geometry":null},{"properties":{"city":"Denver","area_code":720,"geo_score":0.0,"id":"a6hevbkl5wqr","geo_precision":"unmatched","state":"CO"},"type":"Feature","geometry":null},{"properties":{"city":"Denver","area_code":720,"geo_score":0.0,"id":"a6hevbk195fh","geo_precision":"unmatched","state":"CO"},"type":"Feature","geometry":null},{"properties":{"city":"Denver","area_code":720,"geo_score":0.0,"id":"a6hevbk2g7km","geo_precision":"unmatched","state":"CO"},"type":"Feature","geometry":null},{"properties":{"city":"Denver","area_code":720,"geo_score":0.0,"id":"a6hevbis4dx8","geo_precision":"unmatched","state":"CO"},"type":"Feature","geometry":null},{"properties":{"city":"Denver","area_code":720,"geo_score":0.0,"id":"a6hevbh6746t","geo_precision":"unmatched","state":"CO"},"type":"Feature","geometry":null},{"properties":{"city":"Greensburg","area_code":724,"geo_score":0.0,"id":"a6hevbkan9vy","geo_precision":"unmatched","state":"PA"},"type":"Feature","geometry":null},{"properties":{"city":"Greensburg","area_code":724,"geo_score":0.0,"id":"a6hevbnsjsue","geo_precision":"unmatched","state":"PA"},"type":"Feature","geometry":null},{"properties":{"city":"Greensburg","area_code":724,"geo_score":0.0,"id":"a6hevbqb85i1","geo_precision":"unmatched","state":"PA"},"type":"Feature","geometry":null},{"properties":{"city":"Greensburg","area_code":724,"geo_score":0.0,"id":"a6hevbh660t2","geo_precision":"unmatched","state":"PA"},"type":"Feature","geometry":null},{"properties":{"city":"Greensburg","area_code":724,"geo_score":0.0,"id":"a6hevbp69f2o","geo_precision":"unmatched","state":"PA"},"type":"Feature","geometry":null},{"properties":{"city":"Greensburg","area_code":724,"geo_score":0.0,"id":"a6hevbn5rebm","geo_precision":"unmatched","state":"PA"},"type":"Feature","geometry":null},{"properties":{"city":"Jackson","area_code":731,"geo_score":0.0,"id":"a6hevbtn0ewm","geo_precision":"unmatched","state":"TN"},"type":"Feature","geometry":null},{"properties":{"city":"Jackson","area_code":731,"geo_score":0.0,"id":"a6hevbnyiyk6","geo_precision":"unmatched","state":"TN"},"type":"Feature","geometry":null},{"properties":{"city":"Toms River","area_code":732,"geo_score":0.0,"id":"a6hevbg7ew0a","geo_precision":"unmatched","state":"NJ"},"type":"Feature","geometry":null},{"properties":{"city":"Ann Arbor","area_code":734,"geo_score":0.0,"id":"a6hevbftz1ct","geo_precision":"unmatched","state":"MI"},"type":"Feature","geometry":null},{"properties":{"city":"Ann Arbor","area_code":734,"geo_score":0.0,"id":"a6hevbprnnli","geo_precision":"unmatched","state":"MI"},"type":"Feature","geometry":null},{"properties":{"city":"Ann Arbor","area_code":734,"geo_score":0.0,"id":"a6hevbv8ecix","geo_precision":"unmatched","state":"MI"},"type":"Feature","geometry":null},{"properties":{"city":"Zanesville","area_code":740,"geo_score":0.0,"id":"a6hevbpo9fwi","geo_precision":"unmatched","state":"OH"},"type":"Feature","geometry":null},{"properties":{"city":"Zanesville","area_code":740,"geo_score":0.0,"id":"a6hevbttgqnu","geo_precision":"unmatched","state":"OH"},"type":"Feature","geometry":null},{"properties":{"city":"Los Angeles","area_code":747,"geo_score":0.9,"id":"a6hevbuedjel","geo_precision":"zip","state":"CA"},"type":"Feature","geometry":{"type":"Point","coordinates":[-55.598110211,49.949945903]}},{"properties":{"city":"Los Angeles","area_code":747,"geo_score":0.9,"id":"a6hevbm2wtve","geo_precision":"zip","state":"CA"},"type":"Feature","geometry":{"type":"Point","coordinates":[-55.598110211,49.949945903]}},{"properties":{"city":"Los Angeles","area_code":747,"geo_score":0.9,"id":"a6hevbmsp66q","geo_precision":"zip","state":"CA"},"type":"Feature","geometry":{"type":"Point","coordinates":[-55.598110211,49.949945903]}},{"properties":{"city":"Los Angeles","area_code":747,"geo_score":0.9,"id":"a6hevbgw67ul","geo_precision":"zip","state":"CA"},"type":"Feature","geometry":{"type":"Point","coordinates":[-55.598110211,49.949945903]}},{"properties":{"city":"Los Angeles","area_code":747,"geo_score":0.9,"id":"a6hevbfwh0pn","geo_precision":"zip","state":"CA"},"type":"Feature","geometry":{"type":"Point","coordinates":[-55.598110211,49.949945903]}},{"properties":{"city":"Los Angeles","area_code":747,"geo_score":0.9,"id":"a6hevbsna5ep","geo_precision":"zip","state":"CA"},"type":"Feature","geometry":{"type":"Point","coordinates":[-55.598110211,49.949945903]}},{"properties":{"city":"Los Angeles","area_code":747,"geo_score":0.9,"id":"a6hevbn8chfv","geo_precision":"zip","state":"CA"},"type":"Feature","geometry":{"type":"Point","coordinates":[-55.598110211,49.949945903]}},{"properties":{"city":"Los Angeles","area_code":747,"geo_score":0.9,"id":"a6hevbuxsgir","geo_precision":"zip","state":"CA"},"type":"Feature","geometry":{"type":"Point","coordinates":[-55.598110211,49.949945903]}},{"properties":{"city":"Los Angeles","area_code":747,"geo_score":0.9,"id":"a6hevbgvte9g","geo_precision":"zip","state":"CA"},"type":"Feature","geometry":{"type":"Point","coordinates":[-55.598110211,49.949945903]}},{"properties":{"city":"Los Angeles","area_code":747,"geo_score":0.9,"id":"a6hevbmexmjz","geo_precision":"zip","state":"CA"},"type":"Feature","geometry":{"type":"Point","coordinates":[-55.598110211,49.949945903]}},{"properties":{"city":"Virginia Beach","area_code":757,"geo_score":0.0,"id":"a6hevbhr9xuz","geo_precision":"unmatched","state":"VA"},"type":"Feature","geometry":null},{"properties":{"city":"Virginia Beach","area_code":757,"geo_score":0.0,"id":"a6hevbo8fdx3","geo_precision":"unmatched","state":"VA"},"type":"Feature","geometry":null},{"properties":{"city":"Virginia Beach","area_code":757,"geo_score":0.0,"id":"a6hevbmuuioq","geo_precision":"unmatched","state":"VA"},"type":"Feature","geometry":null},{"properties":{"city":"Virginia Beach","area_code":757,"geo_score":0.0,"id":"a6hevbpm80ms","geo_precision":"unmatched","state":"VA"},"type":"Feature","geometry":null},{"properties":{"city":"Virginia Beach","area_code":757,"geo_score":0.0,"id":"a6hevbi5r42x","geo_precision":"unmatched","state":"VA"},"type":"Feature","geometry":null},{"properties":{"city":"Virginia Beach","area_code":757,"geo_score":0.0,"id":"a6hevbg2z8so","geo_precision":"unmatched","state":"VA"},"type":"Feature","geometry":null},{"properties":{"city":"Virginia Beach","area_code":757,"geo_score":0.0,"id":"a6hevbjdkccy","geo_precision":"unmatched","state":"VA"},"type":"Feature","geometry":null},{"properties":{"city":"Virginia Beach","area_code":757,"geo_score":0.0,"id":"a6hevbgwh5dp","geo_precision":"unmatched","state":"VA"},"type":"Feature","geometry":null},{"properties":{"city":"Virginia Beach","area_code":757,"geo_score":0.0,"id":"a6hevbve50xd","geo_precision":"unmatched","state":"VA"},"type":"Feature","geometry":null},{"properties":{"city":"Virginia Beach","area_code":757,"geo_score":0.0,"id":"a6hevbptdl8b","geo_precision":"unmatched","state":"VA"},"type":"Feature","geometry":null},{"properties":{"city":"Virginia Beach","area_code":757,"geo_score":0.0,"id":"a6hevbf8hjox","geo_precision":"unmatched","state":"VA"},"type":"Feature","geometry":null},{"properties":{"city":"Virginia Beach","area_code":757,"geo_score":0.0,"id":"a6hevbnxdxn4","geo_precision":"unmatched","state":"VA"},"type":"Feature","geometry":null},{"properties":{"city":"Virginia Beach","area_code":757,"geo_score":0.0,"id":"a6hevbkg5yrx","geo_precision":"unmatched","state":"VA"},"type":"Feature","geometry":null},{"properties":{"city":"Virginia Beach","area_code":757,"geo_score":0.0,"id":"a6hevbft94k3","geo_precision":"unmatched","state":"VA"},"type":"Feature","geometry":null},{"properties":{"city":"Virginia Beach","area_code":757,"geo_score":0.0,"id":"a6hevbsg44zz","geo_precision":"unmatched","state":"VA"},"type":"Feature","geometry":null},{"properties":{"city":"Virginia Beach","area_code":757,"geo_score":0.0,"id":"a6hevbmt4aft","geo_precision":"unmatched","state":"VA"},"type":"Feature","geometry":null},{"properties":{"city":"Vista","area_code":760,"geo_score":0.898,"id":"a6hevbpu0auc","geo_precision":"zip","state":"CA"},"type":"Feature","geometry":{"type":"Point","coordinates":[-74.865975121,45.650096094]}},{"properties":{"city":"Vista","area_code":760,"geo_score":0.898,"id":"a6hevbhtdgex","geo_precision":"zip","state":"CA"},"type":"Feature","geometry":{"type":"Point","coordinates":[-74.865975121,45.650096094]}},{"properties":{"city":"Dalton","area_code":762,"geo_score":0.0,"id":"a6hevbojt1g1","geo_precision":"unmatched","state":"GA"},"type":"Feature","geometry":null},{"properties":{"city":"Dalton","area_code":762,"geo_score":0.0,"id":"a6hevbpa1z1z","geo_precision":"unmatched","state":"GA"},"type":"Feature","geometry":null},{"properties":{"city":"Muncie","area_code":765,"geo_score":0.905,"id":"a6hevbgzi2vi","geo_precision":"zip","state":"IN"},"type":"Feature","geometry":{"type":"Point","coordinates":[75.3833333,29.9833333]}},{"properties":{"city":"Muncie","area_code":765,"geo_score":0.905,"id":"a6hevbu82tti","geo_precision":"zip","state":"IN"},"type":"Feature","geometry":{"type":"Point","coordinates":[75.3833333,29.9833333]}},{"properties":{"city":"Muncie","area_code":765,"geo_score":0.905,"id":"a6hevbezu038","geo_precision":"zip","state":"IN"},"type":"Feature","geometry":{"type":"Point","coordinates":[75.3833333,29.9833333]}},{"properties":{"city":"Muncie","area_code":765,"geo_score":0.905,"id":"a6hevbh6zkqz","geo_precision":"zip","state":"IN"},"type":"Feature","geometry":{"type":"Point","coordinates":[75.3833333,29.9833333]}},{"properties":{"city":"Muncie","area_code":765,"geo_score":0.905,"id":"a6hevbr8r2cy","geo_precision":"zip","state":"IN"},"type":"Feature","geometry":{"type":"Point","coordinates":[75.3833333,29.9833333]}},{"properties":{"city":"Muncie","area_code":765,"geo_score":0.905,"id":"a6hevbpniekk","geo_precision":"zip","state":"IN"},"type":"Feature","geometry":{"type":"Point","coordinates":[75.3833333,29.9833333]}},{"properties":{"city":"Muncie","area_code":765,"geo_score":0.905,"id":"a6hevbm7s7il","geo_precision":"zip","state":"IN"},"type":"Feature","geometry":{"type":"Point","coordinates":[75.3833333,29.9833333]}},{"properties":{"city":"Muncie","area_code":765,"geo_score":0.905,"id":"a6hevbgiljfk","geo_precision":"zip","state":"IN"},"type":"Feature","geometry":{"type":"Point","coordinates":[75.3833333,29.9833333]}},{"properties":{"city":"Muncie","area_code":765,"geo_score":0.905,"id":"a6hevbo7yvqv","geo_precision":"zip","state":"IN"},"type":"Feature","geometry":{"type":"Point","coordinates":[75.3833333,29.9833333]}},{"properties":{"city":"Muncie","area_code":765,"geo_score":0.905,"id":"a6hevbq2ty4k","geo_precision":"zip","state":"IN"},"type":"Feature","geometry":{"type":"Point","coordinates":[75.3833333,29.9833333]}},{"properties":{"city":"Muncie","area_code":765,"geo_score":0.905,"id":"a6hevbn5if5d","geo_precision":"zip","state":"IN"},"type":"Feature","geometry":{"type":"Point","coordinates":[75.3833333,29.9833333]}},{"properties":{"city":"Muncie","area_code":765,"geo_score":0.905,"id":"a6hevbtlc21h","geo_precision":"zip","state":"IN"},"type":"Feature","geometry":{"type":"Point","coordinates":[75.3833333,29.9833333]}},{"properties":{"city":"Muncie","area_code":765,"geo_score":0.905,"id":"a6hevbomf19a","geo_precision":"zip","state":"IN"},"type":"Feature","geometry":{"type":"Point","coordinates":[75.3833333,29.9833333]}},{"properties":{"city":"Muncie","area_code":765,"geo_score":0.905,"id":"a6hevbi8yn7c","geo_precision":"zip","state":"IN"},"type":"Feature","geometry":{"type":"Point","coordinates":[75.3833333,29.9833333]}},{"properties":{"city":"Muncie","area_code":765,"geo_score":0.905,"id":"a6hevbmk2zmt","geo_precision":"zip","state":"IN"},"type":"Feature","geometry":{"type":"Point","coordinates":[75.3833333,29.9833333]}},{"properties":{"city":"Muncie","area_code":765,"geo_score":0.905,"id":"a6hevbl1v3u2","geo_precision":"zip","state":"IN"},"type":"Feature","geometry":{"type":"Point","coordinates":[75.3833333,29.9833333]}},{"properties":{"city":"Bailey","area_code":769,"geo_score":0.0,"id":"a6hevboi3mez","geo_precision":"unmatched","state":"MS"},"type":"Feature","geometry":null},{"properties":{"city":"Bailey","area_code":769,"geo_score":0.0,"id":"a6hevbmmu0rv","geo_precision":"unmatched","state":"MS"},"type":"Feature","geometry":null},{"properties":{"city":"Bailey","area_code":769,"geo_score":0.0,"id":"a6hevbkuskds","geo_precision":"unmatched","state":"MS"},"type":"Feature","geometry":null},{"properties":{"city":"Bailey","area_code":769,"geo_score":0.0,"id":"a6hevbkxwlef","geo_precision":"unmatched","state":"MS"},"type":"Feature","geometry":null},{"properties":{"city":"Bailey","area_code":769,"geo_score":0.0,"id":"a6hevbtsjgvy","geo_precision":"unmatched","state":"MS"},"type":"Feature","geometry":null},{"properties":{"city":"Bailey","area_code":769,"geo_score":0.0,"id":"a6hevbstagie","geo_precision":"unmatched","state":"MS"},"type":"Feature","geometry":null},{"properties":{"city":"Bailey","area_code":769,"geo_score":0.0,"id":"a6hevbsb1bkx","geo_precision":"unmatched","state":"MS"},"type":"Feature","geometry":null},{"properties":{"city":"Bailey","area_code":769,"geo_score":0.0,"id":"a6hevbr9p32o","geo_precision":"unmatched","state":"MS"},"type":"Feature","geometry":null},{"properties":{"city":"Bailey","area_code":769,"geo_score":0.0,"id":"a6hevbfbtcjx","geo_precision":"unmatched","state":"MS"},"type":"Feature","geometry":null},{"properties":{"city":"Bailey","area_code":769,"geo_score":0.0,"id":"a6hevbr5bun5","geo_precision":"unmatched","state":"MS"},"type":"Feature","geometry":null},{"properties":{"city":"Bailey","area_code":769,"geo_score":0.0,"id":"a6hevbrff1a4","geo_precision":"unmatched","state":"MS"},"type":"Feature","geometry":null},{"properties":{"city":"Bailey","area_code":769,"geo_score":0.0,"id":"a6hevbouhxua","geo_precision":"unmatched","state":"MS"},"type":"Feature","geometry":null},{"properties":{"city":"Bailey","area_code":769,"geo_score":0.0,"id":"a6hevbgt2vna","geo_precision":"unmatched","state":"MS"},"type":"Feature","geometry":null},{"properties":{"city":"Bailey","area_code":769,"geo_score":0.0,"id":"a6hevbi9zrs6","geo_precision":"unmatched","state":"MS"},"type":"Feature","geometry":null},{"properties":{"city":"Bailey","area_code":769,"geo_score":0.0,"id":"a6hevbllz567","geo_precision":"unmatched","state":"MS"},"type":"Feature","geometry":null},{"properties":{"city":"Bailey","area_code":769,"geo_score":0.0,"id":"a6hevbhk7m7a","geo_precision":"unmatched","state":"MS"},"type":"Feature","geometry":null},{"properties":{"city":"Bailey","area_code":769,"geo_score":0.0,"id":"a6hevbt5a7oo","geo_precision":"unmatched","state":"MS"},"type":"Feature","geometry":null},{"properties":{"city":"Atlanta","area_code":770,"geo_score":0.0,"id":"a6hevbt8k8w9","geo_precision":"unmatched","state":"GA"},"type":"Feature","geometry":null},{"properties":{"city":"Atlanta","area_code":770,"geo_score":0.0,"id":"a6hevbhvwlxh","geo_precision":"unmatched","state":"GA"},"type":"Feature","geometry":null},{"properties":{"city":"Atlanta","area_code":770,"geo_score":0.0,"id":"a6hevbl7hb8p","geo_precision":"unmatched","state":"GA"},"type":"Feature","geometry":null},{"properties":{"city":"Atlanta","area_code":770,"geo_score":0.0,"id":"a6hevbrvjd28","geo_precision":"unmatched","state":"GA"},"type":"Feature","geometry":null},{"properties":{"city":"Atlanta","area_code":770,"geo_score":0.0,"id":"a6hevbov79h4","geo_precision":"unmatched","state":"GA"},"type":"Feature","geometry":null},{"properties":{"city":"Atlanta","area_code":770,"geo_score":0.0,"id":"a6hevbnp62vd","geo_precision":"unmatched","state":"GA"},"type":"Feature","geometry":null},{"properties":{"city":"Atlanta","area_code":770,"geo_score":0.0,"id":"a6hevbu0yh70","geo_precision":"unmatched","state":"GA"},"type":"Feature","geometry":null},{"properties":{"city":"Atlanta","area_code":770,"geo_score":0.0,"id":"a6hevbi1d8if","geo_precision":"unmatched","state":"GA"},"type":"Feature","geometry":null},{"properties":{"city":"Chicago","area_code":773,"geo_score":0.0,"id":"a6hevblvsvxi","geo_precision":"unmatched","state":"IL"},"type":"Feature","geometry":null},{"properties":{"city":"Chicago","area_code":773,"geo_score":0.0,"id":"a6hevblm6cwt","geo_precision":"unmatched","state":"IL"},"type":"Feature","geometry":null},{"properties":{"city":"Chicago","area_code":773,"geo_score":0.0,"id":"a6hevbj3cgqz","geo_precision":"unmatched","state":"IL"},"type":"Feature","geometry":null},{"properties":{"city":"Chicago","area_code":773,"geo_score":0.0,"id":"a6hevbpvv9cs","geo_precision":"unmatched","state":"IL"},"type":"Feature","geometry":null},{"properties":{"city":"Chicago","area_code":773,"geo_score":0.0,"id":"a6hevbrdirgz","geo_precision":"unmatched","state":"IL"},"type":"Feature","geometry":null},{"properties":{"city":"Chicago","area_code":773,"geo_score":0.0,"id":"a6hevbs4l1ly","geo_precision":"unmatched","state":"IL"},"type":"Feature","geometry":null},{"properties":{"city":"Chicago","area_code":773,"geo_score":0.0,"id":"a6hevbk9o5o9","geo_precision":"unmatched","state":"IL"},"type":"Feature","geometry":null},{"properties":{"city":"Chicago","area_code":773,"geo_score":0.0,"id":"a6hevbfciqnm","geo_precision":"unmatched","state":"IL"},"type":"Feature","geometry":null},{"properties":{"city":"Chicago","area_code":773,"geo_score":0.0,"id":"a6hevbkmnpyx","geo_precision":"unmatched","state":"IL"},"type":"Feature","geometry":null},{"properties":{"city":"Chicago","area_code":773,"geo_score":0.0,"id":"a6hevbo2opw4","geo_precision":"unmatched","state":"IL"},"type":"Feature","geometry":null},{"properties":{"city":"Northboro","area_code":774,"geo_score":0.0,"id":"a6hevbjk398r","geo_precision":"unmatched","state":"MA"},"type":"Feature","geometry":null},{"properties":{"city":"Reno","area_code":775,"geo_score":0.0,"id":"a6hevbnvua49","geo_precision":"unmatched","state":"NV"},"type":"Feature","geometry":null},{"properties":{"city":"Lynn","area_code":781,"geo_score":0.898,"id":"a6hevbkv9d1z","geo_precision":"zip","state":"MA"},"type":"Feature","geometry":{"type":"Point","coordinates":[-8.61,31.21]}},{"properties":{"city":"Lynn","area_code":781,"geo_score":0.898,"id":"a6hevbv2wetf","geo_precision":"zip","state":"MA"},"type":"Feature","geometry":{"type":"Point","coordinates":[-8.61,31.21]}},{"properties":{"city":"Topeka","area_code":785,"geo_score":0.0,"id":"a6hevbkvjdxl","geo_precision":"unmatched","state":"KS"},"type":"Feature","geometry":null},{"properties":{"city":"Miami","area_code":786,"geo_score":0.0,"id":"a6hevbo4p12k","geo_precision":"unmatched","state":"FL"},"type":"Feature","geometry":null},{"properties":{"city":"Columbia","area_code":803,"geo_score":0.0,"id":"a6hevbie49h4","geo_precision":"unmatched","state":"SC"},"type":"Feature","geometry":null},{"properties":{"city":"Columbia","area_code":803,"geo_score":0.0,"id":"a6hevbt0bwrt","geo_precision":"unmatched","state":"SC"},"type":"Feature","geometry":null},{"properties":{"city":"Columbia","area_code":803,"geo_score":0.0,"id":"a6hevboodizb","geo_precision":"unmatched","state":"SC"},"type":"Feature","geometry":null},{"properties":{"city":"Columbia","area_code":803,"geo_score":0.0,"id":"a6hevbsk3q57","geo_precision":"unmatched","state":"SC"},"type":"Feature","geometry":null},{"properties":{"city":"Columbia","area_code":803,"geo_score":0.0,"id":"a6hevbrr1lfe","geo_precision":"unmatched","state":"SC"},"type":"Feature","geometry":null},{"properties":{"city":"Columbia","area_code":803,"geo_score":0.0,"id":"a6hevbiwv2wo","geo_precision":"unmatched","state":"SC"},"type":"Feature","geometry":null},{"properties":{"city":"Columbia","area_code":803,"geo_score":0.0,"id":"a6hevbflepw9","geo_precision":"unmatched","state":"SC"},"type":"Feature","geometry":null},{"properties":{"city":"Columbia","area_code":803,"geo_score":0.0,"id":"a6hevbicmsey","geo_precision":"unmatched","state":"SC"},"type":"Feature","geometry":null},{"properties":{"city":"Columbia","area_code":803,"geo_score":0.0,"id":"a6hevbkwc0v3","geo_precision":"unmatched","state":"SC"},"type":"Feature","geometry":null},{"properties":{"city":"Columbia","area_code":803,"geo_score":0.0,"id":"a6hevbiw7skj","geo_precision":"unmatched","state":"SC"},"type":"Feature","geometry":null},{"properties":{"city":"Columbia","area_code":803,"geo_score":0.0,"id":"a6hevbmnn5f2","geo_precision":"unmatched","state":"SC"},"type":"Feature","geometry":null},{"properties":{"city":"Columbia","area_code":803,"geo_score":0.0,"id":"a6hevbg54g0a","geo_precision":"unmatched","state":"SC"},"type":"Feature","geometry":null},{"properties":{"city":"Columbia","area_code":803,"geo_score":0.0,"id":"a6hevbq2xz57","geo_precision":"unmatched","state":"SC"},"type":"Feature","geometry":null},{"properties":{"city":"Columbia","area_code":803,"geo_score":0.0,"id":"a6hevbo2736m","geo_precision":"unmatched","state":"SC"},"type":"Feature","geometry":null},{"properties":{"city":"Columbia","area_code":803,"geo_score":0.0,"id":"a6hevbuckw96","geo_precision":"unmatched","state":"SC"},"type":"Feature","geometry":null},{"properties":{"city":"Richmond","area_code":804,"geo_score":0.0,"id":"a6hevbpuok9c","geo_precision":"unmatched","state":"VA"},"type":"Feature","geometry":null},{"properties":{"city":"Richmond","area_code":804,"geo_score":0.0,"id":"a6hevbgjlbuo","geo_precision":"unmatched","state":"VA"},"type":"Feature","geometry":null},{"properties":{"city":"Richmond","area_code":804,"geo_score":0.0,"id":"a6hevbtf7vlr","geo_precision":"unmatched","state":"VA"},"type":"Feature","geometry":null},{"properties":{"city":"Richmond","area_code":804,"geo_score":0.0,"id":"a6hevbvaofya","geo_precision":"unmatched","state":"VA"},"type":"Feature","geometry":null},{"properties":{"city":"Santa Barbara","area_code":805,"geo_score":0.887,"id":"a6hevbhvt8sy","geo_precision":"zip","state":"CA"},"type":"Feature","geometry":{"type":"Point","coordinates":[-79.432961055,47.466854478]}},{"properties":{"city":"Lubbock","area_code":806,"geo_score":0.0,"id":"a6hevbm4xndp","geo_precision":"unmatched","state":"TX"},"type":"Feature","geometry":null},{"properties":{"city":"Lubbock","area_code":806,"geo_score":0.0,"id":"a6hevbi3p0br","geo_precision":"unmatched","state":"TX"},"type":"Feature","geometry":null},{"properties":{"city":"Lubbock","area_code":806,"geo_score":0.0,"id":"a6hevbfviaxt","geo_precision":"unmatched","state":"TX"},"type":"Feature","geometry":null},{"properties":{"city":"Honolulu","area_code":808,"geo_score":0.0,"id":"a6hevbjs2b5s","geo_precision":"unmatched","state":"HI"},"type":"Feature","geometry":null},{"properties":{"city":"Flint","area_code":810,"geo_score":0.0,"id":"a6hevbhq0e1n","geo_precision":"unmatched","state":"MI"},"type":"Feature","geometry":null},{"properties":{"city":"Flint","area_code":810,"geo_score":0.0,"id":"a6hevbiqrfbu","geo_precision":"unmatched","state":"MI"},"type":"Feature","geometry":null},{"properties":{"city":"Flint","area_code":810,"geo_score":0.0,"id":"a6hevbghykm5","geo_precision":"unmatched","state":"MI"},"type":"Feature","geometry":null},{"properties":{"city":"Tampa","area_code":813,"geo_score":0.0,"id":"a6hevbn58p47","geo_precision":"unmatched","state":"FL"},"type":"Feature","geometry":null},{"properties":{"city":"Tampa","area_code":813,"geo_score":0.0,"id":"a6hevbusbr5t","geo_precision":"unmatched","state":"FL"},"type":"Feature","geometry":null},{"properties":{"city":"Tampa","area_code":813,"geo_score":0.0,"id":"a6hevbjbqouu","geo_precision":"unmatched","state":"FL"},"type":"Feature","geometry":null},{"properties":{"city":"Tampa","area_code":813,"geo_score":0.0,"id":"a6hevbqncpm6","geo_precision":"unmatched","state":"FL"},"type":"Feature","geometry":null},{"properties":{"city":"Erie","area_code":814,"geo_score":0.0,"id":"a6hevbsqwsff","geo_precision":"unmatched","state":"PA"},"type":"Feature","geometry":null},{"properties":{"city":"Erie","area_code":814,"geo_score":0.0,"id":"a6hevbq9xdr6","geo_precision":"unmatched","state":"PA"},"type":"Feature","geometry":null},{"properties":{"city":"Erie","area_code":814,"geo_score":0.0,"id":"a6hevbiq55pi","geo_precision":"unmatched","state":"PA"},"type":"Feature","geometry":null},{"properties":{"city":"Erie","area_code":814,"geo_score":0.0,"id":"a6hevbnbpilz","geo_precision":"unmatched","state":"PA"},"type":"Feature","geometry":null},{"properties":{"city":"Erie","area_code":814,"geo_score":0.0,"id":"a6hevbnv0is5","geo_precision":"unmatched","state":"PA"},"type":"Feature","geometry":null},{"properties":{"city":"Rockford","area_code":815,"geo_score":0.0,"id":"a6hevbgb8903","geo_precision":"unmatched","state":"IL"},"type":"Feature","geometry":null},{"properties":{"city":"Kansas City","area_code":816,"geo_score":0.0,"id":"a6hevbixiedm","geo_precision":"unmatched","state":"MO"},"type":"Feature","geometry":null},{"properties":{"city":"Kansas City","area_code":816,"geo_score":0.0,"id":"a6hevbknfrog","geo_precision":"unmatched","state":"MO"},"type":"Feature","geometry":null},{"properties":{"city":"Kansas City","area_code":816,"geo_score":0.0,"id":"a6hevbjbe830","geo_precision":"unmatched","state":"MO"},"type":"Feature","geometry":null},{"properties":{"city":"Fort Worth","area_code":817,"geo_score":0.0,"id":"a6hevbnofzv0","geo_precision":"unmatched","state":"TX"},"type":"Feature","geometry":null},{"properties":{"city":"Fort Worth","area_code":817,"geo_score":0.0,"id":"a6hevbn4gv7q","geo_precision":"unmatched","state":"TX"},"type":"Feature","geometry":null},{"properties":{"city":"Fort Worth","area_code":817,"geo_score":0.0,"id":"a6hevbqwg1rk","geo_precision":"unmatched","state":"TX"},"type":"Feature","geometry":null},{"properties":{"city":"Fort Worth","area_code":817,"geo_score":0.0,"id":"a6hevbkdhmwi","geo_precision":"unmatched","state":"TX"},"type":"Feature","geometry":null},{"properties":{"city":"Fort Worth","area_code":817,"geo_score":0.0,"id":"a6hevbgw3ytl","geo_precision":"unmatched","state":"TX"},"type":"Feature","geometry":null},{"properties":{"city":"Asheville","area_code":828,"geo_score":0.0,"id":"a6hevbs6s3n1","geo_precision":"unmatched","state":"NC"},"type":"Feature","geometry":null},{"properties":{"city":"Asheville","area_code":828,"geo_score":0.0,"id":"a6hevbpqi195","geo_precision":"unmatched","state":"NC"},"type":"Feature","geometry":null},{"properties":{"city":"New Braunfels","area_code":830,"geo_score":0.0,"id":"a6hevbmjsckr","geo_precision":"unmatched","state":"TX"},"type":"Feature","geometry":null},{"properties":{"city":"New Braunfels","area_code":830,"geo_score":0.0,"id":"a6hevbi2qd8c","geo_precision":"unmatched","state":"TX"},"type":"Feature","geometry":null},{"properties":{"city":"New Braunfels","area_code":830,"geo_score":0.0,"id":"a6hevbpnt2q5","geo_precision":"unmatched","state":"TX"},"type":"Feature","geometry":null},{"properties":{"city":"New Braunfels","area_code":830,"geo_score":0.0,"id":"a6hevbrh12h6","geo_precision":"unmatched","state":"TX"},"type":"Feature","geometry":null},{"properties":{"city":"Houston","area_code":832,"geo_score":0.0,"id":"a6hevbo747hy","geo_precision":"unmatched","state":"TX"},"type":"Feature","geometry":null},{"properties":{"city":"Houston","area_code":832,"geo_score":0.0,"id":"a6hevbuwtmep","geo_precision":"unmatched","state":"TX"},"type":"Feature","geometry":null},{"properties":{"city":"Houston","area_code":832,"geo_score":0.0,"id":"a6hevbhyb9yq","geo_precision":"unmatched","state":"TX"},"type":"Feature","geometry":null},{"properties":{"city":"Houston","area_code":832,"geo_score":0.0,"id":"a6hevblhbm7w","geo_precision":"unmatched","state":"TX"},"type":"Feature","geometry":null},{"properties":{"city":"Charleston","area_code":843,"geo_score":0.0,"id":"a6hevbidt601","geo_precision":"unmatched","state":"SC"},"type":"Feature","geometry":null},{"properties":{"city":"Charleston","area_code":843,"geo_score":0.0,"id":"a6hevbsju8yk","geo_precision":"unmatched","state":"SC"},"type":"Feature","geometry":null},{"properties":{"city":"Charleston","area_code":843,"geo_score":0.0,"id":"a6hevbocofsz","geo_precision":"unmatched","state":"SC"},"type":"Feature","geometry":null},{"properties":{"city":"Charleston","area_code":843,"geo_score":0.0,"id":"a6hevbi7alu5","geo_precision":"unmatched","state":"SC"},"type":"Feature","geometry":null},{"properties":{"city":"Charleston","area_code":843,"geo_score":0.0,"id":"a6hevbocw5co","geo_precision":"unmatched","state":"SC"},"type":"Feature","geometry":null},{"properties":{"city":"Charleston","area_code":843,"geo_score":0.0,"id":"a6hevbht4q3e","geo_precision":"unmatched","state":"SC"},"type":"Feature","geometry":null},{"properties":{"city":"Arlington Hts","area_code":847,"geo_score":0.0,"id":"a6hevbqifam7","geo_precision":"unmatched","state":"IL"},"type":"Feature","geometry":null},{"properties":{"city":"Arlington Hts","area_code":847,"geo_score":0.0,"id":"a6hevbjknw6t","geo_precision":"unmatched","state":"IL"},"type":"Feature","geometry":null},{"properties":{"city":"Arlington Hts","area_code":847,"geo_score":0.0,"id":"a6hevbu7lbwp","geo_precision":"unmatched","state":"IL"},"type":"Feature","geometry":null},{"properties":{"city":"Arlington Hts","area_code":847,"geo_score":0.0,"id":"a6hevbloru68","geo_precision":"unmatched","state":"IL"},"type":"Feature","geometry":null},{"properties":{"city":"Tallahassee","area_code":850,"geo_score":0.0,"id":"a6hevbkx3uj0","geo_precision":"unmatched","state":"FL"},"type":"Feature","geometry":null},{"properties":{"city":"Moorestown","area_code":856,"geo_score":0.0,"id":"a6hevbjnexyo","geo_precision":"unmatched","state":"NJ"},"type":"Feature","geometry":null},{"properties":{"city":"Moorestown","area_code":856,"geo_score":0.0,"id":"a6hevbqrpzo5","geo_precision":"unmatched","state":"NJ"},"type":"Feature","geometry":null},{"properties":{"city":"Moorestown","area_code":856,"geo_score":0.0,"id":"a6hevbgta87c","geo_precision":"unmatched","state":"NJ"},"type":"Feature","geometry":null},{"properties":{"city":"Lexington","area_code":859,"geo_score":0.0,"id":"a6hevbhchs4v","geo_precision":"unmatched","state":"KY"},"type":"Feature","geometry":null},{"properties":{"city":"Hartford","area_code":860,"geo_score":0.0,"id":"a6hevblcrz3a","geo_precision":"unmatched","state":"CT"},"type":"Feature","geometry":null},{"properties":{"city":"Hartford","area_code":860,"geo_score":0.0,"id":"a6hevbmzlor0","geo_precision":"unmatched","state":"CT"},"type":"Feature","geometry":null},{"properties":{"city":"Hartford","area_code":860,"geo_score":0.0,"id":"a6hevbf0mgkq","geo_precision":"unmatched","state":"CT"},"type":"Feature","geometry":null},{"properties":{"city":"Greenville","area_code":864,"geo_score":0.0,"id":"a6hevbglpv70","geo_precision":"unmatched","state":"SC"},"type":"Feature","geometry":null},{"properties":{"city":"Greenville","area_code":864,"geo_score":0.0,"id":"a6hevbr5tmr2","geo_precision":"unmatched","state":"SC"},"type":"Feature","geometry":null},{"properties":{"city":"Greenville","area_code":864,"geo_score":0.0,"id":"a6hevbpo1yf7","geo_precision":"unmatched","state":"SC"},"type":"Feature","geometry":null},{"properties":{"city":"Greenville","area_code":864,"geo_score":0.0,"id":"a6hevbn4u7p9","geo_precision":"unmatched","state":"SC"},"type":"Feature","geometry":null},{"properties":{"city":"Greenville","area_code":864,"geo_score":0.0,"id":"a6hevbnt27nl","geo_precision":"unmatched","state":"SC"},"type":"Feature","geometry":null},{"properties":{"city":"Greenville","area_code":864,"geo_score":0.0,"id":"a6hevbo6xjtp","geo_precision":"unmatched","state":"SC"},"type":"Feature","geometry":null},{"properties":{"city":"Greenville","area_code":864,"geo_score":0.0,"id":"a6hevbl62gkk","geo_precision":"unmatched","state":"SC"},"type":"Feature","geometry":null},{"properties":{"city":"Knoxville","area_code":865,"geo_score":0.0,"id":"a6hevbqte666","geo_precision":"unmatched","state":"TN"},"type":"Feature","geometry":null},{"properties":{"city":"Knoxville","area_code":865,"geo_score":0.0,"id":"a6hevbrjl0kb","geo_precision":"unmatched","state":"TN"},"type":"Feature","geometry":null},{"properties":{"city":"Jonesboro","area_code":870,"geo_score":0.0,"id":"a6hevbgw1qcz","geo_precision":"unmatched","state":"AR"},"type":"Feature","geometry":null},{"properties":{"city":"Chicago","area_code":872,"geo_score":0.0,"id":"a6hevbq245ai","geo_precision":"unmatched","state":"IL"},"type":"Feature","geometry":null},{"properties":{"city":"Memphis","area_code":901,"geo_score":0.0,"id":"a6hevbsbc7kg","geo_precision":"unmatched","state":"TN"},"type":"Feature","geometry":null},{"properties":{"city":"Memphis","area_code":901,"geo_score":0.0,"id":"a6hevbgmoc6r","geo_precision":"unmatched","state":"TN"},"type":"Feature","geometry":null},{"properties":{"city":"Memphis","area_code":901,"geo_score":0.0,"id":"a6hevbpk0hh0","geo_precision":"unmatched","state":"TN"},"type":"Feature","geometry":null},{"properties":{"city":"Memphis","area_code":901,"geo_score":0.0,"id":"a6hevbghnouj","geo_precision":"unmatched","state":"TN"},"type":"Feature","geometry":null},{"properties":{"city":"Tyler","area_code":903,"geo_score":0.0,"id":"a6hevboljnkf","geo_precision":"unmatched","state":"TX"},"type":"Feature","geometry":null},{"properties":{"city":"Tyler","area_code":903,"geo_score":0.0,"id":"a6hevbsdhhbw","geo_precision":"unmatched","state":"TX"},"type":"Feature","geometry":null},{"properties":{"city":"Tyler","area_code":903,"geo_score":0.0,"id":"a6hevbsvoe0s","geo_precision":"unmatched","state":"TX"},"type":"Feature","geometry":null},{"properties":{"city":"Tyler","area_code":903,"geo_score":0.0,"id":"a6hevbpl8xk3","geo_precision":"unmatched","state":"TX"},"type":"Feature","geometry":null},{"properties":{"city":"Marquette","area_code":906,"geo_score":0.0,"id":"a6hevblfnd2j","geo_precision":"unmatched","state":"MI"},"type":"Feature","geometry":null},{"properties":{"city":"Marquette","area_code":906,"geo_score":0.0,"id":"a6hevbuvmgef","geo_precision":"unmatched","state":"MI"},"type":"Feature","geometry":null},{"properties":{"city":"Anchorage","area_code":907,"geo_score":0.0,"id":"a6hevbf2v97u","geo_precision":"unmatched","state":"AK"},"type":"Feature","geometry":null},{"properties":{"city":"Plainfield","area_code":908,"geo_score":0.0,"id":"a6hevbkfy15l","geo_precision":"unmatched","state":"NJ"},"type":"Feature","geometry":null},{"properties":{"city":"Plainfield","area_code":908,"geo_score":0.0,"id":"a6hevbna19vb","geo_precision":"unmatched","state":"NJ"},"type":"Feature","geometry":null},{"properties":{"city":"Plainfield","area_code":908,"geo_score":0.0,"id":"a6hevbnnhti3","geo_precision":"unmatched","state":"NJ"},"type":"Feature","geometry":null},{"properties":{"city":"Plainfield","area_code":908,"geo_score":0.0,"id":"a6hevblqmlyz","geo_precision":"unmatched","state":"NJ"},"type":"Feature","geometry":null},{"properties":{"city":"San Bernardino","area_code":909,"geo_score":0.923,"id":"a6hevbn6ppok","geo_precision":"zip","state":"CA"},"type":"Feature","geometry":{"type":"Point","coordinates":[-72.415794674,47.116758174]}},{"properties":{"city":"San Bernardino","area_code":909,"geo_score":0.923,"id":"a6hevbi5fb9y","geo_precision":"zip","state":"CA"},"type":"Feature","geometry":{"type":"Point","coordinates":[-72.415794674,47.116758174]}},{"properties":{"city":"San Bernardino","area_code":909,"geo_score":0.923,"id":"a6hevbqw1p0q","geo_precision":"zip","state":"CA"},"type":"Feature","geometry":{"type":"Point","coordinates":[-72.415794674,47.116758174]}},{"properties":{"city":"San Bernardino","area_code":909,"geo_score":0.923,"id":"a6hevbhmvtb5","geo_precision":"zip","state":"CA"},"type":"Feature","geometry":{"type":"Point","coordinates":[-72.415794674,47.116758174]}},{"properties":{"city":"Fayetteville","area_code":910,"geo_score":0.0,"id":"a6hevbiw3frg","geo_precision":"unmatched","state":"NC"},"type":"Feature","geometry":null},{"properties":{"city":"Fayetteville","area_code":910,"geo_score":0.0,"id":"a6hevbmkxx3v","geo_precision":"unmatched","state":"NC"},"type":"Feature","geometry":null},{"properties":{"city":"Fayetteville","area_code":910,"geo_score":0.0,"id":"a6hevbi6vzmb","geo_precision":"unmatched","state":"NC"},"type":"Feature","geometry":null},{"properties":{"city":"Fayetteville","area_code":910,"geo_score":0.0,"id":"a6hevblbj9kx","geo_precision":"unmatched","state":"NC"},"type":"Feature","geometry":null},{"properties":{"city":"Fayetteville","area_code":910,"geo_score":0.0,"id":"a6hevbj06wa8","geo_precision":"unmatched","state":"NC"},"type":"Feature","geometry":null},{"properties":{"city":"Fayetteville","area_code":910,"geo_score":0.0,"id":"a6hevbuno0s9","geo_precision":"unmatched","state":"NC"},"type":"Feature","geometry":null},{"properties":{"city":"Fayetteville","area_code":910,"geo_score":0.0,"id":"a6hevbo6n2cd","geo_precision":"unmatched","state":"NC"},"type":"Feature","geometry":null},{"properties":{"city":"Fayetteville","area_code":910,"geo_score":0.0,"id":"a6hevbjgr912","geo_precision":"unmatched","state":"NC"},"type":"Feature","geometry":null},{"properties":{"city":"Fayetteville","area_code":910,"geo_score":0.0,"id":"a6hevbsdf1nr","geo_precision":"unmatched","state":"NC"},"type":"Feature","geometry":null},{"properties":{"city":"Savannah","area_code":912,"geo_score":0.0,"id":"a6hevbky9kn8","geo_precision":"unmatched","state":"GA"},"type":"Feature","geometry":null},{"properties":{"city":"Savannah","area_code":912,"geo_score":0.0,"id":"a6hevblr3im7","geo_precision":"unmatched","state":"GA"},"type":"Feature","geometry":null},{"properties":{"city":"Savannah","area_code":912,"geo_score":0.0,"id":"a6hevbn6mi9j","geo_precision":"unmatched","state":"GA"},"type":"Feature","geometry":null},{"properties":{"city":"El Paso","area_code":915,"geo_score":0.0,"id":"a6hevbs1xska","geo_precision":"unmatched","state":"TX"},"type":"Feature","geometry":null},{"properties":{"city":"El Paso","area_code":915,"geo_score":0.0,"id":"a6hevbfnilux","geo_precision":"unmatched","state":"TX"},"type":"Feature","geometry":null},{"properties":{"city":"El Paso","area_code":915,"geo_score":0.0,"id":"a6hevbo6d7w1","geo_precision":"unmatched","state":"TX"},"type":"Feature","geometry":null},{"properties":{"city":"Sacramento","area_code":916,"geo_score":0.905,"id":"a6hevbked860","geo_precision":"zip","state":"CA"},"type":"Feature","geometry":{"type":"Point","coordinates":[-125.069765044,51.216393622]}},{"properties":{"city":"Sacramento","area_code":916,"geo_score":0.905,"id":"a6hevble8qcb","geo_precision":"zip","state":"CA"},"type":"Feature","geometry":{"type":"Point","coordinates":[-125.069765044,51.216393622]}},{"properties":{"city":"Sacramento","area_code":916,"geo_score":0.905,"id":"a6hevbra0lu8","geo_precision":"zip","state":"CA"},"type":"Feature","geometry":{"type":"Point","coordinates":[-125.069765044,51.216393622]}},{"properties":{"city":"Sacramento","area_code":916,"geo_score":0.905,"id":"a6hevbqf1mdl","geo_precision":"zip","state":"CA"},"type":"Feature","geometry":{"type":"Point","coordinates":[-125.069765044,51.216393622]}},{"properties":{"city":"Tulsa","area_code":918,"geo_score":0.0,"id":"a6hevbqg57iy","geo_precision":"unmatched","state":"OK"},"type":"Feature","geometry":null},{"properties":{"city":"Tulsa","area_code":918,"geo_score":0.0,"id":"a6hevbnsszm2","geo_precision":"unmatched","state":"OK"},"type":"Feature","geometry":null},{"properties":{"city":"Tulsa","area_code":918,"geo_score":0.0,"id":"a6hevbnkyalr","geo_precision":"unmatched","state":"OK"},"type":"Feature","geometry":null},{"properties":{"city":"Tulsa","area_code":918,"geo_score":0.0,"id":"a6hevbt6u6oy","geo_precision":"unmatched","state":"OK"},"type":"Feature","geometry":null},{"properties":{"city":"Tulsa","area_code":918,"geo_score":0.0,"id":"a6hevbrzwqk5","geo_precision":"unmatched","state":"OK"},"type":"Feature","geometry":null},{"properties":{"city":"Tulsa","area_code":918,"geo_score":0.0,"id":"a6hevbkbsx64","geo_precision":"unmatched","state":"OK"},"type":"Feature","geometry":null},{"properties":{"city":"Raleigh","area_code":919,"geo_score":0.0,"id":"a6hevbp38xa7","geo_precision":"unmatched","state":"NC"},"type":"Feature","geometry":null},{"properties":{"city":"Raleigh","area_code":919,"geo_score":0.0,"id":"a6hevbhhw84p","geo_precision":"unmatched","state":"NC"},"type":"Feature","geometry":null},{"properties":{"city":"Raleigh","area_code":919,"geo_score":0.0,"id":"a6hevbt1nk0h","geo_precision":"unmatched","state":"NC"},"type":"Feature","geometry":null},{"properties":{"city":"Raleigh","area_code":919,"geo_score":0.0,"id":"a6hevbivisqj","geo_precision":"unmatched","state":"NC"},"type":"Feature","geometry":null},{"properties":{"city":"Raleigh","area_code":919,"geo_score":0.0,"id":"a6hevbqg5j1o","geo_precision":"unmatched","state":"NC"},"type":"Feature","geometry":null},{"properties":{"city":"Raleigh","area_code":919,"geo_score":0.0,"id":"a6hevbi4vr6e","geo_precision":"unmatched","state":"NC"},"type":"Feature","geometry":null},{"properties":{"city":"Raleigh","area_code":919,"geo_score":0.0,"id":"a6hevbmy6mau","geo_precision":"unmatched","state":"NC"},"type":"Feature","geometry":null},{"properties":{"city":"Raleigh","area_code":919,"geo_score":0.0,"id":"a6hevbiiy6ev","geo_precision":"unmatched","state":"NC"},"type":"Feature","geometry":null},{"properties":{"city":"Raleigh","area_code":919,"geo_score":0.0,"id":"a6hevbixwe0l","geo_precision":"unmatched","state":"NC"},"type":"Feature","geometry":null},{"properties":{"city":"Raleigh","area_code":919,"geo_score":0.0,"id":"a6hevbos5p9b","geo_precision":"unmatched","state":"NC"},"type":"Feature","geometry":null},{"properties":{"city":"Green Bay","area_code":920,"geo_score":0.0,"id":"a6hevbu4udl3","geo_precision":"unmatched","state":"WI"},"type":"Feature","geometry":null},{"properties":{"city":"Green Bay","area_code":920,"geo_score":0.0,"id":"a6hevbgxmlb1","geo_precision":"unmatched","state":"WI"},"type":"Feature","geometry":null},{"properties":{"city":"Yuma","area_code":928,"geo_score":0.0,"id":"a6hevbno0x3s","geo_precision":"unmatched","state":"AZ"},"type":"Feature","geometry":null},{"properties":{"city":"Yuma","area_code":928,"geo_score":0.0,"id":"a6hevbm4q6rr","geo_precision":"unmatched","state":"AZ"},"type":"Feature","geometry":null},{"properties":{"city":"Yuma","area_code":928,"geo_score":0.0,"id":"a6hevbte4uqt","geo_precision":"unmatched","state":"AZ"},"type":"Feature","geometry":null},{"properties":{"city":"Clarksville","area_code":931,"geo_score":0.0,"id":"a6hevbh9rj5i","geo_precision":"unmatched","state":"TN"},"type":"Feature","geometry":null},{"properties":{"city":"Clarksville","area_code":931,"geo_score":0.0,"id":"a6hevbjdxoj4","geo_precision":"unmatched","state":"TN"},"type":"Feature","geometry":null},{"properties":{"city":"Clarksville","area_code":931,"geo_score":0.0,"id":"a6hevbm788ei","geo_precision":"unmatched","state":"TN"},"type":"Feature","geometry":null},{"properties":{"city":"Clarksville","area_code":931,"geo_score":0.0,"id":"a6hevblcdqku","geo_precision":"unmatched","state":"TN"},"type":"Feature","geometry":null},{"properties":{"city":"Conroe","area_code":936,"geo_score":0.0,"id":"a6hevbv1c7m9","geo_precision":"unmatched","state":"TX"},"type":"Feature","geometry":null},{"properties":{"city":"Conroe","area_code":936,"geo_score":0.0,"id":"a6hevbuk820l","geo_precision":"unmatched","state":"TX"},"type":"Feature","geometry":null},{"properties":{"city":"Dayton","area_code":937,"geo_score":0.0,"id":"a6hevbm9e4zj","geo_precision":"unmatched","state":"OH"},"type":"Feature","geometry":null},{"properties":{"city":"Dayton","area_code":937,"geo_score":0.0,"id":"a6hevbo9u72w","geo_precision":"unmatched","state":"OH"},"type":"Feature","geometry":null},{"properties":{"city":"Dayton","area_code":937,"geo_score":0.0,"id":"a6hevboug9tl","geo_precision":"unmatched","state":"OH"},"type":"Feature","geometry":null},{"properties":{"city":"Dayton","area_code":937,"geo_score":0.0,"id":"a6hevbog0q7g","geo_precision":"unmatched","state":"OH"},"type":"Feature","geometry":null},{"properties":{"city":"Dayton","area_code":937,"geo_score":0.0,"id":"a6hevbttiwkv","geo_precision":"unmatched","state":"OH"},"type":"Feature","geometry":null},{"properties":{"city":"Dayton","area_code":937,"geo_score":0.0,"id":"a6hevbhuewxi","geo_precision":"unmatched","state":"OH"},"type":"Feature","geometry":null},{"properties":{"city":"Dayton","area_code":937,"geo_score":0.0,"id":"a6hevbtvgdag","geo_precision":"unmatched","state":"OH"},"type":"Feature","geometry":null},{"properties":{"city":"Murrieta","area_code":951,"geo_score":0.946,"id":"a6hevbv7ogxc","geo_precision":"zip","state":"CA"},"type":"Feature","geometry":{"type":"Point","coordinates":[-120.794204554,50.112248552]}},{"properties":{"city":"Fort Lauderdale","area_code":954,"geo_score":0.0,"id":"a6hevbiffbly","geo_precision":"unmatched","state":"FL"},"type":"Feature","geometry":null},{"properties":{"city":"Fort Lauderdale","area_code":954,"geo_score":0.0,"id":"a6hevbnb0xh2","geo_precision":"unmatched","state":"FL"},"type":"Feature","geometry":null},{"properties":{"city":"Laredo","area_code":956,"geo_score":0.0,"id":"a6hevbsvl8eg","geo_precision":"unmatched","state":"TX"},"type":"Feature","geometry":null},{"properties":{"city":"Laredo","area_code":956,"geo_score":0.0,"id":"a6hevbimqmxn","geo_precision":"unmatched","state":"TX"},"type":"Feature","geometry":null},{"properties":{"city":"Laredo","area_code":956,"geo_score":0.0,"id":"a6hevbf78bna","geo_precision":"unmatched","state":"TX"},"type":"Feature","geometry":null},{"properties":{"city":"Laredo","area_code":956,"geo_score":0.0,"id":"a6hevbsgw7gm","geo_precision":"unmatched","state":"TX"},"type":"Feature","geometry":null},{"properties":{"city":"Laredo","area_code":956,"geo_score":0.0,"id":"a6hevbotfrpz","geo_precision":"unmatched","state":"TX"},"type":"Feature","geometry":null},{"properties":{"city":"Laredo","area_code":956,"geo_score":0.0,"id":"a6hevblfqpha","geo_precision":"unmatched","state":"TX"},"type":"Feature","geometry":null},{"properties":{"city":"Laredo","area_code":956,"geo_score":0.0,"id":"a6hevbmq6qpb","geo_precision":"unmatched","state":"TX"},"type":"Feature","geometry":null},{"properties":{"city":"Laredo","area_code":956,"geo_score":0.0,"id":"a6hevbtslz59","geo_precision":"unmatched","state":"TX"},"type":"Feature","geometry":null},{"properties":{"city":"Laredo","area_code":956,"geo_score":0.0,"id":"a6hevbjbj6hx","geo_precision":"unmatched","state":"TX"},"type":"Feature","geometry":null},{"properties":{"city":"Laredo","area_code":956,"geo_score":0.0,"id":"a6hevbgkc92g","geo_precision":"unmatched","state":"TX"},"type":"Feature","geometry":null},{"properties":{"city":"Laredo","area_code":956,"geo_score":0.0,"id":"a6hevbgjhjio","geo_precision":"unmatched","state":"TX"},"type":"Feature","geometry":null},{"properties":{"city":"Laredo","area_code":956,"geo_score":0.0,"id":"a6hevbkye9q3","geo_precision":"unmatched","state":"TX"},"type":"Feature","geometry":null},{"properties":{"city":"Laredo","area_code":956,"geo_score":0.0,"id":"a6hevbkzkm8v","geo_precision":"unmatched","state":"TX"},"type":"Feature","geometry":null},{"properties":{"city":"Laredo","area_code":956,"geo_score":0.0,"id":"a6hevbqhpgm3","geo_precision":"unmatched","state":"TX"},"type":"Feature","geometry":null},{"properties":{"city":"Laredo","area_code":956,"geo_score":0.0,"id":"a6hevbvdlcho","geo_precision":"unmatched","state":"TX"},"type":"Feature","geometry":null},{"properties":{"city":"Laredo","area_code":956,"geo_score":0.0,"id":"a6hevbk9gnwi","geo_precision":"unmatched","state":"TX"},"type":"Feature","geometry":null},{"properties":{"city":"Ft Collins","area_code":970,"geo_score":0.873,"id":"a6hevbl3csn5","geo_precision":"zip","state":"CO"},"type":"Feature","geometry":{"type":"Point","coordinates":[-74.525,4.4405556]}},{"properties":{"city":"Ft Collins","area_code":970,"geo_score":0.873,"id":"a6hevbh59ndd","geo_precision":"zip","state":"CO"},"type":"Feature","geometry":{"type":"Point","coordinates":[-74.525,4.4405556]}},{"properties":{"city":"Dallas","area_code":972,"geo_score":0.0,"id":"a6hevbsfgsdk","geo_precision":"unmatched","state":"TX"},"type":"Feature","geometry":null},{"properties":{"city":"Dallas","area_code":972,"geo_score":0.0,"id":"a6hevbqnp6lm","geo_precision":"unmatched","state":"TX"},"type":"Feature","geometry":null},{"properties":{"city":"Dallas","area_code":972,"geo_score":0.0,"id":"a6hevbk9ox6p","geo_precision":"unmatched","state":"TX"},"type":"Feature","geometry":null},{"properties":{"city":"Dallas","area_code":972,"geo_score":0.0,"id":"a6hevbnzvhhq","geo_precision":"unmatched","state":"TX"},"type":"Feature","geometry":null},{"properties":{"city":"Newark","area_code":973,"geo_score":0.0,"id":"a6hevbg3gtvv","geo_precision":"unmatched","state":"NJ"},"type":"Feature","geometry":null},{"properties":{"city":"Newark","area_code":973,"geo_score":0.0,"id":"a6hevboypoj6","geo_precision":"unmatched","state":"NJ"},"type":"Feature","geometry":null},{"properties":{"city":"Newark","area_code":973,"geo_score":0.0,"id":"a6hevbmaamxe","geo_precision":"unmatched","state":"NJ"},"type":"Feature","geometry":null},{"properties":{"city":"Lowell","area_code":978,"geo_score":0.0,"id":"a6hevbjoycy2","geo_precision":"unmatched","state":"MA"},"type":"Feature","geometry":null},{"properties":{"city":"Lowell","area_code":978,"geo_score":0.0,"id":"a6hevbub6mmk","geo_precision":"unmatched","state":"MA"},"type":"Feature","geometry":null},{"properties":{"city":"Lowell","area_code":978,"geo_score":0.0,"id":"a6hevbie9crv","geo_precision":"unmatched","state":"MA"},"type":"Feature","geometry":null},{"properties":{"city":"Bryan","area_code":979,"geo_score":0.0,"id":"a6hevbs5qqyj","geo_precision":"unmatched","state":"TX"},"type":"Feature","geometry":null},{"properties":{"city":"Bryan","area_code":979,"geo_score":0.0,"id":"a6hevbo76f13","geo_precision":"unmatched","state":"TX"},"type":"Feature","geometry":null},{"properties":{"city":"Charlotte","area_code":980,"geo_score":0.0,"id":"a6hevbuutgck","geo_precision":"unmatched","state":"NC"},"type":"Feature","geometry":null},{"properties":{"city":"Charlotte","area_code":980,"geo_score":0.0,"id":"a6hevbnz350k","geo_precision":"unmatched","state":"NC"},"type":"Feature","geometry":null},{"properties":{"city":"Houma","area_code":985,"geo_score":0.937,"id":"a6hevbja0lno","geo_precision":"zip","state":"LA"},"type":"Feature","geometry":{"type":"Point","coordinates":[103.7833333,18.4]}},{"properties":{"city":"Houma","area_code":985,"geo_score":0.937,"id":"a6hevbisyueu","geo_precision":"zip","state":"LA"},"type":"Feature","geometry":{"type":"Point","coordinates":[103.7833333,18.4]}},{"properties":{"city":"Houma","area_code":985,"geo_score":0.937,"id":"a6hevbi4o879","geo_precision":"zip","state":"LA"},"type":"Feature","geometry":{"type":"Point","coordinates":[103.7833333,18.4]}},{"properties":{"city":"Saginaw","area_code":989,"geo_score":0.0,"id":"a6hevbli11wz","geo_precision":"unmatched","state":"MI"},"type":"Feature","geometry":null},{"properties":{"city":"Saginaw","area_code":989,"geo_score":0.0,"id":"a6hevbhyd3ll","geo_precision":"unmatched","state":"MI"},"type":"Feature","geometry":null},{"properties":{"city":"Saginaw","area_code":989,"geo_score":0.0,"id":"a6hevbu06xfc","geo_precision":"unmatched","state":"MI"},"type":"Feature","geometry":null},{"properties":{"city":"Saginaw","area_code":989,"geo_score":0.0,"id":"a6hevbgtxw5l","geo_precision":"unmatched","state":"MI"},"type":"Feature","geometry":null}],"is_temporal":false,"author":{"url":null,"metadata":null,"contact_name":null,"contact_address":null,"source":null,"contact_phone":null},"source":null,"pagination":{"sort":null,"start":0,"total":986,"limit":1000000},"state":"complete","tags":"","published":"2014-08-15T00:00:05-04:00","id":215865}