{"type":"FeatureCollection","data_type":"Dataset","url_type":null,"permissions":[{"permissions":{"download":true,"view":true},"group_id":"everyone"}],"classification":null,"title":"TWC Heat Map 031912","count":22,"stream_id":217165,"contributor":{"url":"http://geocommons.com/users/39387","name":"joshwgnr"},"data_attributes":null,"calculation_params":null,"icon_link":null,"link":"http://geocommons.com/overlays/217165.json","extent":[-119.358,27.8006,-68.8789,45.0617],"geometry_types":["point"],"unique_name":null,"name":"TWC Heat Map 031912","feature_count":22,"description":"","next_feature":null,"is_raster":false,"short_classification":"Y","stats":{"quantity":{"max":241,"mean":48.5,"variance":5066.45238095238,"stdev":71.179016437096,"min":1,"median":13}},"features":[{"properties":{"city":"LOS ANGELES","geo_score":0.857,"quantity":241,"id":"a63znea6vg12","geo_precision":"city","state":"CA"},"type":"Feature","geometry":{"type":"Point","coordinates":[-118.243685,34.052234]}},{"properties":{"city":"DALLAS","geo_score":0.857,"quantity":179,"id":"a63znec4e8s4","geo_precision":"city","state":"TX"},"type":"Feature","geometry":{"type":"Point","coordinates":[-96.806667,32.783056]}},{"properties":{"city":"ANAHEIM","geo_score":0.857,"quantity":172,"id":"a63znecudpgt","geo_precision":"city","state":"CA"},"type":"Feature","geometry":{"type":"Point","coordinates":[-117.914504,33.835293]}},{"properties":{"city":"COLUMBUS","geo_score":0.776,"quantity":165,"id":"a63znehrqho1","geo_precision":"city","state":"OH"},"type":"Feature","geometry":{"type":"Point","coordinates":[-82.695724,39.998397]}},{"properties":{"city":"CORONA","geo_score":0.857,"quantity":50,"id":"a63znektwwa2","geo_precision":"city","state":"CA"},"type":"Feature","geometry":{"type":"Point","coordinates":[-116.055617,33.752886]}},{"properties":{"city":"BANGOR","geo_score":0.857,"quantity":46,"id":"a63zneg1scd1","geo_precision":"city","state":"ME"},"type":"Feature","geometry":{"type":"Point","coordinates":[-68.878893,45.061744]}},{"properties":{"city":"HEMET","geo_score":0.857,"quantity":43,"id":"a63znece1e87","geo_precision":"city","state":"CA"},"type":"Feature","geometry":{"type":"Point","coordinates":[-116.777014,33.651652]}},{"properties":{"city":"PALMDALE","geo_score":0.857,"quantity":38,"id":"a63znecltzmk","geo_precision":"city","state":"CA"},"type":"Feature","geometry":{"type":"Point","coordinates":[-118.298662,33.786594]}},{"properties":{"city":"VENTURA","geo_score":0.857,"quantity":23,"id":"a63zne9gtsqk","geo_precision":"city","state":"CA"},"type":"Feature","geometry":{"type":"Point","coordinates":[-119.358352,34.330829]}},{"properties":{"city":"VAN NUYS","geo_score":0.755,"quantity":13,"id":"a63zneiurchn","geo_precision":"city","state":"CA"},"type":"Feature","geometry":{"type":"Point","coordinates":[-118.460079,33.990845]}},{"properties":{"city":"CHARLOTTE","geo_score":0.857,"quantity":13,"id":"a63zneg1wbuu","geo_precision":"city","state":"NC"},"type":"Feature","geometry":{"type":"Point","coordinates":[-80.843127,35.227087]}},{"properties":{"city":"CARLSBAD","geo_score":0.857,"quantity":11,"id":"a63znek9t9wk","geo_precision":"city","state":"CA"},"type":"Feature","geometry":{"type":"Point","coordinates":[-116.846046,33.016928]}},{"properties":{"city":"BROOMFIELD","geo_score":0.857,"quantity":6,"id":"a63znembfglf","geo_precision":"city","state":"CO"},"type":"Feature","geometry":{"type":"Point","coordinates":[-105.08665,39.920541]}},{"properties":{"city":"PORTLAND","geo_score":0.857,"quantity":6,"id":"a63zneggrp0j","geo_precision":"city","state":"ME"},"type":"Feature","geometry":{"type":"Point","coordinates":[-70.255326,43.661471]}},{"properties":{"city":"KERRVILLE","geo_score":0.825,"quantity":4,"id":"a63zneiq1qtq","geo_precision":"city","state":"TX"},"type":"Feature","geometry":{"type":"Point","coordinates":[-95.585498,30.012165]}},{"properties":{"city":"CORPUS CHRISTI","geo_score":0.857,"quantity":3,"id":"a63znefummkc","geo_precision":"city","state":"TX"},"type":"Feature","geometry":{"type":"Point","coordinates":[-97.396381,27.800583]}},{"properties":{"city":"NEW YORK","geo_score":0.857,"quantity":47,"id":"a63znebgxeer","geo_precision":"city","state":"NY"},"type":"Feature","geometry":{"type":"Point","coordinates":[-74.005973,40.714269]}},{"properties":{"city":"LIMA","geo_score":0.857,"quantity":2,"id":"a63zneifx051","geo_precision":"city","state":"OH"},"type":"Feature","geometry":{"type":"Point","coordinates":[-84.105226,40.742551]}},{"properties":{"city":"WEST COLUMBIA","geo_score":0.81,"quantity":2,"id":"a63znegrb421","geo_precision":"city","state":"SC"},"type":"Feature","geometry":{"type":"Point","coordinates":[-81.024864,33.987454]}},{"properties":{"city":"SAN DIEGO","geo_score":0.857,"quantity":1,"id":"a63zned4ud9m","geo_precision":"city","state":"CA"},"type":"Feature","geometry":{"type":"Point","coordinates":[-117.157255,32.715329]}},{"properties":{"city":"CENTENNIAL","geo_score":0.857,"quantity":1,"id":"a63znemdimi8","geo_precision":"city","state":"CO"},"type":"Feature","geometry":{"type":"Point","coordinates":[-104.876923,39.579155]}},{"properties":{"city":"RICHMOND","geo_score":0.857,"quantity":1,"id":"a63znemadbre","geo_precision":"city","state":"KY"},"type":"Feature","geometry":{"type":"Point","coordinates":[-84.296913,37.764867]}}],"is_temporal":false,"author":{"url":"","metadata":"","contact_name":"","contact_address":"","source":"","contact_phone":""},"source":"","pagination":{"sort":null,"start":0,"total":22,"limit":1000000},"state":"complete","tags":"","published":"2014-08-15T01:58:56-04:00","id":217165}