{"type":"FeatureCollection","data_type":"Dataset","url_type":null,"permissions":[{"permissions":{"download":true,"view":true},"group_id":"everyone"}],"classification":null,"title":"GEO","count":80,"stream_id":217565,"contributor":{"url":"http://geocommons.com/users/42275","name":"mrednor@deloitte.com"},"data_attributes":null,"calculation_params":null,"icon_link":null,"link":"http://geocommons.com/overlays/217565.json","extent":[-116.203,0.0,102.796,47.2469],"geometry_types":["point"],"unique_name":null,"name":"GEO","feature_count":80,"description":"","next_feature":null,"is_raster":false,"short_classification":"Y","stats":{"accuracy":{"max":9,"mean":7.5,"variance":5.94871794871795,"stdev":2.43899937448084,"min":0,"median":8},"lat":{"max":47.2468563,"mean":34.42348219,"variance":140.9397089026,"stdev":11.8718031024188,"min":0.0,"median":38.8826375},"long":{"max":102.7957221,"mean":-67.35069107,"variance":2182.58615720296,"stdev":46.7181566117816,"min":-116.2032402,"median":-80.1226706}},"features":[{"properties":{"city":"Albany","zip":"Albany, NY 12207","phone num":null,"accuracy":8,"full address":null,"web address":"http://maps.google.com/maps/geo?output=csv&amp;q=","id":"a6j94qfzibyn","lat":42.650761,"address":"39 N. Pearl St., 3rd Floor","long":-73.75148,"http status":"200[1]"},"type":"Feature","geometry":{"type":"Point","coordinates":[-73.75148,42.650761]}},{"properties":{"city":"Alexandria (Practice)","zip":"Alexandria, VA 22314-3456","phone num":null,"accuracy":8,"full address":null,"web address":"http://maps.google.com/maps/geo?output=csv&amp;q=","id":"a6j94qqmdvlq","lat":38.804778,"address":"1725 Duke St.","long":-77.060706,"http status":"200[2]"},"type":"Feature","geometry":{"type":"Point","coordinates":[-77.060706,38.804778]}},{"properties":{"city":"Ann Arbor","zip":"Ann Arbor, MI 48104-1411","phone num":null,"accuracy":8,"full address":null,"web address":"http://maps.google.com/maps/geo?output=csv&amp;q=","id":"a6j94qp4lpdk","lat":42.2814578,"address":"101 N. Main St., 6th Floor","long":-83.7485311,"http status":"200[3]"},"type":"Feature","geometry":{"type":"Point","coordinates":[-83.7485311,42.2814578]}},{"properties":{"city":"Annapolis Junction (Specialty Office/SCIF)","zip":"Annapolis Junction, MD 20701-1013","phone num":null,"accuracy":8,"full address":null,"web address":"http://maps.google.com/maps/geo?output=csv&amp;q=","id":"a6j94qgnu9se","lat":39.12515,"address":"135 National Business Parkway","long":-76.774027,"http status":"200[4]"},"type":"Feature","geometry":{"type":"Point","coordinates":[-76.774027,39.12515]}},{"properties":{"city":"Arlington – Crystal City (Specialty Office/SCIF)","zip":"Arlington, VA 22202","phone num":null,"accuracy":8,"full address":null,"web address":"http://maps.google.com/maps/geo?output=csv&amp;q=","id":"a6j94qqrvkpu","lat":38.860855,"address":"1421 Jefferson Davis Hwy","long":-77.050778,"http status":"200[5]"},"type":"Feature","geometry":{"type":"Point","coordinates":[-77.050778,38.860855]}},{"properties":{"city":null,"zip":null,"phone num":null,"accuracy":6,"full address":null,"web address":"http://maps.google.com/maps/geo?output=csv&amp;q=","id":"a6j94qh1woix","lat":35.0228249,"address":"3rd Floor","long":-93.0455858,"http status":"200[6]"},"type":"Feature","geometry":{"type":"Point","coordinates":[-93.0455858,35.0228249]}},{"properties":{"city":"Arlington – Federal Specialty Office/SCIF","zip":"Arlington, VA 22203-1633","phone num":null,"accuracy":9,"full address":null,"web address":"http://maps.google.com/maps/geo?output=csv&amp;q=","id":"a6j94qhqd68e","lat":38.8826375,"address":"4301 N. Fairfax Dr., Ste. 210","long":-77.1131629,"http status":"200[7]"},"type":"Feature","geometry":{"type":"Point","coordinates":[-77.1131629,38.8826375]}},{"properties":{"city":"Arlington (QWEST) Project Office","zip":"Arlington, VA 22203-1665","phone num":null,"accuracy":8,"full address":null,"web address":"http://maps.google.com/maps/geo?output=csv&amp;q=","id":"a6j94qdwpkx3","lat":38.8818731,"address":"4250 N. Fairfax Dr.","long":-77.1122388,"http status":"200[8]"},"type":"Feature","geometry":{"type":"Point","coordinates":[-77.1122388,38.8818731]}},{"properties":{"city":"Atlanta - 191","zip":"Atlanta, GA 30303-1943","phone num":null,"accuracy":9,"full address":null,"web address":"http://maps.google.com/maps/geo?output=csv&amp;q=","id":"a6j94qnlmi0r","lat":33.758922,"address":"191 Peachtree Street NE, Suite 2000","long":-84.38711,"http status":"200[9]"},"type":"Feature","geometry":{"type":"Point","coordinates":[-84.38711,33.758922]}},{"properties":{"city":"Austin","zip":"Austin, TX 78701-1648","phone num":null,"accuracy":9,"full address":null,"web address":"http://maps.google.com/maps/geo?output=csv&amp;q=","id":"a6j94qfc4typ","lat":30.2780562,"address":"400 W. 15th St., Ste. 1700","long":-97.7430822,"http status":"200[10]"},"type":"Feature","geometry":{"type":"Point","coordinates":[-97.7430822,30.2780562]}},{"properties":{"city":"Baltimore","zip":"Baltimore, MD 21201-2713","phone num":null,"accuracy":8,"full address":null,"web address":"http://maps.google.com/maps/geo?output=csv&amp;q=","id":"a6j94qfkdptl","lat":39.287184,"address":"100 S. Charles St., 12th Floor","long":-76.615605,"http status":"200[11]"},"type":"Feature","geometry":{"type":"Point","coordinates":[-76.615605,39.287184]}},{"properties":{"city":"Bengaluru","zip":"Bengaluru South Taluk","phone num":null,"accuracy":0,"full address":null,"web address":"http://maps.google.com/maps/geo?output=csv&amp;q=","id":"a6j94qge1axv","lat":0.0,"address":"Salarpuria Supreme","long":0.0,"http status":"602[12]"},"type":"Feature","geometry":{"type":"Point","coordinates":[0.0,0.0]}},{"properties":{"city":null,"zip":"Pin- 560037","phone num":null,"accuracy":6,"full address":null,"web address":"http://maps.google.com/maps/geo?output=csv&amp;q=","id":"a6j94qlewrs2","lat":17.4359272,"address":"2nd/3rd Floor,","long":102.7957221,"http status":"200[13]"},"type":"Feature","geometry":{"type":"Point","coordinates":[102.7957221,17.4359272]}},{"properties":{"city":null,"zip":null,"phone num":null,"accuracy":0,"full address":null,"web address":"http://maps.google.com/maps/geo?output=csv&amp;q=","id":"a6j94qm9ezim","lat":0.0,"address":"No. 92/5, Munekolalu Village, Varthur Hobli,","long":0.0,"http status":"602[14]"},"type":"Feature","geometry":{"type":"Point","coordinates":[0.0,0.0]}},{"properties":{"city":null,"zip":null,"phone num":null,"accuracy":7,"full address":null,"web address":"http://maps.google.com/maps/geo?output=csv&amp;q=","id":"a6j94qh6kn37","lat":12.9531361,"address":"Outer Ring Road, Near Marathalli Junction","long":77.7001995,"http status":"200[15]"},"type":"Feature","geometry":{"type":"Point","coordinates":[77.7001995,12.9531361]}},{"properties":{"city":null,"zip":null,"phone num":null,"accuracy":0,"full address":null,"web address":"http://maps.google.com/maps/geo?output=csv&amp;q=","id":"a6j94qiq6qpi","lat":0.0,"address":null,"long":0.0,"http status":"602[16]"},"type":"Feature","geometry":{"type":"Point","coordinates":[0.0,0.0]}},{"properties":{"city":"Birmingham","zip":"Birmingham, AL 35203-3289","phone num":null,"accuracy":9,"full address":null,"web address":"http://maps.google.com/maps/geo?output=csv&amp;q=","id":"a6j94ql78d7g","lat":33.5177945,"address":"420 N. 20th St., Ste. 2400","long":-86.8081612,"http status":"200[17]"},"type":"Feature","geometry":{"type":"Point","coordinates":[-86.8081612,33.5177945]}},{"properties":{"city":"Boca Raton","zip":"Boca Raton, FL 33431","phone num":null,"accuracy":9,"full address":null,"web address":"http://maps.google.com/maps/geo?output=csv&amp;q=","id":"a6j94qpfrrel","lat":26.3644605,"address":"1800 N. Military Trail, Ste. 200","long":-80.1226706,"http status":"200[18]"},"type":"Feature","geometry":{"type":"Point","coordinates":[-80.1226706,26.3644605]}},{"properties":{"city":"Boise","zip":"Boise, ID 83702-7734","phone num":null,"accuracy":9,"full address":null,"web address":"http://maps.google.com/maps/geo?output=csv&amp;q=","id":"a6j94qgjua9r","lat":43.6149588,"address":"101 S. Capitol Blvd., Ste. 1700","long":-116.2032402,"http status":"200[19]"},"type":"Feature","geometry":{"type":"Point","coordinates":[-116.2032402,43.6149588]}},{"properties":{"city":"Boston - Berkeley","zip":"Boston, MA 02116","phone num":null,"accuracy":8,"full address":null,"web address":"http://maps.google.com/maps/geo?output=csv&amp;q=","id":"a6j94qlhifq8","lat":42.349759,"address":"200 Berkeley St., 7th Floor","long":-71.072595,"http status":"200[20]"},"type":"Feature","geometry":{"type":"Point","coordinates":[-71.072595,42.349759]}},{"properties":{"city":"Camp Hill","zip":"Camp Hill, PA 17011","phone num":null,"accuracy":9,"full address":null,"web address":"http://maps.google.com/maps/geo?output=csv&amp;q=","id":"a6j94qpkrv3d","lat":40.261525,"address":"300 Corporate Center Dr., Ste. 601","long":-76.923928,"http status":"200[21]"},"type":"Feature","geometry":{"type":"Point","coordinates":[-76.923928,40.261525]}},{"properties":{"city":"Cedar Rapids","zip":"Cedar Rapids, IA 52411","phone num":null,"accuracy":9,"full address":null,"web address":"http://maps.google.com/maps/geo?output=csv&amp;q=","id":"a6j94qrvk5tv","lat":42.029265,"address":"4840 North River Blvd., N.E., Ste. 400","long":-91.708241,"http status":"200[22]"},"type":"Feature","geometry":{"type":"Point","coordinates":[-91.708241,42.029265]}},{"properties":{"city":"Chantilly (Drop-in)","zip":"Chantilly, VA 20151","phone num":null,"accuracy":8,"full address":null,"web address":"http://maps.google.com/maps/geo?output=csv&amp;q=","id":"a6j94qm3ciu9","lat":38.875307,"address":"15000 Conference Center Dr.","long":-77.46541,"http status":"200[23]"},"type":"Feature","geometry":{"type":"Point","coordinates":[-77.46541,38.875307]}},{"properties":{"city":"Charlotte","zip":"Charlotte, NC 28202","phone num":null,"accuracy":9,"full address":null,"web address":"http://maps.google.com/maps/geo?output=csv&amp;q=","id":"a6j94qiv2b5w","lat":35.2236923,"address":"550 S. Tryon Street, Suite 2500","long":-80.8484907,"http status":"200[24]"},"type":"Feature","geometry":{"type":"Point","coordinates":[-80.8484907,35.2236923]}},{"properties":{"city":"Chicago","zip":"Chicago, IL 60606-4301","phone num":null,"accuracy":8,"full address":null,"web address":"http://maps.google.com/maps/geo?output=csv&amp;q=","id":"a6j94qhimzuc","lat":41.8805212,"address":"111 S Wacker Dr., 24th Floor","long":-87.6366133,"http status":"200[25]"},"type":"Feature","geometry":{"type":"Point","coordinates":[-87.6366133,41.8805212]}},{"properties":{"city":"Cincinnati","zip":"Cincinnati, OH 45202-5109","phone num":null,"accuracy":9,"full address":null,"web address":"http://maps.google.com/maps/geo?output=csv&amp;q=","id":"a6j94qc8n8be","lat":39.101883,"address":"250 E. 5th St., Ste. 1900","long":-84.508317,"http status":"200[26]"},"type":"Feature","geometry":{"type":"Point","coordinates":[-84.508317,39.101883]}},{"properties":{"city":"Cleveland","zip":"Cleveland, OH 44114-1291","phone num":null,"accuracy":9,"full address":null,"web address":"http://maps.google.com/maps/geo?output=csv&amp;q=","id":"a6j94qep0f2n","lat":41.5008227,"address":"127 Public Square, Ste. 3300","long":-81.6936549,"http status":"200[27]"},"type":"Feature","geometry":{"type":"Point","coordinates":[-81.6936549,41.5008227]}},{"properties":{"city":"Columbus","zip":"Columbus, OH 43215-3611","phone num":null,"accuracy":8,"full address":null,"web address":"http://maps.google.com/maps/geo?output=csv&amp;q=","id":"a6j94qe7bqnf","lat":39.962932,"address":"180 East Broad St., 14th Floor","long":-82.995819,"http status":"200[28]"},"type":"Feature","geometry":{"type":"Point","coordinates":[-82.995819,39.962932]}},{"properties":{"city":"Dallas - Ross","zip":"Dallas, TX 75201","phone num":null,"accuracy":9,"full address":null,"web address":"http://maps.google.com/maps/geo?output=csv&amp;q=","id":"a6j94qfqft0v","lat":32.7880863,"address":"2200 Ross Ave., Ste. 1600","long":-96.7968035,"http status":"200[29]"},"type":"Feature","geometry":{"type":"Point","coordinates":[-96.7968035,32.7880863]}},{"properties":{"city":"Davenport","zip":"Davenport, IA 52807-3171","phone num":null,"accuracy":9,"full address":null,"web address":"http://maps.google.com/maps/geo?output=csv&amp;q=","id":"a6j94qg94jom","lat":41.575747,"address":"4550 East 53rd Street, Suite 110","long":-90.505712,"http status":"200[30]"},"type":"Feature","geometry":{"type":"Point","coordinates":[-90.505712,41.575747]}},{"properties":{"city":"Dayton","zip":"Dayton, OH 45402","phone num":null,"accuracy":9,"full address":null,"web address":"http://maps.google.com/maps/geo?output=csv&amp;q=","id":"a6j94qcrp9hf","lat":39.764135,"address":"220 E. Monument Avenue, Suite 500","long":-84.188261,"http status":"200[31]"},"type":"Feature","geometry":{"type":"Point","coordinates":[-84.188261,39.764135]}},{"properties":{"city":"Deloitte University","zip":"Westlake, TX 76262","phone num":null,"accuracy":4,"full address":null,"web address":"http://maps.google.com/maps/geo?output=csv&amp;q=","id":"a6j94qnh1ktq","lat":32.991235,"address":"One Deloitte Way","long":-97.1950138,"http status":"200[32]"},"type":"Feature","geometry":{"type":"Point","coordinates":[-97.1950138,32.991235]}},{"properties":{"city":"Denver","zip":"Denver, CO 80202-3942","phone num":null,"accuracy":9,"full address":null,"web address":"http://maps.google.com/maps/geo?output=csv&amp;q=","id":"a6j94qlcnc7t","lat":39.745208,"address":"555 17th St., Ste. 3600","long":-104.98956,"http status":"200[33]"},"type":"Feature","geometry":{"type":"Point","coordinates":[-104.98956,39.745208]}},{"properties":{"city":"Des Moines","zip":"Des Moines, IA 50309","phone num":null,"accuracy":8,"full address":null,"web address":"http://maps.google.com/maps/geo?output=csv&amp;q=","id":"a6j94qnxkrd0","lat":41.5862258,"address":"699 Walnut Street","long":-93.6237385,"http status":"200[34]"},"type":"Feature","geometry":{"type":"Point","coordinates":[-93.6237385,41.5862258]}},{"properties":{"city":null,"zip":null,"phone num":null,"accuracy":6,"full address":null,"web address":"http://maps.google.com/maps/geo?output=csv&amp;q=","id":"a6j94qmf7kny","lat":35.2216078,"address":"Suite 1800","long":-80.0885375,"http status":"200[35]"},"type":"Feature","geometry":{"type":"Point","coordinates":[-80.0885375,35.2216078]}},{"properties":{"city":"Detroit","zip":"Detroit, MI 48243-1300","phone num":null,"accuracy":9,"full address":null,"web address":"http://maps.google.com/maps/geo?output=csv&amp;q=","id":"a6j94qctt94b","lat":42.3295721,"address":"Suite 3900, 200 Renaissance Center","long":-83.0392115,"http status":"200[36]"},"type":"Feature","geometry":{"type":"Point","coordinates":[-83.0392115,42.3295721]}},{"properties":{"city":"Elkridge (Project Office)","zip":"Elkridge, MD 21075","phone num":null,"accuracy":8,"full address":null,"web address":"http://maps.google.com/maps/geo?output=csv&amp;q=","id":"a6j94qi7d75l","lat":39.1850756,"address":"6810 Deerpath Road","long":-76.7528057,"http status":"200[37]"},"type":"Feature","geometry":{"type":"Point","coordinates":[-76.7528057,39.1850756]}},{"properties":{"city":null,"zip":null,"phone num":null,"accuracy":6,"full address":null,"web address":"http://maps.google.com/maps/geo?output=csv&amp;q=","id":"a6j94qiy2i5x","lat":47.2468563,"address":"Suite 405","long":19.4938266,"http status":"200[38]"},"type":"Feature","geometry":{"type":"Point","coordinates":[19.4938266,47.2468563]}},{"properties":{"city":"Falls Church (Project Office )","zip":"Falls Church, VA 22041","phone num":null,"accuracy":8,"full address":null,"web address":"http://maps.google.com/maps/geo?output=csv&amp;q=","id":"a6j94qodsc8n","lat":38.8434179,"address":"5109 Leesburg Pike","long":-77.1168458,"http status":"200[39]"},"type":"Feature","geometry":{"type":"Point","coordinates":[-77.1168458,38.8434179]}},{"properties":{"city":"Fort Worth","zip":"Fort Worth, TX 76102","phone num":null,"accuracy":9,"full address":null,"web address":"http://maps.google.com/maps/geo?output=csv&amp;q=","id":"a6j94qq8fdpw","lat":32.755637,"address":"201 Main St., Ste. 1501","long":-97.331454,"http status":"200[40]"},"type":"Feature","geometry":{"type":"Point","coordinates":[-97.331454,32.755637]}},{"properties":{"city":"[1] http://maps.google.com/maps/geo?output=csv&amp;q=39 N. Pearl St.","zip":"NY 12207","phone num":null,"accuracy":null,"full address":null,"web address":null,"id":"a6j94qld8cbw","lat":null,"address":"3rd Floor Albany","long":null,"http status":null},"type":"Feature","geometry":null},{"properties":{"city":"[2] http://maps.google.com/maps/geo?output=csv&amp;q=1725 Duke St. Alexandria","zip":null,"phone num":null,"accuracy":null,"full address":null,"web address":null,"id":"a6j94qfwbnmx","lat":null,"address":"VA 22314-3456","long":null,"http status":null},"type":"Feature","geometry":null},{"properties":{"city":"[3] http://maps.google.com/maps/geo?output=csv&amp;q=101 N. Main St.","zip":"MI 48104-1411","phone num":null,"accuracy":null,"full address":null,"web address":null,"id":"a6j94qiogfzs","lat":null,"address":"6th Floor Ann Arbor","long":null,"http status":null},"type":"Feature","geometry":null},{"properties":{"city":"[4] http://maps.google.com/maps/geo?output=csv&amp;q=135 National Business Parkway Annapolis Junction","zip":null,"phone num":null,"accuracy":null,"full address":null,"web address":null,"id":"a6j94qfhpdfj","lat":null,"address":"MD 20701-1013","long":null,"http status":null},"type":"Feature","geometry":null},{"properties":{"city":"[5] http://maps.google.com/maps/geo?output=csv&amp;q=1421 Jefferson Davis Hwy Arlington","zip":null,"phone num":null,"accuracy":null,"full address":null,"web address":null,"id":"a6j94qhu1fld","lat":null,"address":"VA 22202","long":null,"http status":null},"type":"Feature","geometry":null},{"properties":{"city":"[6] http://maps.google.com/maps/geo?output=csv&amp;q=3rd Floor","zip":null,"phone num":null,"accuracy":null,"full address":null,"web address":null,"id":"a6j94qightuq","lat":null,"address":null,"long":null,"http status":null},"type":"Feature","geometry":null},{"properties":{"city":"[7] http://maps.google.com/maps/geo?output=csv&amp;q=4301 N. Fairfax Dr.","zip":"VA 22203-1633","phone num":null,"accuracy":null,"full address":null,"web address":null,"id":"a6j94qgfs3ep","lat":null,"address":"Ste. 210 Arlington","long":null,"http status":null},"type":"Feature","geometry":null},{"properties":{"city":"[8] http://maps.google.com/maps/geo?output=csv&amp;q=4250 N. Fairfax Dr. Arlington","zip":null,"phone num":null,"accuracy":null,"full address":null,"web address":null,"id":"a6j94qcwfoc9","lat":null,"address":"VA 22203-1665","long":null,"http status":null},"type":"Feature","geometry":null},{"properties":{"city":"[9] http://maps.google.com/maps/geo?output=csv&amp;q=191 Peachtree Street NE","zip":"GA 30303-1943","phone num":null,"accuracy":null,"full address":null,"web address":null,"id":"a6j94qhf6s84","lat":null,"address":"Suite 2000 Atlanta","long":null,"http status":null},"type":"Feature","geometry":null},{"properties":{"city":"[10] http://maps.google.com/maps/geo?output=csv&amp;q=400 W. 15th St.","zip":"TX 78701-1648","phone num":null,"accuracy":null,"full address":null,"web address":null,"id":"a6j94qi74i8a","lat":null,"address":"Ste. 1700 Austin","long":null,"http status":null},"type":"Feature","geometry":null},{"properties":{"city":"[11] http://maps.google.com/maps/geo?output=csv&amp;q=100 S. Charles St.","zip":"MD 21201-2713","phone num":null,"accuracy":null,"full address":null,"web address":null,"id":"a6j94qqgtk9b","lat":null,"address":"12th Floor Baltimore","long":null,"http status":null},"type":"Feature","geometry":null},{"properties":{"city":"[12] http://maps.google.com/maps/geo?output=csv&amp;q=Salarpuria Supreme Bengaluru South Taluk","zip":null,"phone num":null,"accuracy":null,"full address":null,"web address":null,"id":"a6j94qfetznz","lat":null,"address":null,"long":null,"http status":null},"type":"Feature","geometry":null},{"properties":{"city":"[13] http://maps.google.com/maps/geo?output=csv&amp;q=2nd/3rd Floor","zip":null,"phone num":null,"accuracy":null,"full address":null,"web address":null,"id":"a6j94qqo3p1i","lat":null,"address":"Pin- 560037","long":null,"http status":null},"type":"Feature","geometry":null},{"properties":{"city":"[14] http://maps.google.com/maps/geo?output=csv&amp;q=No. 92/5","zip":"Varthur Hobli","phone num":null,"accuracy":null,"full address":null,"web address":null,"id":"a6j94qq5jj9u","lat":null,"address":"Munekolalu Village","long":null,"http status":null},"type":"Feature","geometry":null},{"properties":{"city":"[15] http://maps.google.com/maps/geo?output=csv&amp;q=Outer Ring Road","zip":null,"phone num":null,"accuracy":null,"full address":null,"web address":null,"id":"a6j94qew2nxb","lat":null,"address":"Near Marathalli Junction","long":null,"http status":null},"type":"Feature","geometry":null},{"properties":{"city":"[16] http://maps.google.com/maps/geo?output=csv&amp;q=","zip":null,"phone num":null,"accuracy":null,"full address":null,"web address":null,"id":"a6j94qq8h2iy","lat":null,"address":null,"long":null,"http status":null},"type":"Feature","geometry":null},{"properties":{"city":"[17] http://maps.google.com/maps/geo?output=csv&amp;q=420 N. 20th St.","zip":"AL 35203-3289","phone num":null,"accuracy":null,"full address":null,"web address":null,"id":"a6j94qh51iqy","lat":null,"address":"Ste. 2400 Birmingham","long":null,"http status":null},"type":"Feature","geometry":null},{"properties":{"city":"[18] http://maps.google.com/maps/geo?output=csv&amp;q=1800 N. Military Trail","zip":"FL 33431","phone num":null,"accuracy":null,"full address":null,"web address":null,"id":"a6j94qqjk56v","lat":null,"address":"Ste. 200 Boca Raton","long":null,"http status":null},"type":"Feature","geometry":null},{"properties":{"city":"[19] http://maps.google.com/maps/geo?output=csv&amp;q=101 S. Capitol Blvd.","zip":"ID 83702-7734","phone num":null,"accuracy":null,"full address":null,"web address":null,"id":"a6j94qkj7aen","lat":null,"address":"Ste. 1700 Boise","long":null,"http status":null},"type":"Feature","geometry":null},{"properties":{"city":"[20] http://maps.google.com/maps/geo?output=csv&amp;q=200 Berkeley St.","zip":"MA 02116","phone num":null,"accuracy":null,"full address":null,"web address":null,"id":"a6j94qnq7br4","lat":null,"address":"7th Floor Boston","long":null,"http status":null},"type":"Feature","geometry":null},{"properties":{"city":"[21] http://maps.google.com/maps/geo?output=csv&amp;q=300 Corporate Center Dr.","zip":"PA 17011","phone num":null,"accuracy":null,"full address":null,"web address":null,"id":"a6j94qfkhdke","lat":null,"address":"Ste. 601 Camp Hill","long":null,"http status":null},"type":"Feature","geometry":null},{"properties":{"city":"[22] http://maps.google.com/maps/geo?output=csv&amp;q=4840 North River Blvd.","zip":"Ste. 400 Cedar Rapids","phone num":"IA 52411","accuracy":null,"full address":null,"web address":null,"id":"a6j94qrir2xf","lat":null,"address":"N.E.","long":null,"http status":null},"type":"Feature","geometry":null},{"properties":{"city":"[23] http://maps.google.com/maps/geo?output=csv&amp;q=15000 Conference Center Dr. Chantilly","zip":null,"phone num":null,"accuracy":null,"full address":null,"web address":null,"id":"a6j94qqtxuw2","lat":null,"address":"VA 20151","long":null,"http status":null},"type":"Feature","geometry":null},{"properties":{"city":"[24] http://maps.google.com/maps/geo?output=csv&amp;q=550 S. Tryon Street","zip":"NC 28202","phone num":null,"accuracy":null,"full address":null,"web address":null,"id":"a6j94qqut0h7","lat":null,"address":"Suite 2500 Charlotte","long":null,"http status":null},"type":"Feature","geometry":null},{"properties":{"city":"[25] http://maps.google.com/maps/geo?output=csv&amp;q=111 S Wacker Dr.","zip":"IL 60606-4301","phone num":null,"accuracy":null,"full address":null,"web address":null,"id":"a6j94qlcjzbr","lat":null,"address":"24th Floor Chicago","long":null,"http status":null},"type":"Feature","geometry":null},{"properties":{"city":"[26] http://maps.google.com/maps/geo?output=csv&amp;q=250 E. 5th St.","zip":"OH 45202-5109","phone num":null,"accuracy":null,"full address":null,"web address":null,"id":"a6j94qr6tws5","lat":null,"address":"Ste. 1900 Cincinnati","long":null,"http status":null},"type":"Feature","geometry":null},{"properties":{"city":"[27] http://maps.google.com/maps/geo?output=csv&amp;q=127 Public Square","zip":"OH 44114-1291","phone num":null,"accuracy":null,"full address":null,"web address":null,"id":"a6j94qs4kp8y","lat":null,"address":"Ste. 3300 Cleveland","long":null,"http status":null},"type":"Feature","geometry":null},{"properties":{"city":"[28] http://maps.google.com/maps/geo?output=csv&amp;q=180 East Broad St.","zip":"OH 43215-3611","phone num":null,"accuracy":null,"full address":null,"web address":null,"id":"a6j94ql5qv2h","lat":null,"address":"14th Floor Columbus","long":null,"http status":null},"type":"Feature","geometry":null},{"properties":{"city":"[29] http://maps.google.com/maps/geo?output=csv&amp;q=2200 Ross Ave.","zip":"TX 75201","phone num":null,"accuracy":null,"full address":null,"web address":null,"id":"a6j94qf0esu0","lat":null,"address":"Ste. 1600 Dallas","long":null,"http status":null},"type":"Feature","geometry":null},{"properties":{"city":"[30] http://maps.google.com/maps/geo?output=csv&amp;q=4550 East 53rd Street","zip":"IA 52807-3171","phone num":null,"accuracy":null,"full address":null,"web address":null,"id":"a6j94qholjm3","lat":null,"address":"Suite 110 Davenport","long":null,"http status":null},"type":"Feature","geometry":null},{"properties":{"city":"[31] http://maps.google.com/maps/geo?output=csv&amp;q=220 E. Monument Avenue","zip":"OH 45402","phone num":null,"accuracy":null,"full address":null,"web address":null,"id":"a6j94qsaw813","lat":null,"address":"Suite 500 Dayton","long":null,"http status":null},"type":"Feature","geometry":null},{"properties":{"city":"[32] http://maps.google.com/maps/geo?output=csv&amp;q=One Deloitte Way Westlake","zip":null,"phone num":null,"accuracy":null,"full address":null,"web address":null,"id":"a6j94qnlpzie","lat":null,"address":"TX 76262","long":null,"http status":null},"type":"Feature","geometry":null},{"properties":{"city":"[33] http://maps.google.com/maps/geo?output=csv&amp;q=555 17th St.","zip":"CO 80202-3942","phone num":null,"accuracy":null,"full address":null,"web address":null,"id":"a6j94qi0tnrn","lat":null,"address":"Ste. 3600 Denver","long":null,"http status":null},"type":"Feature","geometry":null},{"properties":{"city":"[34] http://maps.google.com/maps/geo?output=csv&amp;q=699 Walnut Street Des Moines","zip":null,"phone num":null,"accuracy":null,"full address":null,"web address":null,"id":"a6j94qef77v7","lat":null,"address":"IA 50309","long":null,"http status":null},"type":"Feature","geometry":null},{"properties":{"city":"[35] http://maps.google.com/maps/geo?output=csv&amp;q=Suite 1800","zip":null,"phone num":null,"accuracy":null,"full address":null,"web address":null,"id":"a6j94qpddmme","lat":null,"address":null,"long":null,"http status":null},"type":"Feature","geometry":null},{"properties":{"city":"[36] http://maps.google.com/maps/geo?output=csv&amp;q=Suite 3900","zip":"MI 48243-1300","phone num":null,"accuracy":null,"full address":null,"web address":null,"id":"a6j94qi8yctt","lat":null,"address":"200 Renaissance Center Detroit","long":null,"http status":null},"type":"Feature","geometry":null},{"properties":{"city":"[37] http://maps.google.com/maps/geo?output=csv&amp;q=6810 Deerpath Road Elkridge","zip":null,"phone num":null,"accuracy":null,"full address":null,"web address":null,"id":"a6j94qrr5wwa","lat":null,"address":"MD 21075","long":null,"http status":null},"type":"Feature","geometry":null},{"properties":{"city":"[38] http://maps.google.com/maps/geo?output=csv&amp;q=Suite 405","zip":null,"phone num":null,"accuracy":null,"full address":null,"web address":null,"id":"a6j94qj4u2ri","lat":null,"address":null,"long":null,"http status":null},"type":"Feature","geometry":null},{"properties":{"city":"[39] http://maps.google.com/maps/geo?output=csv&amp;q=5109 Leesburg Pike Falls Church","zip":null,"phone num":null,"accuracy":null,"full address":null,"web address":null,"id":"a6j94qfp3s57","lat":null,"address":"VA 22041","long":null,"http status":null},"type":"Feature","geometry":null},{"properties":{"city":"[40] http://maps.google.com/maps/geo?output=csv&amp;q=201 Main St.","zip":"TX 76102","phone num":null,"accuracy":null,"full address":null,"web address":null,"id":"a6j94qigocrb","lat":null,"address":"Ste. 1501 Fort Worth","long":null,"http status":null},"type":"Feature","geometry":null}],"is_temporal":false,"author":{"url":"","metadata":null,"contact_name":null,"contact_address":null,"source":null,"contact_phone":null},"source":"","pagination":{"sort":null,"start":0,"total":80,"limit":1000000},"state":"complete","tags":"","published":"2014-08-15T02:29:06-04:00","id":217565}