{"type":"FeatureCollection","data_type":"Dataset Analysis","url_type":null,"permissions":[{"permissions":{"download":true,"view":true},"group_id":"everyone"}],"classification":null,"title":"Intersection of 'Addresses' and 'USA Counties by State with FIPS Codes'","count":9,"stream_id":217702,"contributor":{"url":"http://geocommons.com/users/42312","name":"yakmalla"},"data_attributes":null,"calculation_params":{"input":{"columns":[{"id":"217649"},{"id":"21514"}],"merge":"combine"},"calculation":"intersect"},"icon_link":null,"link":"http://geocommons.com/overlays/217702.json","extent":[-91.7082,35.2237,-76.9239,42.0293],"geometry_types":["point"],"unique_name":null,"name":"Intersection of 'Addresses' and 'USA Counties by State with FIPS Codes'","feature_count":9,"description":"Dataset created by the intersection of 1) Addresses and 2) USA Counties by State with FIPS Codes","next_feature":null,"is_raster":false,"short_classification":"Y","stats":{"lon":{"max":-76.923928,"variance":22.3503406865244,"mean":-84.5565565333333,"stdev":4.72761469311157,"min":-91.708241,"median":-84.188261},"f":{"max":48159,"variance":122284610.0,"mean":32424.3333333333,"stdev":11058.2372012903,"min":19113,"median":31081},"lat":{"max":42.029265,"variance":4.49337207711616,"mean":40.1444870666667,"stdev":2.11975755149408,"min":35.2236923,"median":40.261525}},"features":[{"properties":{"lon":-76.923928,"name":"Camp Hill","a":"Cumberland","b":"Cumberland County","c":"CumberlandME","d":"Maine","e":"ME","f":23005,"street":"300 Corporate Center Dr","id":"a65dlt7mglkm","lat":40.261525,"address":"Camp Hill, PA 17011"},"type":"Feature","geometry":{"type":"Point","coordinates":[-76.923928,40.261525]}},{"properties":{"lon":-91.708241,"name":"Cedar Rapids","a":"Linn","b":"Linn County","c":"LinnIA","d":"Iowa","e":"IA","f":19113,"street":"4840 North River Blvd., N.E.","id":"a65dltatdj9m","lat":42.029265,"address":"Cedar Rapids, IA 52411"},"type":"Feature","geometry":{"type":"Point","coordinates":[-91.708241,42.029265]}},{"properties":{"lon":-80.8484907,"name":"Charlotte","a":"Mecklenburg","b":"Mecklenburg County","c":"MecklenburgNC","d":"North Carolina","e":"NC","f":37119,"street":"550 S. Tryon Street","id":"a65dlt053tu8","lat":35.2236923,"address":"Charlotte, NC 28202"},"type":"Feature","geometry":{"type":"Point","coordinates":[-80.8484907,35.2236923]}},{"properties":{"lon":-87.6366133,"name":"Chicago","a":"Cook","b":"Cook County","c":"CookMN","d":"Minnesota","e":"MN","f":27031,"street":"111 S Wacker Dr.","id":"a65dltabtpmt","lat":41.8805212,"address":"Chicago, IL 60606-4301"},"type":"Feature","geometry":{"type":"Point","coordinates":[-87.6366133,41.8805212]}},{"properties":{"lon":-84.508317,"name":"Cincinnati","a":"Hamilton","b":"Hamilton County","c":"HamiltonNE","d":"Nebraska","e":"NE","f":31081,"street":"250 E. 5th St.","id":"a65dlt4n6uzf","lat":39.101883,"address":"Cincinnati, OH 45202-5109"},"type":"Feature","geometry":{"type":"Point","coordinates":[-84.508317,39.101883]}},{"properties":{"lon":-81.6936549,"name":"Cleveland","a":"Cuyahoga","b":"Cuyahoga County","c":"CuyahogaOH","d":"Ohio","e":"OH","f":39035,"street":"127 Public Square","id":"a65dlt9vlfnz","lat":41.5008227,"address":"Cleveland, OH 44114-1291"},"type":"Feature","geometry":{"type":"Point","coordinates":[-81.6936549,41.5008227]}},{"properties":{"lon":-82.9957909,"name":"Columbus","a":"Franklin","b":"Franklin County","c":"FranklinTX","d":"Texas","e":"TX","f":48159,"street":"180 East Broad St.","id":"a65dlsz70tgn","lat":39.9627924,"address":"Columbus, OH 43215-3611"},"type":"Feature","geometry":{"type":"Point","coordinates":[-82.9957909,39.9627924]}},{"properties":{"lon":-90.505712,"name":"Davenport","a":"Scott","b":"Scott County","c":"ScottTN","d":"Tennessee","e":"TN","f":47151,"street":"4550 East 53rd Street","id":"a65dlt79f6bm","lat":41.575747,"address":"Davenport, IA 52807-3171"},"type":"Feature","geometry":{"type":"Point","coordinates":[-90.505712,41.575747]}},{"properties":{"lon":-84.188261,"name":"Dayton","a":"Montgomery","b":"Montgomery County","c":"MontgomeryKS","d":"Kansas","e":"KS","f":20125,"street":"220 E. Monument Avenue","id":"a65dltfbeo4v","lat":39.764135,"address":"Dayton, OH 45402"},"type":"Feature","geometry":{"type":"Point","coordinates":[-84.188261,39.764135]}}],"is_temporal":false,"author":{"url":null,"metadata":null,"contact_name":null,"contact_address":null,"source":null,"contact_phone":null},"source":null,"pagination":{"sort":null,"start":0,"total":9,"limit":1000000},"state":"complete","tags":"","published":"2014-08-15T02:33:39-04:00","id":217702}