{"type":"FeatureCollection","data_type":"Dataset","url_type":null,"permissions":[{"permissions":{"download":true,"view":true},"group_id":"everyone"}],"classification":null,"title":"fuck this shit","count":17,"stream_id":217974,"contributor":{"url":"http://geocommons.com/users/41637","name":"jasz"},"data_attributes":null,"calculation_params":null,"icon_link":null,"link":"http://geocommons.com/overlays/217974.json","extent":[119.836,6.42078,125.833,18.445],"geometry_types":["point"],"unique_name":null,"name":"fuck this shit","feature_count":17,"description":"","next_feature":null,"is_raster":false,"short_classification":"Y","stats":{"total":{"max":4579,"mean":2125.5625,"variance":1427299.32916667,"stdev":1194.69633345326,"min":737,"median":1793},"female":{"max":1995,"mean":863.058823529412,"variance":276264.433823529,"stdev":525.608631800819,"min":304,"median":664},"male":{"max":2639,"mean":1322.11764705882,"variance":443109.985294118,"stdev":665.66506990687,"min":433,"median":1111}},"features":[{"properties":{"region":"NCR","total":4497,"female":1995,"male":2542,"id":"a69dkg8fibft"},"type":"Feature","geometry":{"type":"Point","coordinates":[121.0190528,14.56713086]}},{"properties":{"region":"CAR","total":737,"female":304,"male":433,"id":"a69dkgbb2mcv"},"type":"Feature","geometry":{"type":"Point","coordinates":[121.0634086,17.35868876]}},{"properties":{"region":"Region I","total":2007,"female":733,"male":1274,"id":"a69dkg81oxdz"},"type":"Feature","geometry":{"type":"Point","coordinates":[120.3631466,17.13207368]}},{"properties":{"region":"Region II","total":1462,"female":531,"male":931,"id":"a69dkfy5a47r"},"type":"Feature","geometry":{"type":"Point","coordinates":[121.6341182,18.44503411]}},{"properties":{"region":"Region III","total":3778,"female":1440,"male":2338,"id":"a69dkg0fz334"},"type":"Feature","geometry":{"type":"Point","coordinates":[121.0156682,15.43929979]}},{"properties":{"region":"Region IV-A","total":4579,"female":1940,"male":2639,"id":"a69dkg4x5623"},"type":"Feature","geometry":{"type":"Point","coordinates":[119.8356285,11.14761761]}},{"properties":{"region":"Region IV-B","total":1263,"female":502,"male":762,"id":"a69dkg3b8be7"},"type":"Feature","geometry":{"type":"Point","coordinates":[123.3687187,13.11127638]}},{"properties":{"region":"Region V","total":2078,"female":766,"male":1312,"id":"a69dkg9sq1xb"},"type":"Feature","geometry":{"type":"Point","coordinates":[122.4801805,10.7955457]}},{"properties":{"region":"Region VI","total":null,"female":1225,"male":1854,"id":"a69dkg3iy3xu"},"type":"Feature","geometry":{"type":"Point","coordinates":[124.1399846,10.52879183]}},{"properties":{"region":"Region VII","total":2935,"female":1253,"male":1700,"id":"a69dkga0jp9g"},"type":"Feature","geometry":{"type":"Point","coordinates":[124.9201567,11.29348495]}},{"properties":{"region":"Region VIII","total":1728,"female":664,"male":1065,"id":"a69dkg8kqk3t"},"type":"Feature","geometry":{"type":"Point","coordinates":[122.7777828,7.861863569]}},{"properties":{"region":"Region IX","total":1414,"female":537,"male":878,"id":"a69dkg5seuds"},"type":"Feature","geometry":null},{"properties":{"region":"Region X","total":1913,"female":803,"male":1111,"id":"a69dkg4ha999"},"type":"Feature","geometry":{"type":"Point","coordinates":[124.5004249,8.337519545]}},{"properties":{"region":"Region XI","total":1793,"female":650,"male":1143,"id":"a69dkg8h7sfm"},"type":"Feature","geometry":{"type":"Point","coordinates":[125.8334357,6.684897031]}},{"properties":{"region":"Region XII","total":1685,"female":639,"male":1045,"id":"a69dkgctk5q9"},"type":"Feature","geometry":{"type":"Point","coordinates":[124.8069282,6.63551489]}},{"properties":{"region":"Region XIII","total":1002,"female":375,"male":627,"id":"a69dkfwy7y6p"},"type":"Feature","geometry":null},{"properties":{"region":"ARMM","total":1138,"female":315,"male":822,"id":"a69dkg0tlx00"},"type":"Feature","geometry":{"type":"Point","coordinates":[121.4865796,6.420775393]}}],"is_temporal":false,"author":{"url":"","metadata":"","contact_name":"","contact_address":"","source":"","contact_phone":""},"source":"","pagination":{"sort":null,"start":0,"total":17,"limit":1000000},"state":"complete","tags":"","published":"2014-08-15T02:50:38-04:00","id":217974}