{"type":"FeatureCollection","data_type":"Dataset","url_type":null,"permissions":[{"permissions":{"download":true,"view":true},"group_id":"everyone"}],"classification":null,"title":"Potential FRCs IDEAL","count":10,"stream_id":218799,"contributor":{"url":"http://geocommons.com/users/41429","name":"jfedorsRFBO"},"data_attributes":null,"calculation_params":null,"icon_link":null,"link":"http://geocommons.com/overlays/218799.json","extent":[-99.3326,34.1991,-96.6803,36.1157],"geometry_types":["point"],"unique_name":null,"name":"Potential FRCs IDEAL","feature_count":10,"description":"","next_feature":null,"is_raster":false,"short_classification":"Y","stats":{"frc status":{"max":2,"mean":2.0,"variance":0.0,"stdev":0.0,"min":2,"median":2}},"features":[{"properties":{"city":"Cushing","county":"PAYNE","geo_score":0.915,"frc status":2,"zip code":"74023","street address":"400 E Main St.","agency number":"N/A","id":"a621yvtgcnin","geo_precision":"range","state":"Oklahoma","agency name":"None at this Time"},"type":"Feature","geometry":{"type":"Point","coordinates":[-96.768926,35.985068]}},{"properties":{"city":"Ardmore","county":"CARTER","geo_score":0.872,"frc status":2,"zip code":"73401","street address":"2116 Harris Street NW","agency number":"669","id":"a621yvke605b","geo_precision":"range","state":"Oklahoma","agency name":"House of Prayer-Ardmore"},"type":"Feature","geometry":{"type":"Point","coordinates":[-97.134937,34.199096]}},{"properties":{"city":"Anadarko","county":"CADDO","geo_score":0.807,"frc status":2,"zip code":"73005","street address":"102 W Central Blvd","agency number":"N/A","id":"a621yvmi5xpe","geo_precision":"street","state":"Oklahoma","agency name":"None at this Time"},"type":"Feature","geometry":{"type":"Point","coordinates":[-98.24532,35.072424]}},{"properties":{"city":"Stillwater","county":"PAYNE","geo_score":0.912,"frc status":2,"zip code":"74074","street address":"600 S Main St","agency number":"N/A","id":"a621yvu8rlnz","geo_precision":"range","state":"Oklahoma","agency name":"None at this Time"},"type":"Feature","geometry":{"type":"Point","coordinates":[-97.05859,36.115679]}},{"properties":{"city":"Weatherford","county":"CUSTER","geo_score":1.0,"frc status":2,"zip code":"73096","street address":"100 E Main St","agency number":"N/A","id":"a621yvnfziek","geo_precision":"range","state":"Oklahoma","agency name":"None at this Time"},"type":"Feature","geometry":{"type":"Point","coordinates":[-98.707726,35.526021]}},{"properties":{"city":"Clinton","county":"CUSTER","geo_score":0.717,"frc status":2,"zip code":"73601","street address":"500 Choctaw Ave","agency number":"N/A","id":"a621yvniacjr","geo_precision":"range","state":"Oklahoma","agency name":"None at this Time"},"type":"Feature","geometry":{"type":"Point","coordinates":[-99.179609,35.360678]}},{"properties":{"city":"Altus","county":"JACKSON","geo_score":0.913,"frc status":2,"zip code":"73521","street address":"200 E Broadway St","agency number":"N/A","id":"a621yvovq35q","geo_precision":"range","state":"Oklahoma","agency name":"None at this Time"},"type":"Feature","geometry":{"type":"Point","coordinates":[-99.332579,34.637819]}},{"properties":{"city":"Ada","county":"PONTOTOC","geo_score":0.919,"frc status":2,"zip code":"74820","street address":"200 W Main St","agency number":"N/A","id":"a621yvws2phx","geo_precision":"range","state":"Oklahoma","agency name":"None at this Time"},"type":"Feature","geometry":{"type":"Point","coordinates":[-96.680256,34.774494]}},{"properties":{"city":"Duncan","county":"STEPHENS","geo_score":0.912,"frc status":2,"zip code":"73533","street address":"900 W Main St","agency number":"N/A","id":"a621yvpqu566","geo_precision":"range","state":"Oklahoma","agency name":"None at this Time"},"type":"Feature","geometry":{"type":"Point","coordinates":[-97.958259,34.501931]}},{"properties":{"city":"Marlow","county":"STEPHENS","geo_score":0.92,"frc status":2,"zip code":"73055","street address":"300 W Cheyenne Ave","agency number":"N/A","id":"a621yvv2ebvb","geo_precision":"range","state":"Oklahoma","agency name":"None at this Time"},"type":"Feature","geometry":{"type":"Point","coordinates":[-97.957834,34.642866]}}],"is_temporal":false,"author":{"url":"","metadata":null,"contact_name":null,"contact_address":null,"source":null,"contact_phone":null},"source":"","pagination":{"sort":null,"start":0,"total":10,"limit":1000000},"state":"complete","tags":"","published":"2014-08-15T03:38:52-04:00","id":218799}