{"type":"FeatureCollection","data_type":"Dataset","url_type":null,"permissions":[{"permissions":{"download":true,"view":true},"group_id":"everyone"}],"classification":null,"title":"Vincent_-_Mortgage_Bankers_-_ran_March_22nd","count":49,"stream_id":218876,"contributor":{"url":"http://geocommons.com/users/39447","name":"sam.felipe"},"data_attributes":null,"calculation_params":null,"icon_link":null,"link":"http://geocommons.com/overlays/218876.json","extent":[-117.353,32.6488,-116.922,33.2507],"geometry_types":["point"],"unique_name":null,"name":"Vincent_-_Mortgage_Bankers_-_ran_March_22nd","feature_count":49,"description":"","next_feature":null,"is_raster":false,"short_classification":"Y","stats":{"rep? (1 for yes, 0 for no)":{"max":1,"mean":0.0612244897959184,"variance":0.0586734693877551,"stdev":0.242226070825903,"min":0,"median":0}},"features":[{"properties":{"rep? (1 for yes, 0 for no)":0,"city":"San Diego","zip":"92111","geo_score":0.9,"street address":"3750 Convoy Street, Suite 320","id":"a6dxqyhhqk4g","geo_precision":"street","state":"Ca"},"type":"Feature","geometry":{"type":"Point","coordinates":[-117.15267,32.813511]}},{"properties":{"rep? (1 for yes, 0 for no)":0,"city":"San Diego","zip":"92128","geo_score":0.844,"street address":"15253 Avenue of Science Bldg 1","id":"a6dxqyertq8e","geo_precision":"range","state":"Ca"},"type":"Feature","geometry":{"type":"Point","coordinates":[-117.081163,32.992286]}},{"properties":{"rep? (1 for yes, 0 for no)":0,"city":"Oceanside","zip":"92056","geo_score":1.0,"street address":"5028 Nighthawk Way","id":"a6dxqyeql8uz","geo_precision":"range","state":"Ca"},"type":"Feature","geometry":{"type":"Point","coordinates":[-117.270238,33.171245]}},{"properties":{"rep? (1 for yes, 0 for no)":0,"city":"San Diego","zip":"92121","geo_score":0.805,"street address":"10421 Wateridge Circle #250","id":"a6dxqyfyn0ey","geo_precision":"street","state":"Ca"},"type":"Feature","geometry":{"type":"Point","coordinates":[-117.20538,32.90094]}},{"properties":{"rep? (1 for yes, 0 for no)":0,"city":"Oceanside","zip":"92056","geo_score":0.429,"street address":"4630 North Ave #A","id":"a6dxqy75qu92","geo_precision":"street","state":"Ca"},"type":"Feature","geometry":{"type":"Point","coordinates":[-117.297274,33.049642]}},{"properties":{"rep? (1 for yes, 0 for no)":0,"city":"San Diego","zip":"92108","geo_score":0.805,"street address":"3444 Camino Del Rio N. #104","id":"a6dxqy6rjx1x","geo_precision":"street","state":"Ca"},"type":"Feature","geometry":{"type":"Point","coordinates":[-117.15953,32.764503]}},{"properties":{"rep? (1 for yes, 0 for no)":0,"city":"Oceanside","zip":"92056","geo_score":0.61,"street address":"3800 Oceanic Dr. #116","id":"a6dxqyenti6h","geo_precision":"street","state":"Ca"},"type":"Feature","geometry":{"type":"Point","coordinates":[-117.266364,33.039816]}},{"properties":{"rep? (1 for yes, 0 for no)":0,"city":"San Diego","zip":"92127","geo_score":0.463,"street address":"14677 Via Bettona St","id":"a6dxqyecexhk","geo_precision":"street","state":"Ca"},"type":"Feature","geometry":{"type":"Point","coordinates":[-117.132983,32.924635]}},{"properties":{"rep? (1 for yes, 0 for no)":0,"city":"Oceanside","zip":"92057","geo_score":0.805,"street address":"825 College Blvd. #102-644","id":"a6dxqy8hm77u","geo_precision":"range","state":"Ca"},"type":"Feature","geometry":{"type":"Point","coordinates":[-117.299856,33.250675]}},{"properties":{"rep? (1 for yes, 0 for no)":0,"city":"San Diego","zip":"92110","geo_score":0.707,"street address":"3940 Hancock St #113","id":"a6dxqyj9n2oq","geo_precision":"street","state":"Ca"},"type":"Feature","geometry":{"type":"Point","coordinates":[-117.181704,32.741251]}},{"properties":{"rep? (1 for yes, 0 for no)":0,"city":"Oceanside","zip":"92056","geo_score":0.604,"street address":"4055 Oceanside Blvd. #E","id":"a6dxqy7tkziq","geo_precision":"street","state":"Ca"},"type":"Feature","geometry":{"type":"Point","coordinates":[-117.332272,33.201791]}},{"properties":{"rep? (1 for yes, 0 for no)":0,"city":"San Diego","zip":"92127","geo_score":0.805,"street address":"8488 Via Tazon #270","id":"a6dxqymcvv0s","geo_precision":"street","state":"Ca"},"type":"Feature","geometry":{"type":"Point","coordinates":[-117.085512,33.022996]}},{"properties":{"rep? (1 for yes, 0 for no)":0,"city":"Oceanside","zip":"92054","geo_score":0.852,"street address":"2191 S El Camino Real","id":"a6dxqyixqfid","geo_precision":"range","state":"Ca"},"type":"Feature","geometry":{"type":"Point","coordinates":[-117.328353,33.187252]}},{"properties":{"rep? (1 for yes, 0 for no)":0,"city":"San Marcos","zip":"92078","geo_score":0.638,"street address":"310 S. Twin Oaks Valley Rd #107-286","id":"a6dxqy9b20k9","geo_precision":"range","state":"Ca"},"type":"Feature","geometry":{"type":"Point","coordinates":[-117.163675,33.13686]}},{"properties":{"rep? (1 for yes, 0 for no)":0,"city":"San Diego","zip":"92106","geo_score":0.967,"street address":"2722 Truxton Rd","id":"a6dxqyfmehj6","geo_precision":"range","state":"Ca"},"type":"Feature","geometry":{"type":"Point","coordinates":[-117.213709,32.739818]}},{"properties":{"rep? (1 for yes, 0 for no)":0,"city":"San Diego","zip":"92108","geo_score":1.0,"street address":"2615 Camino Del Rio S. #400","id":"a6dxqycx1ndt","geo_precision":"range","state":"Ca"},"type":"Feature","geometry":{"type":"Point","coordinates":[-117.161344,32.760925]}},{"properties":{"rep? (1 for yes, 0 for no)":0,"city":"San Diego","zip":"92128","geo_score":0.317,"street address":"13520 Evenign Dreek Dr. N. #510","id":"a6dxqygmr5ph","geo_precision":"street","state":"Ca"},"type":"Feature","geometry":{"type":"Point","coordinates":[-117.199205,32.847336]}},{"properties":{"rep? (1 for yes, 0 for no)":0,"city":"Visat","zip":"92081","geo_score":0.0,"street address":"2055 Thibodo Rs #O","id":"a6dxqybl6qx6","geo_precision":"unmatched","state":"Ca"},"type":"Feature","geometry":null},{"properties":{"rep? (1 for yes, 0 for no)":0,"city":"La Jolla","zip":"92037","geo_score":0.805,"street address":"7590 Fay Ave. #401","id":"a6dxqydug58a","geo_precision":"street","state":"Ca"},"type":"Feature","geometry":{"type":"Point","coordinates":[-117.274406,32.82389]}},{"properties":{"rep? (1 for yes, 0 for no)":0,"city":"San Diego","zip":"92131","geo_score":0.805,"street address":"9988 Hibert St #100","id":"a6dxqycl6s6c","geo_precision":"street","state":"Ca"},"type":"Feature","geometry":{"type":"Point","coordinates":[-117.113881,32.913837]}},{"properties":{"rep? (1 for yes, 0 for no)":0,"city":"San Diego","zip":"92108","geo_score":0.806,"street address":"9272 Camino Del Rio S #127","id":"a6dxqyf52xu0","geo_precision":"street","state":"Ca"},"type":"Feature","geometry":{"type":"Point","coordinates":[-117.161344,32.760925]}},{"properties":{"rep? (1 for yes, 0 for no)":0,"city":"San Diego","zip":"92111","geo_score":0.519,"street address":"4683 Mercury St. #E","id":"a6dxqygyzfzt","geo_precision":"street","state":"Ca"},"type":"Feature","geometry":{"type":"Point","coordinates":[-117.148856,32.822801]}},{"properties":{"rep? (1 for yes, 0 for no)":0,"city":"San Diego","zip":"92108","geo_score":0.971,"street address":"3131 Camino Del Rio #400","id":"a6dxqy97szss","geo_precision":"range","state":"Ca"},"type":"Feature","geometry":{"type":"Point","coordinates":[-117.161344,32.760925]}},{"properties":{"rep? (1 for yes, 0 for no)":0,"city":"San Diego","zip":"92123","geo_score":0.729,"street address":"4909 Murphy Canyon Rd #460","id":"a6dxqy7srf80","geo_precision":"street","state":"Ca"},"type":"Feature","geometry":{"type":"Point","coordinates":[-117.113413,32.795783]}},{"properties":{"rep? (1 for yes, 0 for no)":0,"city":"San Diego","zip":"92121","geo_score":0.805,"street address":"9605 Scranton Rd. #801","id":"a6dxqyd4b5ju","geo_precision":"street","state":"Ca"},"type":"Feature","geometry":{"type":"Point","coordinates":[-117.200862,32.889781]}},{"properties":{"rep? (1 for yes, 0 for no)":1,"city":"La Jolla","zip":"92037","geo_score":0.878,"street address":"888 Prospect St.","id":"a6dxqyj19fbc","geo_precision":"range","state":"Ca"},"type":"Feature","geometry":{"type":"Point","coordinates":[-117.275866,32.846344]}},{"properties":{"rep? (1 for yes, 0 for no)":0,"city":"San Diego","zip":"92108","geo_score":0.807,"street address":"3110 Camino Del Rio S. #309","id":"a6dxqy79t9qy","geo_precision":"street","state":"Ca"},"type":"Feature","geometry":{"type":"Point","coordinates":[-117.161344,32.760925]}},{"properties":{"rep? (1 for yes, 0 for no)":0,"city":"Encinitias","zip":"92024","geo_score":0.466,"street address":"937 S. Coast HWY 101 #209","id":"a6dxqymnjjjq","geo_precision":"street","state":"Ca"},"type":"Feature","geometry":{"type":"Point","coordinates":[-117.290213,33.03273]}},{"properties":{"rep? (1 for yes, 0 for no)":0,"city":"El Cajon","zip":"92019","geo_score":1.0,"street address":"1776 Slate Terrace","id":"a6dxqyft2ay0","geo_precision":"range","state":"Ca"},"type":"Feature","geometry":{"type":"Point","coordinates":[-116.922206,32.764985]}},{"properties":{"rep? (1 for yes, 0 for no)":0,"city":"San Diego","zip":"92131","geo_score":0.806,"street address":"9447 Businesspark Ave.","id":"a6dxqyeh3lyb","geo_precision":"street","state":"Ca"},"type":"Feature","geometry":{"type":"Point","coordinates":[-117.112319,32.898127]}},{"properties":{"rep? (1 for yes, 0 for no)":0,"city":"La Jolla","zip":"92037","geo_score":1.0,"street address":"484 Prospect St.","id":"a6dxqyjiq1oh","geo_precision":"range","state":"Ca"},"type":"Feature","geometry":{"type":"Point","coordinates":[-117.279021,32.842131]}},{"properties":{"rep? (1 for yes, 0 for no)":0,"city":"San Diego","zip":"92131","geo_score":0.805,"street address":"10636 Scripps Summit Ct. 130","id":"a6dxqygl0qe8","geo_precision":"street","state":"Ca"},"type":"Feature","geometry":{"type":"Point","coordinates":[-117.102348,32.940653]}},{"properties":{"rep? (1 for yes, 0 for no)":0,"city":"Carlsbad","zip":"92008","geo_score":0.625,"street address":"550 Laguna #A","id":"a6dxqycivvbl","geo_precision":"street","state":"Ca"},"type":"Feature","geometry":{"type":"Point","coordinates":[-117.353325,33.165053]}},{"properties":{"rep? (1 for yes, 0 for no)":0,"city":"Encinitias","zip":"92024","geo_score":0.912,"street address":"1991 Village Park Way #205A","id":"a6dxqy9o557n","geo_precision":"range","state":"Ca"},"type":"Feature","geometry":{"type":"Point","coordinates":[-117.246509,33.047575]}},{"properties":{"rep? (1 for yes, 0 for no)":0,"city":"Carlsbad","zip":"92008","geo_score":0.721,"street address":"2501 Avenide Encinas #210","id":"a6dxqyazcnu3","geo_precision":"street","state":"Ca"},"type":"Feature","geometry":{"type":"Point","coordinates":[-117.33104,33.133991]}},{"properties":{"rep? (1 for yes, 0 for no)":0,"city":"San Diego","zip":"92122","geo_score":0.714,"street address":"5080 Shoreham Pl. #105","id":"a6dxqyc6odt5","geo_precision":"street","state":"Ca"},"type":"Feature","geometry":{"type":"Point","coordinates":[-117.185025,32.851314]}},{"properties":{"rep? (1 for yes, 0 for no)":1,"city":"San Diego","zip":"92123","geo_score":0.729,"street address":"4550 Kearny Villa Rd #2125","id":"a6dxqy7mkxyw","geo_precision":"street","state":"Ca"},"type":"Feature","geometry":{"type":"Point","coordinates":[-117.150906,32.804591]}},{"properties":{"rep? (1 for yes, 0 for no)":0,"city":"San Diego","zip":"92128","geo_score":0.469,"street address":"12540 Oaks North Dr. #G","id":"a6dxqyj9p372","geo_precision":"street","state":"Ca"},"type":"Feature","geometry":{"type":"Point","coordinates":[-117.058432,33.012634]}},{"properties":{"rep? (1 for yes, 0 for no)":1,"city":"Encinitias","zip":"92024","geo_score":0.912,"street address":"531 Encinitas Blvd #101","id":"a6dxqydgnt0c","geo_precision":"range","state":"Ca"},"type":"Feature","geometry":{"type":"Point","coordinates":[-117.29297,33.048857]}},{"properties":{"rep? (1 for yes, 0 for no)":0,"city":"La Mesa","zip":"91941","geo_score":0.805,"street address":"7839 University Ave. #103","id":"a6dxqye58tya","geo_precision":"street","state":"Ca"},"type":"Feature","geometry":{"type":"Point","coordinates":[-117.049132,32.755187]}},{"properties":{"rep? (1 for yes, 0 for no)":0,"city":"Poway","zip":"92064","geo_score":1.0,"street address":"15000 Oak Canyon Rd","id":"a6dxqylugxdw","geo_precision":"range","state":"Ca"},"type":"Feature","geometry":{"type":"Point","coordinates":[-117.008563,32.998606]}},{"properties":{"rep? (1 for yes, 0 for no)":0,"city":"Chula Vista","zip":"91910","geo_score":1.0,"street address":"3252 Bonita Rd","id":"a6dxqy78j1sy","geo_precision":"range","state":"Ca"},"type":"Feature","geometry":{"type":"Point","coordinates":[-117.054317,32.648772]}},{"properties":{"rep? (1 for yes, 0 for no)":0,"city":"Encinitias","zip":"92024","geo_score":0.912,"street address":"1613 Linda Sue Lane","id":"a6dxqyl9ucgu","geo_precision":"range","state":"Ca"},"type":"Feature","geometry":{"type":"Point","coordinates":[-117.255489,33.052369]}},{"properties":{"rep? (1 for yes, 0 for no)":0,"city":"Encinitias","zip":"92024","geo_score":0.912,"street address":"511 Saxony Place","id":"a6dxqyab67ea","geo_precision":"range","state":"Ca"},"type":"Feature","geometry":{"type":"Point","coordinates":[-117.285584,33.054876]}},{"properties":{"rep? (1 for yes, 0 for no)":0,"city":"La Mesa","zip":"91941","geo_score":0.805,"street address":"7777 Alvarado Rd #287","id":"a6dxqygh0jy3","geo_precision":"street","state":"Ca"},"type":"Feature","geometry":{"type":"Point","coordinates":[-117.046638,32.773195]}},{"properties":{"rep? (1 for yes, 0 for no)":0,"city":"San Diego","zip":"92108","geo_score":0.976,"street address":"591 Camino De La Reina #630","id":"a6dxqygi1mho","geo_precision":"range","state":"Ca"},"type":"Feature","geometry":{"type":"Point","coordinates":[-117.159547,32.766586]}},{"properties":{"rep? (1 for yes, 0 for no)":0,"city":"San Diego","zip":"92109","geo_score":0.699,"street address":"3898 Rivera Dr #3","id":"a6dxqyj4py5g","geo_precision":"street","state":"Ca"},"type":"Feature","geometry":{"type":"Point","coordinates":[-117.236298,32.779873]}},{"properties":{"rep? (1 for yes, 0 for no)":0,"city":"San Diego","zip":"92111","geo_score":0.737,"street address":"7490 Opportunity Rd #205","id":"a6dxqyb2cqe4","geo_precision":"street","state":"Ca"},"type":"Feature","geometry":{"type":"Point","coordinates":[-117.162795,32.82533]}},{"properties":{"rep? (1 for yes, 0 for no)":0,"city":"San Marcos","zip":"92078","geo_score":0.719,"street address":"595 Grand Ave #102","id":"a6dxqydxzrln","geo_precision":"street","state":"Ca"},"type":"Feature","geometry":{"type":"Point","coordinates":[-117.178041,33.134524]}}],"is_temporal":false,"author":{"url":"","metadata":null,"contact_name":null,"contact_address":null,"source":null,"contact_phone":null},"source":"","pagination":{"sort":null,"start":0,"total":49,"limit":1000000},"state":"complete","tags":"","published":"2014-08-15T03:42:34-04:00","id":218876}