{"url_type":null,"title":"Segway, Segway Dealer Locations, USA, 6.2008","count":102,"stream_id":2189,"contributor":{"name":"Burkey","url":"http://geocommons.com/users/139"},"extent":[-157.836,21.2847,-71.528,47.6184],"data_attributes":null,"calculation_params":null,"icon_link":null,"link":"http://geocommons.com/overlays/2189.json","features":[{"city":"San Antonio","lon":-98.487152,"storename":"Alamo Segway","zip":78205,"phone":"Phone: (210) 838-8070","geometry":{"type":"Point","coordinates":[-98.487152,29.424658]},"id":"a63atsdyt1l6","address":"207 Alamo Plaza","lat":29.424658,"state":"TX"},{"city":"Atlanta","lon":-84.371549,"storename":"Atlanta Segway","zip":30308,"phone":"Phone: 404-249-6677","geometry":{"type":"Point","coordinates":[-84.371549,33.771442]},"id":"a63atsgu9tia","address":"619 Boulevard NE","lat":33.771442,"state":"GA"},{"city":"New Brighton","lon":-93.192703,"storename":"B2B Segway","zip":55112,"phone":"Phone: 651.633.0733","geometry":{"type":"Point","coordinates":[-93.192703,45.051464]},"id":"a63atsgn6pmq","address":"33 Fifth Avenue NW","lat":45.051464,"state":"MN"},{"city":"Wilmington","lon":-77.949944,"storename":"Cape Fear Segway","zip":28401,"phone":"Phone: 910-251-2572","geometry":{"type":"Point","coordinates":[-77.949944,34.236677]},"id":"a63atsfitea7","address":"106 N. Water Street","lat":34.236677,"state":"NC"},{"city":"Washington","lon":-77.03079,"storename":"Capital Segway","zip":20007,"phone":"Phone: 202-682-1980","geometry":{"type":"Point","coordinates":[-77.03079,38.90118]},"id":"a63atsccxkuq","address":"1350 I Street, NW","lat":38.90118,"state":"DC"},{"city":"Greenville","lon":-82.283903,"storename":"Carolina Upstate Segway","zip":29607,"phone":"Phone: 864-230-2490","geometry":{"type":"Point","coordinates":[-82.283903,34.819229]},"id":"a63atsl2iiv5","address":"322 Prado Way","lat":34.819229,"state":"SC"},{"city":"Searcy","lon":-91.736566,"storename":"Central Arkansas Segway","zip":72143,"phone":"Phone: 501-350-5990","geometry":{"type":"Point","coordinates":[-91.736566,35.244773]},"id":"a63atsdawtyt","address":"511 S. Main Street","lat":35.244773,"state":"AR"},{"city":"Cabot","lon":-92.056608,"storename":"Central Arkansas Segway","zip":72023,"phone":"Phone: 501-350-5990","geometry":{"type":"Point","coordinates":[-92.056608,34.944918]},"id":"a63atsnmrn7x","address":"200 Nalley Road","lat":34.944918,"state":"AR"},{"city":"Charlotte","lon":-80.830549,"storename":"Charlotte Energy Solutions","zip":28204,"phone":"Phone: 704-333-4358","geometry":{"type":"Point","coordinates":[-80.830549,35.210665]},"id":"a63ats9sd9ag","address":"337 Baldwin Av","lat":35.210665,"state":"NC"},{"city":"Marshall","lon":-94.457793,"storename":"East Texas Segway/Segway of Shreveport","zip":75670,"phone":"Phone: 888-973-4929","geometry":{"type":"Point","coordinates":[-94.457793,32.595073]},"id":"a63atsel3nav","address":"401 B West Grand","lat":32.595073,"state":"TX"},{"city":"Stratford","lon":-73.154282,"storename":"Fritz's Segway","zip":6615,"phone":"Phone: 203-975-1985","geometry":{"type":"Point","coordinates":[-73.154282,41.173397]},"id":"a63atsfw1gdn","address":"155 Research Dr","lat":41.173397,"state":"CT"},{"city":"Millville","lon":-75.027588,"storename":"Millville Segway","zip":8332,"phone":"Phone: 856-327-0266","geometry":{"type":"Point","coordinates":[-75.027588,39.378857]},"id":"a63ats87rq30","address":"1131 South 2nd Street","lat":39.378857,"state":"NJ"},{"city":"Surfside Beach","lon":-78.98708,"storename":"Myrtle Beach Segway","zip":29575,"phone":"Phone: 843-477-0800","geometry":{"type":"Point","coordinates":[-78.98708,33.607432]},"id":"a63ats9albp5","address":"760 Highway 17 S.","lat":33.607432,"state":"SC"},{"city":"Coeymans","lon":-73.789928,"storename":"Northeast Marine Segway","zip":12045,"phone":"Phone: 518-756-6111","geometry":{"type":"Point","coordinates":[-73.789928,42.473749]},"id":"a63atsl6bqje","address":"20 Marine Drive","lat":42.473749,"state":"NY"},{"city":"Pompano Beach","lon":-80.113628,"storename":"Riva Segway of South Florida","zip":33064,"phone":"Phone: 954-785-4820","geometry":{"type":"Point","coordinates":[-80.113628,26.27619]},"id":"a63atsieione","address":"3671 N. Dixie Highway","lat":26.27619,"state":"FL"},{"city":"Key Largo","lon":-80.449535,"storename":"Riva Segway of South Florida","zip":33037,"phone":"Phone: 305-451-3320","geometry":{"type":"Point","coordinates":[-80.449535,25.086848]},"id":"a63atsap154h","address":"98750 Overseas Highway","lat":25.086848,"state":"FL"},{"city":"Boulder","lon":-105.281918,"storename":"Rocky Mountain Segway","zip":80304,"phone":"Phone: 303-449-6754","geometry":{"type":"Point","coordinates":[-105.281918,40.047153]},"id":"a63ats9f8k8d","address":"3970 Broadway","lat":40.047153,"state":"CO"},{"city":"Rapid City","lon":-103.285819,"storename":"Rushmore Segway","zip":57702,"phone":"Phone: 605-391-0709","geometry":{"type":"Point","coordinates":[-103.285819,43.95]},"id":"a63ats99bid6","address":"13852 Neck Yoke Rd","lat":43.95,"state":"SD"},{"city":"West Springfield","lon":-72.622353,"storename":"Segway Central Massachusetts","zip":1089,"phone":"Phone: 413-214-6924","geometry":{"type":"Point","coordinates":[-72.622353,42.101921]},"id":"a63atsmwf2ub","address":"33 Sylvan Street","lat":42.101921,"state":"MA"},{"city":"Chicago","lon":-87.624594,"storename":"Segway Experience of Chicago","zip":60604,"phone":"Phone: 866-SEG HT ME","geometry":{"type":"Point","coordinates":[-87.624594,41.879164]},"id":"a63atsbozo80","address":"224 South Michigan Ave.","lat":41.879164,"state":"IL"},{"city":"Kansas City","lon":-94.58467,"storename":"Segway Experience of Kansas City","zip":64108,"phone":"Phone: 816-531-0600","geometry":{"type":"Point","coordinates":[-94.58467,39.08411]},"id":"a63ats7sgvp8","address":"30 West Pershing Road","lat":39.08411,"state":"MO"},{"city":"Santa Monica","lon":-118.493438,"storename":"Segway Los Angeles","zip":90401,"phone":"Phone: 310-395-1395","geometry":{"type":"Point","coordinates":[-118.493438,34.010094]},"id":"a63atsj2ivqf","address":"1660 Ocean Avenue","lat":34.010094,"state":"CA"},{"city":"Forest Park","lon":-87.811308,"storename":"Segway Metro Illinois","zip":60130,"phone":"Phone: 877-SEGWAY6","geometry":{"type":"Point","coordinates":[-87.811308,41.879384]},"id":"a63atsak9187","address":"7442 West Madison Street","lat":41.879384,"state":"IL"},{"city":"Newport Beach","lon":-117.900931,"storename":"Segway Newport Beach","zip":92661,"phone":"Phone: 949-723-1722","geometry":{"type":"Point","coordinates":[-117.900931,33.602365]},"id":"a63atskawoqm","address":"611 E Balboa Blvd.","lat":33.602365,"state":"CA"},{"city":"Anaheim","lon":-117.838431,"storename":"Segway Orange County","zip":92807,"phone":"Phone: 714-630-7296","geometry":{"type":"Point","coordinates":[-117.838431,33.858717]},"id":"a63atsft1cod","address":"1187 N. Tustin Ave.","lat":33.858717,"state":"CA"},{"city":"Pismo Beach","lon":-120.640786,"storename":"Segway by the Bay","zip":93449,"phone":"Phone: (805) 773-1640","geometry":{"type":"Point","coordinates":[-120.640786,35.14036]},"id":"a63atscdxjws","address":"640 Dolliver","lat":35.14036,"state":"CA"},{"city":"Alpharetta","lon":-84.232959,"storename":"Segway of Alpharetta","zip":30004,"phone":"Phone: 404-993-6364","geometry":{"type":"Point","coordinates":[-84.232959,34.132951]},"id":"a63atsk94im4","address":"1150 Alpha Drive","lat":34.132951,"state":"GA"},{"city":"Amelia Island","lon":-81.449074,"storename":"Segway of Amelia Island","zip":32035,"phone":"Phone: 904-277-5120","geometry":{"type":"Point","coordinates":[-81.449074,30.555155]},"id":"a63atsdnktdj","address":"6800 First Coast Highway","lat":30.555155,"state":"FL"},{"city":"Annapolis","lon":-76.486372,"storename":"Segway of Annapolis","zip":21401,"phone":"Phone: 410-280-1577","geometry":{"type":"Point","coordinates":[-76.486372,38.978189]},"id":"a63atseiz0f2","address":"131 Prince George Street","lat":38.978189,"state":"MD"},{"city":"Russellville","lon":-93.145989,"storename":"Segway of Arkansas","zip":72802,"phone":"Phone: 479-968-7706","geometry":{"type":"Point","coordinates":[-93.145989,35.306182]},"id":"a63ats85jiqd","address":"370 Lake Front Drive","lat":35.306182,"state":"AR"},{"city":"Van Buren","lon":-94.356349,"storename":"Segway of Arkansas","zip":72956,"phone":"Phone: 479-968-7706","geometry":{"type":"Point","coordinates":[-94.356349,35.460417]},"id":"a63atsahgfrt","address":"1716½ Fayetteville Road","lat":35.460417,"state":"AR"},{"city":"Basking Ridge","lon":-74.550446,"storename":"Segway of Basking Ridge","zip":7920,"phone":"Phone: 908-625-3725","geometry":{"type":"Point","coordinates":[-74.550446,40.706326]},"id":"a63atsdtu8u9","address":"28 West Oak Street","lat":40.706326,"state":"NJ"},{"city":"Mount Dora","lon":-81.64539,"storename":"Segway of Central Florida","zip":32757,"phone":"Phone: 352-383-9900","geometry":{"type":"Point","coordinates":[-81.64539,28.800404]},"id":"a63atsms2yg4","address":"140 W. 5th Ave.","lat":28.800404,"state":"FL"},{"city":"Manteno","lon":-87.858084,"storename":"Segway of Central Illinois","zip":60950,"phone":"Phone: 815-468-2886","geometry":{"type":"Point","coordinates":[-87.858084,41.247596]},"id":"a63atsa8dgu1","address":"300 S. Spruce Street","lat":41.247596,"state":"IL"},{"city":"La Grange","lon":-87.869087,"storename":"Segway of Chicago","zip":60525,"phone":"Phone: 708-352-1685","geometry":{"type":"Point","coordinates":[-87.869087,41.804665]},"id":"a63atsixihk9","address":"515 South La Grange Road","lat":41.804665,"state":"IL"},{"city":"Corvallis","lon":-123.261923,"storename":"Segway of Corvallis","zip":97333,"phone":"Phone: 541-740-3021","geometry":{"type":"Point","coordinates":[-123.261923,44.562021]},"id":"a63ats83nt3l","address":"327 SW 3rd St","lat":44.562021,"state":"OR"},{"city":"Dayton","lon":-84.133243,"storename":"Segway of Dayton","zip":45429,"phone":"Phone: 937-298-0100","geometry":{"type":"Point","coordinates":[-84.133243,39.690272]},"id":"a63atsam66gu","address":"3916 Wilmington Park","lat":39.690272,"state":"OH"},{"city":"Millsboro","lon":-75.179467,"storename":"Segway of Delmarva","zip":19966,"phone":"Phone: 877-773-4929","geometry":{"type":"Point","coordinates":[-75.179467,38.631936]},"id":"a63atsabew96","address":"32415 Long Neck Rd.","lat":38.631936,"state":"DE"},{"city":"Virginia Beach","lon":-76.066251,"storename":"Segway of Hampton Roads","zip":23451,"phone":"Phone: 757-412-9734","geometry":{"type":"Point","coordinates":[-76.066251,36.91297]},"id":"a63atsl2kxfy","address":"2800 Shore Drive","lat":36.91297,"state":"VA"},{"city":"Honolulu","lon":-157.835822,"storename":"Segway of Hawaii","zip":96815,"phone":"Phone: 808-941-3151","geometry":{"type":"Point","coordinates":[-157.835822,21.284653]},"id":"a63atsdvxrfn","address":"2005 Kalia Rd","lat":21.284653,"state":"HI"},{"city":"Houston","lon":-95.403105,"storename":"Segway of Houston","zip":77098,"phone":"Phone: 713-522-1200","geometry":{"type":"Point","coordinates":[-95.403105,29.734119]},"id":"a63atsbplzo7","address":"1739 Richmond Ave","lat":29.734119,"state":"TX"},{"city":"Galveston","lon":-94.800861,"storename":"Segway of Houston","zip":77550,"phone":"Phone: 1-866-6-SEGWAY","geometry":{"type":"Point","coordinates":[-94.800861,29.303416]},"id":"a63ats8e9p8n","address":"2905 Market","lat":29.303416,"state":"TX"},{"city":"Idaho Falls","lon":-112.045742,"storename":"Segway of Idaho","zip":83404,"phone":"Phone: (208) 552-7767","geometry":{"type":"Point","coordinates":[-112.045742,43.472348]},"id":"a63atslmsptm","address":"3153 McNeil Dr","lat":43.472348,"state":"ID"},{"city":"Indianapolis","lon":-86.143291,"storename":"Segway of Indiana","zip":46220,"phone":"Phone: 317-569-0879","geometry":{"type":"Point","coordinates":[-86.143291,39.873275]},"id":"a63ats895mct","address":"853 E 65th Street","lat":39.873275,"state":"IN"},{"city":"Clinton","lon":-90.330713,"storename":"Segway of Jackson","zip":39056,"phone":"Phone: 601-260-0485","geometry":{"type":"Point","coordinates":[-90.330713,32.340084]},"id":"a63atsnsq11b","address":"201 West Leake St","lat":32.340084,"state":"MS"},{"city":"Jacksonville","lon":-122.967488,"storename":"Segway of Jacksonville","zip":97530,"phone":"Phone: 541-899-5269","geometry":{"type":"Point","coordinates":[-122.967488,42.316135]},"id":"a63atsghvr2x","address":"360 North Oregon Street","lat":42.316135,"state":"OR"},{"city":"Hutchinson","lon":-97.939498,"storename":"Segway of Kansas","zip":67501,"phone":"Phone: 913-599-6700","geometry":{"type":"Point","coordinates":[-97.939498,38.054559]},"id":"a63atsey9u5r","address":"419 W. 2nd Ave","lat":38.054559,"state":"KS"},{"city":"Las Vegas","lon":-115.167973,"storename":"Segway of Las Vegas","zip":89119,"phone":"Phone: 702-897-8957","geometry":{"type":"Point","coordinates":[-115.167973,36.09713]},"id":"a63ats84qoyf","address":"115 E. Reno Ave.","lat":36.09713,"state":"NV"},{"city":"Long Beach","lon":-118.194135,"storename":"Segway of Long Beach","zip":90802,"phone":"Phone: 866-SEGWAY-9","geometry":{"type":"Point","coordinates":[-118.194135,33.764759]},"id":"a63atsb3u7m7","address":"27 Aquarium Way","lat":33.764759,"state":"CA"},{"city":"Queens Village","lon":-73.742171,"storename":"Segway of Metropolitan New York","zip":11428,"phone":"Phone: 718-479-7777","geometry":{"type":"Point","coordinates":[-73.742171,40.721904]},"id":"a63atskj7ewe","address":"22202 Jamaica Ave.","lat":40.721904,"state":"NY"},{"city":"New Brighton","lon":-93.192703,"storename":"Segway of Minnesota","zip":55112,"phone":"Phone: 651.633.0733","geometry":{"type":"Point","coordinates":[-93.192703,45.051464]},"id":"a63atsl5wvka","address":"33 Fifth Avenue NW","lat":45.051464,"state":"MN"},{"city":"Naples","lon":-81.793043,"storename":"Segway of Naples","zip":34102,"phone":"Phone: 239-262-1443","geometry":{"type":"Point","coordinates":[-81.793043,26.140827]},"id":"a63atslzb18e","address":"1010 6th Avenue South","lat":26.140827,"state":"FL"},{"city":"Nashville","lon":-86.775824,"storename":"Segway of Nashville","zip":37201,"phone":"Phone: 615-244-0555","geometry":{"type":"Point","coordinates":[-86.775824,36.161039]},"id":"a63atsjh2697","address":"119 Third Avenue South","lat":36.161039,"state":"TN"},{"city":"Albuquerque","lon":-106.667191,"storename":"Segway of New Mexico","zip":87104,"phone":"Phone: 505-244-1420","geometry":{"type":"Point","coordinates":[-106.667191,35.0931]},"id":"a63ats7sjicb","address":"1816 B Lomas NW","lat":35.0931,"state":"NM"},{"city":"Oakdale","lon":-73.140904,"storename":"Segway of New York","zip":11769,"phone":"Phone: 631-244-7447","geometry":{"type":"Point","coordinates":[-73.140904,40.748199]},"id":"a63atsjgv17k","address":"4030 Sunrise Highway","lat":40.748199,"state":"NY"},{"city":"Fargo","lon":-96.840409,"storename":"Segway of North Dakota","zip":58103,"phone":"Phone: 800-437-4100","geometry":{"type":"Point","coordinates":[-96.840409,46.866794]},"id":"a63ats7quako","address":"920 36th Street SW","lat":46.866794,"state":"ND"},{"city":"Concord","lon":-71.528008,"storename":"Segway of Northern New England","zip":3301,"phone":"Phone: 877-424-4774","geometry":{"type":"Point","coordinates":[-71.528008,43.192837]},"id":"a63atsec3pzy","address":"22 Hall St.","lat":43.192837,"state":"NH"},{"city":"Oakland","lon":-122.255952,"storename":"Segway of Oakland","zip":94606,"phone":"Phone: 510-832-2429","geometry":{"type":"Point","coordinates":[-122.255952,37.797838]},"id":"a63atsc8hbsd","address":"212 International Blvd","lat":37.797838,"state":"CA"},{"city":"Akron","lon":-81.450771,"storename":"Segway of Ohio","zip":44312,"phone":"Phone: 330-535-2200","geometry":{"type":"Point","coordinates":[-81.450771,41.059027]},"id":"a63atsb04rf5","address":"2169 E. Market St.","lat":41.059027,"state":"OH"},{"city":"Cincinnati","lon":-84.497723,"storename":"Segway of Ohio","zip":45202,"phone":"Phone: (513) 225-1583","geometry":{"type":"Point","coordinates":[-84.497723,39.107283]},"id":"a63atskl4bqz","address":"1053 Saint Gregory St.","lat":39.107283,"state":"OH"},{"city":"Toledo","lon":-83.614668,"storename":"Segway of Ohio","zip":43614,"phone":"Phone: 419-381-6647","geometry":{"type":"Point","coordinates":[-83.614668,41.613642]},"id":"a63atsk7jh5t","address":"1223 Oak Hill Court","lat":41.613642,"state":"OH"},{"city":"Columbus","lon":-83.003893,"storename":"Segway of Ohio","zip":43215,"phone":"Phone: 614-299-1100","geometry":{"type":"Point","coordinates":[-83.003893,39.978488]},"id":"a63atsls4v2t","address":"765A N. High Street","lat":39.978488,"state":"OH"},{"city":"Oklahoma City","lon":-97.624135,"storename":"Segway of Oklahoma","zip":73127,"phone":"Phone: 405-789-2628","geometry":{"type":"Point","coordinates":[-97.624135,35.478936]},"id":"a63atsnnweij","address":"6301 NW 10th","lat":35.478936,"state":"OK"},{"city":"San Diego","lon":-117.254143,"storename":"Segway of Pacific Beach","zip":92109,"phone":"Phone: 858-270-2881","geometry":{"type":"Point","coordinates":[-117.254143,32.791631]},"id":"a63atsegze6w","address":"4150 Mission Blvd.","lat":32.791631,"state":"CA"},{"city":"Kevil","lon":-88.848324,"storename":"Segway of Paducah","zip":42053,"phone":"Phone: 270-994-1486","geometry":{"type":"Point","coordinates":[-88.848324,36.987298]},"id":"a63atsmfgju6","address":"1352 Hamburg Rd","lat":36.987298,"state":"KY"},{"city":"Peachtree City","lon":-84.602069,"storename":"Segway of Peachtree City","zip":30269,"phone":"Phone: 404-396-9916","geometry":{"type":"Point","coordinates":[-84.602069,33.397114]},"id":"a63atsm3qc47","address":"2769 Hwy 54 West","lat":33.397114,"state":"GA"},{"city":"Portland","lon":-122.651174,"storename":"Segway of Portland","zip":97232,"phone":"Phone: 503-238-2510","geometry":{"type":"Point","coordinates":[-122.651174,45.523962]},"id":"a63ats7zt2ux","address":"1447 NE Sandy Blvd","lat":45.523962,"state":"OR"},{"city":"Richmond","lon":-77.433761,"storename":"Segway of Richmond","zip":23219,"phone":"Phone: 804-343-1850","geometry":{"type":"Point","coordinates":[-77.433761,37.53516]},"id":"a63ats9avw6e","address":"1301 East Cary Street","lat":37.53516,"state":"VA"},{"city":"Citrus Heights","lon":-121.322213,"storename":"Segway of Sacramento","zip":95621,"phone":"Phone: 916-735-1777","geometry":{"type":"Point","coordinates":[-121.322213,38.678156]},"id":"a63atsic3v7h","address":"6151 Auburn Blvd.","lat":38.678156,"state":"CA"},{"city":"Pacifica","lon":-122.496054,"storename":"Segway of San Francisco","zip":94044,"phone":"Phone: 877-U-SEGWAY","geometry":{"type":"Point","coordinates":[-122.496054,37.609387]},"id":"a63atsdd6r2y","address":"205 Rockaway Beach Ave","lat":37.609387,"state":"CA"},{"city":"Sanibel","lon":-82.053434,"storename":"Segway of Sanibel","zip":33957,"phone":"Phone: 239-472-3620","geometry":{"type":"Point","coordinates":[-82.053434,26.442872]},"id":"a63atsi7n2w1","address":"1509 Periwinkle Way","lat":26.442872,"state":"FL"},{"city":"Santa Barbara","lon":-119.689637,"storename":"Segway of Santa Barbara","zip":93101,"phone":"Phone: 805-963-7672","geometry":{"type":"Point","coordinates":[-119.689637,34.413667]},"id":"a63atseoykja","address":"24 1/2 E Mason St.","lat":34.413667,"state":"CA"},{"city":"Sarasota","lon":-82.519251,"storename":"Segway of Sarasota","zip":34231,"phone":"Phone: 941-922-0711","geometry":{"type":"Point","coordinates":[-82.519251,27.256723]},"id":"a63atse1g9t0","address":"6826 S. Tamiami Trail","lat":27.256723,"state":"FL"},{"city":"Des Moines","lon":-93.809016,"storename":"Segway of Scheels","zip":50266,"phone":"Phone: 515-727-4065","geometry":{"type":"Point","coordinates":[-93.809016,41.568902]},"id":"a63ats95vbc4","address":"101 Jordan Creek Parkway","lat":41.568902,"state":"IA"},{"city":"Omaha","lon":-96.183728,"storename":"Segway of Scheels","zip":68118,"phone":"Phone: 402-289-5666","geometry":{"type":"Point","coordinates":[-96.183728,41.261042]},"id":"a63atsga4tnw","address":"17202 Davenport St.","lat":41.261042,"state":"NE"},{"city":"Scottsdale","lon":-111.926034,"storename":"Segway of Scottsdale","zip":85254,"phone":"Phone: 602-909-9188","geometry":{"type":"Point","coordinates":[-111.926034,33.615307]},"id":"a63atsbfq39e","address":"14202 N Scottsdale Road","lat":33.615307,"state":"AZ"},{"city":"Seattle","lon":-122.355645,"storename":"Segway of Seattle","zip":98109,"phone":"Phone: 206-284-7634","geometry":{"type":"Point","coordinates":[-122.355645,47.618435]},"id":"a63atshrgs5d","address":"93 Denny Way","lat":47.618435,"state":"WA"},{"city":"Branson","lon":-93.281459,"storename":"Segway of Southern Missouri","zip":65616,"phone":"Phone: 417-272-8064","geometry":{"type":"Point","coordinates":[-93.281459,36.636197]},"id":"a63atso2rg6o","address":"299 State Highway 165","lat":36.636197,"state":"MO"},{"city":"Spanish Fork","lon":-111.654969,"storename":"Segway of Spanish Fork","zip":84660,"phone":"Phone: 801-794-6262","geometry":{"type":"Point","coordinates":[-111.654969,40.107948]},"id":"a63atseieqjp","address":"136 South Main Street","lat":40.107948,"state":"UT"},{"city":"St. Augustine","lon":-81.316205,"storename":"Segway of St. Augustine","zip":32084,"phone":"Phone: 904-669-9806","geometry":{"type":"Point","coordinates":[-81.316205,29.906902]},"id":"a63atsnzvbfr","address":"11 Magnolia Ave.","lat":29.906902,"state":"FL"},{"city":"St. Louis","lon":-90.375624,"storename":"Segway of St. Louis","zip":63119,"phone":"Phone: 314-961-8100","geometry":{"type":"Point","coordinates":[-90.375624,38.606034]},"id":"a63atshji8oi","address":"9840 Manchester Road","lat":38.606034,"state":"MO"},{"city":"Tucson","lon":-110.965742,"storename":"Segway of Tucson","zip":85705,"phone":"Phone: 520-749-5325","geometry":{"type":"Point","coordinates":[-110.965742,32.228188]},"id":"a63atsc4lm3w","address":"531 N. 4th Avenue","lat":32.228188,"state":"AZ"},{"city":"Spanish Fork","lon":-111.654969,"storename":"Segway of Utah","zip":84660,"phone":"Phone: 801- 794-6262","geometry":{"type":"Point","coordinates":[-111.654969,40.107948]},"id":"a63ats9lgoor","address":"136 South Main St.","lat":40.107948,"state":"UT"},{"city":"New Smyrna Beach","lon":-80.899817,"storename":"Segway of Volusia County","zip":32169,"phone":"Phone: 386-402-8992","geometry":{"type":"Point","coordinates":[-80.899817,29.038391]},"id":"a63atsaxumnd","address":"307 Flagler Avenue","lat":29.038391,"state":"FL"},{"city":"Westbrook","lon":-72.470108,"storename":"Segway of Westbrook","zip":6498,"phone":"Phone: 860-399-6789","geometry":{"type":"Point","coordinates":[-72.470108,41.277637]},"id":"a63atsdukxf3","address":"16 Old Boston Post Road","lat":41.277637,"state":"CT"},{"city":"Tonawanda","lon":-78.911755,"storename":"Segway of Western New York","zip":14150,"phone":"Phone: 716-876-0600","geometry":{"type":"Point","coordinates":[-78.911755,42.978326]},"id":"a63atslwt7xs","address":"2800 Kenmore Ave.","lat":42.978326,"state":"NY"},{"city":"Poughkeepsie","lon":-73.93849,"storename":"Segway of the Hudson Valley","zip":12601,"phone":"Phone: 845-485-7349","geometry":{"type":"Point","coordinates":[-73.93849,41.705655]},"id":"a63atshigo3w","address":"35 Main St.","lat":41.705655,"state":"NY"},{"city":"Riverside","lon":-117.343592,"storename":"Segway of the Inland Empire","zip":92507,"phone":"Phone: 951-276-4991","geometry":{"type":"Point","coordinates":[-117.343592,33.982892]},"id":"a63atsgnzfr2","address":"1410 3rd St.","lat":33.982892,"state":"CA"},{"city":"Bethlehem","lon":-75.374275,"storename":"Segway of the Lehigh Valley","zip":18015,"phone":"Phone: 610-349-5333","geometry":{"type":"Point","coordinates":[-75.374275,40.611961]},"id":"a63ats94t0ez","address":"318 East Third Street","lat":40.611961,"state":"PA"},{"city":"Mandeville","lon":-90.064098,"storename":"SouthCoast Segway","zip":70448,"phone":"Phone: 888-5SEGWAY","geometry":{"type":"Point","coordinates":[-90.064098,30.360576]},"id":"a63atsavdzxs","address":"2020 Woodrow Street","lat":30.360576,"state":"LA"},{"city":"Mobile","lon":-88.120303,"storename":"SouthCoast Segway","zip":36606,"phone":"Phone: 888-5SEGWAY","geometry":{"type":"Point","coordinates":[-88.120303,30.687376]},"id":"a63atsh3ysps","address":"62 Midtown Park Dr. East","lat":30.687376,"state":"AL"},{"city":"New Orleans","lon":-90.061087,"storename":"Southcoast Segway","zip":70116,"phone":"Phone: 504-942-1970","geometry":{"type":"Point","coordinates":[-90.061087,29.958868]},"id":"a63ats9y6fiv","address":"941 Decatur","lat":29.958868,"state":"LA"},{"city":"Ocala","lon":-82.134233,"storename":"Sunshine Segway","zip":34471,"phone":"Phone: 352-207-4341","geometry":{"type":"Point","coordinates":[-82.134233,29.171777]},"id":"a63atslndmcv","address":"303 SE 17th St","lat":29.171777,"state":"FL"},{"city":"Amarillo","lon":-101.91818,"storename":"Texas Segway - Amarillo","zip":79106,"phone":"Phone: 806-353-4800","geometry":{"type":"Point","coordinates":[-101.91818,35.186188]},"id":"a63atsgxpmqq","address":"7201 Interstate 40 West","lat":35.186188,"state":"TX"},{"city":"Austin","lon":-97.736957,"storename":"Texas Segway - Austin","zip":78701,"phone":"Phone: 512-689-1211","geometry":{"type":"Point","coordinates":[-97.736957,30.266296]},"id":"a63atsan0x6t","address":"621 East 6th Street","lat":30.266296,"state":"TX"},{"city":"Hurst","lon":-97.196092,"storename":"Texas Segway - Fort Worth","zip":76053,"phone":"Phone: 817-284-9191","geometry":{"type":"Point","coordinates":[-97.196092,32.835959]},"id":"a63atscqgwtb","address":"8712 West Airport Freeway","lat":32.835959,"state":"TX"},{"city":"Waco","lon":-97.127397,"storename":"Texas Segway - Waco","zip":76011,"phone":"Phone: 254-644-5864","geometry":{"type":"Point","coordinates":[-97.127397,31.557535]},"id":"a63atsku3v77","address":"213 Mary Ave","lat":31.557535,"state":"TX"},{"city":"Ashburn","lon":-77.444063,"storename":"TriState Segway","zip":20147,"phone":"Phone: 703.880.9006","geometry":{"type":"Point","coordinates":[-77.444063,39.056903]},"id":"a63ats9vqusq","address":"44927 George Washington Blvd.","lat":39.056903,"state":"VA"},{"city":"Raleigh","lon":-78.635699,"storename":"Triangle Segway","zip":27601,"phone":"Phone: 919-828-1988","geometry":{"type":"Point","coordinates":[-78.635699,35.776285]},"id":"a63atsffahnu","address":"327 Blake Street","lat":35.776285,"state":"NC"},{"city":"Wildwood","lon":-74.824974,"storename":"Wildwood Segway","zip":8260,"phone":"Phone: 609-522-7151","geometry":{"type":"Point","coordinates":[-74.824974,38.984608]},"id":"a63atskm8xtj","address":"125 W. Rio Grand Ave","lat":38.984608,"state":"NJ"},{"city":"Cypress","lon":-95.619393,"storename":"ZRIDERS of Texas","zip":77429,"phone":"Phone: 281-370-2486","geometry":{"type":"Point","coordinates":[-95.619393,29.991323]},"id":"a63atscsargk","address":"12946 Grant Road","lat":29.991323,"state":"TX"},{"city":"San Antonio","lon":-98.603103,"storename":"ZRIDERS of Texas","zip":78238,"phone":"Phone: 210-680-9191","geometry":{"type":"Point","coordinates":[-98.603103,29.47872]},"id":"a63ats91e6vd","address":"5948 Zangs Rd.","lat":29.47872,"state":"TX"}],"geometry_types":["point"],"unique_name":null,"name":"Segway, Segway Dealer Locations, USA, 6.2008","feature_count":102,"state":"complete","published":"2008-06-19T12:00:00Z","description":"This dataset displays all the Segway Dealer Locations throughout the USA as of 6.2008. The information includes; Store Name, Store Location, Store Phone. The data comes from the website of Segway at segway.com and the lat/lons were obtained by geocoding the location's street address.\n","stats":{"lon":{"max": -71.528008, "mean": -93.3138389215687, "variance": 276.514429270696, "stdev": 16.6287230198442, "min": -157.835822, "median": -90.061087},"zip":{"max": 98109, "mean": 54440.9509803922, "variance": 849161700.126286, "stdev": 29140.3792035431, "min": 1089, "median": 58103},"lat":{"max": 47.618435, "mean": 36.4214795, "variance": 28.765454876532, "stdev": 5.36334362842173, "min": 21.284653, "median": 36.636197}},"next_feature":null,"is_raster":false,"pagination":{"sort":null,"start":0,"limit":1000000,"total":102},"short_classification":"Y","is_temporal":false,"author":{"metadata":"","url":"http://www.segway.com/","contact_name":"","contact_address":"","source":"Segway","contact_phone":""},"source":"http://www.segway.com/","data_type":"Dataset","permissions":[{"group_id":"everyone","permissions":{"download":true,"view":true}}],"classification":null,"tags":"commute,recreation,segway,transportation,travel,usa,vehicle","id":2189}