{"type":"FeatureCollection","data_type":"Dataset","url_type":null,"permissions":[{"permissions":{"download":true,"view":true},"group_id":"everyone"}],"classification":null,"title":"Ed_-_Real_Estate_-_ran_March_23rd","count":272,"stream_id":219241,"contributor":{"url":"http://geocommons.com/users/39447","name":"sam.felipe"},"data_attributes":null,"calculation_params":null,"icon_link":null,"link":"http://geocommons.com/overlays/219241.json","extent":[-118.88,33.7275,-117.742,34.4464],"geometry_types":["point"],"unique_name":null,"name":"Ed_-_Real_Estate_-_ran_March_23rd","feature_count":272,"description":"","next_feature":null,"is_raster":false,"short_classification":"Y","stats":{"rep? (1 for yes, 0 for no)":{"max":1,"mean":0.586715867158672,"variance":0.243378433784337,"stdev":0.493333998204398,"min":0,"median":1}},"features":[{"properties":{"rep? (1 for yes, 0 for no)":1,"city":"City of Industry","zip":"91789","geo_score":0.923,"street address":"20803 Valley Blvd","id":"a66t0estydxo","geo_precision":"range","state":"CA"},"type":"Feature","geometry":{"type":"Point","coordinates":[-117.849641,34.015787]}},{"properties":{"rep? (1 for yes, 0 for no)":0,"city":"Pasadena","zip":"91101","geo_score":0.878,"street address":"388 South Lake Ave","id":"a66t0eu2p4nh","geo_precision":"range","state":"CA"},"type":"Feature","geometry":{"type":"Point","coordinates":[-118.132301,34.139815]}},{"properties":{"rep? (1 for yes, 0 for no)":0,"city":"Pico Rivera","zip":"90660","geo_score":0.941,"street address":"9155 Telegraph Rd","id":"a66t0erw2fhe","geo_precision":"range","state":"CA"},"type":"Feature","geometry":{"type":"Point","coordinates":[-118.107712,33.959386]}},{"properties":{"rep? (1 for yes, 0 for no)":1,"city":"Beverly Hills","zip":"90210","geo_score":1.0,"street address":"301 North Canon Drive","id":"a66t0eteod1p","geo_precision":"range","state":"CA"},"type":"Feature","geometry":{"type":"Point","coordinates":[-118.399473,34.069207]}},{"properties":{"rep? (1 for yes, 0 for no)":1,"city":"Northridge","zip":"91326","geo_score":0.938,"street address":"11141 Tampa Avenue","id":"a66t0f4lbs04","geo_precision":"range","state":"CA"},"type":"Feature","geometry":{"type":"Point","coordinates":[-118.556158,34.272476]}},{"properties":{"rep? (1 for yes, 0 for no)":0,"city":"Arcadia","zip":"91007","geo_score":0.973,"street address":"556 W Las Tunas Dr","id":"a66t0f5tfkxr","geo_precision":"range","state":"CA"},"type":"Feature","geometry":{"type":"Point","coordinates":[-118.049527,34.107553]}},{"properties":{"rep? (1 for yes, 0 for no)":1,"city":"Beverly Hills","zip":"90210","geo_score":1.0,"street address":"166 N Canon Drive","id":"a66t0ez5lce3","geo_precision":"range","state":"CA"},"type":"Feature","geometry":{"type":"Point","coordinates":[-118.397817,34.067587]}},{"properties":{"rep? (1 for yes, 0 for no)":0,"city":"Pasadena","zip":"91101","geo_score":0.878,"street address":"540 S Lake Ave","id":"a66t0f4d8nq5","geo_precision":"range","state":"CA"},"type":"Feature","geometry":{"type":"Point","coordinates":[-118.132293,34.138292]}},{"properties":{"rep? (1 for yes, 0 for no)":1,"city":"Beverly Hills","zip":"90210","geo_score":1.0,"street address":"338 N Canon Drive","id":"a66t0evsta03","geo_precision":"range","state":"CA"},"type":"Feature","geometry":{"type":"Point","coordinates":[-118.399924,34.069761]}},{"properties":{"rep? (1 for yes, 0 for no)":0,"city":"Long Beach","zip":"90803","geo_score":0.887,"street address":"244 Redondo Ave","id":"a66t0f4yvd0l","geo_precision":"range","state":"CA"},"type":"Feature","geometry":{"type":"Point","coordinates":[-118.152411,33.765978]}},{"properties":{"rep? (1 for yes, 0 for no)":1,"city":"Newhall","zip":"91381","geo_score":0.916,"street address":"25101 The Old Road","id":"a66t0etdc6wh","geo_precision":"range","state":"CA"},"type":"Feature","geometry":{"type":"Point","coordinates":[-118.561447,34.371621]}},{"properties":{"rep? (1 for yes, 0 for no)":0,"city":"Calabasas","zip":"91302","geo_score":0.708,"street address":"23925 Park Sorrento","id":"a66t0eqvy65z","geo_precision":"street","state":"CA"},"type":"Feature","geometry":{"type":"Point","coordinates":[-118.642449,34.154695]}},{"properties":{"rep? (1 for yes, 0 for no)":1,"city":"Glendale","zip":"91201","geo_score":1.0,"street address":"1625 W Glenoaks Blvd","id":"a66t0exdwnbp","geo_precision":"range","state":"CA"},"type":"Feature","geometry":{"type":"Point","coordinates":[-118.288647,34.170483]}},{"properties":{"rep? (1 for yes, 0 for no)":1,"city":"Beverly Hills","zip":"90210","geo_score":1.0,"street address":"250 N Canon Drive","id":"a66t0exppzth","geo_precision":"range","state":"CA"},"type":"Feature","geometry":{"type":"Point","coordinates":[-118.398769,34.068537]}},{"properties":{"rep? (1 for yes, 0 for no)":1,"city":"Palos Verdes Estates","zip":"90274","geo_score":0.949,"street address":"63 Malaga Cove Plaza","id":"a66t0f2biwz5","geo_precision":"range","state":"CA"},"type":"Feature","geometry":{"type":"Point","coordinates":[-118.389425,33.800095]}},{"properties":{"rep? (1 for yes, 0 for no)":0,"city":"Pasadena","zip":"91101","geo_score":0.805,"street address":"459 East Colorado Blvd","id":"a66t0f225js7","geo_precision":"range","state":"CA"},"type":"Feature","geometry":{"type":"Point","coordinates":[-118.140829,34.145844]}},{"properties":{"rep? (1 for yes, 0 for no)":0,"city":"Pasadena","zip":"91105","geo_score":0.976,"street address":"445 Fair Oaks Ave","id":"a66t0epfb5sd","geo_precision":"range","state":"CA"},"type":"Feature","geometry":{"type":"Point","coordinates":[-118.150398,34.138274]}},{"properties":{"rep? (1 for yes, 0 for no)":1,"city":"Studio City","zip":"91604","geo_score":1.0,"street address":"12930 Ventura Blvd","id":"a66t0evqsx5r","geo_precision":"range","state":"CA"},"type":"Feature","geometry":{"type":"Point","coordinates":[-118.414149,34.145202]}},{"properties":{"rep? (1 for yes, 0 for no)":1,"city":"Northridge","zip":"91324","geo_score":1.0,"street address":"9137 Reseda Blvd","id":"a66t0ev1o2a7","geo_precision":"range","state":"CA"},"type":"Feature","geometry":{"type":"Point","coordinates":[-118.536085,34.236157]}},{"properties":{"rep? (1 for yes, 0 for no)":1,"city":"Calabasas","zip":"91302","geo_score":0.902,"street address":"23528 Calabasas Road","id":"a66t0f4gko54","geo_precision":"range","state":"CA"},"type":"Feature","geometry":{"type":"Point","coordinates":[-118.640897,34.156782]}},{"properties":{"rep? (1 for yes, 0 for no)":0,"city":"Encino","zip":"91436","geo_score":1.0,"street address":"16810 Ventura Blvd","id":"a66t0f4c4caa","geo_precision":"range","state":"CA"},"type":"Feature","geometry":{"type":"Point","coordinates":[-118.499083,34.158804]}},{"properties":{"rep? (1 for yes, 0 for no)":1,"city":"Beverly Hills","zip":"90212","geo_score":1.0,"street address":"9696 Wilshire Blvd","id":"a66t0f55g34l","geo_precision":"range","state":"CA"},"type":"Feature","geometry":{"type":"Point","coordinates":[-118.405379,34.067068]}},{"properties":{"rep? (1 for yes, 0 for no)":1,"city":"Palos Verdes Estates","zip":"90275","geo_score":0.93,"street address":"450 Silver Spur Rd","id":"a66t0exysk13","geo_precision":"range","state":"CA"},"type":"Feature","geometry":{"type":"Point","coordinates":[-118.372731,33.772634]}},{"properties":{"rep? (1 for yes, 0 for no)":1,"city":"Woodland Hills","zip":"91364","geo_score":0.93,"street address":"21031 Ventura Blvd","id":"a66t0ex21hbp","geo_precision":"range","state":"CA"},"type":"Feature","geometry":{"type":"Point","coordinates":[-118.591363,34.166683]}},{"properties":{"rep? (1 for yes, 0 for no)":1,"city":"Torrance","zip":"90505","geo_score":0.955,"street address":"23670 Hawthorne Bl","id":"a66t0ev2mgo6","geo_precision":"range","state":"CA"},"type":"Feature","geometry":{"type":"Point","coordinates":[-118.351012,33.810401]}},{"properties":{"rep? (1 for yes, 0 for no)":1,"city":"Los Angeles","zip":"90027","geo_score":1.0,"street address":"1660 Hillhurst Ave","id":"a66t0esphipl","geo_precision":"range","state":"CA"},"type":"Feature","geometry":{"type":"Point","coordinates":[-118.287401,34.101236]}},{"properties":{"rep? (1 for yes, 0 for no)":0,"city":"Malibu","zip":"90265","geo_score":0.919,"street address":"23676 Malibu Road","id":"a66t0f0hkbgw","geo_precision":"range","state":"CA"},"type":"Feature","geometry":{"type":"Point","coordinates":[-118.690468,34.03382]}},{"properties":{"rep? (1 for yes, 0 for no)":1,"city":"Studio City","zip":"91604","geo_score":1.0,"street address":"12711 Ventura Blvd","id":"a66t0etcasy4","geo_precision":"range","state":"CA"},"type":"Feature","geometry":{"type":"Point","coordinates":[-118.409327,34.144602]}},{"properties":{"rep? (1 for yes, 0 for no)":1,"city":"Sherman Oaks","zip":"91423","geo_score":1.0,"street address":"14242 Ventura Blvd","id":"a66t0f4ilxhh","geo_precision":"range","state":"CA"},"type":"Feature","geometry":{"type":"Point","coordinates":[-118.442143,34.14983]}},{"properties":{"rep? (1 for yes, 0 for no)":1,"city":"Burbank","zip":"91502","geo_score":0.902,"street address":"401 S First St","id":"a66t0ewxp3d1","geo_precision":"range","state":"CA"},"type":"Feature","geometry":{"type":"Point","coordinates":[-118.306984,34.177468]}},{"properties":{"rep? (1 for yes, 0 for no)":1,"city":"El Segundo","zip":"90245","geo_score":0.913,"street address":"319 Main St","id":"a66t0estzkbn","geo_precision":"range","state":"CA"},"type":"Feature","geometry":{"type":"Point","coordinates":[-118.415934,33.920599]}},{"properties":{"rep? (1 for yes, 0 for no)":1,"city":"Glendale","zip":"91203","geo_score":1.0,"street address":"411 N Central Ave","id":"a66t0erw2rsd","geo_precision":"range","state":"CA"},"type":"Feature","geometry":{"type":"Point","coordinates":[-118.257898,34.151923]}},{"properties":{"rep? (1 for yes, 0 for no)":0,"city":"Los Angeles","zip":"90049","geo_score":0.912,"street address":"11999 San Vicente Blvd","id":"a66t0etlg37l","geo_precision":"range","state":"CA"},"type":"Feature","geometry":{"type":"Point","coordinates":[-118.472886,34.052043]}},{"properties":{"rep? (1 for yes, 0 for no)":1,"city":"Santa Monica","zip":"90405","geo_score":0.819,"street address":"2701 Ocean Park Blvd Ste 140","id":"a66t0eqrdf8e","geo_precision":"range","state":"CA"},"type":"Feature","geometry":{"type":"Point","coordinates":[-118.456712,34.018302]}},{"properties":{"rep? (1 for yes, 0 for no)":0,"city":"Long Beach","zip":"90804","geo_score":1.0,"street address":"1650 Ximeno Ave","id":"a66t0ey1rhjy","geo_precision":"range","state":"CA"},"type":"Feature","geometry":{"type":"Point","coordinates":[-118.141114,33.786471]}},{"properties":{"rep? (1 for yes, 0 for no)":0,"city":"Los Angeles","zip":"90069","geo_score":0.8,"street address":"9000 Sunset","id":"a66t0f3woy0t","geo_precision":"range","state":"CA"},"type":"Feature","geometry":{"type":"Point","coordinates":[-118.387628,34.090643]}},{"properties":{"rep? (1 for yes, 0 for no)":1,"city":"Flintridge","zip":"91011","geo_score":0.957,"street address":"1030 Foothill Blvd","id":"a66t0ewlxkbk","geo_precision":"range","state":"CA"},"type":"Feature","geometry":{"type":"Point","coordinates":[-118.2011,34.204843]}},{"properties":{"rep? (1 for yes, 0 for no)":1,"city":"Torrance","zip":"90503","geo_score":0.915,"street address":"3480 Torrance Blvd","id":"a66t0esf7u9h","geo_precision":"range","state":"CA"},"type":"Feature","geometry":{"type":"Point","coordinates":[-118.34661,33.837564]}},{"properties":{"rep? (1 for yes, 0 for no)":0,"city":"Woodland Hills","zip":"91367","geo_score":1.0,"street address":"6355 Topanga Canyon Blvd","id":"a66t0eskrze6","geo_precision":"range","state":"CA"},"type":"Feature","geometry":{"type":"Point","coordinates":[-118.605806,34.186044]}},{"properties":{"rep? (1 for yes, 0 for no)":1,"city":"Los Angeles","zip":"90049","geo_score":0.824,"street address":"11990 San Vicente Blvd Ste 100","id":"a66t0eyyanww","geo_precision":"range","state":"CA"},"type":"Feature","geometry":{"type":"Point","coordinates":[-118.472199,34.052087]}},{"properties":{"rep? (1 for yes, 0 for no)":1,"city":"Sherman Oaks","zip":"91403","geo_score":1.0,"street address":"15490 Ventura Blvd","id":"a66t0f2rv72q","geo_precision":"range","state":"CA"},"type":"Feature","geometry":{"type":"Point","coordinates":[-118.471801,34.154743]}},{"properties":{"rep? (1 for yes, 0 for no)":1,"city":"Torrance","zip":"90505","geo_score":1.0,"street address":"23530 Hawthorne Blvd","id":"a66t0ey4pikf","geo_precision":"range","state":"CA"},"type":"Feature","geometry":{"type":"Point","coordinates":[-118.351007,33.812043]}},{"properties":{"rep? (1 for yes, 0 for no)":1,"city":"Palos Verdes Estates","zip":"90274","geo_score":0.949,"street address":"608 Silver Spur Rd","id":"a66t0f4vmlaw","geo_precision":"range","state":"CA"},"type":"Feature","geometry":{"type":"Point","coordinates":[-118.371689,33.772027]}},{"properties":{"rep? (1 for yes, 0 for no)":0,"city":"City of Industry","zip":"91748","geo_score":0.916,"street address":"17843 Colima Rd","id":"a66t0f5otfw4","geo_precision":"range","state":"CA"},"type":"Feature","geometry":{"type":"Point","coordinates":[-117.921592,33.990265]}},{"properties":{"rep? (1 for yes, 0 for no)":1,"city":"Newhall","zip":"91381","geo_score":0.916,"street address":"26650 The Old Road","id":"a66t0et69vlg","geo_precision":"range","state":"CA"},"type":"Feature","geometry":{"type":"Point","coordinates":[-118.579716,34.408377]}},{"properties":{"rep? (1 for yes, 0 for no)":1,"city":"Encino","zip":"91316","geo_score":0.947,"street address":"17501 Ventura Bl","id":"a66t0ey1htv9","geo_precision":"range","state":"CA"},"type":"Feature","geometry":{"type":"Point","coordinates":[-118.514171,34.161494]}},{"properties":{"rep? (1 for yes, 0 for no)":0,"city":"Marina Del Rey","zip":"90292","geo_score":0.927,"street address":"4644 Admiralty","id":"a66t0f0zhko5","geo_precision":"range","state":"CA"},"type":"Feature","geometry":{"type":"Point","coordinates":[-118.441115,33.981023]}},{"properties":{"rep? (1 for yes, 0 for no)":1,"city":"Manhattan Beach","zip":"90266","geo_score":0.909,"street address":"2501 N Sepulveda 2nd Floor","id":"a66t0f30tfid","geo_precision":"range","state":"CA"},"type":"Feature","geometry":{"type":"Point","coordinates":[-118.395994,33.894618]}},{"properties":{"rep? (1 for yes, 0 for no)":1,"city":"Sherman Oaks","zip":"91423","geo_score":1.0,"street address":"13501 Ventura Blvd","id":"a66t0ewj1rri","geo_precision":"range","state":"CA"},"type":"Feature","geometry":{"type":"Point","coordinates":[-118.427157,34.147346]}},{"properties":{"rep? (1 for yes, 0 for no)":1,"city":"Whittier","zip":"90603","geo_score":0.902,"street address":"15025 Whittier Blvd","id":"a66t0f0cnblg","geo_precision":"range","state":"CA"},"type":"Feature","geometry":{"type":"Point","coordinates":[-118.006218,33.948638]}},{"properties":{"rep? (1 for yes, 0 for no)":1,"city":"Palos Verdes Estates","zip":"90275","geo_score":0.93,"street address":"28901 S Western Ave","id":"a66t0f0gmv03","geo_precision":"range","state":"CA"},"type":"Feature","geometry":{"type":"Point","coordinates":[-118.310294,33.756547]}},{"properties":{"rep? (1 for yes, 0 for no)":1,"city":"Sherman Oaks","zip":"91423","geo_score":0.947,"street address":"13300 Ventura Bl","id":"a66t0eu4aojo","geo_precision":"range","state":"CA"},"type":"Feature","geometry":{"type":"Point","coordinates":[-118.422501,34.146574]}},{"properties":{"rep? (1 for yes, 0 for no)":0,"city":"Thousand Oaks","zip":"91362","geo_score":0.983,"street address":"2860 Thousand Oaks Blvd","id":"a66t0ewsprj9","geo_precision":"range","state":"CA"},"type":"Feature","geometry":{"type":"Point","coordinates":[-118.838544,34.170926]}},{"properties":{"rep? (1 for yes, 0 for no)":0,"city":"Thousand Oaks","zip":"91362","geo_score":1.0,"street address":"340 N Westlake Blvd","id":"a66t0f28ad6n","geo_precision":"range","state":"CA"},"type":"Feature","geometry":{"type":"Point","coordinates":[-118.822746,34.165951]}},{"properties":{"rep? (1 for yes, 0 for no)":0,"city":"Thousand Oaks","zip":"91362","geo_score":0.638,"street address":"30699 Russell Ranch Road","id":"a66t0ewfal72","geo_precision":"street","state":"CA"},"type":"Feature","geometry":{"type":"Point","coordinates":[-118.851418,34.182666]}},{"properties":{"rep? (1 for yes, 0 for no)":1,"city":"Manhattan Beach","zip":"90266","geo_score":0.916,"street address":"400 S Sepulveda","id":"a66t0exdlkes","geo_precision":"range","state":"CA"},"type":"Feature","geometry":{"type":"Point","coordinates":[-118.395965,33.877718]}},{"properties":{"rep? (1 for yes, 0 for no)":1,"city":"Beverly Hills","zip":"90210","geo_score":1.0,"street address":"439 N Canon Dr","id":"a66t0ewwmdia","geo_precision":"range","state":"CA"},"type":"Feature","geometry":{"type":"Point","coordinates":[-118.401549,34.071344]}},{"properties":{"rep? (1 for yes, 0 for no)":0,"city":"Woodland Hills","zip":"91367","geo_score":0.897,"street address":"22144 Clarendon St Ste 120","id":"a66t0eqfyeel","geo_precision":"range","state":"CA"},"type":"Feature","geometry":{"type":"Point","coordinates":[-118.607151,34.169641]}},{"properties":{"rep? (1 for yes, 0 for no)":0,"city":"Los Angeles","zip":"90049","geo_score":0.912,"street address":"11677 San Vicente Blvd","id":"a66t0eqah7ba","geo_precision":"range","state":"CA"},"type":"Feature","geometry":{"type":"Point","coordinates":[-118.464737,34.053666]}},{"properties":{"rep? (1 for yes, 0 for no)":0,"city":"Pasadena","zip":"91108","geo_score":0.935,"street address":"2065 Huntington Dr","id":"a66t0exmv3sz","geo_precision":"range","state":"CA"},"type":"Feature","geometry":{"type":"Point","coordinates":[-118.108826,34.120884]}},{"properties":{"rep? (1 for yes, 0 for no)":1,"city":"Hermosa Beach","zip":"90254","geo_score":1.0,"street address":"950 Artesia Blvd","id":"a66t0eqgpb3c","geo_precision":"range","state":"CA"},"type":"Feature","geometry":{"type":"Point","coordinates":[-118.39516,33.872831]}},{"properties":{"rep? (1 for yes, 0 for no)":1,"city":"Manhattan Beach","zip":"90266","geo_score":0.976,"street address":"1215 Highland Ave","id":"a66t0f06hvtd","geo_precision":"range","state":"CA"},"type":"Feature","geometry":{"type":"Point","coordinates":[-118.410087,33.8858]}},{"properties":{"rep? (1 for yes, 0 for no)":1,"city":"Santa Clarita","zip":"91355","geo_score":0.547,"street address":"25124 Springfield Ct","id":"a66t0euainem","geo_precision":"street","state":"CA"},"type":"Feature","geometry":{"type":"Point","coordinates":[-118.546348,34.268192]}},{"properties":{"rep? (1 for yes, 0 for no)":0,"city":"Arcadia","zip":"91006","geo_score":0.965,"street address":"15 E Foothill Blvd","id":"a66t0f55ccsr","geo_precision":"range","state":"CA"},"type":"Feature","geometry":{"type":"Point","coordinates":[-118.031149,34.150976]}},{"properties":{"rep? (1 for yes, 0 for no)":1,"city":"Redondo Beach","zip":"90277","geo_score":0.911,"street address":"1720 S Elena Ave","id":"a66t0f5r4vtf","geo_precision":"range","state":"CA"},"type":"Feature","geometry":{"type":"Point","coordinates":[-118.385452,33.818242]}},{"properties":{"rep? (1 for yes, 0 for no)":0,"city":"Encino","zip":"91316","geo_score":1.0,"street address":"17327 Ventura Blvd","id":"a66t0esc6w9r","geo_precision":"range","state":"CA"},"type":"Feature","geometry":{"type":"Point","coordinates":[-118.510189,34.160928]}},{"properties":{"rep? (1 for yes, 0 for no)":1,"city":"Palos Verdes Estates","zip":"90274","geo_score":0.949,"street address":"68 Malaga Cove Plaza","id":"a66t0f34ls06","geo_precision":"range","state":"CA"},"type":"Feature","geometry":{"type":"Point","coordinates":[-118.389499,33.800061]}},{"properties":{"rep? (1 for yes, 0 for no)":1,"city":"Los Angeles","zip":"90045","geo_score":0.866,"street address":"7151 W Manchester Blvd","id":"a66t0ey9f7ha","geo_precision":"range","state":"CA"},"type":"Feature","geometry":{"type":"Point","coordinates":[-118.417547,33.959738]}},{"properties":{"rep? (1 for yes, 0 for no)":1,"city":"Torrance","zip":"90505","geo_score":1.0,"street address":"23900 Hawthorne Blvd","id":"a66t0ergsmww","geo_precision":"range","state":"CA"},"type":"Feature","geometry":{"type":"Point","coordinates":[-118.351025,33.807554]}},{"properties":{"rep? (1 for yes, 0 for no)":1,"city":"Sherman Oaks","zip":"91403","geo_score":0.897,"street address":"15300 Ventura Blvd Ste 101","id":"a66t0ezcal1k","geo_precision":"range","state":"CA"},"type":"Feature","geometry":{"type":"Point","coordinates":[-118.466216,34.153817]}},{"properties":{"rep? (1 for yes, 0 for no)":0,"city":"Long Beach","zip":"90803","geo_score":0.913,"street address":"6695 E Pacific Coast Hwy","id":"a66t0eu4xcux","geo_precision":"range","state":"CA"},"type":"Feature","geometry":{"type":"Point","coordinates":[-118.110289,33.757075]}},{"properties":{"rep? (1 for yes, 0 for no)":0,"city":"Pacific Palisades","zip":"90272","geo_score":0.927,"street address":"881 Alma Real Dr","id":"a66t0ezaf0p1","geo_precision":"range","state":"CA"},"type":"Feature","geometry":{"type":"Point","coordinates":[-118.52509,34.045114]}},{"properties":{"rep? (1 for yes, 0 for no)":1,"city":"Manhattan Beach","zip":"90266","geo_score":0.976,"street address":"3300 Highland Avenue","id":"a66t0etkdpav","geo_precision":"range","state":"CA"},"type":"Feature","geometry":{"type":"Point","coordinates":[-118.416722,33.89845]}},{"properties":{"rep? (1 for yes, 0 for no)":1,"city":"Granada Hills","zip":"91344","geo_score":1.0,"street address":"10146 Balboa Blvd","id":"a66t0exz577u","geo_precision":"range","state":"CA"},"type":"Feature","geometry":{"type":"Point","coordinates":[-118.502363,34.254741]}},{"properties":{"rep? (1 for yes, 0 for no)":0,"city":"Marina Del Rey","zip":"90292","geo_score":0.958,"street address":"155 Washington Bl","id":"a66t0ey03njt","geo_precision":"range","state":"CA"},"type":"Feature","geometry":{"type":"Point","coordinates":[-118.464604,33.980334]}},{"properties":{"rep? (1 for yes, 0 for no)":0,"city":"Northridge","zip":"91324","geo_score":0.941,"street address":"9324 Reseda Bl","id":"a66t0f18vvab","geo_precision":"range","state":"CA"},"type":"Feature","geometry":{"type":"Point","coordinates":[-118.536087,34.239565]}},{"properties":{"rep? (1 for yes, 0 for no)":0,"city":"Pacific Palisades","zip":"90272","geo_score":0.927,"street address":"15101 Sunset Blvd","id":"a66t0epx7c8b","geo_precision":"range","state":"CA"},"type":"Feature","geometry":{"type":"Point","coordinates":[-118.52299,34.045058]}},{"properties":{"rep? (1 for yes, 0 for no)":0,"city":"Arcadia","zip":"91006","geo_score":0.775,"street address":"223 N First Ave Suite 101","id":"a66t0eshafg5","geo_precision":"range","state":"CA"},"type":"Feature","geometry":{"type":"Point","coordinates":[-118.024917,34.148317]}},{"properties":{"rep? (1 for yes, 0 for no)":1,"city":"Beverly Hills","zip":"90210","geo_score":1.0,"street address":"266 N Beverly Dr","id":"a66t0eu7rjbl","geo_precision":"range","state":"CA"},"type":"Feature","geometry":{"type":"Point","coordinates":[-118.400008,34.068032]}},{"properties":{"rep? (1 for yes, 0 for no)":0,"city":"Los Angeles","zip":"90027","geo_score":1.0,"street address":"1917 Hillhurst Ave","id":"a66t0etfhcjd","geo_precision":"range","state":"CA"},"type":"Feature","geometry":{"type":"Point","coordinates":[-118.287416,34.1059]}},{"properties":{"rep? (1 for yes, 0 for no)":1,"city":"Northridge","zip":"91324","geo_score":1.0,"street address":"9338 Reseda Blvd","id":"a66t0f07e4cq","geo_precision":"range","state":"CA"},"type":"Feature","geometry":{"type":"Point","coordinates":[-118.536087,34.239825]}},{"properties":{"rep? (1 for yes, 0 for no)":0,"city":"Los Angeles","zip":"90069","geo_score":0.779,"street address":"9000 Sunset Blvd Suite 1100","id":"a66t0f52lb6n","geo_precision":"range","state":"CA"},"type":"Feature","geometry":{"type":"Point","coordinates":[-118.387628,34.090643]}},{"properties":{"rep? (1 for yes, 0 for no)":1,"city":"City of Industry","zip":"91745","geo_score":0.915,"street address":"16404 Colima Rd","id":"a66t0f04rj1k","geo_precision":"range","state":"CA"},"type":"Feature","geometry":{"type":"Point","coordinates":[-117.953894,33.985905]}},{"properties":{"rep? (1 for yes, 0 for no)":0,"city":"Studio City","zip":"91604","geo_score":1.0,"street address":"13103 Ventura Blvd","id":"a66t0f3qxq54","geo_precision":"range","state":"CA"},"type":"Feature","geometry":{"type":"Point","coordinates":[-118.418395,34.145895]}},{"properties":{"rep? (1 for yes, 0 for no)":0,"city":"Covina","zip":"91723","geo_score":0.941,"street address":"475 E Badillo","id":"a66t0f2bo965","geo_precision":"range","state":"CA"},"type":"Feature","geometry":{"type":"Point","coordinates":[-117.882153,34.086121]}},{"properties":{"rep? (1 for yes, 0 for no)":0,"city":"Santa Monica","zip":"90403","geo_score":1.0,"street address":"3130 Wilshire Blvd","id":"a66t0f513dwh","geo_precision":"range","state":"CA"},"type":"Feature","geometry":{"type":"Point","coordinates":[-118.472506,34.040053]}},{"properties":{"rep? (1 for yes, 0 for no)":0,"city":"Los Angeles","zip":"90024","geo_score":1.0,"street address":"10880 Wilshire Blvd","id":"a66t0esnibp5","geo_precision":"range","state":"CA"},"type":"Feature","geometry":{"type":"Point","coordinates":[-118.442588,34.05912]}},{"properties":{"rep? (1 for yes, 0 for no)":1,"city":"Torrance","zip":"90505","geo_score":0.908,"street address":"23740 Hawthorne Blvd 2nd Floor","id":"a66t0f5bm2x0","geo_precision":"range","state":"CA"},"type":"Feature","geometry":{"type":"Point","coordinates":[-118.351015,33.809562]}},{"properties":{"rep? (1 for yes, 0 for no)":1,"city":"Norwalk","zip":"90650","geo_score":0.912,"street address":"10937 Alondra Blvd","id":"a66t0ez8u8xy","geo_precision":"range","state":"CA"},"type":"Feature","geometry":{"type":"Point","coordinates":[-118.101803,33.887528]}},{"properties":{"rep? (1 for yes, 0 for no)":0,"city":"Long Beach","zip":"90803","geo_score":0.913,"street address":"6621 E Pacific Coast Hwy","id":"a66t0eva7lyj","geo_precision":"range","state":"CA"},"type":"Feature","geometry":{"type":"Point","coordinates":[-118.111024,33.757873]}},{"properties":{"rep? (1 for yes, 0 for no)":1,"city":"Beverly Hills","zip":"90210","geo_score":1.0,"street address":"421 North Beverly Dr","id":"a66t0f0kudqs","geo_precision":"range","state":"CA"},"type":"Feature","geometry":{"type":"Point","coordinates":[-118.402233,34.070314]}},{"properties":{"rep? (1 for yes, 0 for no)":0,"city":"Calabasas","zip":"91302","geo_score":0.902,"street address":"23586 Calabasas Rd","id":"a66t0f2xh5yt","geo_precision":"range","state":"CA"},"type":"Feature","geometry":{"type":"Point","coordinates":[-118.642413,34.156035]}},{"properties":{"rep? (1 for yes, 0 for no)":1,"city":"Beverly Hills","zip":"90210","geo_score":1.0,"street address":"355 N Canon Drive","id":"a66t0eytv3zy","geo_precision":"range","state":"CA"},"type":"Feature","geometry":{"type":"Point","coordinates":[-118.400114,34.069995]}},{"properties":{"rep? (1 for yes, 0 for no)":1,"city":"Redondo Beach","zip":"90277","geo_score":0.911,"street address":"511 Torrance Blvd","id":"a66t0f0t93uj","geo_precision":"range","state":"CA"},"type":"Feature","geometry":{"type":"Point","coordinates":[-118.383166,33.837927]}},{"properties":{"rep? (1 for yes, 0 for no)":0,"city":"Alhambra","zip":"91801","geo_score":1.0,"street address":"1611 S Garfield Ave","id":"a66t0ex78jp5","geo_precision":"range","state":"CA"},"type":"Feature","geometry":{"type":"Point","coordinates":[-118.122975,34.075952]}},{"properties":{"rep? (1 for yes, 0 for no)":0,"city":"Los Angeles","zip":"90010","geo_score":1.0,"street address":"3333 Wilshire Blvd","id":"a66t0eves282","geo_precision":"range","state":"CA"},"type":"Feature","geometry":{"type":"Point","coordinates":[-118.295066,34.061773]}},{"properties":{"rep? (1 for yes, 0 for no)":0,"city":"Malibu","zip":"90265","geo_score":0.919,"street address":"23405 Pacific Coast Hwy","id":"a66t0f0ny2ty","geo_precision":"range","state":"CA"},"type":"Feature","geometry":{"type":"Point","coordinates":[-118.683028,34.034577]}},{"properties":{"rep? (1 for yes, 0 for no)":0,"city":"South Pasadena","zip":"91030","geo_score":1.0,"street address":"1499 Huntington Dr","id":"a66t0f2qqknf","geo_precision":"range","state":"CA"},"type":"Feature","geometry":{"type":"Point","coordinates":[-118.150899,34.104058]}},{"properties":{"rep? (1 for yes, 0 for no)":1,"city":"Norwalk","zip":"90650","geo_score":0.912,"street address":"11716 Rosecrans Ave","id":"a66t0f5dcxs0","geo_precision":"range","state":"CA"},"type":"Feature","geometry":{"type":"Point","coordinates":[-118.083879,33.902134]}},{"properties":{"rep? (1 for yes, 0 for no)":1,"city":"Artesia","zip":"90703","geo_score":0.878,"street address":"11306 E 183rd St","id":"a66t0esyxwi5","geo_precision":"range","state":"CA"},"type":"Feature","geometry":{"type":"Point","coordinates":[-118.093208,33.865668]}},{"properties":{"rep? (1 for yes, 0 for no)":1,"city":"Studio City","zip":"91604","geo_score":0.976,"street address":"12345 Ventura Blvd A","id":"a66t0f3i20yf","geo_precision":"range","state":"CA"},"type":"Feature","geometry":{"type":"Point","coordinates":[-118.401641,34.142984]}},{"properties":{"rep? (1 for yes, 0 for no)":0,"city":"Arcadia","zip":"91007","geo_score":1.0,"street address":"660 W Huntington Dr","id":"a66t0eufrgh3","geo_precision":"range","state":"CA"},"type":"Feature","geometry":{"type":"Point","coordinates":[-118.053493,34.13173]}},{"properties":{"rep? (1 for yes, 0 for no)":1,"city":"Torrance","zip":"90505","geo_score":1.0,"street address":"23900 Hawthorne Blvd","id":"a66t0exl7sxs","geo_precision":"range","state":"CA"},"type":"Feature","geometry":{"type":"Point","coordinates":[-118.351025,33.807554]}},{"properties":{"rep? (1 for yes, 0 for no)":1,"city":"Diamond Bar","zip":"91765","geo_score":1.0,"street address":"1950 S Brea Canyon Rd","id":"a66t0f1f0567","geo_precision":"range","state":"CA"},"type":"Feature","geometry":{"type":"Point","coordinates":[-117.844289,33.986555]}},{"properties":{"rep? (1 for yes, 0 for no)":1,"city":"Diamond Bar","zip":"91765","geo_score":0.87,"street address":"1081 S Grand Ave","id":"a66t0ew6baki","geo_precision":"range","state":"CA"},"type":"Feature","geometry":{"type":"Point","coordinates":[-117.813167,34.001889]}},{"properties":{"rep? (1 for yes, 0 for no)":1,"city":"Hermosa Beach","zip":"90254","geo_score":1.0,"street address":"34 Hermosa Avenue","id":"a66t0exxyg5l","geo_precision":"range","state":"CA"},"type":"Feature","geometry":{"type":"Point","coordinates":[-118.397683,33.853214]}},{"properties":{"rep? (1 for yes, 0 for no)":1,"city":"Glendale","zip":"91203","geo_score":0.89,"street address":"620 N Brand Blvd 2nd Floor","id":"a66t0ethji6w","geo_precision":"range","state":"CA"},"type":"Feature","geometry":{"type":"Point","coordinates":[-118.255121,34.154939]}},{"properties":{"rep? (1 for yes, 0 for no)":0,"city":"Pasadena","zip":"91108","geo_score":0.935,"street address":"2375 Huntington Dr","id":"a66t0ewqba0m","geo_precision":"range","state":"CA"},"type":"Feature","geometry":{"type":"Point","coordinates":[-118.103912,34.122782]}},{"properties":{"rep? (1 for yes, 0 for no)":0,"city":"Bellflower","zip":"90706","geo_score":1.0,"street address":"16911 Bellflower Blvd","id":"a66t0exi1mcd","geo_precision":"range","state":"CA"},"type":"Feature","geometry":{"type":"Point","coordinates":[-118.12522,33.88108]}},{"properties":{"rep? (1 for yes, 0 for no)":0,"city":"Arcadia","zip":"91006","geo_score":0.919,"street address":"317 E Foothill Bl","id":"a66t0evmeijv","geo_precision":"range","state":"CA"},"type":"Feature","geometry":{"type":"Point","coordinates":[-118.022475,34.15109]}},{"properties":{"rep? (1 for yes, 0 for no)":0,"city":"Los Angeles","zip":"90027","geo_score":0.683,"street address":"1801 N Hillhurst Avenue","id":"a66t0etazz8m","geo_precision":"street","state":"CA"},"type":"Feature","geometry":{"type":"Point","coordinates":[-118.287433,34.111888]}},{"properties":{"rep? (1 for yes, 0 for no)":0,"city":"West Hollywood","zip":"90069","geo_score":0.845,"street address":"9255 Sunset Bl Mezzanine","id":"a66t0f4tpdkd","geo_precision":"range","state":"CA"},"type":"Feature","geometry":{"type":"Point","coordinates":[-118.393103,34.090041]}},{"properties":{"rep? (1 for yes, 0 for no)":1,"city":"Norwalk","zip":"90650","geo_score":0.912,"street address":"11642 Firestone Blvd","id":"a66t0f35ggn6","geo_precision":"range","state":"CA"},"type":"Feature","geometry":{"type":"Point","coordinates":[-118.083123,33.913506]}},{"properties":{"rep? (1 for yes, 0 for no)":0,"city":"Calabasas","zip":"91302","geo_score":0.902,"street address":"23647 Calabasas Rd","id":"a66t0f4wyxvo","geo_precision":"range","state":"CA"},"type":"Feature","geometry":{"type":"Point","coordinates":[-118.64349,34.155621]}},{"properties":{"rep? (1 for yes, 0 for no)":0,"city":"Tarzana","zip":"91356","geo_score":1.0,"street address":"18946 Ventura Blvd","id":"a66t0f4lkvq7","geo_precision":"range","state":"CA"},"type":"Feature","geometry":{"type":"Point","coordinates":[-118.546049,34.172458]}},{"properties":{"rep? (1 for yes, 0 for no)":0,"city":"Thousand Oaks","zip":"91362","geo_score":0.805,"street address":"1155 Lindero Canyon Rd","id":"a66t0ez6t881","geo_precision":"street","state":"CA"},"type":"Feature","geometry":{"type":"Point","coordinates":[-118.800937,34.152662]}},{"properties":{"rep? (1 for yes, 0 for no)":0,"city":"Pacific Palisades","zip":"90272","geo_score":0.927,"street address":"15308 Sunset Boulevard","id":"a66t0ewexn0t","geo_precision":"range","state":"CA"},"type":"Feature","geometry":{"type":"Point","coordinates":[-118.525864,34.047454]}},{"properties":{"rep? (1 for yes, 0 for no)":0,"city":"Long Beach","zip":"90803","geo_score":0.816,"street address":"6265 E 2nd Street","id":"a66t0ez2m30w","geo_precision":"range","state":"CA"},"type":"Feature","geometry":{"type":"Point","coordinates":[-118.112655,33.757729]}},{"properties":{"rep? (1 for yes, 0 for no)":1,"city":"Glendale","zip":"91214","geo_score":0.863,"street address":"2943 Foothill Bl","id":"a66t0ezqpyam","geo_precision":"range","state":"CA"},"type":"Feature","geometry":{"type":"Point","coordinates":[-118.243371,34.226301]}},{"properties":{"rep? (1 for yes, 0 for no)":0,"city":"Encino","zip":"91436","geo_score":1.0,"street address":"15531 Ventura Blvd","id":"a66t0evz8npf","geo_precision":"range","state":"CA"},"type":"Feature","geometry":{"type":"Point","coordinates":[-118.472797,34.15489]}},{"properties":{"rep? (1 for yes, 0 for no)":1,"city":"Torrance","zip":"90505","geo_score":1.0,"street address":"23705 Crenshaw Blvd","id":"a66t0estep3r","geo_precision":"range","state":"CA"},"type":"Feature","geometry":{"type":"Point","coordinates":[-118.328039,33.811332]}},{"properties":{"rep? (1 for yes, 0 for no)":0,"city":"Santa Monica","zip":"90403","geo_score":1.0,"street address":"1608 Montana Ave","id":"a66t0es9lk5i","geo_precision":"range","state":"CA"},"type":"Feature","geometry":{"type":"Point","coordinates":[-118.493223,34.033785]}},{"properties":{"rep? (1 for yes, 0 for no)":0,"city":"Long Beach","zip":"90815","geo_score":0.79,"street address":"2610 Los Coyotes Diagonal","id":"a66t0etm3c41","geo_precision":"street","state":"CA"},"type":"Feature","geometry":{"type":"Point","coordinates":[-118.141928,33.790197]}},{"properties":{"rep? (1 for yes, 0 for no)":1,"city":"El Segundo","zip":"90245","geo_score":0.913,"street address":"319 Main Street","id":"a66t0f3bpkaq","geo_precision":"range","state":"CA"},"type":"Feature","geometry":{"type":"Point","coordinates":[-118.415934,33.920599]}},{"properties":{"rep? (1 for yes, 0 for no)":0,"city":"Los Angeles","zip":"90049","geo_score":0.912,"street address":"11726 San Vicente Blvd","id":"a66t0ey9765h","geo_precision":"range","state":"CA"},"type":"Feature","geometry":{"type":"Point","coordinates":[-118.466174,34.053323]}},{"properties":{"rep? (1 for yes, 0 for no)":1,"city":"Los Angeles","zip":"90004","geo_score":1.0,"street address":"118 N Larchmont Blvd","id":"a66t0eq917x1","geo_precision":"range","state":"CA"},"type":"Feature","geometry":{"type":"Point","coordinates":[-118.323531,34.073312]}},{"properties":{"rep? (1 for yes, 0 for no)":0,"city":"Los Angeles","zip":"90049","geo_score":0.912,"street address":"11538 San Vicente Blvd","id":"a66t0ewa4t9k","geo_precision":"range","state":"CA"},"type":"Feature","geometry":{"type":"Point","coordinates":[-118.46131,34.053314]}},{"properties":{"rep? (1 for yes, 0 for no)":1,"city":"Downey","zip":"90240","geo_score":1.0,"street address":"8635 Florence Ave","id":"a66t0f3a0453","geo_precision":"range","state":"CA"},"type":"Feature","geometry":{"type":"Point","coordinates":[-118.118684,33.948193]}},{"properties":{"rep? (1 for yes, 0 for no)":0,"city":"Montebello","zip":"90640","geo_score":0.912,"street address":"830 N Wilcox","id":"a66t0f322zex","geo_precision":"range","state":"CA"},"type":"Feature","geometry":{"type":"Point","coordinates":[-118.124036,34.027339]}},{"properties":{"rep? (1 for yes, 0 for no)":0,"city":"Temple City","zip":"91780","geo_score":1.0,"street address":"9228 Las Tunas Dr","id":"a66t0f3zp0gl","geo_precision":"range","state":"CA"},"type":"Feature","geometry":{"type":"Point","coordinates":[-118.067834,34.105717]}},{"properties":{"rep? (1 for yes, 0 for no)":1,"city":"Artesia","zip":"90703","geo_score":0.915,"street address":"12881 E 166th St","id":"a66t0exc8lx5","geo_precision":"range","state":"CA"},"type":"Feature","geometry":{"type":"Point","coordinates":[-118.058347,33.88047]}},{"properties":{"rep? (1 for yes, 0 for no)":1,"city":"Artesia","zip":"90703","geo_score":0.915,"street address":"11365 183rd St","id":"a66t0et8ukql","geo_precision":"range","state":"CA"},"type":"Feature","geometry":{"type":"Point","coordinates":[-118.092112,33.865678]}},{"properties":{"rep? (1 for yes, 0 for no)":0,"city":"Thousand Oaks","zip":"91360","geo_score":0.829,"street address":"137 E Thousand Oaks","id":"a66t0etxdcw5","geo_precision":"range","state":"CA"},"type":"Feature","geometry":{"type":"Point","coordinates":[-118.879972,34.178357]}},{"properties":{"rep? (1 for yes, 0 for no)":0,"city":"Westlake Village","zip":"91361","geo_score":0.922,"street address":"2555 Townsgate Rd","id":"a66t0evf1trw","geo_precision":"range","state":"CA"},"type":"Feature","geometry":{"type":"Point","coordinates":[-118.830825,34.158677]}},{"properties":{"rep? (1 for yes, 0 for no)":0,"city":"Malibu","zip":"90265","geo_score":0.919,"street address":"29178 Heathercliff Rd","id":"a66t0ezxezl4","geo_precision":"range","state":"CA"},"type":"Feature","geometry":{"type":"Point","coordinates":[-118.809349,34.020711]}},{"properties":{"rep? (1 for yes, 0 for no)":1,"city":"Santa Clarita","zip":"91355","geo_score":0.935,"street address":"27720 Dickason Dr","id":"a66t0f37t9gp","geo_precision":"range","state":"CA"},"type":"Feature","geometry":{"type":"Point","coordinates":[-118.561338,34.44377]}},{"properties":{"rep? (1 for yes, 0 for no)":0,"city":"Temple City","zip":"91780","geo_score":1.0,"street address":"9168 Las Tunas Dr","id":"a66t0ex75r99","geo_precision":"range","state":"CA"},"type":"Feature","geometry":{"type":"Point","coordinates":[-118.068765,34.105568]}},{"properties":{"rep? (1 for yes, 0 for no)":1,"city":"Santa Clarita","zip":"91321","geo_score":0.916,"street address":"24106 Lyons Ave","id":"a66t0f44j76i","geo_precision":"range","state":"CA"},"type":"Feature","geometry":{"type":"Point","coordinates":[-118.556523,34.378796]}},{"properties":{"rep? (1 for yes, 0 for no)":1,"city":"Los Angeles","zip":"90049","geo_score":0.912,"street address":"11812 San Vicente Blvd","id":"a66t0ezl9ucr","geo_precision":"range","state":"CA"},"type":"Feature","geometry":{"type":"Point","coordinates":[-118.468088,34.052929]}},{"properties":{"rep? (1 for yes, 0 for no)":0,"city":"Thousand Oaks","zip":"91362","geo_score":1.0,"street address":"3967 E Thousand Oaks Blvd","id":"a66t0f2p0zsp","geo_precision":"range","state":"CA"},"type":"Feature","geometry":{"type":"Point","coordinates":[-118.823493,34.161176]}},{"properties":{"rep? (1 for yes, 0 for no)":1,"city":"South Gate","zip":"90280","geo_score":0.924,"street address":"9836 Atlantic Ave","id":"a66t0ez84ois","geo_precision":"range","state":"CA"},"type":"Feature","geometry":{"type":"Point","coordinates":[-118.181224,33.942654]}},{"properties":{"rep? (1 for yes, 0 for no)":0,"city":"Calabasas","zip":"91302","geo_score":0.708,"street address":"23975 Park Sorrento","id":"a66t0f2327c9","geo_precision":"street","state":"CA"},"type":"Feature","geometry":{"type":"Point","coordinates":[-118.642449,34.154695]}},{"properties":{"rep? (1 for yes, 0 for no)":0,"city":"Santa Monica","zip":"90403","geo_score":1.0,"street address":"1308 Montana Avenue","id":"a66t0eptbecv","geo_precision":"range","state":"CA"},"type":"Feature","geometry":{"type":"Point","coordinates":[-118.496045,34.031499]}},{"properties":{"rep? (1 for yes, 0 for no)":1,"city":"Glendale","zip":"91207","geo_score":1.0,"street address":"333 E Glenoaks Blvd","id":"a66t0ezrvidl","geo_precision":"range","state":"CA"},"type":"Feature","geometry":{"type":"Point","coordinates":[-118.252363,34.158272]}},{"properties":{"rep? (1 for yes, 0 for no)":1,"city":"City of Industry","zip":"91748","geo_score":0.884,"street address":"19220 E Colima Rd","id":"a66t0f440ppw","geo_precision":"range","state":"CA"},"type":"Feature","geometry":{"type":"Point","coordinates":[-117.884068,33.987197]}},{"properties":{"rep? (1 for yes, 0 for no)":0,"city":"Long Beach","zip":"90807","geo_score":0.909,"street address":"4425 Atlantic Ave Bldg C","id":"a66t0eu5elmj","geo_precision":"range","state":"CA"},"type":"Feature","geometry":{"type":"Point","coordinates":[-118.184999,33.837146]}},{"properties":{"rep? (1 for yes, 0 for no)":1,"city":"Artesia","zip":"90703","geo_score":0.747,"street address":"13217 South St","id":"a66t0eurqcbu","geo_precision":"range","state":"CA"},"type":"Feature","geometry":{"type":"Point","coordinates":[-118.050173,33.858666]}},{"properties":{"rep? (1 for yes, 0 for no)":0,"city":"Santa Monica","zip":"90403","geo_score":0.951,"street address":"2444 Wilshire Bl","id":"a66t0evpie70","geo_precision":"range","state":"CA"},"type":"Feature","geometry":{"type":"Point","coordinates":[-118.479231,34.034658]}},{"properties":{"rep? (1 for yes, 0 for no)":0,"city":"Lakewood","zip":"90715","geo_score":1.0,"street address":"11409 Carson St","id":"a66t0euukj44","geo_precision":"range","state":"CA"},"type":"Feature","geometry":{"type":"Point","coordinates":[-118.089873,33.831438]}},{"properties":{"rep? (1 for yes, 0 for no)":1,"city":"Hermosa Beach","zip":"90254","geo_score":1.0,"street address":"2615 Pacific Coast Hwy","id":"a66t0erc3e6a","geo_precision":"range","state":"CA"},"type":"Feature","geometry":{"type":"Point","coordinates":[-118.395609,33.872991]}},{"properties":{"rep? (1 for yes, 0 for no)":0,"city":"Artesia","zip":"90703","geo_score":0.39,"street address":"11900 South St Ste109b","id":"a66t0exmgzth","geo_precision":"street","state":"CA"},"type":"Feature","geometry":{"type":"Point","coordinates":[-118.09161,33.77342]}},{"properties":{"rep? (1 for yes, 0 for no)":1,"city":"Studio City","zip":"91604","geo_score":1.0,"street address":"12164 Ventura Blvd","id":"a66t0ex42v8c","geo_precision":"range","state":"CA"},"type":"Feature","geometry":{"type":"Point","coordinates":[-118.394576,34.143596]}},{"properties":{"rep? (1 for yes, 0 for no)":1,"city":"Carson","zip":"90745","geo_score":1.0,"street address":"510 W Carson St","id":"a66t0f2f4w8u","geo_precision":"range","state":"CA"},"type":"Feature","geometry":{"type":"Point","coordinates":[-118.284484,33.831552]}},{"properties":{"rep? (1 for yes, 0 for no)":0,"city":"Arcadia","zip":"91007","geo_score":0.912,"street address":"77 W Las Tunas","id":"a66t0ey2smj3","geo_precision":"range","state":"CA"},"type":"Feature","geometry":{"type":"Point","coordinates":[-118.034136,34.107716]}},{"properties":{"rep? (1 for yes, 0 for no)":1,"city":"Rancho Palos Verdes","zip":"90275","geo_score":1.0,"street address":"5 Miraleste Plz","id":"a66t0eqkd1vc","geo_precision":"range","state":"CA"},"type":"Feature","geometry":{"type":"Point","coordinates":[-118.325216,33.748824]}},{"properties":{"rep? (1 for yes, 0 for no)":1,"city":"Rosemead","zip":"91770","geo_score":0.922,"street address":"3501 Hart Ave","id":"a66t0etinr7a","geo_precision":"range","state":"CA"},"type":"Feature","geometry":{"type":"Point","coordinates":[-118.068748,34.072641]}},{"properties":{"rep? (1 for yes, 0 for no)":1,"city":"Marina Del Rey","zip":"90292","geo_score":1.0,"street address":"444 Washington Blvd","id":"a66t0ezc16zn","geo_precision":"range","state":"CA"},"type":"Feature","geometry":{"type":"Point","coordinates":[-118.462397,33.981775]}},{"properties":{"rep? (1 for yes, 0 for no)":1,"city":"Beverly Hills","zip":"90212","geo_score":0.883,"street address":"9378 Wilshire Blvd Suite 200","id":"a66t0ewtoet5","geo_precision":"range","state":"CA"},"type":"Feature","geometry":{"type":"Point","coordinates":[-118.396416,34.067051]}},{"properties":{"rep? (1 for yes, 0 for no)":1,"city":"Beverly Hills","zip":"90210","geo_score":0.889,"street address":"9312 Civic Center Drive Suite 102","id":"a66t0ets0ky9","geo_precision":"range","state":"CA"},"type":"Feature","geometry":{"type":"Point","coordinates":[-118.396314,34.076239]}},{"properties":{"rep? (1 for yes, 0 for no)":0,"city":"Long Beach","zip":"90802","geo_score":1.0,"street address":"401 Pine Ave","id":"a66t0eyx2qxq","geo_precision":"range","state":"CA"},"type":"Feature","geometry":{"type":"Point","coordinates":[-118.192379,33.771707]}},{"properties":{"rep? (1 for yes, 0 for no)":0,"city":"Agoura","zip":"91301","geo_score":0.805,"street address":"29020 Agoura Road Ste A2","id":"a66t0eqf8au1","geo_precision":"range","state":"CA"},"type":"Feature","geometry":{"type":"Point","coordinates":[-118.756854,34.143466]}},{"properties":{"rep? (1 for yes, 0 for no)":0,"city":"Malibu","zip":"90265","geo_score":0.854,"street address":"23410 Civic Center Way Ste E4a","id":"a66t0etk6h9t","geo_precision":"range","state":"CA"},"type":"Feature","geometry":{"type":"Point","coordinates":[-118.685791,34.036834]}},{"properties":{"rep? (1 for yes, 0 for no)":1,"city":"Glendale","zip":"91208","geo_score":1.0,"street address":"2505 Canada Blvd","id":"a66t0ewwsnfb","geo_precision":"range","state":"CA"},"type":"Feature","geometry":{"type":"Point","coordinates":[-118.229056,34.183055]}},{"properties":{"rep? (1 for yes, 0 for no)":1,"city":"Downey","zip":"90241","geo_score":0.493,"street address":"10927 La Reina Ave","id":"a66t0f4g79dk","geo_precision":"street","state":"CA"},"type":"Feature","geometry":{"type":"Point","coordinates":[-118.168939,33.934433]}},{"properties":{"rep? (1 for yes, 0 for no)":0,"city":"Thousand Oaks","zip":"91362","geo_score":1.0,"street address":"3825 E Thousand Oaks Blvd","id":"a66t0epqmlpx","geo_precision":"range","state":"CA"},"type":"Feature","geometry":{"type":"Point","coordinates":[-118.82575,34.162417]}},{"properties":{"rep? (1 for yes, 0 for no)":1,"city":"Manhattan Beach","zip":"90266","geo_score":1.0,"street address":"905 Manhattan Beach Blvd","id":"a66t0erdxvi0","geo_precision":"range","state":"CA"},"type":"Feature","geometry":{"type":"Point","coordinates":[-118.400292,33.887381]}},{"properties":{"rep? (1 for yes, 0 for no)":1,"city":"Hermosa Beach","zip":"90254","geo_score":1.0,"street address":"1601 Pacific Coast Hwy","id":"a66t0f4nbjyb","geo_precision":"range","state":"CA"},"type":"Feature","geometry":{"type":"Point","coordinates":[-118.393529,33.866544]}},{"properties":{"rep? (1 for yes, 0 for no)":0,"city":"Long Beach","zip":"90807","geo_score":1.0,"street address":"3728 Atlantic Avenue","id":"a66t0etc1d07","geo_precision":"range","state":"CA"},"type":"Feature","geometry":{"type":"Point","coordinates":[-118.185013,33.824924]}},{"properties":{"rep? (1 for yes, 0 for no)":0,"city":"Arcadia","zip":"91007","geo_score":0.902,"street address":"2633 S Baldwin Ave","id":"a66t0f3s5qzk","geo_precision":"range","state":"CA"},"type":"Feature","geometry":{"type":"Point","coordinates":[-118.052907,34.111208]}},{"properties":{"rep? (1 for yes, 0 for no)":0,"city":"Arcadia","zip":"91006","geo_score":0.965,"street address":"8 E Foothill Blvd","id":"a66t0eq8v78t","geo_precision":"range","state":"CA"},"type":"Feature","geometry":{"type":"Point","coordinates":[-118.031416,34.150972]}},{"properties":{"rep? (1 for yes, 0 for no)":0,"city":"Los Angeles","zip":"90027","geo_score":1.0,"street address":"1714 Hillhurst Ave","id":"a66t0eqw3b7n","geo_precision":"range","state":"CA"},"type":"Feature","geometry":{"type":"Point","coordinates":[-118.287404,34.102056]}},{"properties":{"rep? (1 for yes, 0 for no)":0,"city":"Pasadena","zip":"91108","geo_score":0.935,"street address":"2310 Huntington Dr","id":"a66t0etycfdg","geo_precision":"range","state":"CA"},"type":"Feature","geometry":{"type":"Point","coordinates":[-118.104694,34.122421]}},{"properties":{"rep? (1 for yes, 0 for no)":0,"city":"City of Industry","zip":"90601","geo_score":0.923,"street address":"12501 Philadelphia Street","id":"a66t0f0wh68y","geo_precision":"range","state":"CA"},"type":"Feature","geometry":{"type":"Point","coordinates":[-118.043167,33.979116]}},{"properties":{"rep? (1 for yes, 0 for no)":0,"city":"Calabasas","zip":"91302","geo_score":0.829,"street address":"5016 N Parkway Calabasas","id":"a66t0f0u11uz","geo_precision":"range","state":"CA"},"type":"Feature","geometry":{"type":"Point","coordinates":[-118.654489,34.15486]}},{"properties":{"rep? (1 for yes, 0 for no)":1,"city":"Covina","zip":"91724","geo_score":0.922,"street address":"1270 E Garvey St","id":"a66t0f3a6ees","geo_precision":"range","state":"CA"},"type":"Feature","geometry":{"type":"Point","coordinates":[-117.861465,34.06887]}},{"properties":{"rep? (1 for yes, 0 for no)":0,"city":"Cerritos","zip":"90703","geo_score":1.0,"street address":"17410 Bloomfield Ave","id":"a66t0f4gfks3","geo_precision":"range","state":"CA"},"type":"Feature","geometry":{"type":"Point","coordinates":[-118.06385,33.87302]}},{"properties":{"rep? (1 for yes, 0 for no)":0,"city":"Sierra Madre","zip":"91024","geo_score":1.0,"street address":"115 W Sierra Madre Blvd","id":"a66t0f08ghcu","geo_precision":"range","state":"CA"},"type":"Feature","geometry":{"type":"Point","coordinates":[-118.055171,34.161874]}},{"properties":{"rep? (1 for yes, 0 for no)":0,"city":"Pasadena","zip":"91101","geo_score":0.406,"street address":"131 N Molino Ave","id":"a66t0extu9oa","geo_precision":"street","state":"CA"},"type":"Feature","geometry":{"type":"Point","coordinates":[-118.15963,34.142669]}},{"properties":{"rep? (1 for yes, 0 for no)":1,"city":"Thousand Oaks","zip":"91362","geo_score":0.931,"street address":"100 N Westlake Blvd 100a","id":"a66t0eso7n8j","geo_precision":"range","state":"CA"},"type":"Feature","geometry":{"type":"Point","coordinates":[-118.822677,34.161553]}},{"properties":{"rep? (1 for yes, 0 for no)":0,"city":"Malibu","zip":"90265","geo_score":0.919,"street address":"23732 Malibu Rd","id":"a66t0f0mdili","geo_precision":"range","state":"CA"},"type":"Feature","geometry":{"type":"Point","coordinates":[-118.692635,34.033624]}},{"properties":{"rep? (1 for yes, 0 for no)":1,"city":"Torrance","zip":"90504","geo_score":1.0,"street address":"3132 W 182nd Street","id":"a66t0f5fpgpu","geo_precision":"range","state":"CA"},"type":"Feature","geometry":{"type":"Point","coordinates":[-118.327008,33.865598]}},{"properties":{"rep? (1 for yes, 0 for no)":0,"city":"Arcadia","zip":"91006","geo_score":0.881,"street address":"124 N 1st Ave","id":"a66t0erre6fb","geo_precision":"range","state":"CA"},"type":"Feature","geometry":{"type":"Point","coordinates":[-118.028369,34.141377]}},{"properties":{"rep? (1 for yes, 0 for no)":1,"city":"Venice","zip":"90291","geo_score":1.0,"street address":"604 Venice Blvd","id":"a66t0eqsxp5c","geo_precision":"range","state":"CA"},"type":"Feature","geometry":{"type":"Point","coordinates":[-118.461907,33.989244]}},{"properties":{"rep? (1 for yes, 0 for no)":1,"city":"Palos Verdes Estates","zip":"90274","geo_score":0.832,"street address":"550 Deep Valley Dr Suite 359","id":"a66t0f5l5953","geo_precision":"range","state":"CA"},"type":"Feature","geometry":{"type":"Point","coordinates":[-118.374751,33.772822]}},{"properties":{"rep? (1 for yes, 0 for no)":0,"city":"Los Angeles","zip":"91101","geo_score":0.81,"street address":"336 S Lake Ave","id":"a66t0eugg87t","geo_precision":"range","state":"CA"},"type":"Feature","geometry":{"type":"Point","coordinates":[-118.132304,34.140336]}},{"properties":{"rep? (1 for yes, 0 for no)":0,"city":"Los Angeles","zip":"90069","geo_score":0.917,"street address":"8687 Melrose Ave","id":"a66t0f4okfbt","geo_precision":"range","state":"CA"},"type":"Feature","geometry":{"type":"Point","coordinates":[-118.382577,34.081537]}},{"properties":{"rep? (1 for yes, 0 for no)":1,"city":"North Hollywood","zip":"91602","geo_score":1.0,"street address":"10205 Riverside Dr","id":"a66t0es5ype7","geo_precision":"range","state":"CA"},"type":"Feature","geometry":{"type":"Point","coordinates":[-118.352819,34.152204]}},{"properties":{"rep? (1 for yes, 0 for no)":1,"city":"Downey","zip":"90241","geo_score":1.0,"street address":"10841 Paramount Blvd","id":"a66t0f193wvw","geo_precision":"range","state":"CA"},"type":"Feature","geometry":{"type":"Point","coordinates":[-118.135754,33.945696]}},{"properties":{"rep? (1 for yes, 0 for no)":1,"city":"Diamond Bar","zip":"91765","geo_score":0.377,"street address":"660 Ndiamond Bar Blvd","id":"a66t0ertm2wt","geo_precision":"street","state":"CA"},"type":"Feature","geometry":{"type":"Point","coordinates":[-117.742233,34.097099]}},{"properties":{"rep? (1 for yes, 0 for no)":1,"city":"North Hollywood","zip":"91602","geo_score":1.0,"street address":"4640 Lankershim Blvd","id":"a66t0f03409f","geo_precision":"range","state":"CA"},"type":"Feature","geometry":{"type":"Point","coordinates":[-118.368509,34.154776]}},{"properties":{"rep? (1 for yes, 0 for no)":1,"city":"Manhattan Beach","zip":"90266","geo_score":1.0,"street address":"917 Manhattan Beach Blvd","id":"a66t0ew4ilry","geo_precision":"range","state":"CA"},"type":"Feature","geometry":{"type":"Point","coordinates":[-118.399987,33.88738]}},{"properties":{"rep? (1 for yes, 0 for no)":0,"city":"Alhambra","zip":"91801","geo_score":1.0,"street address":"1024 E Valley Blvd","id":"a66t0ev5mtr2","geo_precision":"range","state":"CA"},"type":"Feature","geometry":{"type":"Point","coordinates":[-118.113245,34.079089]}},{"properties":{"rep? (1 for yes, 0 for no)":0,"city":"Glendora","zip":"91740","geo_score":0.822,"street address":"1030 E Route 66","id":"a66t0eswrf3l","geo_precision":"range","state":"CA"},"type":"Feature","geometry":{"type":"Point","coordinates":[-117.848912,34.128712]}},{"properties":{"rep? (1 for yes, 0 for no)":1,"city":"Redondo Beach","zip":"90277","geo_score":0.911,"street address":"200 S Pacific Coast Highway","id":"a66t0f2zxtqg","geo_precision":"range","state":"CA"},"type":"Feature","geometry":{"type":"Point","coordinates":[-118.385562,33.8402]}},{"properties":{"rep? (1 for yes, 0 for no)":0,"city":"Pasadena","zip":"91101","geo_score":0.89,"street address":"200 S Los Robles First Floor","id":"a66t0f0udl5a","geo_precision":"range","state":"CA"},"type":"Feature","geometry":{"type":"Point","coordinates":[-118.141364,34.142421]}},{"properties":{"rep? (1 for yes, 0 for no)":1,"city":"Diamond Bar","zip":"91765","geo_score":0.908,"street address":"1200 S Diamond Bar Bl Ste 101","id":"a66t0f02o2tk","geo_precision":"range","state":"CA"},"type":"Feature","geometry":{"type":"Point","coordinates":[-117.810977,34.001033]}},{"properties":{"rep? (1 for yes, 0 for no)":1,"city":"Downey","zip":"90241","geo_score":0.628,"street address":"8280 Florence","id":"a66t0eqa0y79","geo_precision":"street","state":"CA"},"type":"Feature","geometry":{"type":"Point","coordinates":[-118.097723,33.937554]}},{"properties":{"rep? (1 for yes, 0 for no)":1,"city":"Glendale","zip":"91202","geo_score":0.962,"street address":"1000 N Central Ave","id":"a66t0exia3ef","geo_precision":"range","state":"CA"},"type":"Feature","geometry":{"type":"Point","coordinates":[-118.257344,34.159847]}},{"properties":{"rep? (1 for yes, 0 for no)":0,"city":"Chatsworth","zip":"91311","geo_score":0.917,"street address":"21049 Devonshire St","id":"a66t0f0b400s","geo_precision":"range","state":"CA"},"type":"Feature","geometry":{"type":"Point","coordinates":[-118.591637,34.25724]}},{"properties":{"rep? (1 for yes, 0 for no)":1,"city":"Granada Hills","zip":"91344","geo_score":1.0,"street address":"16842 Devonshire St","id":"a66t0esd1a8l","geo_precision":"range","state":"CA"},"type":"Feature","geometry":{"type":"Point","coordinates":[-118.498863,34.257499]}},{"properties":{"rep? (1 for yes, 0 for no)":1,"city":"Rancho Palos Verdes","zip":"90275","geo_score":1.0,"street address":"500 Silver Spur Road","id":"a66t0eralmx0","geo_precision":"range","state":"CA"},"type":"Feature","geometry":{"type":"Point","coordinates":[-118.372535,33.772481]}},{"properties":{"rep? (1 for yes, 0 for no)":1,"city":"South Gate","zip":"90280","geo_score":0.846,"street address":"13204 Paramount Bl Ste A","id":"a66t0epwf9j9","geo_precision":"range","state":"CA"},"type":"Feature","geometry":{"type":"Point","coordinates":[-118.158871,33.914643]}},{"properties":{"rep? (1 for yes, 0 for no)":1,"city":"Sherman Oaks","zip":"91403","geo_score":1.0,"street address":"14601 Ventura Blvd","id":"a66t0eqoxo92","geo_precision":"range","state":"CA"},"type":"Feature","geometry":{"type":"Point","coordinates":[-118.450908,34.151283]}},{"properties":{"rep? (1 for yes, 0 for no)":1,"city":"City of Industry","zip":"91748","geo_score":0.916,"street address":"17800 Castleton Street","id":"a66t0f548vbi","geo_precision":"range","state":"CA"},"type":"Feature","geometry":{"type":"Point","coordinates":[-117.918695,33.993187]}},{"properties":{"rep? (1 for yes, 0 for no)":1,"city":"Downey","zip":"90240","geo_score":0.805,"street address":"8320 E Florence Ave","id":"a66t0esj7rx5","geo_precision":"street","state":"CA"},"type":"Feature","geometry":{"type":"Point","coordinates":[-118.142648,33.95991]}},{"properties":{"rep? (1 for yes, 0 for no)":1,"city":"Bellflower","zip":"90706","geo_score":1.0,"street address":"14620 Lakewood Blvd","id":"a66t0er6ip6x","geo_precision":"range","state":"CA"},"type":"Feature","geometry":{"type":"Point","coordinates":[-118.142701,33.900658]}},{"properties":{"rep? (1 for yes, 0 for no)":1,"city":"Beverly Hills","zip":"90211","geo_score":0.422,"street address":"264 S La Cienega Blvd","id":"a66t0f05f7id","geo_precision":"street","state":"CA"},"type":"Feature","geometry":{"type":"Point","coordinates":[-118.548371,34.052375]}},{"properties":{"rep? (1 for yes, 0 for no)":1,"city":"Beverly Hills","zip":"90212","geo_score":0.902,"street address":"9720 Wilshire Blvd 3rd Floor","id":"a66t0f041486","geo_precision":"range","state":"CA"},"type":"Feature","geometry":{"type":"Point","coordinates":[-118.406707,34.067071]}},{"properties":{"rep? (1 for yes, 0 for no)":0,"city":"Los Angeles","zip":"90069","geo_score":0.834,"street address":"8560 Sunset Blvd 6th Flr","id":"a66t0eruhfh4","geo_precision":"range","state":"CA"},"type":"Feature","geometry":{"type":"Point","coordinates":[-118.377968,34.0933]}},{"properties":{"rep? (1 for yes, 0 for no)":1,"city":"San Dimas","zip":"91733","geo_score":0.805,"street address":"1100 Via Verde","id":"a66t0ezbjrmk","geo_precision":"range","state":"CA"},"type":"Feature","geometry":{"type":"Point","coordinates":[-117.828501,34.074304]}},{"properties":{"rep? (1 for yes, 0 for no)":0,"city":"Diamond Bar","zip":"91765","geo_score":0.683,"street address":"303 S Diamond Bar","id":"a66t0esl7jgx","geo_precision":"zip","state":"CA"},"type":"Feature","geometry":{"type":"Point","coordinates":[-118.298662,33.786594]}},{"properties":{"rep? (1 for yes, 0 for no)":1,"city":"Norwalk","zip":"90650","geo_score":0.912,"street address":"13915 San Antonio Drive","id":"a66t0f4rrvnv","geo_precision":"range","state":"CA"},"type":"Feature","geometry":{"type":"Point","coordinates":[-118.08014,33.904392]}},{"properties":{"rep? (1 for yes, 0 for no)":0,"city":"Long Beach","zip":"90814","geo_score":0.973,"street address":"356 Redondo Avenue","id":"a66t0euwkasy","geo_precision":"range","state":"CA"},"type":"Feature","geometry":{"type":"Point","coordinates":[-118.152406,33.770117]}},{"properties":{"rep? (1 for yes, 0 for no)":1,"city":"Palos Verdes Estates","zip":"90274","geo_score":0.949,"street address":"717 Yarmouth Road","id":"a66t0ez949ch","geo_precision":"range","state":"CA"},"type":"Feature","geometry":{"type":"Point","coordinates":[-118.419346,33.775709]}},{"properties":{"rep? (1 for yes, 0 for no)":0,"city":"Long Beach","zip":"90806","geo_score":0.912,"street address":"2679 Redondo Ave","id":"a66t0ezvm2kf","geo_precision":"range","state":"CA"},"type":"Feature","geometry":{"type":"Point","coordinates":[-118.151346,33.805003]}},{"properties":{"rep? (1 for yes, 0 for no)":0,"city":"Calabasas","zip":"91302","geo_score":0.708,"street address":"24025 Park Sorrento","id":"a66t0eryxh2h","geo_precision":"street","state":"CA"},"type":"Feature","geometry":{"type":"Point","coordinates":[-118.642449,34.154695]}},{"properties":{"rep? (1 for yes, 0 for no)":1,"city":"Palos Verdes Estates","zip":"90274","geo_score":0.949,"street address":"4020 Palos Verdes Dr N","id":"a66t0examwsx","geo_precision":"range","state":"CA"},"type":"Feature","geometry":{"type":"Point","coordinates":[-118.366938,33.795242]}},{"properties":{"rep? (1 for yes, 0 for no)":0,"city":"Los Angeles","zip":"90027","geo_score":1.0,"street address":"2150 Hillhurst Avenue","id":"a66t0f0dfaho","geo_precision":"range","state":"CA"},"type":"Feature","geometry":{"type":"Point","coordinates":[-118.287431,34.111097]}},{"properties":{"rep? (1 for yes, 0 for no)":0,"city":"Pasadena","zip":"91108","geo_score":0.935,"street address":"2476 Huntington Drive","id":"a66t0exqn5z6","geo_precision":"range","state":"CA"},"type":"Feature","geometry":{"type":"Point","coordinates":[-118.101786,34.123581]}},{"properties":{"rep? (1 for yes, 0 for no)":0,"city":"Diamond Bar","zip":"91765","geo_score":0.961,"street address":"20855 Golden Springs","id":"a66t0etyuea7","geo_precision":"range","state":"CA"},"type":"Feature","geometry":{"type":"Point","coordinates":[-117.849344,33.998847]}},{"properties":{"rep? (1 for yes, 0 for no)":1,"city":"El Segundo","zip":"90245","geo_score":0.913,"street address":"402 Main Street","id":"a66t0evut305","geo_precision":"range","state":"CA"},"type":"Feature","geometry":{"type":"Point","coordinates":[-118.415934,33.920854]}},{"properties":{"rep? (1 for yes, 0 for no)":0,"city":"Los Angeles","zip":"90004","geo_score":1.0,"street address":"251 N Larchmont Blvd","id":"a66t0errm86j","geo_precision":"range","state":"CA"},"type":"Feature","geometry":{"type":"Point","coordinates":[-118.323538,34.075434]}},{"properties":{"rep? (1 for yes, 0 for no)":0,"city":"Burbank","zip":"91502","geo_score":1.0,"street address":"303 N Glenoaks Blvd","id":"a66t0eqq4ozx","geo_precision":"range","state":"CA"},"type":"Feature","geometry":{"type":"Point","coordinates":[-118.308277,34.184685]}},{"properties":{"rep? (1 for yes, 0 for no)":1,"city":"Mission Hills","zip":"91345","geo_score":1.0,"street address":"10328 Sepulveda Blvd","id":"a66t0ewivhfx","geo_precision":"range","state":"CA"},"type":"Feature","geometry":{"type":"Point","coordinates":[-118.467377,34.257805]}},{"properties":{"rep? (1 for yes, 0 for no)":0,"city":"Agoura","zip":"91301","geo_score":0.777,"street address":"30077 Agoura Court Ste 200","id":"a66t0f5itrax","geo_precision":"range","state":"CA"},"type":"Feature","geometry":{"type":"Point","coordinates":[-118.777905,34.14609]}},{"properties":{"rep? (1 for yes, 0 for no)":0,"city":"San Gabriel","zip":"91776","geo_score":0.776,"street address":"802 E Mission Drive","id":"a66t0f0jutdp","geo_precision":"street","state":"CA"},"type":"Feature","geometry":{"type":"Point","coordinates":[-118.107697,34.096596]}},{"properties":{"rep? (1 for yes, 0 for no)":1,"city":"El Segundo","zip":"90245","geo_score":0.913,"street address":"431 Main Street","id":"a66t0f110ww9","geo_precision":"range","state":"CA"},"type":"Feature","geometry":{"type":"Point","coordinates":[-118.415937,33.921586]}},{"properties":{"rep? (1 for yes, 0 for no)":1,"city":"Redondo Beach","zip":"90277","geo_score":0.911,"street address":"1009 Torrance Blvd","id":"a66t0ezzgdhh","geo_precision":"range","state":"CA"},"type":"Feature","geometry":{"type":"Point","coordinates":[-118.376172,33.838848]}},{"properties":{"rep? (1 for yes, 0 for no)":1,"city":"City of Industry","zip":"90601","geo_score":0.923,"street address":"6737 Bright Avenue","id":"a66t0evva6y0","geo_precision":"range","state":"CA"},"type":"Feature","geometry":{"type":"Point","coordinates":[-118.036151,33.980666]}},{"properties":{"rep? (1 for yes, 0 for no)":1,"city":"Northridge","zip":"91326","geo_score":0.805,"street address":"18635 Devonshire Street","id":"a66t0erl6wj4","geo_precision":"range","state":"CA"},"type":"Feature","geometry":{"type":"Point","coordinates":[-118.538619,34.257265]}},{"properties":{"rep? (1 for yes, 0 for no)":1,"city":"Palos Verdes Estates","zip":"90274","geo_score":0.859,"street address":"501 Deep Valley Dr 1st Floor, Palos Verdes","id":"a66t0ezjjoqu","geo_precision":"street","state":"CA"},"type":"Feature","geometry":{"type":"Point","coordinates":[-118.329635,33.727492]}},{"properties":{"rep? (1 for yes, 0 for no)":1,"city":"Redondo Beach","zip":"90277","geo_score":0.911,"street address":"1640 S Pacific Coast Hwy","id":"a66t0eqmtgc7","geo_precision":"range","state":"CA"},"type":"Feature","geometry":{"type":"Point","coordinates":[-118.385211,33.819969]}},{"properties":{"rep? (1 for yes, 0 for no)":0,"city":"Los Angeles","zip":"90049","geo_score":0.912,"street address":"11911 San Vicente Blvd","id":"a66t0er9q2uq","geo_precision":"range","state":"CA"},"type":"Feature","geometry":{"type":"Point","coordinates":[-118.470256,34.052532]}},{"properties":{"rep? (1 for yes, 0 for no)":1,"city":"Covina","zip":"91723","geo_score":0.902,"street address":"480 W Rowland St Unit B","id":"a66t0ey5b5lk","geo_precision":"range","state":"CA"},"type":"Feature","geometry":{"type":"Point","coordinates":[-117.898474,34.078998]}},{"properties":{"rep? (1 for yes, 0 for no)":0,"city":"Los Angeles","zip":"90064","geo_score":0.976,"street address":"11900 Olympic Blvd","id":"a66t0esc6hwc","geo_precision":"range","state":"CA"},"type":"Feature","geometry":{"type":"Point","coordinates":[-118.451096,34.03284]}},{"properties":{"rep? (1 for yes, 0 for no)":1,"city":"Mission Hills","zip":"91345","geo_score":1.0,"street address":"10550 Sepulveda Blvd","id":"a66t0eweiu2z","geo_precision":"range","state":"CA"},"type":"Feature","geometry":{"type":"Point","coordinates":[-118.467338,34.261836]}},{"properties":{"rep? (1 for yes, 0 for no)":0,"city":"Pacific Palisades","zip":"90272","geo_score":0.817,"street address":"17383 Sunset Blvd Suite B280","id":"a66t0f43nsae","geo_precision":"range","state":"CA"},"type":"Feature","geometry":{"type":"Point","coordinates":[-118.554957,34.039135]}},{"properties":{"rep? (1 for yes, 0 for no)":0,"city":"Calabasas","zip":"91302","geo_score":0.902,"street address":"23647 Calabasas Road","id":"a66t0eu1ynie","geo_precision":"range","state":"CA"},"type":"Feature","geometry":{"type":"Point","coordinates":[-118.64349,34.155621]}},{"properties":{"rep? (1 for yes, 0 for no)":1,"city":"City of Industry","zip":"91745","geo_score":0.915,"street address":"15852 Gale Avenue","id":"a66t0f34c596","geo_precision":"range","state":"CA"},"type":"Feature","geometry":{"type":"Point","coordinates":[-117.961371,34.010332]}},{"properties":{"rep? (1 for yes, 0 for no)":1,"city":"Granada Hills","zip":"91344","geo_score":1.0,"street address":"11011 Balboa Blvd","id":"a66t0eyqzzar","geo_precision":"range","state":"CA"},"type":"Feature","geometry":{"type":"Point","coordinates":[-118.502219,34.270425]}},{"properties":{"rep? (1 for yes, 0 for no)":1,"city":"Canyon Country","zip":"91351","geo_score":1.0,"street address":"19310 Soledad Canyon Road","id":"a66t0f1ml68t","geo_precision":"range","state":"CA"},"type":"Feature","geometry":{"type":"Point","coordinates":[-118.472343,34.415727]}},{"properties":{"rep? (1 for yes, 0 for no)":1,"city":"Pico Rivera","zip":"90660","geo_score":0.941,"street address":"5207 Rosemead Blvd","id":"a66t0f2vwq6y","geo_precision":"range","state":"CA"},"type":"Feature","geometry":{"type":"Point","coordinates":[-118.084456,33.997833]}},{"properties":{"rep? (1 for yes, 0 for no)":1,"city":"Santa Clarita","zip":"91355","geo_score":0.935,"street address":"24501 Town Center Drive","id":"a66t0etxe85s","geo_precision":"range","state":"CA"},"type":"Feature","geometry":{"type":"Point","coordinates":[-118.56089,34.415748]}},{"properties":{"rep? (1 for yes, 0 for no)":1,"city":"Santa Clarita","zip":"91354","geo_score":0.805,"street address":"23914 Summerhill Lane","id":"a66t0et3ke7o","geo_precision":"range","state":"CA"},"type":"Feature","geometry":{"type":"Point","coordinates":[-118.553221,34.446424]}},{"properties":{"rep? (1 for yes, 0 for no)":1,"city":"Sherman Oaks","zip":"91040","geo_score":0.929,"street address":"8307 Foothill Blvd","id":"a66t0esc8d41","geo_precision":"range","state":"CA"},"type":"Feature","geometry":{"type":"Point","coordinates":[-118.313573,34.259683]}},{"properties":{"rep? (1 for yes, 0 for no)":1,"city":"Whittier","zip":"90603","geo_score":0.902,"street address":"16218 Whittier Blvd","id":"a66t0eqg6bu3","geo_precision":"range","state":"CA"},"type":"Feature","geometry":{"type":"Point","coordinates":[-117.984692,33.940971]}},{"properties":{"rep? (1 for yes, 0 for no)":1,"city":"Flintridge","zip":"91011","geo_score":0.957,"street address":"846 Foothill Blvd","id":"a66t0f15c5uh","geo_precision":"range","state":"CA"},"type":"Feature","geometry":{"type":"Point","coordinates":[-118.196839,34.20285]}},{"properties":{"rep? (1 for yes, 0 for no)":0,"city":"Los Angeles","zip":"90004","geo_score":1.0,"street address":"119 N Larchmont Blvd","id":"a66t0ew0jb0f","geo_precision":"range","state":"CA"},"type":"Feature","geometry":{"type":"Point","coordinates":[-118.323531,34.073312]}},{"properties":{"rep? (1 for yes, 0 for no)":0,"city":"La Miranda","zip":"90638","geo_score":0.967,"street address":"15058 Rosecrans Avenue","id":"a66t0eungiqj","geo_precision":"range","state":"CA"},"type":"Feature","geometry":{"type":"Point","coordinates":[-118.010154,33.898434]}},{"properties":{"rep? (1 for yes, 0 for no)":1,"city":"Valley Village","zip":"91607","geo_score":0.756,"street address":"14051 Burbank Blvd.","id":"a66t0eym581d","geo_precision":"street","state":"CA"},"type":"Feature","geometry":{"type":"Point","coordinates":[-118.41332,34.172132]}},{"properties":{"rep? (1 for yes, 0 for no)":1,"city":"Van Nuys","zip":"91405","geo_score":0.902,"street address":"7226 Sepulveda Blvd.","id":"a66t0f1fm9zx","geo_precision":"range","state":"CA"},"type":"Feature","geometry":{"type":"Point","coordinates":[-118.466193,34.201623]}},{"properties":{"rep? (1 for yes, 0 for no)":1,"city":"Valley Village","zip":"91607","geo_score":0.951,"street address":"12510 Magnolia Blvd.","id":"a66t0eqd2j9s","geo_precision":"range","state":"CA"},"type":"Feature","geometry":{"type":"Point","coordinates":[-118.405568,34.164871]}},{"properties":{"rep? (1 for yes, 0 for no)":1,"city":"Van Nuys","zip":"91401","geo_score":1.0,"street address":"14042 Victory Blvd.","id":"a66t0f04nr1f","geo_precision":"range","state":"CA"},"type":"Feature","geometry":{"type":"Point","coordinates":[-118.438642,34.186665]}},{"properties":{"rep? (1 for yes, 0 for no)":1,"city":"Studio City","zip":"91604","geo_score":0.61,"street address":"12069 Ventura Place #B","id":"a66t0f3s66k6","geo_precision":"street","state":"CA"},"type":"Feature","geometry":{"type":"Point","coordinates":[-118.365828,34.138731]}},{"properties":{"rep? (1 for yes, 0 for no)":1,"city":"South Gate","zip":"90280","geo_score":0.821,"street address":"5845 Imperial Hwy Suite B","id":"a66t0etla6pp","geo_precision":"range","state":"CA"},"type":"Feature","geometry":{"type":"Point","coordinates":[-118.165556,33.929629]}},{"properties":{"rep? (1 for yes, 0 for no)":1,"city":"Downey","zip":"90241","geo_score":0.637,"street address":"10727 Paramount Blvd. Suite B","id":"a66t0eslm4x8","geo_precision":"street","state":"CA"},"type":"Feature","geometry":{"type":"Point","coordinates":[-118.130032,33.953561]}},{"properties":{"rep? (1 for yes, 0 for no)":1,"city":"Downey","zip":"90240","geo_score":0.976,"street address":"9047-D Florence Avenue","id":"a66t0ewob5wo","geo_precision":"range","state":"CA"},"type":"Feature","geometry":{"type":"Point","coordinates":[-118.11574,33.946741]}},{"properties":{"rep? (1 for yes, 0 for no)":1,"city":"Bell Gardens","zip":"90201","geo_score":0.92,"street address":"6730 Florence Avenue","id":"a66t0f4zanqk","geo_precision":"range","state":"CA"},"type":"Feature","geometry":{"type":"Point","coordinates":[-118.145473,33.96162]}},{"properties":{"rep? (1 for yes, 0 for no)":1,"city":"City of Commerce","zip":"90040","geo_score":0.549,"street address":"4820 S. Eastern Avenue Suite L","id":"a66t0exag8pt","geo_precision":"street","state":"CA"},"type":"Feature","geometry":{"type":"Point","coordinates":[-118.17461,34.016802]}},{"properties":{"rep? (1 for yes, 0 for no)":1,"city":"Gardena","zip":"90247","geo_score":0.739,"street address":"1630 West Redondo Beach Blvd. #23","id":"a66t0eynvcjl","geo_precision":"street","state":"CA"},"type":"Feature","geometry":{"type":"Point","coordinates":[-118.276228,33.892936]}},{"properties":{"rep? (1 for yes, 0 for no)":1,"city":"Inglewood","zip":"90304","geo_score":0.935,"street address":"4615 West Century Blvd.","id":"a66t0f0nghk6","geo_precision":"range","state":"CA"},"type":"Feature","geometry":{"type":"Point","coordinates":[-118.357422,33.945443]}},{"properties":{"rep? (1 for yes, 0 for no)":1,"city":"Los Angeles","zip":"90066","geo_score":0.912,"street address":"11600 Washington Place","id":"a66t0esjd50b","geo_precision":"range","state":"CA"},"type":"Feature","geometry":{"type":"Point","coordinates":[-118.420518,34.004861]}},{"properties":{"rep? (1 for yes, 0 for no)":1,"city":"Hawthorne","zip":"90250","geo_score":0.913,"street address":"4747 West El Segundo Blvd.","id":"a66t0f24vcq3","geo_precision":"range","state":"CA"},"type":"Feature","geometry":{"type":"Point","coordinates":[-118.359926,33.916411]}},{"properties":{"rep? (1 for yes, 0 for no)":1,"city":"Torrance","zip":"90505","geo_score":0.61,"street address":"2008 West Carson Street #104","id":"a66t0ey5bgty","geo_precision":"street","state":"CA"},"type":"Feature","geometry":{"type":"Point","coordinates":[-118.28826,33.831593]}},{"properties":{"rep? (1 for yes, 0 for no)":1,"city":"Montebello","zip":"90640","geo_score":1.0,"street address":"892 West Beverly Blvd.","id":"a66t0ezl4sul","geo_precision":"range","state":"CA"},"type":"Feature","geometry":{"type":"Point","coordinates":[-118.107338,34.017439]}},{"properties":{"rep? (1 for yes, 0 for no)":1,"city":"Covina","zip":"91723","geo_score":0.932,"street address":"169 East College Sreet","id":"a66t0eqqo0on","geo_precision":"range","state":"CA"},"type":"Feature","geometry":{"type":"Point","coordinates":[-117.888688,34.087448]}},{"properties":{"rep? (1 for yes, 0 for no)":1,"city":"Montebello","zip":"90640","geo_score":1.0,"street address":"2522 West Beverly Blvd.","id":"a66t0f4r6zum","geo_precision":"range","state":"CA"},"type":"Feature","geometry":{"type":"Point","coordinates":[-118.128969,34.02093]}},{"properties":{"rep? (1 for yes, 0 for no)":1,"city":"Los Angeles","zip":"90027","geo_score":0.805,"street address":"426 North Ford Blvd.","id":"a66t0f3voafi","geo_precision":"range","state":"CA"},"type":"Feature","geometry":{"type":"Point","coordinates":[-118.169204,34.041225]}},{"properties":{"rep? (1 for yes, 0 for no)":1,"city":"Bellflower","zip":"90706","geo_score":0.707,"street address":"9631 Alondra Blvd. #201","id":"a66t0ewwoyn7","geo_precision":"street","state":"CA"},"type":"Feature","geometry":{"type":"Point","coordinates":[-118.146971,33.889179]}},{"properties":{"rep? (1 for yes, 0 for no)":1,"city":"Torrance","zip":"90501","geo_score":0.831,"street address":"2461 West 208th Sreet Suite 201","id":"a66t0f0t2cpu","geo_precision":"range","state":"CA"},"type":"Feature","geometry":{"type":"Point","coordinates":[-118.327964,33.843736]}},{"properties":{"rep? (1 for yes, 0 for no)":1,"city":"Torrance","zip":"90502","geo_score":0.743,"street address":"970 West 190th Sreet Suite 100","id":"a66t0epedxgb","geo_precision":"range","state":"CA"},"type":"Feature","geometry":{"type":"Point","coordinates":[-118.292006,33.858322]}},{"properties":{"rep? (1 for yes, 0 for no)":null,"city":null,"zip":null,"geo_score":0.0,"street address":"VENTURA COUNTY","id":"a66t0es2qcuw","geo_precision":"unmatched","state":null},"type":"Feature","geometry":null}],"is_temporal":false,"author":{"url":"","metadata":null,"contact_name":null,"contact_address":null,"source":null,"contact_phone":null},"source":"","pagination":{"sort":null,"start":0,"total":272,"limit":1000000},"state":"complete","tags":"","published":"2014-08-15T04:00:09-04:00","id":219241}