{"type":"FeatureCollection","data_type":"Dataset","url_type":null,"permissions":[{"permissions":{"download":true,"view":true},"group_id":"everyone"}],"classification":null,"title":"Ed_-_Mortgage_Bankers_-_ran_March_23rd","count":138,"stream_id":219244,"contributor":{"url":"http://geocommons.com/users/39447","name":"sam.felipe"},"data_attributes":null,"calculation_params":null,"icon_link":null,"link":"http://geocommons.com/overlays/219244.json","extent":[-118.639,33.767,-117.58,34.3885],"geometry_types":["point"],"unique_name":null,"name":"Ed_-_Mortgage_Bankers_-_ran_March_23rd","feature_count":138,"description":"","next_feature":null,"is_raster":false,"short_classification":"Y","stats":{"rep? (1 for yes, 0 for no)":{"max":1,"mean":0.109489051094891,"variance":0.0982181193645335,"stdev":0.31339770159421,"min":0,"median":0}},"features":[{"properties":{"rep? (1 for yes, 0 for no)":1,"city":"Studio City","zip":"91604","geo_score":0.805,"street address":"13273 Ventura Blvd. #207","id":"a66t0e95e33k","geo_precision":"street","state":"CA"},"type":"Feature","geometry":{"type":"Point","coordinates":[-118.365228,34.138495]}},{"properties":{"rep? (1 for yes, 0 for no)":1,"city":"Valley Village","zip":"91607","geo_score":0.756,"street address":"14051 Burbank Blvd.","id":"a66t0ebprins","geo_precision":"street","state":"CA"},"type":"Feature","geometry":{"type":"Point","coordinates":[-118.41332,34.172132]}},{"properties":{"rep? (1 for yes, 0 for no)":1,"city":"Sherman Oaks","zip":"91403","geo_score":1.0,"street address":"14930 Ventura Blvd.","id":"a66t0eljuj90","geo_precision":"range","state":"CA"},"type":"Feature","geometry":{"type":"Point","coordinates":[-118.457974,34.152472]}},{"properties":{"rep? (1 for yes, 0 for no)":1,"city":"Sherman Oaks","zip":"91403","geo_score":0.805,"street address":"14900 Ventura Blvd. #200","id":"a66t0ek7xnby","geo_precision":"street","state":"CA"},"type":"Feature","geometry":{"type":"Point","coordinates":[-118.448692,34.150915]}},{"properties":{"rep? (1 for yes, 0 for no)":1,"city":"Covina","zip":"91723","geo_score":0.976,"street address":"800 South Barranca Avenue #210","id":"a66t0ejml9u0","geo_precision":"range","state":"CA"},"type":"Feature","geometry":{"type":"Point","coordinates":[-117.881334,34.08477]}},{"properties":{"rep? (1 for yes, 0 for no)":1,"city":"Norwalk","zip":"90650","geo_score":0.829,"street address":"11119 Crestbrook Blvd.","id":"a66t0eoaeopp","geo_precision":"range","state":"CA"},"type":"Feature","geometry":{"type":"Point","coordinates":[-118.096874,33.904153]}},{"properties":{"rep? (1 for yes, 0 for no)":1,"city":"Downey","zip":"90241","geo_score":1.0,"street address":"10842 Paramount Blvd.","id":"a66t0eaagfr2","geo_precision":"range","state":"CA"},"type":"Feature","geometry":{"type":"Point","coordinates":[-118.135769,33.94567]}},{"properties":{"rep? (1 for yes, 0 for no)":1,"city":"Ontario","zip":"91764","geo_score":0.7,"street address":"3333 Concours Street Bldg. 4","id":"a66t0ef865i6","geo_precision":"street","state":"CA"},"type":"Feature","geometry":{"type":"Point","coordinates":[-117.579896,34.074898]}},{"properties":{"rep? (1 for yes, 0 for no)":1,"city":"Los Angeles","zip":"90022","geo_score":0.927,"street address":"5250 East Beverly Blvd.","id":"a66t0eanf0x8","geo_precision":"range","state":"CA"},"type":"Feature","geometry":{"type":"Point","coordinates":[-118.153004,34.031709]}},{"properties":{"rep? (1 for yes, 0 for no)":1,"city":"Culver City","zip":"90230","geo_score":0.877,"street address":"5601 West Slauson Avenue Suite 230","id":"a66t0enm7qxu","geo_precision":"range","state":"CA"},"type":"Feature","geometry":{"type":"Point","coordinates":[-118.378647,33.98899]}},{"properties":{"rep? (1 for yes, 0 for no)":1,"city":"Lawndale","zip":"90260","geo_score":0.495,"street address":"15901 Hawthorne Blvd. Suite 324","id":"a66t0ektwuwp","geo_precision":"street","state":"CA"},"type":"Feature","geometry":{"type":"Point","coordinates":[-118.352461,33.865525]}},{"properties":{"rep? (1 for yes, 0 for no)":1,"city":"Torrance","zip":"90505","geo_score":0.67,"street address":"3812 Sepulveda Blvd. Suite 310","id":"a66t0eemg4wz","geo_precision":"street","state":"CA"},"type":"Feature","geometry":{"type":"Point","coordinates":[-118.328422,33.821936]}},{"properties":{"rep? (1 for yes, 0 for no)":1,"city":"Rancho Palos Verdes","zip":"90275","geo_score":0.637,"street address":"28041 Hawthorne Blvd. Suite 208","id":"a66t0earifyx","geo_precision":"street","state":"CA"},"type":"Feature","geometry":{"type":"Point","coordinates":[-118.368599,33.783856]}},{"properties":{"rep? (1 for yes, 0 for no)":1,"city":"Torrance","zip":"90505","geo_score":0.805,"street address":"25500 Hawthorne Blvd. #1160","id":"a66t0ebefyw4","geo_precision":"street","state":"CA"},"type":"Feature","geometry":{"type":"Point","coordinates":[-118.351324,33.825578]}},{"properties":{"rep? (1 for yes, 0 for no)":0,"city":"Redondo Beach","zip":"90277","geo_score":0.911,"street address":"1 Pearl Street","id":"a66t0e8vtl2m","geo_precision":"range","state":"CA"},"type":"Feature","geometry":{"type":"Point","coordinates":[-118.387857,33.83665]}},{"properties":{"rep? (1 for yes, 0 for no)":0,"city":"Bellflower","zip":"90706","geo_score":1.0,"street address":"10048 Rosecrans Ave","id":"a66t0eboqdgm","geo_precision":"range","state":"CA"},"type":"Feature","geometry":{"type":"Point","coordinates":[-118.11809,33.902034]}},{"properties":{"rep? (1 for yes, 0 for no)":0,"city":"Mission Hills","zip":"91345","geo_score":1.0,"street address":"10117 Sepulveda Blvd","id":"a66t0emxsl19","geo_precision":"range","state":"CA"},"type":"Feature","geometry":{"type":"Point","coordinates":[-118.467313,34.254108]}},{"properties":{"rep? (1 for yes, 0 for no)":0,"city":"Granada Hills","zip":"91344","geo_score":1.0,"street address":"10315 Woodley Ave","id":"a66t0enr30w3","geo_precision":"range","state":"CA"},"type":"Feature","geometry":{"type":"Point","coordinates":[-118.484854,34.257663]}},{"properties":{"rep? (1 for yes, 0 for no)":0,"city":"El Monte","zip":"91731","geo_score":1.0,"street address":"10507 Valley Blvd","id":"a66t0eo0j94e","geo_precision":"range","state":"CA"},"type":"Feature","geometry":{"type":"Point","coordinates":[-118.04384,34.076379]}},{"properties":{"rep? (1 for yes, 0 for no)":0,"city":"El Monte","zip":"91731","geo_score":1.0,"street address":"10621 Amador Street","id":"a66t0ecj9yx1","geo_precision":"range","state":"CA"},"type":"Feature","geometry":{"type":"Point","coordinates":[-118.041877,34.070393]}},{"properties":{"rep? (1 for yes, 0 for no)":0,"city":"Los Angeles","zip":"90024","geo_score":1.0,"street address":"10900 Wilshire Blvd","id":"a66t0efef5uy","geo_precision":"range","state":"CA"},"type":"Feature","geometry":{"type":"Point","coordinates":[-118.443964,34.058754]}},{"properties":{"rep? (1 for yes, 0 for no)":0,"city":"Los Angeles","zip":"90025","geo_score":0.972,"street address":"11022 Santa Monica Blvd","id":"a66t0eknoy5c","geo_precision":"range","state":"CA"},"type":"Feature","geometry":{"type":"Point","coordinates":[-118.442009,34.048387]}},{"properties":{"rep? (1 for yes, 0 for no)":0,"city":"Glendora","zip":"91740","geo_score":0.822,"street address":"1106 E Route 66","id":"a66t0ejxboyp","geo_precision":"range","state":"CA"},"type":"Feature","geometry":{"type":"Point","coordinates":[-117.847583,34.128719]}},{"properties":{"rep? (1 for yes, 0 for no)":0,"city":"Alhambra","zip":"91803","geo_score":0.947,"street address":"1108 W Valley Bl","id":"a66t0eohhnmo","geo_precision":"range","state":"CA"},"type":"Feature","geometry":{"type":"Point","coordinates":[-118.13461,34.077901]}},{"properties":{"rep? (1 for yes, 0 for no)":0,"city":"City Of Industry","zip":"91732","geo_score":0.729,"street address":"11107 Garvey Ave","id":"a66t0edd3e8r","geo_precision":"street","state":"CA"},"type":"Feature","geometry":{"type":"Point","coordinates":[-118.030542,34.062841]}},{"properties":{"rep? (1 for yes, 0 for no)":0,"city":"Studio City","zip":"91604","geo_score":1.0,"street address":"11326 Ventura Blvd","id":"a66t0ehzdbzp","geo_precision":"range","state":"CA"},"type":"Feature","geometry":{"type":"Point","coordinates":[-118.376739,34.14029]}},{"properties":{"rep? (1 for yes, 0 for no)":0,"city":"Studio City","zip":"91604","geo_score":1.0,"street address":"11326 Ventura Blvd","id":"a66t0eigh0sh","geo_precision":"range","state":"CA"},"type":"Feature","geometry":{"type":"Point","coordinates":[-118.376739,34.14029]}},{"properties":{"rep? (1 for yes, 0 for no)":0,"city":"Los Angeles","zip":"90012","geo_score":1.0,"street address":"1137 Sunvue Pl","id":"a66t0e9s955c","geo_precision":"range","state":"CA"},"type":"Feature","geometry":{"type":"Point","coordinates":[-118.250448,34.066296]}},{"properties":{"rep? (1 for yes, 0 for no)":0,"city":"North Hollywood","zip":"91601","geo_score":0.971,"street address":"11411 Compston Street","id":"a66t0ec6s70d","geo_precision":"range","state":"CA"},"type":"Feature","geometry":{"type":"Point","coordinates":[-118.379246,34.169662]}},{"properties":{"rep? (1 for yes, 0 for no)":0,"city":"Artesia","zip":"90703","geo_score":0.747,"street address":"11432 South St","id":"a66t0ejh9qdc","geo_precision":"range","state":"CA"},"type":"Feature","geometry":{"type":"Point","coordinates":[-118.090311,33.858399]}},{"properties":{"rep? (1 for yes, 0 for no)":0,"city":"North Hollywood","zip":"91606","geo_score":1.0,"street address":"11755 Victory Blvd","id":"a66t0eesz4mj","geo_precision":"range","state":"CA"},"type":"Feature","geometry":{"type":"Point","coordinates":[-118.387067,34.186674]}},{"properties":{"rep? (1 for yes, 0 for no)":0,"city":"Downey","zip":"90241","geo_score":0.922,"street address":"12101 Woodruff Ave Stea","id":"a66t0eheuqcl","geo_precision":"range","state":"CA"},"type":"Feature","geometry":{"type":"Point","coordinates":[-118.116668,33.924329]}},{"properties":{"rep? (1 for yes, 0 for no)":0,"city":"South Pasadena","zip":"91030","geo_score":0.752,"street address":"1212 Stratford","id":"a66t0ekl7psb","geo_precision":"street","state":"CA"},"type":"Feature","geometry":{"type":"Point","coordinates":[-118.144916,34.116127]}},{"properties":{"rep? (1 for yes, 0 for no)":0,"city":"Santa Monica","zip":"90403","geo_score":0.951,"street address":"1223 Wilshire Bl","id":"a66t0ebqgh5q","geo_precision":"range","state":"CA"},"type":"Feature","geometry":{"type":"Point","coordinates":[-118.490545,34.025438]}},{"properties":{"rep? (1 for yes, 0 for no)":0,"city":"Torrance","zip":"90502","geo_score":0.595,"street address":"1230 W Ivy Terrace","id":"a66t0eb0c597","geo_precision":"zip","state":"CA"},"type":"Feature","geometry":{"type":"Point","coordinates":[-118.292572,33.821684]}},{"properties":{"rep? (1 for yes, 0 for no)":0,"city":"Pasadena","zip":"91106","geo_score":0.878,"street address":"1242 E Colorado Blvd","id":"a66t0e8v0jdg","geo_precision":"range","state":"CA"},"type":"Feature","geometry":{"type":"Point","coordinates":[-118.124858,34.145949]}},{"properties":{"rep? (1 for yes, 0 for no)":0,"city":"Glendora","zip":"91740","geo_score":0.763,"street address":"1279 Eroute 66","id":"a66t0e9uhg17","geo_precision":"range","state":"CA"},"type":"Feature","geometry":{"type":"Point","coordinates":[-117.841556,34.128743]}},{"properties":{"rep? (1 for yes, 0 for no)":0,"city":"Covina","zip":"91723","geo_score":0.916,"street address":"128 N Citrus Ave Sted","id":"a66t0ed9ai7j","geo_precision":"range","state":"CA"},"type":"Feature","geometry":{"type":"Point","coordinates":[-117.890135,34.086606]}},{"properties":{"rep? (1 for yes, 0 for no)":0,"city":"San Dimas","zip":"91773","geo_score":0.384,"street address":"1312 Camino Del","id":"a66t0e9ylzgm","geo_precision":"street","state":"CA"},"type":"Feature","geometry":{"type":"Point","coordinates":[-117.921261,34.044255]}},{"properties":{"rep? (1 for yes, 0 for no)":0,"city":"Los Angeles","zip":"90046","geo_score":1.0,"street address":"1345 N Fuller Ave","id":"a66t0egpg8f5","geo_precision":"range","state":"CA"},"type":"Feature","geometry":{"type":"Point","coordinates":[-118.349542,34.095163]}},{"properties":{"rep? (1 for yes, 0 for no)":0,"city":"City Of Industry","zip":"90601","geo_score":0.923,"street address":"13542 Broadway","id":"a66t0ep5x6ku","geo_precision":"range","state":"CA"},"type":"Feature","geometry":{"type":"Point","coordinates":[-118.0294,33.986448]}},{"properties":{"rep? (1 for yes, 0 for no)":0,"city":"La Mirada","zip":"90638","geo_score":0.976,"street address":"13905 Visions Dr","id":"a66t0eceyjn9","geo_precision":"range","state":"CA"},"type":"Feature","geometry":{"type":"Point","coordinates":[-117.980663,33.906211]}},{"properties":{"rep? (1 for yes, 0 for no)":0,"city":"West Covina","zip":"91790","geo_score":1.0,"street address":"140 S Glendora Ave","id":"a66t0egdrv17","geo_precision":"range","state":"CA"},"type":"Feature","geometry":{"type":"Point","coordinates":[-117.921011,34.07109]}},{"properties":{"rep? (1 for yes, 0 for no)":0,"city":"La Mirada","zip":"90638","geo_score":0.976,"street address":"14014 Salada Rd","id":"a66t0e9zhvyc","geo_precision":"range","state":"CA"},"type":"Feature","geometry":{"type":"Point","coordinates":[-118.018999,33.903388]}},{"properties":{"rep? (1 for yes, 0 for no)":0,"city":"San Gabriel","zip":"91775","geo_score":1.0,"street address":"142 N San Gabriel Blvd","id":"a66t0eapvtk7","geo_precision":"range","state":"CA"},"type":"Feature","geometry":{"type":"Point","coordinates":[-118.090999,34.104174]}},{"properties":{"rep? (1 for yes, 0 for no)":0,"city":"Panorama City","zip":"91402","geo_score":1.0,"street address":"14500 Roscoe Blvd","id":"a66t0edv2brk","geo_precision":"range","state":"CA"},"type":"Feature","geometry":{"type":"Point","coordinates":[-118.448148,34.221536]}},{"properties":{"rep? (1 for yes, 0 for no)":0,"city":"Panorama City","zip":"91402","geo_score":1.0,"street address":"14547 Titus St","id":"a66t0enppbd6","geo_precision":"range","state":"CA"},"type":"Feature","geometry":{"type":"Point","coordinates":[-118.449547,34.219758]}},{"properties":{"rep? (1 for yes, 0 for no)":0,"city":"Sherman Oaks","zip":"91403","geo_score":1.0,"street address":"14930 Ventura Blvd","id":"a66t0ebwnthk","geo_precision":"range","state":"CA"},"type":"Feature","geometry":{"type":"Point","coordinates":[-118.457974,34.152472]}},{"properties":{"rep? (1 for yes, 0 for no)":0,"city":"Baldwin Park","zip":"91706","geo_score":0.938,"street address":"15018 Ramona Blvd","id":"a66t0efztzij","geo_precision":"range","state":"CA"},"type":"Feature","geometry":{"type":"Point","coordinates":[-117.950774,34.08888]}},{"properties":{"rep? (1 for yes, 0 for no)":0,"city":"La Mirada","zip":"90638","geo_score":0.976,"street address":"15380 San Ardo Dr","id":"a66t0ebxou71","geo_precision":"range","state":"CA"},"type":"Feature","geometry":{"type":"Point","coordinates":[-118.003463,33.883966]}},{"properties":{"rep? (1 for yes, 0 for no)":0,"city":"Mission Hills","zip":"91345","geo_score":0.973,"street address":"15515 San Fernando Mission Bl","id":"a66t0emcgw2l","geo_precision":"range","state":"CA"},"type":"Feature","geometry":{"type":"Point","coordinates":[-118.468844,34.271897]}},{"properties":{"rep? (1 for yes, 0 for no)":0,"city":"La Mirada","zip":"90638","geo_score":0.886,"street address":"15707 E Imperial Ste G","id":"a66t0el3g19p","geo_precision":"range","state":"CA"},"type":"Feature","geometry":{"type":"Point","coordinates":[-117.996418,33.917191]}},{"properties":{"rep? (1 for yes, 0 for no)":0,"city":"La Mirada","zip":"90638","geo_score":0.976,"street address":"15803 Cobblestone Road","id":"a66t0e9mu0xp","geo_precision":"range","state":"CA"},"type":"Feature","geometry":{"type":"Point","coordinates":[-117.993615,33.915368]}},{"properties":{"rep? (1 for yes, 0 for no)":0,"city":"Pasadena","zip":"91106","geo_score":1.0,"street address":"168 S Bonnie Ave","id":"a66t0endzecs","geo_precision":"range","state":"CA"},"type":"Feature","geometry":{"type":"Point","coordinates":[-118.115665,34.143347]}},{"properties":{"rep? (1 for yes, 0 for no)":0,"city":"North Hills","zip":"91343","geo_score":0.902,"street address":"16933 Parthenia St","id":"a66t0emszyk3","geo_precision":"range","state":"CA"},"type":"Feature","geometry":{"type":"Point","coordinates":[-118.501178,34.228493]}},{"properties":{"rep? (1 for yes, 0 for no)":0,"city":"North Hills","zip":"91343","geo_score":0.902,"street address":"16933 Parthenia Street","id":"a66t0eifeyd7","geo_precision":"range","state":"CA"},"type":"Feature","geometry":{"type":"Point","coordinates":[-118.501178,34.228493]}},{"properties":{"rep? (1 for yes, 0 for no)":0,"city":"Cerritos","zip":"90703","geo_score":0.883,"street address":"17150 Norwalk Bl Ste 102","id":"a66t0ekeua1p","geo_precision":"range","state":"CA"},"type":"Feature","geometry":{"type":"Point","coordinates":[-118.072607,33.875348]}},{"properties":{"rep? (1 for yes, 0 for no)":0,"city":"Northridge","zip":"91325","geo_score":1.0,"street address":"17445 Stagg St","id":"a66t0ekhgq3h","geo_precision":"range","state":"CA"},"type":"Feature","geometry":{"type":"Point","coordinates":[-118.512666,34.212038]}},{"properties":{"rep? (1 for yes, 0 for no)":0,"city":"City Of Industry","zip":"91748","geo_score":0.916,"street address":"17462 Colima Road","id":"a66t0e9pukqc","geo_precision":"range","state":"CA"},"type":"Feature","geometry":{"type":"Point","coordinates":[-117.924919,33.990491]}},{"properties":{"rep? (1 for yes, 0 for no)":0,"city":"Encino","zip":"91316","geo_score":1.0,"street address":"17530 Ventura Blvd","id":"a66t0ehlmqob","geo_precision":"range","state":"CA"},"type":"Feature","geometry":{"type":"Point","coordinates":[-118.514762,34.161598]}},{"properties":{"rep? (1 for yes, 0 for no)":0,"city":"Cerritos","zip":"90703","geo_score":0.941,"street address":"18000 Studebaker Rd 700","id":"a66t0e8xnomg","geo_precision":"range","state":"CA"},"type":"Feature","geometry":{"type":"Point","coordinates":[-118.099373,33.867329]}},{"properties":{"rep? (1 for yes, 0 for no)":0,"city":"Artesia","zip":"90701","geo_score":0.915,"street address":"18010 Devlin Ave","id":"a66t0e9qn50t","geo_precision":"range","state":"CA"},"type":"Feature","geometry":{"type":"Point","coordinates":[-118.07779,33.86749]}},{"properties":{"rep? (1 for yes, 0 for no)":0,"city":"Artesia","zip":"90701","geo_score":0.892,"street address":"18619 Clarkdale Ave L","id":"a66t0eoadtfc","geo_precision":"range","state":"CA"},"type":"Feature","geometry":{"type":"Point","coordinates":[-118.079679,33.862575]}},{"properties":{"rep? (1 for yes, 0 for no)":0,"city":"Reseda","zip":"91335","geo_score":1.0,"street address":"18845 Sherman Way","id":"a66t0em79pnw","geo_precision":"range","state":"CA"},"type":"Feature","geometry":{"type":"Point","coordinates":[-118.544073,34.201054]}},{"properties":{"rep? (1 for yes, 0 for no)":0,"city":"City Of Industry","zip":"91748","geo_score":0.916,"street address":"18912 Amberly Place","id":"a66t0eaqtbau","geo_precision":"range","state":"CA"},"type":"Feature","geometry":{"type":"Point","coordinates":[-117.88805,33.969086]}},{"properties":{"rep? (1 for yes, 0 for no)":0,"city":"City Of Industry","zip":"91748","geo_score":0.916,"street address":"19267 Colima Rd","id":"a66t0ekaywra","geo_precision":"range","state":"CA"},"type":"Feature","geometry":{"type":"Point","coordinates":[-117.882296,33.987102]}},{"properties":{"rep? (1 for yes, 0 for no)":0,"city":"Northridge","zip":"91324","geo_score":0.932,"street address":"19520 Nordhoff Suite","id":"a66t0edvtz82","geo_precision":"range","state":"CA"},"type":"Feature","geometry":{"type":"Point","coordinates":[-118.558383,34.235481]}},{"properties":{"rep? (1 for yes, 0 for no)":0,"city":"Northridge","zip":"91324","geo_score":1.0,"street address":"19641 Parthenia St","id":"a66t0eeguin7","geo_precision":"range","state":"CA"},"type":"Feature","geometry":{"type":"Point","coordinates":[-118.560487,34.228222]}},{"properties":{"rep? (1 for yes, 0 for no)":0,"city":"Canoga Park","zip":"91306","geo_score":0.922,"street address":"19725 Sherman Way","id":"a66t0ehrpdxv","geo_precision":"range","state":"CA"},"type":"Feature","geometry":{"type":"Point","coordinates":[-118.562698,34.200963]}},{"properties":{"rep? (1 for yes, 0 for no)":0,"city":"Canoga Park","zip":"91306","geo_score":0.922,"street address":"19725 Sherman Way","id":"a66t0el352p2","geo_precision":"range","state":"CA"},"type":"Feature","geometry":{"type":"Point","coordinates":[-118.562698,34.200963]}},{"properties":{"rep? (1 for yes, 0 for no)":0,"city":"Glendora","zip":"91741","geo_score":0.902,"street address":"200 N Glendora Ave Suite E","id":"a66t0eduz6yn","geo_precision":"range","state":"CA"},"type":"Feature","geometry":{"type":"Point","coordinates":[-117.865449,34.138477]}},{"properties":{"rep? (1 for yes, 0 for no)":0,"city":"City Of Industry","zip":"91789","geo_score":0.801,"street address":"20265 Valley Blvd","id":"a66t0ebcqlcu","geo_precision":"range","state":"CA"},"type":"Feature","geometry":{"type":"Point","coordinates":[-117.862254,34.007831]}},{"properties":{"rep? (1 for yes, 0 for no)":0,"city":"Chatsworth","zip":"91311","geo_score":0.859,"street address":"20555 Devonshire St 381","id":"a66t0eeios43","geo_precision":"range","state":"CA"},"type":"Feature","geometry":{"type":"Point","coordinates":[-118.58082,34.257248]}},{"properties":{"rep? (1 for yes, 0 for no)":0,"city":"Los Angeles","zip":"90004","geo_score":1.0,"street address":"206 N Mariposa Avenue","id":"a66t0emf2i6q","geo_precision":"range","state":"CA"},"type":"Feature","geometry":{"type":"Point","coordinates":[-118.299412,34.075348]}},{"properties":{"rep? (1 for yes, 0 for no)":0,"city":"Woodland Hills","zip":"91364","geo_score":0.93,"street address":"20929 Ventura Blvd","id":"a66t0emnpuen","geo_precision":"range","state":"CA"},"type":"Feature","geometry":{"type":"Point","coordinates":[-118.588974,34.16646]}},{"properties":{"rep? (1 for yes, 0 for no)":0,"city":"Diamond Bar","zip":"91765","geo_score":0.902,"street address":"20955 Pathfinder Rd Ste 100","id":"a66t0en0m84v","geo_precision":"range","state":"CA"},"type":"Feature","geometry":{"type":"Point","coordinates":[-117.844336,33.984293]}},{"properties":{"rep? (1 for yes, 0 for no)":0,"city":"La Verne","zip":"91750","geo_score":1.0,"street address":"2100 Arrow Highway","id":"a66t0elysng1","geo_precision":"range","state":"CA"},"type":"Feature","geometry":{"type":"Point","coordinates":[-117.771204,34.097743]}},{"properties":{"rep? (1 for yes, 0 for no)":0,"city":"Torrance","zip":"90501","geo_score":1.0,"street address":"2166 Torrance Blvd","id":"a66t0ecup2oo","geo_precision":"range","state":"CA"},"type":"Feature","geometry":{"type":"Point","coordinates":[-118.320732,33.83642]}},{"properties":{"rep? (1 for yes, 0 for no)":0,"city":"Woodland Hills","zip":"91364","geo_score":0.838,"street address":"21731 Ventura Blvd Suite","id":"a66t0ehj7pz7","geo_precision":"range","state":"CA"},"type":"Feature","geometry":{"type":"Point","coordinates":[-118.60105,34.16832]}},{"properties":{"rep? (1 for yes, 0 for no)":0,"city":"Woodland Hills","zip":"91364","geo_score":0.93,"street address":"21731 Ventura Blvd","id":"a66t0ehhq1ef","geo_precision":"range","state":"CA"},"type":"Feature","geometry":{"type":"Point","coordinates":[-118.60105,34.16832]}},{"properties":{"rep? (1 for yes, 0 for no)":0,"city":"Hermosa Beach","zip":"90254","geo_score":1.0,"street address":"2200 Pacific Coast Highway","id":"a66t0ef35d9l","geo_precision":"range","state":"CA"},"type":"Feature","geometry":{"type":"Point","coordinates":[-118.394669,33.870596]}},{"properties":{"rep? (1 for yes, 0 for no)":0,"city":"Canoga Park","zip":"91303","geo_score":1.0,"street address":"22156 Sherman Way","id":"a66t0ek570xm","geo_precision":"range","state":"CA"},"type":"Feature","geometry":{"type":"Point","coordinates":[-118.609148,34.201008]}},{"properties":{"rep? (1 for yes, 0 for no)":0,"city":"Woodland Hills","zip":"91364","geo_score":0.93,"street address":"22625 Ventura Blvd","id":"a66t0efba71a","geo_precision":"range","state":"CA"},"type":"Feature","geometry":{"type":"Point","coordinates":[-118.619293,34.167273]}},{"properties":{"rep? (1 for yes, 0 for no)":0,"city":"Arcadia","zip":"91006","geo_score":0.965,"street address":"230 E Foothill Blvd","id":"a66t0ehij66t","geo_precision":"range","state":"CA"},"type":"Feature","geometry":{"type":"Point","coordinates":[-118.024812,34.151059]}},{"properties":{"rep? (1 for yes, 0 for no)":0,"city":"Long Beach","zip":"90804","geo_score":0.376,"street address":"2340 E Pch Suite F","id":"a66t0eb96tgb","geo_precision":"street","state":"CA"},"type":"Feature","geometry":{"type":"Point","coordinates":[-118.194401,33.767016]}},{"properties":{"rep? (1 for yes, 0 for no)":0,"city":"Woodland Hills","zip":"91367","geo_score":1.0,"street address":"23511 Mariano St","id":"a66t0emz74qc","geo_precision":"range","state":"CA"},"type":"Feature","geometry":{"type":"Point","coordinates":[-118.639045,34.168348]}},{"properties":{"rep? (1 for yes, 0 for no)":0,"city":"Newhall","zip":"91321","geo_score":0.93,"street address":"23942 Lyons Ave","id":"a66t0ebkb74t","geo_precision":"range","state":"CA"},"type":"Feature","geometry":{"type":"Point","coordinates":[-118.553009,34.379002]}},{"properties":{"rep? (1 for yes, 0 for no)":0,"city":"Newhall","zip":"91381","geo_score":0.916,"street address":"26819 Kendall Lane","id":"a66t0ehs1d1g","geo_precision":"range","state":"CA"},"type":"Feature","geometry":{"type":"Point","coordinates":[-118.603417,34.388498]}},{"properties":{"rep? (1 for yes, 0 for no)":0,"city":"Long Beach","zip":"90806","geo_score":0.912,"street address":"2760 E Spring Street","id":"a66t0eitcmng","geo_precision":"range","state":"CA"},"type":"Feature","geometry":{"type":"Point","coordinates":[-118.159606,33.81166]}},{"properties":{"rep? (1 for yes, 0 for no)":0,"city":"Pasadena","zip":"91107","geo_score":0.967,"street address":"2848 E Foothill Blvd","id":"a66t0effwxwj","geo_precision":"range","state":"CA"},"type":"Feature","geometry":{"type":"Point","coordinates":[-118.091818,34.14993]}},{"properties":{"rep? (1 for yes, 0 for no)":0,"city":"Pasadena","zip":"91108","geo_score":0.935,"street address":"2915 Wallingford Rd","id":"a66t0ebou74t","geo_precision":"range","state":"CA"},"type":"Feature","geometry":{"type":"Point","coordinates":[-118.093982,34.130635]}},{"properties":{"rep? (1 for yes, 0 for no)":0,"city":"Inglewood","zip":"90303","geo_score":1.0,"street address":"2930 W Imperial Hwy","id":"a66t0eo3hou8","geo_precision":"range","state":"CA"},"type":"Feature","geometry":{"type":"Point","coordinates":[-118.325692,33.930898]}},{"properties":{"rep? (1 for yes, 0 for no)":0,"city":"Pasadena","zip":"91105","geo_score":0.744,"street address":"297 Orange Grove Avenue","id":"a66t0edncgxc","geo_precision":"street","state":"CA"},"type":"Feature","geometry":{"type":"Point","coordinates":[-118.158458,34.129833]}},{"properties":{"rep? (1 for yes, 0 for no)":0,"city":"Covina","zip":"91723","geo_score":1.0,"street address":"300 E Edna Place","id":"a66t0eabggxj","geo_precision":"range","state":"CA"},"type":"Feature","geometry":{"type":"Point","coordinates":[-117.885764,34.092832]}},{"properties":{"rep? (1 for yes, 0 for no)":0,"city":"Pasadena","zip":"91101","geo_score":0.875,"street address":"301 N Lake Ave Ste 800","id":"a66t0epbeqvv","geo_precision":"range","state":"CA"},"type":"Feature","geometry":{"type":"Point","coordinates":[-118.132405,34.150837]}},{"properties":{"rep? (1 for yes, 0 for no)":0,"city":"Montebello","zip":"90640","geo_score":1.0,"street address":"3317 W Beverly Blvd","id":"a66t0ekzowno","geo_precision":"range","state":"CA"},"type":"Feature","geometry":{"type":"Point","coordinates":[-118.13907,34.02403]}},{"properties":{"rep? (1 for yes, 0 for no)":0,"city":"Los Angeles","zip":"90010","geo_score":1.0,"street address":"3435 Wilshire Blvd","id":"a66t0ealmz4h","geo_precision":"range","state":"CA"},"type":"Feature","geometry":{"type":"Point","coordinates":[-118.299013,34.061751]}},{"properties":{"rep? (1 for yes, 0 for no)":0,"city":"Pomona","zip":"91768","geo_score":0.916,"street address":"3503 W Temple Ave Ste C","id":"a66t0efdwqpf","geo_precision":"range","state":"CA"},"type":"Feature","geometry":{"type":"Point","coordinates":[-117.812358,34.048528]}},{"properties":{"rep? (1 for yes, 0 for no)":0,"city":"Burbank","zip":"91502","geo_score":0.708,"street address":"361 E Magnolia Blvd","id":"a66t0e939vlg","geo_precision":"street","state":"CA"},"type":"Feature","geometry":{"type":"Point","coordinates":[-118.313014,34.181865]}},{"properties":{"rep? (1 for yes, 0 for no)":0,"city":"Glendale","zip":"91214","geo_score":0.911,"street address":"3857 Foothill Blvd","id":"a66t0ee2fgqn","geo_precision":"range","state":"CA"},"type":"Feature","geometry":{"type":"Point","coordinates":[-118.262891,34.238503]}},{"properties":{"rep? (1 for yes, 0 for no)":0,"city":"South Gate","zip":"90280","geo_score":0.924,"street address":"3927 Tweedy Blvd","id":"a66t0enktbq4","geo_precision":"range","state":"CA"},"type":"Feature","geometry":{"type":"Point","coordinates":[-118.20281,33.943898]}},{"properties":{"rep? (1 for yes, 0 for no)":0,"city":"Lakewood","zip":"90712","geo_score":1.0,"street address":"4067 Hardwick Street","id":"a66t0ejr4174","geo_precision":"range","state":"CA"},"type":"Feature","geometry":{"type":"Point","coordinates":[-118.144596,33.850473]}},{"properties":{"rep? (1 for yes, 0 for no)":0,"city":"West Covina","zip":"91790","geo_score":1.0,"street address":"420 N Chalburn Ave","id":"a66t0egwk58k","geo_precision":"range","state":"CA"},"type":"Feature","geometry":{"type":"Point","coordinates":[-117.943617,34.078381]}},{"properties":{"rep? (1 for yes, 0 for no)":0,"city":"Los Angeles","zip":"90012","geo_score":1.0,"street address":"425 Savoy St","id":"a66t0eg4nqgo","geo_precision":"range","state":"CA"},"type":"Feature","geometry":{"type":"Point","coordinates":[-118.232606,34.069825]}},{"properties":{"rep? (1 for yes, 0 for no)":0,"city":"San Dimas","zip":"91773","geo_score":1.0,"street address":"451 W Bonita Ave","id":"a66t0en71ou9","geo_precision":"range","state":"CA"},"type":"Feature","geometry":{"type":"Point","coordinates":[-117.814717,34.106676]}},{"properties":{"rep? (1 for yes, 0 for no)":0,"city":"Covina","zip":"91722","geo_score":1.0,"street address":"4520 N Vincent Ave","id":"a66t0emzcdh1","geo_precision":"range","state":"CA"},"type":"Feature","geometry":{"type":"Point","coordinates":[-117.925408,34.094012]}},{"properties":{"rep? (1 for yes, 0 for no)":0,"city":"Monrovia","zip":"91016","geo_score":0.933,"street address":"50 W Lemon Ave","id":"a66t0enb0jwr","geo_precision":"range","state":"CA"},"type":"Feature","geometry":{"type":"Point","coordinates":[-118.001503,34.146977]}},{"properties":{"rep? (1 for yes, 0 for no)":0,"city":"Los Alamitos","zip":"90720","geo_score":0.828,"street address":"5152 Katella Ave Ste 101","id":"a66t0ep3w1l4","geo_precision":"range","state":"CA"},"type":"Feature","geometry":{"type":"Point","coordinates":[-118.042715,33.803087]}},{"properties":{"rep? (1 for yes, 0 for no)":0,"city":"Los Angeles","zip":"90022","geo_score":0.927,"street address":"5430 E Beverly Blvd","id":"a66t0em3hf9j","geo_precision":"range","state":"CA"},"type":"Feature","geometry":{"type":"Point","coordinates":[-118.149144,34.029396]}},{"properties":{"rep? (1 for yes, 0 for no)":0,"city":"North Hollywood","zip":"91601","geo_score":0.941,"street address":"5435 Cahuenga Blvd Ste","id":"a66t0eb8zfh8","geo_precision":"range","state":"CA"},"type":"Feature","geometry":{"type":"Point","coordinates":[-118.361546,34.169152]}},{"properties":{"rep? (1 for yes, 0 for no)":0,"city":"Los Angeles","zip":"90045","geo_score":0.925,"street address":"5777 W Century Blvd","id":"a66t0ec1jd3s","geo_precision":"range","state":"CA"},"type":"Feature","geometry":{"type":"Point","coordinates":[-118.382261,33.945562]}},{"properties":{"rep? (1 for yes, 0 for no)":0,"city":"San Gabriel","zip":"91775","geo_score":1.0,"street address":"5818 N Charlotte Ave","id":"a66t0eeuytuf","geo_precision":"range","state":"CA"},"type":"Feature","geometry":{"type":"Point","coordinates":[-118.088574,34.105412]}},{"properties":{"rep? (1 for yes, 0 for no)":0,"city":"Temple City","zip":"91780","geo_score":1.0,"street address":"5853 Temple City Blvd","id":"a66t0ejptwah","geo_precision":"range","state":"CA"},"type":"Feature","geometry":{"type":"Point","coordinates":[-118.060698,34.105847]}},{"properties":{"rep? (1 for yes, 0 for no)":0,"city":"Palos Verdes Estates","zip":"90274","geo_score":0.949,"street address":"609 Deep Valley Dr","id":"a66t0enbe2cp","geo_precision":"range","state":"CA"},"type":"Feature","geometry":{"type":"Point","coordinates":[-118.372679,33.771234]}},{"properties":{"rep? (1 for yes, 0 for no)":0,"city":"Los Angeles","zip":"90071","geo_score":0.902,"street address":"633 W 5th St","id":"a66t0egen18o","geo_precision":"range","state":"CA"},"type":"Feature","geometry":{"type":"Point","coordinates":[-118.254201,34.050386]}},{"properties":{"rep? (1 for yes, 0 for no)":0,"city":"Culver City","zip":"90230","geo_score":1.0,"street address":"6375 Green Valley Circle","id":"a66t0emvwpwj","geo_precision":"range","state":"CA"},"type":"Feature","geometry":{"type":"Point","coordinates":[-118.385261,33.980273]}},{"properties":{"rep? (1 for yes, 0 for no)":0,"city":"City Of Industry","zip":"91789","geo_score":0.923,"street address":"650 Camino De Gloria","id":"a66t0ebsqk9s","geo_precision":"range","state":"CA"},"type":"Feature","geometry":{"type":"Point","coordinates":[-117.869552,34.00547]}},{"properties":{"rep? (1 for yes, 0 for no)":0,"city":"City Of Industry","zip":"90601","geo_score":0.923,"street address":"6519 Greenleaf Ave","id":"a66t0eocsyyh","geo_precision":"range","state":"CA"},"type":"Feature","geometry":{"type":"Point","coordinates":[-118.037305,33.982564]}},{"properties":{"rep? (1 for yes, 0 for no)":0,"city":"Venice","zip":"90291","geo_score":1.0,"street address":"667 Milwood Ave","id":"a66t0ehbi4g1","geo_precision":"range","state":"CA"},"type":"Feature","geometry":{"type":"Point","coordinates":[-118.463822,33.992137]}},{"properties":{"rep? (1 for yes, 0 for no)":0,"city":"Lake Balboa","zip":"91406","geo_score":0.912,"street address":"7136 Haskell Ave","id":"a66t0emp0e0t","geo_precision":"range","state":"CA"},"type":"Feature","geometry":{"type":"Point","coordinates":[-118.474926,34.199979]}},{"properties":{"rep? (1 for yes, 0 for no)":0,"city":"Lake Balboa","zip":"91406","geo_score":0.912,"street address":"7147 Woodley Avenue","id":"a66t0eb8npzx","geo_precision":"range","state":"CA"},"type":"Feature","geometry":{"type":"Point","coordinates":[-118.483658,34.200147]}},{"properties":{"rep? (1 for yes, 0 for no)":0,"city":"La Palma","zip":"90623","geo_score":1.0,"street address":"7261 Bourbon Lane","id":"a66t0efnytvm","geo_precision":"range","state":"CA"},"type":"Feature","geometry":{"type":"Point","coordinates":[-118.042234,33.857464]}},{"properties":{"rep? (1 for yes, 0 for no)":0,"city":"Downey","zip":"90241","geo_score":1.0,"street address":"7320 Firestone Blvd","id":"a66t0eoq3rzo","geo_precision":"range","state":"CA"},"type":"Feature","geometry":{"type":"Point","coordinates":[-118.151224,33.947102]}},{"properties":{"rep? (1 for yes, 0 for no)":0,"city":"Covina","zip":"91723","geo_score":0.404,"street address":"750 Terrado Plaza Unit 248","id":"a66t0entbubm","geo_precision":"street","state":"CA"},"type":"Feature","geometry":{"type":"Point","coordinates":[-117.804896,34.018384]}},{"properties":{"rep? (1 for yes, 0 for no)":0,"city":"Rosemead","zip":"91770","geo_score":0.922,"street address":"7625 Garvalia Ave","id":"a66t0ebc98aj","geo_precision":"range","state":"CA"},"type":"Feature","geometry":{"type":"Point","coordinates":[-118.102847,34.058069]}},{"properties":{"rep? (1 for yes, 0 for no)":0,"city":"Shadow Hills","zip":"91040","geo_score":0.887,"street address":"7912 Foothill Blbd","id":"a66t0ec0xenb","geo_precision":"range","state":"CA"},"type":"Feature","geometry":{"type":"Point","coordinates":[-118.304967,34.259631]}},{"properties":{"rep? (1 for yes, 0 for no)":0,"city":"North Hollywood","zip":"91605","geo_score":1.0,"street address":"8001 Laurel Canyon Blvd","id":"a66t0elcx5f5","geo_precision":"range","state":"CA"},"type":"Feature","geometry":{"type":"Point","coordinates":[-118.396519,34.21572]}},{"properties":{"rep? (1 for yes, 0 for no)":0,"city":"Rosemead","zip":"91770","geo_score":0.922,"street address":"8232 Garvey Ave","id":"a66t0ep8wf9e","geo_precision":"range","state":"CA"},"type":"Feature","geometry":{"type":"Point","coordinates":[-118.089417,34.062654]}},{"properties":{"rep? (1 for yes, 0 for no)":0,"city":"Flintridge","zip":"91011","geo_score":0.957,"street address":"842 Foothill Blvd","id":"a66t0enwtgq3","geo_precision":"range","state":"CA"},"type":"Feature","geometry":{"type":"Point","coordinates":[-118.196582,34.202808]}},{"properties":{"rep? (1 for yes, 0 for no)":0,"city":"Pico Rivera","zip":"90660","geo_score":0.941,"street address":"8505 Rosemead Blvd","id":"a66t0ec9yr5t","geo_precision":"range","state":"CA"},"type":"Feature","geometry":{"type":"Point","coordinates":[-118.109236,33.962277]}},{"properties":{"rep? (1 for yes, 0 for no)":0,"city":"Santa Fe Springs","zip":"90670","geo_score":0.923,"street address":"8531 Wellsford Place","id":"a66t0ebk5s7b","geo_precision":"range","state":"CA"},"type":"Feature","geometry":{"type":"Point","coordinates":[-118.058786,33.965404]}},{"properties":{"rep? (1 for yes, 0 for no)":0,"city":"Northridge","zip":"91324","geo_score":0.902,"street address":"8535 Reseda Blvd Suite","id":"a66t0edr77yd","geo_precision":"range","state":"CA"},"type":"Feature","geometry":{"type":"Point","coordinates":[-118.53608,34.225592]}},{"properties":{"rep? (1 for yes, 0 for no)":0,"city":"Rosemead","zip":"91770","geo_score":0.893,"street address":"8811 E Garvey Ave","id":"a66t0e9outiv","geo_precision":"range","state":"CA"},"type":"Feature","geometry":{"type":"Point","coordinates":[-118.077065,34.062681]}},{"properties":{"rep? (1 for yes, 0 for no)":0,"city":"Northridge","zip":"91324","geo_score":0.902,"street address":"9010 Reseda Blvd Suite","id":"a66t0ejc2d5c","geo_precision":"range","state":"CA"},"type":"Feature","geometry":{"type":"Point","coordinates":[-118.536084,34.233878]}},{"properties":{"rep? (1 for yes, 0 for no)":1,"city":"Lawndale","zip":"90260","geo_score":1.0,"street address":"14705 Hawthorne Blvd.","id":"a66t0eouj5uu","geo_precision":"range","state":"CA"},"type":"Feature","geometry":{"type":"Point","coordinates":[-118.352368,33.898212]}},{"properties":{"rep? (1 for yes, 0 for no)":0,"city":"La Verne","zip":"91750","geo_score":1.0,"street address":"997 Baseline Road","id":"a66t0e9s1n3w","geo_precision":"range","state":"CA"},"type":"Feature","geometry":{"type":"Point","coordinates":[-117.786764,34.121684]}},{"properties":{"rep? (1 for yes, 0 for no)":0,"city":"Bellflower","zip":"90706","geo_score":1.0,"street address":"9450 Jefferson St","id":"a66t0eluxoz2","geo_precision":"range","state":"CA"},"type":"Feature","geometry":{"type":"Point","coordinates":[-118.133214,33.893394]}},{"properties":{"rep? (1 for yes, 0 for no)":null,"city":null,"zip":null,"geo_score":0.0,"street address":"VENTURA COUNTY","id":"a66t0ejfyqxg","geo_precision":"unmatched","state":null},"type":"Feature","geometry":null}],"is_temporal":false,"author":{"url":"","metadata":null,"contact_name":null,"contact_address":null,"source":null,"contact_phone":null},"source":"","pagination":{"sort":null,"start":0,"total":138,"limit":1000000},"state":"complete","tags":"","published":"2014-08-15T04:00:11-04:00","id":219244}