{"type":"FeatureCollection","data_type":"Dataset","url_type":null,"permissions":[{"permissions":{"download":true,"view":true},"group_id":"everyone"}],"classification":null,"title":"Ed_-_Others_-_ran_March_23rd","count":16,"stream_id":219236,"contributor":{"url":"http://geocommons.com/users/39447","name":"sam.felipe"},"data_attributes":null,"calculation_params":null,"icon_link":null,"link":"http://geocommons.com/overlays/219236.json","extent":[-118.875,33.7372,-117.363,34.2124],"geometry_types":["point"],"unique_name":null,"name":"Ed_-_Others_-_ran_March_23rd","feature_count":16,"description":"","next_feature":null,"is_raster":false,"short_classification":"Y","stats":{"competitor code":{"max":33,"mean":19.0625,"variance":98.4625,"stdev":9.92282721808659,"min":2,"median":19},"mode":{"max":3,"mean":2.125,"variance":0.383333333333333,"stdev":0.61913918736689,"min":1,"median":2},"vp code":{"max":1,"mean":1.0,"variance":0.0,"stdev":0.0,"min":1,"median":1}},"features":[{"properties":{"city":"Burbank","name of competitor":"Netco Title Co.","zip":"91504","competitor code":19,"mode":3,"geo_score":0.482,"street address":"1405 N. San Fernando Blvd.","vp name":"Ed","vp code":1,"id":"a66t0ggz6crq","geo_precision":"street"},"type":"Feature","geometry":{"type":"Point","coordinates":[-118.342148,34.212387]}},{"properties":{"city":"Woodland Hills","name of competitor":"Netco Title Co.","zip":"91367","competitor code":19,"mode":3,"geo_score":0.902,"street address":"21300 Victory Blvd.","vp name":"Ed","vp code":1,"id":"a66t0gee06ip","geo_precision":"range"},"type":"Feature","geometry":{"type":"Point","coordinates":[-118.595385,34.188344]}},{"properties":{"city":"Diamond Bar","name of competitor":"Netco Title Co.","zip":"91765","competitor code":19,"mode":3,"geo_score":0.707,"street address":"20955 Pathfinder Road #100","vp name":"Ed","vp code":1,"id":"a66t0gbfsjde","geo_precision":"street"},"type":"Feature","geometry":{"type":"Point","coordinates":[-117.915191,33.967853]}},{"properties":{"city":"Orange","name of competitor":"Western Resources Title","zip":"92868","competitor code":33,"mode":3,"geo_score":0.873,"street address":"625 The City Drive #150","vp name":"Ed","vp code":1,"id":"a66t0gd785io","geo_precision":"range"},"type":"Feature","geometry":{"type":"Point","coordinates":[-117.890813,33.788578]}},{"properties":{"city":"Glendale","name of competitor":"American Coast Title","zip":"91202","competitor code":2,"mode":2,"geo_score":0.865,"street address":"1119 West Glenoaks Blvd.","vp name":"Ed","vp code":1,"id":"a66t0ga46zbw","geo_precision":"range"},"type":"Feature","geometry":{"type":"Point","coordinates":[-118.280345,34.164499]}},{"properties":{"city":"Thousand Oaks","name of competitor":"Commerce Title","zip":"91360","competitor code":6,"mode":2,"geo_score":0.818,"street address":"195 East Hillcrest Dr. #114","vp name":"Ed","vp code":1,"id":"a66t0g44jftq","geo_precision":"range"},"type":"Feature","geometry":{"type":"Point","coordinates":[-118.874951,34.18113]}},{"properties":{"city":"City of Industry","name of competitor":"Investors Title","zip":"91746","competitor code":13,"mode":2,"geo_score":0.59,"street address":"12900 Crossroads Pkwy #150","vp name":"Ed","vp code":1,"id":"a66t0g4hps37","geo_precision":"street"},"type":"Feature","geometry":{"type":"Point","coordinates":[-118.025854,34.028767]}},{"properties":{"city":"Glendale","name of competitor":"Investors Title","zip":"91203","competitor code":13,"mode":2,"geo_score":0.708,"street address":"700 North Brand Blvd. #1100","vp name":"Ed","vp code":1,"id":"a66t0gftoj9t","geo_precision":"street"},"type":"Feature","geometry":{"type":"Point","coordinates":[-118.255149,34.158663]}},{"properties":{"city":"Long Beach","name of competitor":"North American Title","zip":"90806","competitor code":21,"mode":2,"geo_score":0.51,"street address":"3780 Kilroy Airport Way #130","vp name":"Ed","vp code":1,"id":"a66t0gbxzj6a","geo_precision":"street"},"type":"Feature","geometry":{"type":"Point","coordinates":[-118.156492,33.810877]}},{"properties":{"city":"Glendale","name of competitor":"North American Title","zip":"91203","competitor code":21,"mode":2,"geo_score":0.708,"street address":"101 North Brand Blvd. #1800","vp name":"Ed","vp code":1,"id":"a66t0gaulvcx","geo_precision":"street"},"type":"Feature","geometry":{"type":"Point","coordinates":[-118.255149,34.158663]}},{"properties":{"city":"Riverside","name of competitor":"Priority Title","zip":"92507","competitor code":27,"mode":2,"geo_score":0.632,"street address":"3850 Vine Street #160","vp name":"Ed","vp code":1,"id":"a66t0g3n8q0x","geo_precision":"street"},"type":"Feature","geometry":{"type":"Point","coordinates":[-117.363439,33.98656]}},{"properties":{"city":"Beverly Hills","name of competitor":"Provident Title","zip":"90212","competitor code":28,"mode":2,"geo_score":0.707,"street address":"9300 Wilshire Blvd. #100","vp name":"Ed","vp code":1,"id":"a66t0gbhr32p","geo_precision":"street"},"type":"Feature","geometry":{"type":"Point","coordinates":[-118.389672,34.06705]}},{"properties":{"city":"Huntington Beach","name of competitor":"USA National Title","zip":"92649","competitor code":32,"mode":2,"geo_score":0.902,"street address":"5582 McFadden Avenue","vp name":"Ed","vp code":1,"id":"a66t0g7wi9uj","geo_precision":"range"},"type":"Feature","geometry":{"type":"Point","coordinates":[-118.031437,33.7372]}},{"properties":{"city":"Pasadena","name of competitor":"USA National Title","zip":"91105","competitor code":32,"mode":2,"geo_score":0.805,"street address":"176 South Lake Avenue","vp name":"Ed","vp code":1,"id":"a66t0gdj0umv","geo_precision":"range"},"type":"Feature","geometry":{"type":"Point","coordinates":[-118.132325,34.142921]}},{"properties":{"city":"Pasadena","name of competitor":"CalCounties Title Nation","zip":"91101","competitor code":3,"mode":1,"geo_score":0.49,"street address":"790 East Colorado Blvd. 4th fl.","vp name":"Ed","vp code":1,"id":"a66t0ganx2fn","geo_precision":"street"},"type":"Feature","geometry":{"type":"Point","coordinates":[-118.139974,34.154205]}},{"properties":{"city":"Santa Ana","name of competitor":"LSI Title Co.","zip":"92705","competitor code":17,"mode":1,"geo_score":0.636,"street address":"2550 Red Hill Avenue","vp name":"Ed","vp code":1,"id":"a66t0gc4z55a","geo_precision":"street"},"type":"Feature","geometry":{"type":"Point","coordinates":[-117.78945,33.759499]}}],"is_temporal":false,"author":{"url":"","metadata":null,"contact_name":null,"contact_address":null,"source":null,"contact_phone":null},"source":"","pagination":{"sort":null,"start":0,"total":16,"limit":1000000},"state":"complete","tags":"","published":"2014-08-15T03:59:48-04:00","id":219236}