{"type":"FeatureCollection","data_type":"Dataset","url_type":null,"permissions":[{"permissions":{"download":true,"view":true},"group_id":"everyone"}],"classification":null,"title":"assault dom violence 2011","count":288,"stream_id":219384,"contributor":{"url":"http://geocommons.com/users/42302","name":"hillproject"},"data_attributes":null,"calculation_params":null,"icon_link":null,"link":"http://geocommons.com/overlays/219384.json","extent":[-83.4295,41.0975,-82.464,41.4553],"geometry_types":["point"],"unique_name":null,"name":"assault dom violence 2011","feature_count":288,"description":"","next_feature":null,"is_raster":false,"short_classification":"Y","stats":{"date":{"max":"2011/12/31 10:00:00 -0500","mean":"2011/07/08 07:48:08 -0400","variance":75795781833112.2,"stdev":8706077.29308167,"min":"2011/01/01 03:35:00 -0500","median":"2011/07/13 07:39:00 -0400"},"unit":{"max":763,"mean":62.7534722222222,"variance":1844.99476142083,"stdev":42.9534022100791,"min":56,"median":59},"cfs":{"max":14,"mean":14.0,"variance":0.0,"stdev":0.0,"min":14,"median":14},"call#":{"max":11.013747,"mean":11.0068891458333,"variance":1.51186914072299e-05,"stdev":0.00388827614853034,"min":11.000016,"median":11.006994}},"features":[{"properties":{"officer":"JDW","city":"Tiffin","zip":"44883","date":{"end_time":"2011/11/02 14:00:00 -0400","original":"11/2/2011 13:59","granularity":"min","time":"2011/11/02 13:59:00 -0400"},"geo_score":0.646,"unit":62,"disposition":"200","cfs":14,"call#":11.011449,"id":"a64n4mv8awkj","geo_precision":"range","address":"1 City Lot 7","state":"OH","juris":"PD"},"type":"Feature","geometry":{"type":"Point","coordinates":[-83.285418,41.123483]}},{"properties":{"officer":"SGN","city":"Tiffin","zip":"44883","date":{"end_time":"2011/05/31 15:45:00 -0400","original":"5/31/2011 15:44","granularity":"min","time":"2011/05/31 15:44:00 -0400"},"geo_score":0.902,"unit":59,"disposition":"200","cfs":14,"call#":11.005348,"id":"a64n4mpmf8bk","geo_precision":"range","address":"1 E Market St","state":"OH","juris":"PD"},"type":"Feature","geometry":{"type":"Point","coordinates":[-83.179559,41.114309]}},{"properties":{"officer":"RLT","city":"Tiffin","zip":"44883","date":{"end_time":"2011/08/13 22:30:00 -0400","original":"8/13/2011 22:29","granularity":"min","time":"2011/08/13 22:29:00 -0400"},"geo_score":0.72,"unit":58,"disposition":"400","cfs":14,"call#":11.008231,"id":"a64n4mr8lyec","geo_precision":"range","address":"1 Little Hedges Park","state":"OH","juris":"PD"},"type":"Feature","geometry":{"type":"Point","coordinates":[-83.166016,41.116233]}},{"properties":{"officer":"EDA","city":"Tiffin","zip":"44883","date":{"end_time":"2011/07/15 20:49:00 -0400","original":"7/15/2011 20:48","granularity":"min","time":"2011/07/15 20:48:00 -0400"},"geo_score":0.546,"unit":58,"disposition":"400","cfs":14,"call#":11.007107,"id":"a64n4mpja3zw","geo_precision":"street","address":"1 Oakley Park","state":"OH","juris":"PD"},"type":"Feature","geometry":{"type":"Point","coordinates":[-83.172916,41.112623]}},{"properties":{"officer":"BAR","city":"Tiffin","zip":"44883","date":{"end_time":"2011/05/20 20:34:00 -0400","original":"5/20/2011 20:33","granularity":"min","time":"2011/05/20 20:33:00 -0400"},"geo_score":0.709,"unit":63,"disposition":"200","cfs":14,"call#":11.004923,"id":"a64n4mphuygc","geo_precision":"street","address":"1 Wall St","state":"OH","juris":"PD"},"type":"Feature","geometry":{"type":"Point","coordinates":[-83.188667,41.117231]}},{"properties":{"officer":"JAD","city":"Tiffin","zip":"44883","date":{"end_time":"2011/10/02 02:02:00 -0400","original":"10/2/2011 2:01","granularity":"min","time":"2011/10/02 02:01:00 -0400"},"geo_score":0.902,"unit":56,"disposition":"200","cfs":14,"call#":11.01024,"id":"a64n4ms5lrc4","geo_precision":"range","address":"101 Ella St","state":"OH","juris":"PD"},"type":"Feature","geometry":{"type":"Point","coordinates":[-83.183685,41.104226]}},{"properties":{"officer":"EDA","city":"Tiffin","zip":"44883","date":{"end_time":"2011/09/18 04:44:00 -0400","original":"9/18/2011 4:43","granularity":"min","time":"2011/09/18 04:43:00 -0400"},"geo_score":0.902,"unit":60,"disposition":"200","cfs":14,"call#":11.009702,"id":"a64n4mxboxek","geo_precision":"range","address":"103X E Perry St","state":"OH","juris":"PD"},"type":"Feature","geometry":{"type":"Point","coordinates":[-83.176291,41.115884]}},{"properties":{"officer":"SGN","city":"Tiffin","zip":"44883","date":{"end_time":"2011/07/19 08:18:00 -0400","original":"7/19/2011 8:17","granularity":"min","time":"2011/07/19 08:17:00 -0400"},"geo_score":0.902,"unit":59,"disposition":"200","cfs":14,"call#":11.007227,"id":"a64n4mn1vvc5","geo_precision":"range","address":"106 S Washington St","state":"OH","juris":"PD"},"type":"Feature","geometry":{"type":"Point","coordinates":[-83.176566,41.114585]}},{"properties":{"officer":"EDA","city":"Tiffin","zip":"44883","date":{"end_time":"2011/06/10 18:31:00 -0400","original":"6/10/2011 18:30","granularity":"min","time":"2011/06/10 18:30:00 -0400"},"geo_score":0.902,"unit":60,"disposition":"400","cfs":14,"call#":11.005739,"id":"a64n4msmpm36","geo_precision":"range","address":"107 Frost Pkwy","state":"OH","juris":"PD"},"type":"Feature","geometry":{"type":"Point","coordinates":[-83.179348,41.116848]}},{"properties":{"officer":"MMS","city":"Tiffin","zip":"44883","date":{"end_time":"2011/11/26 22:05:00 -0500","original":"11/26/2011 22:04","granularity":"min","time":"2011/11/26 22:04:00 -0500"},"geo_score":0.902,"unit":60,"disposition":"200","cfs":14,"call#":11.012454,"id":"a64n4mw10183","geo_precision":"range","address":"107X Frost Pkwy","state":"OH","juris":"PD"},"type":"Feature","geometry":{"type":"Point","coordinates":[-83.179348,41.116848]}},{"properties":{"officer":"DES","city":"Tiffin","zip":"44883","date":{"end_time":"2011/11/26 14:15:00 -0500","original":"11/26/2011 14:14","granularity":"min","time":"2011/11/26 14:14:00 -0500"},"geo_score":0.837,"unit":61,"disposition":"200","cfs":14,"call#":11.012436,"id":"a64n4mruuq34","geo_precision":"range","address":"107X Frost Py","state":"OH","juris":"PD"},"type":"Feature","geometry":{"type":"Point","coordinates":[-83.179348,41.116848]}},{"properties":{"officer":"JAD","city":"Tiffin","zip":"44883","date":{"end_time":"2011/02/13 00:23:00 -0500","original":"2/13/2011 0:22","granularity":"min","time":"2011/02/13 00:22:00 -0500"},"geo_score":0.87,"unit":56,"disposition":"200","cfs":14,"call#":11.001421,"id":"a64n4n01db48","geo_precision":"range","address":"108 Warren Av","state":"OH","juris":"PD"},"type":"Feature","geometry":{"type":"Point","coordinates":[-83.180742,41.130489]}},{"properties":{"officer":"MEM","city":"Tiffin","zip":"44883","date":{"end_time":"2011/08/30 20:33:00 -0400","original":"8/30/2011 20:32","granularity":"min","time":"2011/08/30 20:32:00 -0400"},"geo_score":0.902,"unit":58,"disposition":"200","cfs":14,"call#":11.008923,"id":"a64n4mmy58vh","geo_precision":"range","address":"109 Frost Pkwy","state":"OH","juris":"PD"},"type":"Feature","geometry":{"type":"Point","coordinates":[-83.179322,41.11688]}},{"properties":{"officer":"JMW","city":"Tiffin","zip":"44883","date":{"end_time":"2011/11/30 17:32:00 -0500","original":"11/30/2011 17:31","granularity":"min","time":"2011/11/30 17:31:00 -0500"},"geo_score":0.837,"unit":60,"disposition":"200","cfs":14,"call#":11.012627,"id":"a64n4mzd963o","geo_precision":"range","address":"109 Frost Py","state":"OH","juris":"PD"},"type":"Feature","geometry":{"type":"Point","coordinates":[-83.179322,41.11688]}},{"properties":{"officer":"JPF","city":"Tiffin","zip":"44883","date":{"end_time":"2011/05/26 21:07:00 -0400","original":"5/26/2011 21:06","granularity":"min","time":"2011/05/26 21:06:00 -0400"},"geo_score":0.837,"unit":59,"disposition":"200","cfs":14,"call#":11.005141,"id":"a64n4mlzno89","geo_precision":"range","address":"109 Frost Py","state":"OH","juris":"PD"},"type":"Feature","geometry":{"type":"Point","coordinates":[-83.179322,41.11688]}},{"properties":{"officer":"DES","city":"Tiffin","zip":"44883","date":{"end_time":"2011/06/18 09:06:00 -0400","original":"6/18/2011 9:05","granularity":"min","time":"2011/06/18 09:05:00 -0400"},"geo_score":0.902,"unit":61,"disposition":"200","cfs":14,"call#":11.006038,"id":"a64n4mp5t2rx","geo_precision":"range","address":"110 Longfellow Dr","state":"OH","juris":"PD"},"type":"Feature","geometry":{"type":"Point","coordinates":[-83.194347,41.100952]}},{"properties":{"officer":"RJO","city":"Tiffin","zip":"44883","date":{"end_time":"2011/07/10 11:44:00 -0400","original":"7/10/2011 11:43","granularity":"min","time":"2011/07/10 11:43:00 -0400"},"geo_score":0.902,"unit":60,"disposition":"200","cfs":14,"call#":11.006902,"id":"a64n4myxwmt9","geo_precision":"range","address":"111 Wall St","state":"OH","juris":"PD"},"type":"Feature","geometry":{"type":"Point","coordinates":[-83.188777,41.117546]}},{"properties":{"officer":"JMW","city":"Tiffin","zip":"44883","date":{"end_time":"2011/06/02 20:08:00 -0400","original":"6/2/2011 20:07","granularity":"min","time":"2011/06/02 20:07:00 -0400"},"geo_score":0.902,"unit":60,"disposition":"400","cfs":14,"call#":11.005436,"id":"a64n4moz36wc","geo_precision":"range","address":"115 N Washington St","state":"OH","juris":"PD"},"type":"Feature","geometry":{"type":"Point","coordinates":[-83.177575,41.121015]}},{"properties":{"officer":"FWS","city":"Tiffin","zip":"44883","date":{"end_time":"2011/05/23 20:35:00 -0400","original":"5/23/2011 20:34","granularity":"min","time":"2011/05/23 20:34:00 -0400"},"geo_score":0.756,"unit":58,"disposition":"200","cfs":14,"call#":11.005037,"id":"a64n4mkgnfxi","geo_precision":"range","address":"115 Third Av","state":"OH","juris":"PD"},"type":"Feature","geometry":{"type":"Point","coordinates":[-83.179833,41.129639]}},{"properties":{"officer":"RMN","city":"Tiffin","zip":"44883","date":{"end_time":"2011/12/09 22:48:00 -0500","original":"12/9/2011 22:47","granularity":"min","time":"2011/12/09 22:47:00 -0500"},"geo_score":0.902,"unit":57,"disposition":"200","cfs":14,"call#":11.012968,"id":"a64n4ms306zx","geo_precision":"range","address":"119 Greenfield St","state":"OH","juris":"PD"},"type":"Feature","geometry":{"type":"Point","coordinates":[-83.165899,41.115108]}},{"properties":{"officer":"RJO","city":"Tiffin","zip":"44883","date":{"end_time":"2011/02/24 14:54:00 -0500","original":"2/24/2011 14:53","granularity":"min","time":"2011/02/24 14:53:00 -0500"},"geo_score":0.902,"unit":58,"disposition":"200","cfs":14,"call#":11.001761,"id":"a64n4mkkhryt","geo_precision":"range","address":"120 Erie St","state":"OH","juris":"PD"},"type":"Feature","geometry":{"type":"Point","coordinates":[-83.174834,41.124061]}},{"properties":{"officer":"GTM","city":"Tiffin","zip":"44883","date":{"end_time":"2011/04/12 10:48:00 -0400","original":"4/12/2011 10:47","granularity":"min","time":"2011/04/12 10:47:00 -0400"},"geo_score":0.902,"unit":57,"disposition":"200","cfs":14,"call#":11.003373,"id":"a64n4mo036vj","geo_precision":"range","address":"120 Melmore St","state":"OH","juris":"PD"},"type":"Feature","geometry":{"type":"Point","coordinates":[-83.172964,41.106757]}},{"properties":{"officer":"MMC","city":"Tiffin","zip":"44883","date":{"end_time":"2011/12/29 22:43:00 -0500","original":"12/29/2011 22:42","granularity":"min","time":"2011/12/29 22:42:00 -0500"},"geo_score":0.902,"unit":107,"disposition":"200","cfs":14,"call#":11.0137,"id":"a64n4mrp78f9","geo_precision":"range","address":"122 Schonhardt St","state":"OH","juris":"PD"},"type":"Feature","geometry":{"type":"Point","coordinates":[-83.172456,41.109694]}},{"properties":{"officer":"SGN","city":"Tiffin","zip":"44883","date":{"end_time":"2011/12/28 15:41:00 -0500","original":"12/28/2011 15:40","granularity":"min","time":"2011/12/28 15:40:00 -0500"},"geo_score":0.902,"unit":59,"disposition":"200","cfs":14,"call#":11.013665,"id":"a64n4mxsg43l","geo_precision":"range","address":"122 Schonhardt St","state":"OH","juris":"PD"},"type":"Feature","geometry":{"type":"Point","coordinates":[-83.172456,41.109694]}},{"properties":{"officer":"JMW","city":"Tiffin","zip":"44883","date":{"end_time":"2011/07/27 04:39:00 -0400","original":"7/27/2011 4:38","granularity":"min","time":"2011/07/27 04:38:00 -0400"},"geo_score":0.902,"unit":59,"disposition":"230","cfs":14,"call#":11.007526,"id":"a64n4mvivyfu","geo_precision":"range","address":"127 Franklin St","state":"OH","juris":"PD"},"type":"Feature","geometry":{"type":"Point","coordinates":[-83.18231,41.118242]}},{"properties":{"officer":"RMN","city":"Tiffin","zip":"44883","date":{"end_time":"2011/10/30 03:01:00 -0400","original":"10/30/2011 3:00","granularity":"min","time":"2011/10/30 03:00:00 -0400"},"geo_score":0.902,"unit":57,"disposition":"400","cfs":14,"call#":11.011338,"id":"a64n4mv09l61","geo_precision":"range","address":"129 S Washington St","state":"OH","juris":"PD"},"type":"Feature","geometry":{"type":"Point","coordinates":[-83.176496,41.113983]}},{"properties":{"officer":"LMK","city":"Tiffin","zip":"44883","date":{"end_time":"2011/09/03 02:16:00 -0400","original":"9/3/2011 2:15","granularity":"min","time":"2011/09/03 02:15:00 -0400"},"geo_score":0.902,"unit":61,"disposition":"400","cfs":14,"call#":11.009061,"id":"a64n4mzqtkcs","geo_precision":"range","address":"129 S Washington St","state":"OH","juris":"PD"},"type":"Feature","geometry":{"type":"Point","coordinates":[-83.176496,41.113983]}},{"properties":{"officer":"SGN","city":"Tiffin","zip":"44883","date":{"end_time":"2011/08/02 12:35:00 -0400","original":"8/2/2011 12:34","granularity":"min","time":"2011/08/02 12:34:00 -0400"},"geo_score":0.902,"unit":59,"disposition":"200","cfs":14,"call#":11.007811,"id":"a64n4mt6tlr2","geo_precision":"range","address":"129 S Washington St","state":"OH","juris":"PD"},"type":"Feature","geometry":{"type":"Point","coordinates":[-83.176496,41.113983]}},{"properties":{"officer":"LMK","city":"Tiffin","zip":"44883","date":{"end_time":"2011/07/27 03:02:00 -0400","original":"7/27/2011 3:01","granularity":"min","time":"2011/07/27 03:01:00 -0400"},"geo_score":0.902,"unit":57,"disposition":"400","cfs":14,"call#":11.007524,"id":"a64n4mzwtp41","geo_precision":"range","address":"129 S Washington St","state":"OH","juris":"PD"},"type":"Feature","geometry":{"type":"Point","coordinates":[-83.176496,41.113983]}},{"properties":{"officer":"JSC","city":"Tiffin","zip":"44883","date":{"end_time":"2011/07/03 02:31:00 -0400","original":"7/3/2011 2:30","granularity":"min","time":"2011/07/03 02:30:00 -0400"},"geo_score":0.902,"unit":61,"disposition":"100","cfs":14,"call#":11.006635,"id":"a64n4mrwja7v","geo_precision":"range","address":"129 S Washington St","state":"OH","juris":"PD"},"type":"Feature","geometry":{"type":"Point","coordinates":[-83.176496,41.113983]}},{"properties":{"officer":"EDA","city":"Tiffin","zip":"44883","date":{"end_time":"2011/07/03 01:31:00 -0400","original":"7/3/2011 1:30","granularity":"min","time":"2011/07/03 01:30:00 -0400"},"geo_score":0.902,"unit":59,"disposition":"200","cfs":14,"call#":11.006629,"id":"a64n4mnhejev","geo_precision":"range","address":"129 S Washington St","state":"OH","juris":"PD"},"type":"Feature","geometry":{"type":"Point","coordinates":[-83.176496,41.113983]}},{"properties":{"officer":"DES","city":"Tiffin","zip":"44883","date":{"end_time":"2011/10/09 13:57:00 -0400","original":"10/9/2011 13:56","granularity":"min","time":"2011/10/09 13:56:00 -0400"},"geo_score":0.902,"unit":58,"disposition":"400","cfs":14,"call#":11.010546,"id":"a64n4mpc1aty","geo_precision":"range","address":"130X S Washington St","state":"OH","juris":"PD"},"type":"Feature","geometry":{"type":"Point","coordinates":[-83.176489,41.113923]}},{"properties":{"officer":"AMR","city":"Tiffin","zip":"44883","date":{"end_time":"2011/02/06 22:54:00 -0500","original":"2/6/2011 22:53","granularity":"min","time":"2011/02/06 22:53:00 -0500"},"geo_score":0.87,"unit":63,"disposition":"200","cfs":14,"call#":11.001176,"id":"a64n4mt8w8cj","geo_precision":"range","address":"133 Warren Av","state":"OH","juris":"PD"},"type":"Feature","geometry":{"type":"Point","coordinates":[-83.180748,41.130979]}},{"properties":{"officer":"BRB","city":"Tiffin","zip":"44883","date":{"end_time":"2011/12/11 16:47:00 -0500","original":"12/11/2011 16:46","granularity":"min","time":"2011/12/11 16:46:00 -0500"},"geo_score":0.902,"unit":63,"disposition":"200","cfs":14,"call#":11.013039,"id":"a64n4mzxor9k","geo_precision":"range","address":"136 W Market St","state":"OH","juris":"PD"},"type":"Feature","geometry":{"type":"Point","coordinates":[-83.184964,41.11378]}},{"properties":{"officer":"EDA","city":"Tiffin","zip":"44883","date":{"end_time":"2011/01/31 18:15:00 -0500","original":"1/31/2011 18:14","granularity":"min","time":"2011/01/31 18:14:00 -0500"},"geo_score":0.902,"unit":59,"disposition":"200","cfs":14,"call#":11.00096,"id":"a64n4mmsrxp6","geo_precision":"range","address":"139 W Davis St","state":"OH","juris":"PD"},"type":"Feature","geometry":{"type":"Point","coordinates":[-83.183134,41.125954]}},{"properties":{"officer":"RLT","city":"Tiffin","zip":"44883","date":{"end_time":"2011/04/01 03:51:00 -0400","original":"4/1/2011 3:50","granularity":"min","time":"2011/04/01 03:50:00 -0400"},"geo_score":0.902,"unit":62,"disposition":"200","cfs":14,"call#":11.0029,"id":"a64n4n0c4an6","geo_precision":"range","address":"14 Schonhardt St","state":"OH","juris":"PD"},"type":"Feature","geometry":{"type":"Point","coordinates":[-83.172954,41.112813]}},{"properties":{"officer":"JAD","city":"Tiffin","zip":"44883","date":{"end_time":"2011/10/08 01:42:00 -0400","original":"10/8/2011 1:41","granularity":"min","time":"2011/10/08 01:41:00 -0400"},"geo_score":0.902,"unit":56,"disposition":"200","cfs":14,"call#":11.010472,"id":"a64n4mshwyxm","geo_precision":"range","address":"140 Union St","state":"OH","juris":"PD"},"type":"Feature","geometry":{"type":"Point","coordinates":[-83.182438,41.107575]}},{"properties":{"officer":"BAR","city":"Tiffin","zip":"44883","date":{"end_time":"2011/10/09 02:04:00 -0400","original":"10/9/2011 2:03","granularity":"min","time":"2011/10/09 02:03:00 -0400"},"geo_score":0.902,"unit":63,"disposition":"100","cfs":14,"call#":11.010525,"id":"a64n4mlkrnvr","geo_precision":"range","address":"144 W Market St","state":"OH","juris":"PD"},"type":"Feature","geometry":{"type":"Point","coordinates":[-83.18517,41.113752]}},{"properties":{"officer":"LMK","city":"Tiffin","zip":"44883","date":{"end_time":"2011/06/10 04:04:00 -0400","original":"6/10/2011 4:03","granularity":"min","time":"2011/06/10 04:03:00 -0400"},"geo_score":0.429,"unit":61,"disposition":"200","cfs":14,"call#":11.005721,"id":"a64n4mr6po3k","geo_precision":"street","address":"149 Dallas St,B","state":"OH","juris":"PD"},"type":"Feature","geometry":{"type":"Point","coordinates":[-82.46403,41.384433]}},{"properties":{"officer":"AMR","city":"Tiffin","zip":"44883","date":{"end_time":"2011/03/07 19:31:00 -0500","original":"3/7/2011 19:30","granularity":"min","time":"2011/03/07 19:30:00 -0500"},"geo_score":0.756,"unit":63,"disposition":"500","cfs":14,"call#":11.002174,"id":"a64n4mlm77kn","geo_precision":"range","address":"149 First Av","state":"OH","juris":"PD"},"type":"Feature","geometry":{"type":"Point","coordinates":[-83.18264,41.127893]}},{"properties":{"officer":"RLT","city":"Tiffin","zip":"44883","date":{"end_time":"2011/08/07 02:48:00 -0400","original":"8/7/2011 2:47","granularity":"min","time":"2011/08/07 02:47:00 -0400"},"geo_score":0.902,"unit":59,"disposition":"200","cfs":14,"call#":11.007975,"id":"a64n4n0rnz5s","geo_precision":"range","address":"15 Adams St","state":"OH","juris":"PD"},"type":"Feature","geometry":{"type":"Point","coordinates":[-83.178727,41.117967]}},{"properties":{"officer":"JSC","city":"Tiffin","zip":"44883","date":{"end_time":"2011/02/05 23:28:00 -0500","original":"2/5/2011 23:27","granularity":"min","time":"2011/02/05 23:27:00 -0500"},"geo_score":0.902,"unit":57,"disposition":"400","cfs":14,"call#":11.001141,"id":"a64n4mrml6z1","geo_precision":"range","address":"152 Martha St","state":"OH","juris":"PD"},"type":"Feature","geometry":{"type":"Point","coordinates":[-83.184976,41.102833]}},{"properties":{"officer":"SMM","city":"Tiffin","zip":"44883","date":{"end_time":"2011/01/01 03:36:00 -0500","original":"1/1/2011 3:35","granularity":"min","time":"2011/01/01 03:35:00 -0500"},"geo_score":0.902,"unit":58,"disposition":"200","cfs":14,"call#":11.000016,"id":"a64n4mv0t1eh","geo_precision":"range","address":"152 Martha St","state":"OH","juris":"PD"},"type":"Feature","geometry":{"type":"Point","coordinates":[-83.184976,41.102833]}},{"properties":{"officer":"DES","city":"Tiffin","zip":"44883","date":{"end_time":"2011/10/02 11:11:00 -0400","original":"10/2/2011 11:10","granularity":"min","time":"2011/10/02 11:10:00 -0400"},"geo_score":0.429,"unit":58,"disposition":"400","cfs":14,"call#":11.010248,"id":"a64n4n08kuod","geo_precision":"street","address":"153 Dallas St,A","state":"OH","juris":"PD"},"type":"Feature","geometry":{"type":"Point","coordinates":[-82.718098,41.444865]}},{"properties":{"officer":"BRB","city":"Tiffin","zip":"44883","date":{"end_time":"2011/01/18 12:26:00 -0500","original":"1/18/2011 12:25","granularity":"min","time":"2011/01/18 12:25:00 -0500"},"geo_score":0.902,"unit":59,"disposition":"200","cfs":14,"call#":11.000542,"id":"a64n4mr387pt","geo_precision":"range","address":"154 S Washington St","state":"OH","juris":"PD"},"type":"Feature","geometry":{"type":"Point","coordinates":[-83.176365,41.11326]}},{"properties":{"officer":"AMR","city":"Tiffin","zip":"44883","date":{"end_time":"2011/01/18 17:33:00 -0500","original":"1/18/2011 17:32","granularity":"min","time":"2011/01/18 17:32:00 -0500"},"geo_score":0.902,"unit":63,"disposition":"400","cfs":14,"call#":11.000555,"id":"a64n4mwtyyl7","geo_precision":"range","address":"156 Benner St","state":"OH","juris":"PD"},"type":"Feature","geometry":{"type":"Point","coordinates":[-83.181458,41.117286]}},{"properties":{"officer":"SGN","city":"Tiffin","zip":"44883","date":{"end_time":"2011/08/12 10:39:00 -0400","original":"8/12/2011 10:38","granularity":"min","time":"2011/08/12 10:38:00 -0400"},"geo_score":0.902,"unit":59,"disposition":"200","cfs":14,"call#":11.008158,"id":"a64n4mv67yox","geo_precision":"range","address":"156 E Perry St","state":"OH","juris":"PD"},"type":"Feature","geometry":{"type":"Point","coordinates":[-83.174254,41.116084]}},{"properties":{"officer":"MMS","city":"Tiffin","zip":"44883","date":{"end_time":"2011/09/04 04:23:00 -0400","original":"9/4/2011 4:22","granularity":"min","time":"2011/09/04 04:22:00 -0400"},"geo_score":0.902,"unit":58,"disposition":"400","cfs":14,"call#":11.009113,"id":"a64n4mm8wekf","geo_precision":"range","address":"156 Hall St","state":"OH","juris":"PD"},"type":"Feature","geometry":{"type":"Point","coordinates":[-83.182787,41.12274]}},{"properties":{"officer":"JAD","city":"Tiffin","zip":"44883","date":{"end_time":"2011/09/04 00:26:00 -0400","original":"9/4/2011 0:25","granularity":"min","time":"2011/09/04 00:25:00 -0400"},"geo_score":0.902,"unit":56,"disposition":"200","cfs":14,"call#":11.009104,"id":"a64n4mppukym","geo_precision":"range","address":"156 Hall St","state":"OH","juris":"PD"},"type":"Feature","geometry":{"type":"Point","coordinates":[-83.182787,41.12274]}},{"properties":{"officer":"BRB","city":"Tiffin","zip":"44883","date":{"end_time":"2011/02/07 07:39:00 -0500","original":"2/7/2011 7:38","granularity":"min","time":"2011/02/07 07:38:00 -0500"},"geo_score":0.902,"unit":59,"disposition":"200","cfs":14,"call#":11.001183,"id":"a64n4mq1cdxj","geo_precision":"range","address":"16 Tiffin St","state":"OH","juris":"PD"},"type":"Feature","geometry":{"type":"Point","coordinates":[-83.173537,41.112975]}},{"properties":{"officer":"RLT","city":"Tiffin","zip":"44883","date":{"end_time":"2011/02/07 02:18:00 -0500","original":"2/7/2011 2:17","granularity":"min","time":"2011/02/07 02:17:00 -0500"},"geo_score":0.902,"unit":61,"disposition":"200","cfs":14,"call#":11.001181,"id":"a64n4mtz1nop","geo_precision":"range","address":"16 Tiffin St","state":"OH","juris":"PD"},"type":"Feature","geometry":{"type":"Point","coordinates":[-83.173537,41.112975]}},{"properties":{"officer":"BAR","city":"Tiffin","zip":"44883","date":{"end_time":"2011/08/28 18:11:00 -0400","original":"8/28/2011 18:10","granularity":"min","time":"2011/08/28 18:10:00 -0400"},"geo_score":0.866,"unit":63,"disposition":"200","cfs":14,"call#":11.008836,"id":"a64n4mlxg3ab","geo_precision":"range","address":"160 Grand Av","state":"OH","juris":"PD"},"type":"Feature","geometry":{"type":"Point","coordinates":[-83.175608,41.131648]}},{"properties":{"officer":"JMW","city":"Tiffin","zip":"44883","date":{"end_time":"2011/11/02 15:17:00 -0400","original":"11/2/2011 15:16","granularity":"min","time":"2011/11/02 15:16:00 -0400"},"geo_score":0.902,"unit":60,"disposition":"200","cfs":14,"call#":11.011452,"id":"a64n4ml7vju4","geo_precision":"range","address":"160 Miami St","state":"OH","juris":"PD"},"type":"Feature","geometry":{"type":"Point","coordinates":[-83.18492,41.11892]}},{"properties":{"officer":"MEM","city":"Tiffin","zip":"44883","date":{"end_time":"2011/02/11 16:02:00 -0500","original":"2/11/2011 16:01","granularity":"min","time":"2011/02/11 16:01:00 -0500"},"geo_score":0.902,"unit":63,"disposition":"200","cfs":14,"call#":11.001362,"id":"a64n4mrciui4","geo_precision":"range","address":"162 N Sandusky St","state":"OH","juris":"PD"},"type":"Feature","geometry":{"type":"Point","coordinates":[-83.179827,41.123796]}},{"properties":{"officer":"PJD","city":"Tiffin","zip":"44883","date":{"end_time":"2011/08/29 21:30:00 -0400","original":"8/29/2011 21:29","granularity":"min","time":"2011/08/29 21:29:00 -0400"},"geo_score":0.902,"unit":61,"disposition":"200","cfs":14,"call#":11.008872,"id":"a64n4n0y7lqg","geo_precision":"range","address":"163 S Sandusky St","state":"OH","juris":"PD"},"type":"Feature","geometry":{"type":"Point","coordinates":[-83.185265,41.115605]}},{"properties":{"officer":"MEM","city":"Tiffin","zip":"44883","date":{"end_time":"2011/10/09 20:08:00 -0400","original":"10/9/2011 20:07","granularity":"min","time":"2011/10/09 20:07:00 -0400"},"geo_score":0.902,"unit":58,"disposition":"200","cfs":14,"call#":11.010556,"id":"a64n4muqq7h1","geo_precision":"range","address":"167 E Market St","state":"OH","juris":"PD"},"type":"Feature","geometry":{"type":"Point","coordinates":[-83.174089,41.114835]}},{"properties":{"officer":"DES","city":"Tiffin","zip":"44883","date":{"end_time":"2011/07/29 15:52:00 -0400","original":"7/29/2011 15:51","granularity":"min","time":"2011/07/29 15:51:00 -0400"},"geo_score":0.902,"unit":58,"disposition":"200","cfs":14,"call#":11.007618,"id":"a64n4mq3cals","geo_precision":"range","address":"167 E Market St","state":"OH","juris":"PD"},"type":"Feature","geometry":{"type":"Point","coordinates":[-83.174089,41.114835]}},{"properties":{"officer":"SGN","city":"Tiffin","zip":"44883","date":{"end_time":"2011/04/19 16:33:00 -0400","original":"4/19/2011 16:32","granularity":"min","time":"2011/04/19 16:32:00 -0400"},"geo_score":0.902,"unit":59,"disposition":"200","cfs":14,"call#":11.00365,"id":"a64n4mrwykqd","geo_precision":"range","address":"1692 W Market St,33","state":"OH","juris":"PD"},"type":"Feature","geometry":{"type":"Point","coordinates":[-83.18164,41.114105]}},{"properties":{"officer":"BRB","city":"Tiffin","zip":"44883","date":{"end_time":"2011/03/13 14:32:00 -0400","original":"3/13/2011 14:31","granularity":"min","time":"2011/03/13 14:31:00 -0400"},"geo_score":0.902,"unit":59,"disposition":"200","cfs":14,"call#":11.002356,"id":"a64n4mtmx7hj","geo_precision":"range","address":"1692 W Market St,49","state":"OH","juris":"PD"},"type":"Feature","geometry":{"type":"Point","coordinates":[-83.182023,41.114055]}},{"properties":{"officer":"SMM","city":"Tiffin","zip":"44883","date":{"end_time":"2011/05/18 22:13:00 -0400","original":"5/18/2011 22:12","granularity":"min","time":"2011/05/18 22:12:00 -0400"},"geo_score":0.476,"unit":58,"disposition":"200","cfs":14,"call#":11.004842,"id":"a64n4muw1vcl","geo_precision":"street","address":"1740 W Market St,A","state":"OH","juris":"PD"},"type":"Feature","geometry":{"type":"Point","coordinates":[-83.181592,41.114111]}},{"properties":{"officer":"MEM","city":"Tiffin","zip":"44883","date":{"end_time":"2011/04/20 16:13:00 -0400","original":"4/20/2011 16:12","granularity":"min","time":"2011/04/20 16:12:00 -0400"},"geo_score":0.902,"unit":63,"disposition":"200","cfs":14,"call#":11.003687,"id":"a64n4msqqbr7","geo_precision":"range","address":"175 S Monroe St","state":"OH","juris":"PD"},"type":"Feature","geometry":{"type":"Point","coordinates":[-83.177748,41.11164]}},{"properties":{"officer":"LMK","city":"Tiffin","zip":"44883","date":{"end_time":"2011/01/07 20:54:00 -0500","original":"1/7/2011 20:53","granularity":"min","time":"2011/01/07 20:53:00 -0500"},"geo_score":0.756,"unit":58,"disposition":"400","cfs":14,"call#":11.000189,"id":"a64n4mnyhsvz","geo_precision":"range","address":"175 Second Av","state":"OH","juris":"PD"},"type":"Feature","geometry":{"type":"Point","coordinates":[-83.182772,41.128746]}},{"properties":{"officer":"RLT","city":"Tiffin","zip":"44883","date":{"end_time":"2011/04/16 01:45:00 -0400","original":"4/16/2011 1:44","granularity":"min","time":"2011/04/16 01:44:00 -0400"},"geo_score":0.756,"unit":62,"disposition":"200","cfs":14,"call#":11.003517,"id":"a64n4moeaziv","geo_precision":"range","address":"176 First Av","state":"OH","juris":"PD"},"type":"Feature","geometry":{"type":"Point","coordinates":[-83.183453,41.127883]}},{"properties":{"officer":"DES","city":"Tiffin","zip":"44883","date":{"end_time":"2011/02/28 07:18:00 -0500","original":"2/28/2011 7:17","granularity":"min","time":"2011/02/28 07:17:00 -0500"},"geo_score":0.756,"unit":61,"disposition":"100","cfs":14,"call#":11.001904,"id":"a64n4mzmka33","geo_precision":"range","address":"176 Fourth Av","state":"OH","juris":"PD"},"type":"Feature","geometry":{"type":"Point","coordinates":[-83.18137,41.130479]}},{"properties":{"officer":"JAD","city":"Tiffin","zip":"44883","date":{"end_time":"2011/03/22 01:41:00 -0400","original":"3/22/2011 1:40","granularity":"min","time":"2011/03/22 01:40:00 -0400"},"geo_score":0.902,"unit":56,"disposition":"200","cfs":14,"call#":11.002608,"id":"a64n4mpx5yiy","geo_precision":"range","address":"178X S Washington St","state":"OH","juris":"PD"},"type":"Feature","geometry":{"type":"Point","coordinates":[-83.176273,41.112532]}},{"properties":{"officer":"LMK","city":"Tiffin","zip":"44883","date":{"end_time":"2011/08/24 23:54:00 -0400","original":"8/24/2011 23:53","granularity":"min","time":"2011/08/24 23:53:00 -0400"},"geo_score":0.902,"unit":62,"disposition":"400","cfs":14,"call#":11.008689,"id":"a64n4mrxeitp","geo_precision":"range","address":"18 Madison St","state":"OH","juris":"PD"},"type":"Feature","geometry":{"type":"Point","coordinates":[-83.178501,41.113184]}},{"properties":{"officer":"LMK","city":"Tiffin","zip":"44883","date":{"end_time":"2011/05/11 21:00:00 -0400","original":"5/11/2011 20:59","granularity":"min","time":"2011/05/11 20:59:00 -0400"},"geo_score":0.902,"unit":63,"disposition":"200","cfs":14,"call#":11.004581,"id":"a64n4mtpr2fy","geo_precision":"range","address":"18 Olive St","state":"OH","juris":"PD"},"type":"Feature","geometry":{"type":"Point","coordinates":[-83.178081,41.124266]}},{"properties":{"officer":"RLT","city":"Tiffin","zip":"44883","date":{"end_time":"2011/07/10 04:40:00 -0400","original":"7/10/2011 4:39","granularity":"min","time":"2011/07/10 04:39:00 -0400"},"geo_score":0.902,"unit":59,"disposition":"200","cfs":14,"call#":11.006897,"id":"a64n4murba3t","geo_precision":"range","address":"18 Tiffin St","state":"OH","juris":"PD"},"type":"Feature","geometry":{"type":"Point","coordinates":[-83.173616,41.112966]}},{"properties":{"officer":"RMN","city":"Tiffin","zip":"44883","date":{"end_time":"2011/09/03 18:46:00 -0400","original":"9/3/2011 18:45","granularity":"min","time":"2011/09/03 18:45:00 -0400"},"geo_score":0.861,"unit":57,"disposition":"100","cfs":14,"call#":11.009085,"id":"a64n4mt3p4gv","geo_precision":"range","address":"181 Ohio Av","state":"OH","juris":"PD"},"type":"Feature","geometry":{"type":"Point","coordinates":[-83.1649,41.123743]}},{"properties":{"officer":"FWS","city":"Tiffin","zip":"44883","date":{"end_time":"2011/07/13 10:20:00 -0400","original":"7/13/2011 10:19","granularity":"min","time":"2011/07/13 10:19:00 -0400"},"geo_score":0.902,"unit":58,"disposition":"200","cfs":14,"call#":11.006998,"id":"a64n4mvkefrg","geo_precision":"range","address":"182 E Market St,114","state":"OH","juris":"PD"},"type":"Feature","geometry":{"type":"Point","coordinates":[-83.175957,41.114659]}},{"properties":{"officer":"DES","city":"Tiffin","zip":"44883","date":{"end_time":"2011/01/09 14:54:00 -0500","original":"1/9/2011 14:53","granularity":"min","time":"2011/01/09 14:53:00 -0500"},"geo_score":0.902,"unit":61,"disposition":"200","cfs":14,"call#":11.000239,"id":"a64n4mokt90h","geo_precision":"range","address":"184 E Market St","state":"OH","juris":"PD"},"type":"Feature","geometry":{"type":"Point","coordinates":[-83.17287,41.11492]}},{"properties":{"officer":"BRB","city":"Tiffin","zip":"44883","date":{"end_time":"2011/08/15 15:15:00 -0400","original":"8/15/2011 15:14","granularity":"min","time":"2011/08/15 15:14:00 -0400"},"geo_score":0.429,"unit":57,"disposition":"200","cfs":14,"call#":11.008301,"id":"a64n4mn20d5k","geo_precision":"street","address":"184 E Market St, O","state":"OH","juris":"PD"},"type":"Feature","geometry":{"type":"Point","coordinates":[-83.181592,41.114111]}},{"properties":{"officer":"JDW","city":"Tiffin","zip":"44883","date":{"end_time":"2011/07/08 22:53:00 -0400","original":"7/8/2011 22:52","granularity":"min","time":"2011/07/08 22:52:00 -0400"},"geo_score":0.429,"unit":59,"disposition":"200","cfs":14,"call#":11.006836,"id":"a64n4mznv8tr","geo_precision":"street","address":"184 E Market St, O","state":"OH","juris":"PD"},"type":"Feature","geometry":{"type":"Point","coordinates":[-83.181592,41.114111]}},{"properties":{"officer":"MEM","city":"Tiffin","zip":"44883","date":{"end_time":"2011/06/16 12:57:00 -0400","original":"6/16/2011 12:56","granularity":"min","time":"2011/06/16 12:56:00 -0400"},"geo_score":0.429,"unit":61,"disposition":"200","cfs":14,"call#":11.005954,"id":"a64n4msqi4w5","geo_precision":"street","address":"184 E Market St, O","state":"OH","juris":"PD"},"type":"Feature","geometry":{"type":"Point","coordinates":[-83.181592,41.114111]}},{"properties":{"officer":"AMR","city":"Tiffin","zip":"44883","date":{"end_time":"2011/01/12 18:42:00 -0500","original":"1/12/2011 18:41","granularity":"min","time":"2011/01/12 18:41:00 -0500"},"geo_score":0.902,"unit":63,"disposition":"400","cfs":14,"call#":11.000337,"id":"a64n4n04swuq","geo_precision":"range","address":"184 E Market St,121","state":"OH","juris":"PD"},"type":"Feature","geometry":{"type":"Point","coordinates":[-83.175696,41.114691]}},{"properties":{"officer":"EDA","city":"Tiffin","zip":"44883","date":{"end_time":"2011/07/17 20:52:00 -0400","original":"7/17/2011 20:51","granularity":"min","time":"2011/07/17 20:51:00 -0400"},"geo_score":0.902,"unit":58,"disposition":"200","cfs":14,"call#":11.00719,"id":"a64n4mnixp5r","geo_precision":"range","address":"184 E Market St,223","state":"OH","juris":"PD"},"type":"Feature","geometry":{"type":"Point","coordinates":[-83.171692,41.115047]}},{"properties":{"officer":"JAD","city":"Tiffin","zip":"44883","date":{"end_time":"2011/12/10 21:26:00 -0500","original":"12/10/2011 21:25","granularity":"min","time":"2011/12/10 21:25:00 -0500"},"geo_score":0.902,"unit":58,"disposition":"400","cfs":14,"call#":11.013009,"id":"a64n4mlhy0uo","geo_precision":"range","address":"184 E Market St,225","state":"OH","juris":"PD"},"type":"Feature","geometry":{"type":"Point","coordinates":[-83.171646,41.115058]}},{"properties":{"officer":"RLT","city":"Tiffin","zip":"44883","date":{"end_time":"2011/06/18 19:11:00 -0400","original":"6/18/2011 19:10","granularity":"min","time":"2011/06/18 19:10:00 -0400"},"geo_score":0.902,"unit":61,"disposition":"230","cfs":14,"call#":11.006054,"id":"a64n4mm1i7ij","geo_precision":"range","address":"184 E Market St,324","state":"OH","juris":"PD"},"type":"Feature","geometry":{"type":"Point","coordinates":[-83.168341,41.1169]}},{"properties":{"officer":"JAD","city":"Tiffin","zip":"44883","date":{"end_time":"2011/04/23 21:35:00 -0400","original":"4/23/2011 21:34","granularity":"min","time":"2011/04/23 21:34:00 -0400"},"geo_score":0.756,"unit":56,"disposition":"200","cfs":14,"call#":11.003823,"id":"a64n4mx26y2r","geo_precision":"range","address":"185 First Av","state":"OH","juris":"PD"},"type":"Feature","geometry":{"type":"Point","coordinates":[-83.183361,41.127884]}},{"properties":{"officer":"GTM","city":"Tiffin","zip":"44883","date":{"end_time":"2011/03/15 08:09:00 -0400","original":"3/15/2011 8:08","granularity":"min","time":"2011/03/15 08:08:00 -0400"},"geo_score":0.756,"unit":57,"disposition":"200","cfs":14,"call#":11.002391,"id":"a64n4msgtce8","geo_precision":"range","address":"185 First Av","state":"OH","juris":"PD"},"type":"Feature","geometry":{"type":"Point","coordinates":[-83.183361,41.127884]}},{"properties":{"officer":"BAR","city":"Tiffin","zip":"44883","date":{"end_time":"2011/12/24 02:42:00 -0500","original":"12/24/2011 2:41","granularity":"min","time":"2011/12/24 02:41:00 -0500"},"geo_score":0.429,"unit":63,"disposition":"200","cfs":14,"call#":11.013535,"id":"a64n4mnflq5q","geo_precision":"street","address":"186 E Market St, O","state":"OH","juris":"PD"},"type":"Feature","geometry":{"type":"Point","coordinates":[-83.181592,41.114111]}},{"properties":{"officer":"MEM","city":"Tiffin","zip":"44883","date":{"end_time":"2011/07/21 08:19:00 -0400","original":"7/21/2011 8:18","granularity":"min","time":"2011/07/21 08:18:00 -0400"},"geo_score":0.902,"unit":61,"disposition":"200","cfs":14,"call#":11.007273,"id":"a64n4mnz6k8b","geo_precision":"range","address":"186 E Market St,232","state":"OH","juris":"PD"},"type":"Feature","geometry":{"type":"Point","coordinates":[-83.171486,41.115098]}},{"properties":{"officer":"BAR","city":"Tiffin","zip":"44883","date":{"end_time":"2011/11/26 22:28:00 -0500","original":"11/26/2011 22:27","granularity":"min","time":"2011/11/26 22:27:00 -0500"},"geo_score":0.902,"unit":63,"disposition":"400","cfs":14,"call#":11.012458,"id":"a64n4mww0x9j","geo_precision":"range","address":"187 S Monroe St","state":"OH","juris":"PD"},"type":"Feature","geometry":{"type":"Point","coordinates":[-83.177709,41.111315]}},{"properties":{"officer":"JSC","city":"Tiffin","zip":"44883","date":{"end_time":"2011/06/12 00:13:00 -0400","original":"6/12/2011 0:12","granularity":"min","time":"2011/06/12 00:12:00 -0400"},"geo_score":0.902,"unit":57,"disposition":"230","cfs":14,"call#":11.005799,"id":"a64n4mp8mo5z","geo_precision":"range","address":"187 S Washington St","state":"OH","juris":"PD"},"type":"Feature","geometry":{"type":"Point","coordinates":[-83.176242,41.112289]}},{"properties":{"officer":"BAR","city":"Tiffin","zip":"44883","date":{"end_time":"2011/01/11 13:30:00 -0500","original":"1/11/2011 13:29","granularity":"min","time":"2011/01/11 13:29:00 -0500"},"geo_score":0.902,"unit":63,"disposition":"400","cfs":14,"call#":11.000303,"id":"a64n4mpz3neq","geo_precision":"range","address":"190 Circular St","state":"OH","juris":"PD"},"type":"Feature","geometry":{"type":"Point","coordinates":[-83.169154,41.110341]}},{"properties":{"officer":"MEM","city":"Tiffin","zip":"44883","date":{"end_time":"2011/12/06 17:48:00 -0500","original":"12/6/2011 17:47","granularity":"min","time":"2011/12/06 17:47:00 -0500"},"geo_score":0.902,"unit":58,"disposition":"200","cfs":14,"call#":11.012836,"id":"a64n4mxegv4r","geo_precision":"range","address":"192 Hall St","state":"OH","juris":"PD"},"type":"Feature","geometry":{"type":"Point","coordinates":[-83.183715,41.123224]}},{"properties":{"officer":"GTM","city":"Tiffin","zip":"44883","date":{"end_time":"2011/11/01 16:13:00 -0400","original":"11/1/2011 16:12","granularity":"min","time":"2011/11/01 16:12:00 -0400"},"geo_score":0.902,"unit":62,"disposition":"400","cfs":14,"call#":11.011422,"id":"a64n4mzl0r7f","geo_precision":"range","address":"192 Hall St","state":"OH","juris":"PD"},"type":"Feature","geometry":{"type":"Point","coordinates":[-83.183715,41.123224]}},{"properties":{"officer":"MMS","city":"Tiffin","zip":"44883","date":{"end_time":"2011/08/21 21:21:00 -0400","original":"8/21/2011 21:20","granularity":"min","time":"2011/08/21 21:20:00 -0400"},"geo_score":0.902,"unit":58,"disposition":"200","cfs":14,"call#":11.00854,"id":"a64n4mv7r2rt","geo_precision":"range","address":"192 Hall St","state":"OH","juris":"PD"},"type":"Feature","geometry":{"type":"Point","coordinates":[-83.183715,41.123224]}},{"properties":{"officer":"SGN","city":"Tiffin","zip":"44883","date":{"end_time":"2011/04/26 16:20:00 -0400","original":"4/26/2011 16:19","granularity":"min","time":"2011/04/26 16:19:00 -0400"},"geo_score":0.902,"unit":59,"disposition":"200","cfs":14,"call#":11.003925,"id":"a64n4mt8nylf","geo_precision":"range","address":"192 Hall St","state":"OH","juris":"PD"},"type":"Feature","geometry":{"type":"Point","coordinates":[-83.183715,41.123224]}},{"properties":{"officer":"JPF","city":"Tiffin","zip":"44883","date":{"end_time":"2011/05/19 17:57:00 -0400","original":"5/19/2011 17:56","granularity":"min","time":"2011/05/19 17:56:00 -0400"},"geo_score":0.902,"unit":59,"disposition":"200","cfs":14,"call#":11.004871,"id":"a64n4mp53jp2","geo_precision":"range","address":"194 E Perry St","state":"OH","juris":"PD"},"type":"Feature","geometry":{"type":"Point","coordinates":[-83.172463,41.116218]}},{"properties":{"officer":"FWS","city":"Tiffin","zip":"44883","date":{"end_time":"2011/03/23 15:17:00 -0400","original":"3/23/2011 15:16","granularity":"min","time":"2011/03/23 15:16:00 -0400"},"geo_score":0.902,"unit":60,"disposition":"200","cfs":14,"call#":11.002652,"id":"a64n4mlh5cr1","geo_precision":"range","address":"196X Jefferson St","state":"OH","juris":"PD"},"type":"Feature","geometry":{"type":"Point","coordinates":[-83.174566,41.112085]}},{"properties":{"officer":"BAR","city":"Tiffin","zip":"44883","date":{"end_time":"2011/06/05 01:49:00 -0400","original":"6/5/2011 1:48","granularity":"min","time":"2011/06/05 01:48:00 -0400"},"geo_score":0.902,"unit":63,"disposition":"400","cfs":14,"call#":11.00553,"id":"a64n4n0haze3","geo_precision":"range","address":"2 Main St","state":"OH","juris":"PD"},"type":"Feature","geometry":{"type":"Point","coordinates":[-83.176035,41.111318]}},{"properties":{"officer":"JSC","city":"Tiffin","zip":"44883","date":{"end_time":"2011/05/16 21:19:00 -0400","original":"5/16/2011 21:18","granularity":"min","time":"2011/05/16 21:18:00 -0400"},"geo_score":0.902,"unit":60,"disposition":"200","cfs":14,"call#":11.004777,"id":"a64n4msfbpbh","geo_precision":"range","address":"200 E Market St","state":"OH","juris":"PD"},"type":"Feature","geometry":{"type":"Point","coordinates":[-83.172475,41.114966]}},{"properties":{"officer":"MEM","city":"Tiffin","zip":"44883","date":{"end_time":"2011/08/12 09:24:00 -0400","original":"8/12/2011 9:23","granularity":"min","time":"2011/08/12 09:23:00 -0400"},"geo_score":0.902,"unit":61,"disposition":"200","cfs":14,"call#":11.008156,"id":"a64n4mwq7sf0","geo_precision":"range","address":"201 Clay St,2","state":"OH","juris":"PD"},"type":"Feature","geometry":{"type":"Point","coordinates":[-83.180549,41.115641]}},{"properties":{"officer":"JDW","city":"Tiffin","zip":"44883","date":{"end_time":"2011/08/31 15:53:00 -0400","original":"8/31/2011 15:52","granularity":"min","time":"2011/08/31 15:52:00 -0400"},"geo_score":0.902,"unit":57,"disposition":"200","cfs":14,"call#":11.008958,"id":"a64n4ml4dp64","geo_precision":"range","address":"201 S Sandusky St","state":"OH","juris":"PD"},"type":"Feature","geometry":{"type":"Point","coordinates":[-83.186118,41.114708]}},{"properties":{"officer":"GTM","city":"Tiffin","zip":"44883","date":{"end_time":"2011/08/02 10:59:00 -0400","original":"8/2/2011 10:58","granularity":"min","time":"2011/08/02 10:58:00 -0400"},"geo_score":0.902,"unit":61,"disposition":"400","cfs":14,"call#":11.00781,"id":"a64n4mv7nr5x","geo_precision":"range","address":"204 E Market St,244","state":"OH","juris":"PD"},"type":"Feature","geometry":{"type":"Point","coordinates":[-83.1712,41.115168]}},{"properties":{"officer":"LMK","city":"Tiffin","zip":"44883","date":{"end_time":"2011/07/15 22:20:00 -0400","original":"7/15/2011 22:19","granularity":"min","time":"2011/07/15 22:19:00 -0400"},"geo_score":0.902,"unit":58,"disposition":"200","cfs":14,"call#":11.00711,"id":"a64n4my98g12","geo_precision":"range","address":"205 S Sandusky St","state":"OH","juris":"PD"},"type":"Feature","geometry":{"type":"Point","coordinates":[-83.186167,41.114614]}},{"properties":{"officer":"FWS","city":"Tiffin","zip":"44883","date":{"end_time":"2011/06/14 14:51:00 -0400","original":"6/14/2011 14:50","granularity":"min","time":"2011/06/14 14:50:00 -0400"},"geo_score":0.902,"unit":58,"disposition":"200","cfs":14,"call#":11.005892,"id":"a64n4mphkuik","geo_precision":"range","address":"208 S Washington St","state":"OH","juris":"PD"},"type":"Feature","geometry":{"type":"Point","coordinates":[-83.176158,41.111621]}},{"properties":{"officer":"EDA","city":"Tiffin","zip":"44883","date":{"end_time":"2011/05/30 21:22:00 -0400","original":"5/30/2011 21:21","granularity":"min","time":"2011/05/30 21:21:00 -0400"},"geo_score":0.902,"unit":60,"disposition":"200","cfs":14,"call#":11.005321,"id":"a64n4mt86lvc","geo_precision":"range","address":"208 S Washington St","state":"OH","juris":"PD"},"type":"Feature","geometry":{"type":"Point","coordinates":[-83.176158,41.111621]}},{"properties":{"officer":"DES","city":"Tiffin","zip":"44883","date":{"end_time":"2011/10/21 14:20:00 -0400","original":"10/21/2011 14:19","granularity":"min","time":"2011/10/21 14:19:00 -0400"},"geo_score":0.756,"unit":58,"disposition":"200","cfs":14,"call#":11.010974,"id":"a64n4mqx2l13","geo_precision":"range","address":"209 Fifth Av","state":"OH","juris":"PD"},"type":"Feature","geometry":{"type":"Point","coordinates":[-83.178799,41.131372]}},{"properties":{"officer":"MEM","city":"Tiffin","zip":"44883","date":{"end_time":"2011/08/07 17:11:00 -0400","original":"8/7/2011 17:10","granularity":"min","time":"2011/08/07 17:10:00 -0400"},"geo_score":0.902,"unit":61,"disposition":"200","cfs":14,"call#":11.007991,"id":"a64n4mtgm6ce","geo_precision":"range","address":"209X E Market St","state":"OH","juris":"PD"},"type":"Feature","geometry":{"type":"Point","coordinates":[-83.172104,41.114989]}},{"properties":{"officer":"JMW","city":"Tiffin","zip":"44883","date":{"end_time":"2011/02/23 21:06:00 -0500","original":"2/23/2011 21:05","granularity":"min","time":"2011/02/23 21:05:00 -0500"},"geo_score":0.902,"unit":57,"disposition":"100","cfs":14,"call#":11.001742,"id":"a64n4moufr0z","geo_precision":"range","address":"209X E Market St","state":"OH","juris":"PD"},"type":"Feature","geometry":{"type":"Point","coordinates":[-83.172104,41.114989]}},{"properties":{"officer":"JAD","city":"Tiffin","zip":"44883","date":{"end_time":"2011/10/09 02:54:00 -0400","original":"10/9/2011 2:53","granularity":"min","time":"2011/10/09 02:53:00 -0400"},"geo_score":0.902,"unit":56,"disposition":"400","cfs":14,"call#":11.010532,"id":"a64n4mq9nn86","geo_precision":"range","address":"210 N Washington St","state":"OH","juris":"PD"},"type":"Feature","geometry":{"type":"Point","coordinates":[-83.177997,41.123731]}},{"properties":{"officer":"SMM","city":"Tiffin","zip":"44883","date":{"end_time":"2011/01/26 20:53:00 -0500","original":"1/26/2011 20:52","granularity":"min","time":"2011/01/26 20:52:00 -0500"},"geo_score":0.854,"unit":61,"disposition":"200","cfs":14,"call#":11.000788,"id":"a64n4mrh6pt6","geo_precision":"range","address":"211 Elm Av","state":"OH","juris":"PD"},"type":"Feature","geometry":{"type":"Point","coordinates":[-83.163269,41.123517]}},{"properties":{"officer":"JDW","city":"Tiffin","zip":"44883","date":{"end_time":"2011/01/20 16:47:00 -0500","original":"1/20/2011 16:46","granularity":"min","time":"2011/01/20 16:46:00 -0500"},"geo_score":0.902,"unit":60,"disposition":"200","cfs":14,"call#":11.000604,"id":"a64n4muq3kdk","geo_precision":"range","address":"211 S Monroe St","state":"OH","juris":"PD"},"type":"Feature","geometry":{"type":"Point","coordinates":[-83.177595,41.110724]}},{"properties":{"officer":"JAD","city":"Tiffin","zip":"44883","date":{"end_time":"2011/12/25 00:26:00 -0500","original":"12/25/2011 0:25","granularity":"min","time":"2011/12/25 00:25:00 -0500"},"geo_score":0.902,"unit":56,"disposition":"400","cfs":14,"call#":11.013561,"id":"a64n4mkonv1b","geo_precision":"range","address":"211 S Monroe St,6","state":"OH","juris":"PD"},"type":"Feature","geometry":{"type":"Point","coordinates":[-83.178442,41.116135]}},{"properties":{"officer":"SMM","city":"Tiffin","zip":"44883","date":{"end_time":"2011/01/27 01:31:00 -0500","original":"1/27/2011 1:30","granularity":"min","time":"2011/01/27 01:30:00 -0500"},"geo_score":0.902,"unit":61,"disposition":"400","cfs":14,"call#":11.000792,"id":"a64n4mlsxplt","geo_precision":"range","address":"212 E Perry St,4","state":"OH","juris":"PD"},"type":"Feature","geometry":{"type":"Point","coordinates":[-83.17924,41.1156]}},{"properties":{"officer":"MEM","city":"Tiffin","zip":"44883","date":{"end_time":"2011/02/26 12:32:00 -0500","original":"2/26/2011 12:31","granularity":"min","time":"2011/02/26 12:31:00 -0500"},"geo_score":0.902,"unit":63,"disposition":"400","cfs":14,"call#":11.001847,"id":"a64n4n0ki992","geo_precision":"range","address":"2128 W Market St","state":"OH","juris":"PD"},"type":"Feature","geometry":{"type":"Point","coordinates":[-83.21221,41.110273]}},{"properties":{"officer":"RLT","city":"Tiffin","zip":"44883","date":{"end_time":"2011/07/10 20:59:00 -0400","original":"7/10/2011 20:58","granularity":"min","time":"2011/07/10 20:58:00 -0400"},"geo_score":0.902,"unit":59,"disposition":"200","cfs":14,"call#":11.006917,"id":"a64n4mvrcmv5","geo_precision":"range","address":"213 S Sandusky St","state":"OH","juris":"PD"},"type":"Feature","geometry":{"type":"Point","coordinates":[-83.186267,41.114426]}},{"properties":{"officer":"SMM","city":"Tiffin","zip":"44883","date":{"end_time":"2011/05/19 00:23:00 -0400","original":"5/19/2011 0:22","granularity":"min","time":"2011/05/19 00:22:00 -0400"},"geo_score":0.902,"unit":58,"disposition":"200","cfs":14,"call#":11.004847,"id":"a64n4mqgp124","geo_precision":"range","address":"22 W Market St","state":"OH","juris":"PD"},"type":"Feature","geometry":{"type":"Point","coordinates":[-83.181313,41.114126]}},{"properties":{"officer":"RMN","city":"Tiffin","zip":"44883","date":{"end_time":"2011/12/24 19:56:00 -0500","original":"12/24/2011 19:55","granularity":"min","time":"2011/12/24 19:55:00 -0500"},"geo_score":0.902,"unit":62,"disposition":"200","cfs":14,"call#":11.013557,"id":"a64n4mvf4fv0","geo_precision":"range","address":"227 Franklin St","state":"OH","juris":"PD"},"type":"Feature","geometry":{"type":"Point","coordinates":[-83.180494,41.120951]}},{"properties":{"officer":"EDA","city":"Tiffin","zip":"44883","date":{"end_time":"2011/07/09 19:12:00 -0400","original":"7/9/2011 19:11","granularity":"min","time":"2011/07/09 19:11:00 -0400"},"geo_score":0.902,"unit":60,"disposition":"100","cfs":14,"call#":11.006864,"id":"a64n4mmbk826","geo_precision":"range","address":"227 Mohawk St","state":"OH","juris":"PD"},"type":"Feature","geometry":{"type":"Point","coordinates":[-83.177951,41.097455]}},{"properties":{"officer":"JDW","city":"Tiffin","zip":"44883","date":{"end_time":"2011/10/07 13:29:00 -0400","original":"10/7/2011 13:28","granularity":"min","time":"2011/10/07 13:28:00 -0400"},"geo_score":0.429,"unit":57,"disposition":"200","cfs":14,"call#":11.01044,"id":"a64n4mytjp53","geo_precision":"street","address":"227 Mohawk St,B6","state":"OH","juris":"PD"},"type":"Feature","geometry":{"type":"Point","coordinates":[-83.178062,41.103556]}},{"properties":{"officer":"SGN","city":"Tiffin","zip":"44883","date":{"end_time":"2011/10/06 12:32:00 -0400","original":"10/6/2011 12:31","granularity":"min","time":"2011/10/06 12:31:00 -0400"},"geo_score":0.429,"unit":59,"disposition":"200","cfs":14,"call#":11.010412,"id":"a64n4mxnfre2","geo_precision":"street","address":"227 Mohawk St,B6","state":"OH","juris":"PD"},"type":"Feature","geometry":{"type":"Point","coordinates":[-83.178062,41.103556]}},{"properties":{"officer":"EDA","city":"Tiffin","zip":"44883","date":{"end_time":"2011/12/26 18:23:00 -0500","original":"12/26/2011 18:22","granularity":"min","time":"2011/12/26 18:22:00 -0500"},"geo_score":0.514,"unit":62,"disposition":"200","cfs":14,"call#":11.013609,"id":"a64n4mkogr05","geo_precision":"street","address":"229 Mohawk St,C7","state":"OH","juris":"PD"},"type":"Feature","geometry":{"type":"Point","coordinates":[-83.174672,41.108987]}},{"properties":{"officer":"JAD","city":"Tiffin","zip":"44883","date":{"end_time":"2011/07/03 02:10:00 -0400","original":"7/3/2011 2:09","granularity":"min","time":"2011/07/03 02:09:00 -0400"},"geo_score":0.902,"unit":56,"disposition":"200","cfs":14,"call#":11.006633,"id":"a64n4mz6r14r","geo_precision":"range","address":"229 S Monroe St","state":"OH","juris":"PD"},"type":"Feature","geometry":{"type":"Point","coordinates":[-83.177519,41.110282]}},{"properties":{"officer":"JDW","city":"Tiffin","zip":"44883","date":{"end_time":"2011/09/17 15:25:00 -0400","original":"9/17/2011 15:24","granularity":"min","time":"2011/09/17 15:24:00 -0400"},"geo_score":0.902,"unit":62,"disposition":"200","cfs":14,"call#":11.009666,"id":"a64n4mpzjiqk","geo_precision":"range","address":"23 Carl St","state":"OH","juris":"PD"},"type":"Feature","geometry":{"type":"Point","coordinates":[-83.181968,41.112685]}},{"properties":{"officer":"LMK","city":"Tiffin","zip":"44883","date":{"end_time":"2011/08/07 05:32:00 -0400","original":"8/7/2011 5:31","granularity":"min","time":"2011/08/07 05:31:00 -0400"},"geo_score":0.902,"unit":60,"disposition":"200","cfs":14,"call#":11.007981,"id":"a64n4mqcfj4f","geo_precision":"range","address":"23 Carl St","state":"OH","juris":"PD"},"type":"Feature","geometry":{"type":"Point","coordinates":[-83.181968,41.112685]}},{"properties":{"officer":"BRB","city":"Tiffin","zip":"44883","date":{"end_time":"2011/11/16 15:03:00 -0500","original":"11/16/2011 15:02","granularity":"min","time":"2011/11/16 15:02:00 -0500"},"geo_score":0.902,"unit":63,"disposition":"200","cfs":14,"call#":11.012028,"id":"a64n4mvaavgg","geo_precision":"range","address":"23 Elmer St","state":"OH","juris":"PD"},"type":"Feature","geometry":{"type":"Point","coordinates":[-83.193482,41.113691]}},{"properties":{"officer":"SGN","city":"Tiffin","zip":"44883","date":{"end_time":"2011/12/16 16:08:00 -0500","original":"12/16/2011 16:07","granularity":"min","time":"2011/12/16 16:07:00 -0500"},"geo_score":0.902,"unit":59,"disposition":"200","cfs":14,"call#":11.013258,"id":"a64n4mxm1qy6","geo_precision":"range","address":"23 Miami St","state":"OH","juris":"PD"},"type":"Feature","geometry":{"type":"Point","coordinates":[-83.180072,41.117044]}},{"properties":{"officer":"JMW","city":"Tiffin","zip":"44883","date":{"end_time":"2011/01/04 22:06:00 -0500","original":"1/4/2011 22:05","granularity":"min","time":"2011/01/04 22:05:00 -0500"},"geo_score":0.902,"unit":57,"disposition":"100","cfs":14,"call#":11.000125,"id":"a64n4mlvweb4","geo_precision":"range","address":"23 Miami St","state":"OH","juris":"PD"},"type":"Feature","geometry":{"type":"Point","coordinates":[-83.180072,41.117044]}},{"properties":{"officer":"GTM","city":"Tiffin","zip":"44883","date":{"end_time":"2011/01/30 14:54:00 -0500","original":"1/30/2011 14:53","granularity":"min","time":"2011/01/30 14:53:00 -0500"},"geo_score":0.902,"unit":63,"disposition":"100","cfs":14,"call#":11.000927,"id":"a64n4mob8dea","geo_precision":"range","address":"240 W Market St","state":"OH","juris":"PD"},"type":"Feature","geometry":{"type":"Point","coordinates":[-83.188873,41.113387]}},{"properties":{"officer":"JMW","city":"Tiffin","zip":"44883","date":{"end_time":"2011/06/24 21:56:00 -0400","original":"6/24/2011 21:55","granularity":"min","time":"2011/06/24 21:55:00 -0400"},"geo_score":0.902,"unit":61,"disposition":"230","cfs":14,"call#":11.00628,"id":"a64n4mnvs6zz","geo_precision":"range","address":"245 S Washington St","state":"OH","juris":"PD"},"type":"Feature","geometry":{"type":"Point","coordinates":[-83.175954,41.110653]}},{"properties":{"officer":"BAR","city":"Tiffin","zip":"44883","date":{"end_time":"2011/07/28 16:57:00 -0400","original":"7/28/2011 16:56","granularity":"min","time":"2011/07/28 16:56:00 -0400"},"geo_score":0.902,"unit":63,"disposition":"200","cfs":14,"call#":11.007563,"id":"a64n4mpwb2q2","geo_precision":"range","address":"247 S Sandusky St","state":"OH","juris":"PD"},"type":"Feature","geometry":{"type":"Point","coordinates":[-83.186688,41.113627]}},{"properties":{"officer":"MEM","city":"Tiffin","zip":"44883","date":{"end_time":"2011/11/13 18:44:00 -0500","original":"11/13/2011 18:43","granularity":"min","time":"2011/11/13 18:43:00 -0500"},"geo_score":0.902,"unit":58,"disposition":"200","cfs":14,"call#":11.011911,"id":"a64n4ml9qi71","geo_precision":"range","address":"24X Johnson St","state":"OH","juris":"PD"},"type":"Feature","geometry":{"type":"Point","coordinates":[-83.165228,41.118289]}},{"properties":{"officer":"FWS","city":"Tiffin","zip":"44883","date":{"end_time":"2011/05/17 17:57:00 -0400","original":"5/17/2011 17:56","granularity":"min","time":"2011/05/17 17:56:00 -0400"},"geo_score":0.902,"unit":58,"disposition":"200","cfs":14,"call#":11.004796,"id":"a64n4mtz3l97","geo_precision":"range","address":"25 Grace St","state":"OH","juris":"PD"},"type":"Feature","geometry":{"type":"Point","coordinates":[-83.184265,41.120786]}},{"properties":{"officer":"GTM","city":"Tiffin","zip":"44883","date":{"end_time":"2011/01/23 13:42:00 -0500","original":"1/23/2011 13:41","granularity":"min","time":"2011/01/23 13:41:00 -0500"},"geo_score":0.902,"unit":63,"disposition":"200","cfs":14,"call#":11.000687,"id":"a64n4mqup02m","geo_precision":"range","address":"25 Grace St","state":"OH","juris":"PD"},"type":"Feature","geometry":{"type":"Point","coordinates":[-83.184265,41.120786]}},{"properties":{"officer":"JMW","city":"Tiffin","zip":"44883","date":{"end_time":"2011/10/18 18:50:00 -0400","original":"10/18/2011 18:49","granularity":"min","time":"2011/10/18 18:49:00 -0400"},"geo_score":0.902,"unit":63,"disposition":"100","cfs":14,"call#":11.010887,"id":"a64n4motttyz","geo_precision":"range","address":"255 Main St","state":"OH","juris":"PD"},"type":"Feature","geometry":{"type":"Point","coordinates":[-83.164025,41.11237]}},{"properties":{"officer":"JSC","city":"Tiffin","zip":"44883","date":{"end_time":"2011/06/05 00:08:00 -0400","original":"6/5/2011 0:07","granularity":"min","time":"2011/06/05 00:07:00 -0400"},"geo_score":0.902,"unit":57,"disposition":"200","cfs":14,"call#":11.005524,"id":"a64n4mwkwd7z","geo_precision":"range","address":"255 N Washington St","state":"OH","juris":"PD"},"type":"Feature","geometry":{"type":"Point","coordinates":[-83.178157,41.12475]}},{"properties":{"officer":"MEM","city":"Tiffin","zip":"44883","date":{"end_time":"2011/08/31 17:39:00 -0400","original":"8/31/2011 17:38","granularity":"min","time":"2011/08/31 17:38:00 -0400"},"geo_score":0.805,"unit":58,"disposition":"200","cfs":14,"call#":11.008961,"id":"a64n4mo2fgcc","geo_precision":"street","address":"255 W Market St","state":"OH","juris":"PD"},"type":"Feature","geometry":{"type":"Point","coordinates":[-83.189461,41.113339]}},{"properties":{"officer":"EDA","city":"Tiffin","zip":"44883","date":{"end_time":"2011/06/24 17:58:00 -0400","original":"6/24/2011 17:57","granularity":"min","time":"2011/06/24 17:57:00 -0400"},"geo_score":0.805,"unit":58,"disposition":"200","cfs":14,"call#":11.006267,"id":"a64n4mo28nli","geo_precision":"street","address":"255 W Market St","state":"OH","juris":"PD"},"type":"Feature","geometry":{"type":"Point","coordinates":[-83.189461,41.113339]}},{"properties":{"officer":"GTM","city":"Tiffin","zip":"44883","date":{"end_time":"2011/04/24 15:36:00 -0400","original":"4/24/2011 15:35","granularity":"min","time":"2011/04/24 15:35:00 -0400"},"geo_score":0.902,"unit":57,"disposition":"200","cfs":14,"call#":11.003862,"id":"a64n4mvqefbv","geo_precision":"range","address":"257 W Market St","state":"OH","juris":"PD"},"type":"Feature","geometry":{"type":"Point","coordinates":[-83.189461,41.113339]}},{"properties":{"officer":"BAR","city":"Tiffin","zip":"44883","date":{"end_time":"2011/04/10 02:52:00 -0400","original":"4/10/2011 2:51","granularity":"min","time":"2011/04/10 02:51:00 -0400"},"geo_score":0.902,"unit":63,"disposition":"400","cfs":14,"call#":11.003286,"id":"a64n4mztvjdv","geo_precision":"range","address":"26 N Washington St","state":"OH","juris":"PD"},"type":"Feature","geometry":{"type":"Point","coordinates":[-83.177159,41.118471]}},{"properties":{"officer":"BAR","city":"Tiffin","zip":"44883","date":{"end_time":"2011/06/02 19:30:00 -0400","original":"6/2/2011 19:29","granularity":"min","time":"2011/06/02 19:29:00 -0400"},"geo_score":0.902,"unit":63,"disposition":"200","cfs":14,"call#":11.005435,"id":"a64n4mmp4j86","geo_precision":"range","address":"265 Jackson St","state":"OH","juris":"PD"},"type":"Feature","geometry":{"type":"Point","coordinates":[-83.183602,41.120439]}},{"properties":{"officer":"BAR","city":"Tiffin","zip":"44883","date":{"end_time":"2011/07/29 18:09:00 -0400","original":"7/29/2011 18:08","granularity":"min","time":"2011/07/29 18:08:00 -0400"},"geo_score":0.902,"unit":63,"disposition":"100","cfs":14,"call#":11.007625,"id":"a64n4mp9jqfq","geo_precision":"range","address":"265 N Washington St","state":"OH","juris":"PD"},"type":"Feature","geometry":{"type":"Point","coordinates":[-83.178186,41.124992]}},{"properties":{"officer":"JAD","city":"Tiffin","zip":"44883","date":{"end_time":"2011/10/09 02:35:00 -0400","original":"10/9/2011 2:34","granularity":"min","time":"2011/10/09 02:34:00 -0400"},"geo_score":0.902,"unit":56,"disposition":"200","cfs":14,"call#":11.01053,"id":"a64n4mtv492g","geo_precision":"range","address":"266 S Washington St","state":"OH","juris":"PD"},"type":"Feature","geometry":{"type":"Point","coordinates":[-83.175874,41.11022]}},{"properties":{"officer":"FWS","city":"Tiffin","zip":"44883","date":{"end_time":"2011/10/12 15:48:00 -0400","original":"10/12/2011 15:47","granularity":"min","time":"2011/10/12 15:47:00 -0400"},"geo_score":0.717,"unit":58,"disposition":"200","cfs":14,"call#":11.010684,"id":"a64n4mod5yce","geo_precision":"street","address":"269 S Washington St,1","state":"OH","juris":"PD"},"type":"Feature","geometry":{"type":"Point","coordinates":[-83.176943,41.117025]}},{"properties":{"officer":"BAR","city":"Tiffin","zip":"44883","date":{"end_time":"2011/03/20 20:12:00 -0400","original":"3/20/2011 20:11","granularity":"min","time":"2011/03/20 20:11:00 -0400"},"geo_score":0.902,"unit":59,"disposition":"100","cfs":14,"call#":11.002568,"id":"a64n4mpch60a","geo_precision":"range","address":"272 N Sandusky St","state":"OH","juris":"PD"},"type":"Feature","geometry":{"type":"Point","coordinates":[-83.178238,41.126053]}},{"properties":{"officer":"BAR","city":"Tiffin","zip":"44883","date":{"end_time":"2011/08/21 02:40:00 -0400","original":"8/21/2011 2:39","granularity":"min","time":"2011/08/21 02:39:00 -0400"},"geo_score":0.902,"unit":63,"disposition":"200","cfs":14,"call#":11.008522,"id":"a64n4mw7p5y0","geo_precision":"range","address":"275 S Washington St","state":"OH","juris":"PD"},"type":"Feature","geometry":{"type":"Point","coordinates":[-83.17585,41.110025]}},{"properties":{"officer":"RMN","city":"Tiffin","zip":"44883","date":{"end_time":"2011/12/19 17:10:00 -0500","original":"12/19/2011 17:09","granularity":"min","time":"2011/12/19 17:09:00 -0500"},"geo_score":0.902,"unit":59,"disposition":"200","cfs":14,"call#":11.013385,"id":"a64n4mxrhgqr","geo_precision":"range","address":"275X Jefferson St","state":"OH","juris":"PD"},"type":"Feature","geometry":{"type":"Point","coordinates":[-83.17424,41.110185]}},{"properties":{"officer":"SMM","city":"Tiffin","zip":"44883","date":{"end_time":"2011/10/25 22:41:00 -0400","original":"10/25/2011 22:40","granularity":"min","time":"2011/10/25 22:40:00 -0400"},"geo_score":0.902,"unit":59,"disposition":"200","cfs":14,"call#":11.011154,"id":"a64n4mpefrzc","geo_precision":"range","address":"28 Miami St","state":"OH","juris":"PD"},"type":"Feature","geometry":{"type":"Point","coordinates":[-83.180216,41.117119]}},{"properties":{"officer":"JDW","city":"Tiffin","zip":"44883","date":{"end_time":"2011/09/15 15:16:00 -0400","original":"9/15/2011 15:15","granularity":"min","time":"2011/09/15 15:15:00 -0400"},"geo_score":0.902,"unit":63,"disposition":"200","cfs":14,"call#":11.009556,"id":"a64n4mo6as7n","geo_precision":"range","address":"28 Miami St","state":"OH","juris":"PD"},"type":"Feature","geometry":{"type":"Point","coordinates":[-83.180216,41.117119]}},{"properties":{"officer":"LMK","city":"Tiffin","zip":"44883","date":{"end_time":"2011/03/08 23:28:00 -0500","original":"3/8/2011 23:27","granularity":"min","time":"2011/03/08 23:27:00 -0500"},"geo_score":0.902,"unit":58,"disposition":"200","cfs":14,"call#":11.002212,"id":"a64n4ms5lad3","geo_precision":"range","address":"28 Walker St","state":"OH","juris":"PD"},"type":"Feature","geometry":{"type":"Point","coordinates":[-83.171708,41.110726]}},{"properties":{"officer":"RLT","city":"Tiffin","zip":"44883","date":{"end_time":"2011/12/20 01:58:00 -0500","original":"12/20/2011 1:57","granularity":"min","time":"2011/12/20 01:57:00 -0500"},"geo_score":0.582,"unit":63,"disposition":"200","cfs":14,"call#":11.013402,"id":"a64n4mz5gd6b","geo_precision":"street","address":"2801 W Sr 18","state":"OH","juris":"PD"},"type":"Feature","geometry":{"type":"Point","coordinates":[-83.278292,41.108823]}},{"properties":{"officer":"LMK","city":"Tiffin","zip":"44883","date":{"end_time":"2011/10/06 19:19:00 -0400","original":"10/6/2011 19:18","granularity":"min","time":"2011/10/06 19:18:00 -0400"},"geo_score":0.756,"unit":58,"disposition":"400","cfs":14,"call#":11.010422,"id":"a64n4mkqfr43","geo_precision":"range","address":"281 Fourth Av","state":"OH","juris":"PD"},"type":"Feature","geometry":{"type":"Point","coordinates":[-83.185195,41.130437]}},{"properties":{"officer":"LMK","city":"Tiffin","zip":"44883","date":{"end_time":"2011/01/11 01:18:00 -0500","original":"1/11/2011 1:17","granularity":"min","time":"2011/01/11 01:17:00 -0500"},"geo_score":0.902,"unit":58,"disposition":"200","cfs":14,"call#":11.000291,"id":"a64n4mzr7w5q","geo_precision":"range","address":"283 S Washington St","state":"OH","juris":"PD"},"type":"Feature","geometry":{"type":"Point","coordinates":[-83.175825,41.10983]}},{"properties":{"officer":"GTM","city":"Tiffin","zip":"44883","date":{"end_time":"2011/08/22 12:41:00 -0400","original":"8/22/2011 12:40","granularity":"min","time":"2011/08/22 12:40:00 -0400"},"geo_score":0.902,"unit":59,"disposition":"400","cfs":14,"call#":11.008563,"id":"a64n4mwxyh2v","geo_precision":"range","address":"289 Hall St","state":"OH","juris":"PD"},"type":"Feature","geometry":{"type":"Point","coordinates":[-83.187294,41.123665]}},{"properties":{"officer":"MMS","city":"Tiffin","zip":"44883","date":{"end_time":"2011/10/09 02:37:00 -0400","original":"10/9/2011 2:36","granularity":"min","time":"2011/10/09 02:36:00 -0400"},"geo_score":0.902,"unit":58,"disposition":"200","cfs":14,"call#":11.010531,"id":"a64n4mo2omky","geo_precision":"range","address":"29 Center St","state":"OH","juris":"PD"},"type":"Feature","geometry":{"type":"Point","coordinates":[-83.183433,41.114521]}},{"properties":{"officer":"MEM","city":"Tiffin","zip":"44883","date":{"end_time":"2011/08/17 18:19:00 -0400","original":"8/17/2011 18:18","granularity":"min","time":"2011/08/17 18:18:00 -0400"},"geo_score":0.902,"unit":58,"disposition":"400","cfs":14,"call#":11.008378,"id":"a64n4mrvdb26","geo_precision":"range","address":"30 Morningside Dr","state":"OH","juris":"PD"},"type":"Feature","geometry":{"type":"Point","coordinates":[-83.190564,41.103102]}},{"properties":{"officer":"JPF","city":"Tiffin","zip":"44883","date":{"end_time":"2011/12/07 14:58:00 -0500","original":"12/7/2011 14:57","granularity":"min","time":"2011/12/07 14:57:00 -0500"},"geo_score":0.902,"unit":57,"disposition":"450","cfs":14,"call#":11.012859,"id":"a64n4my7xpij","geo_precision":"range","address":"300 S Monroe St","state":"OH","juris":"PD"},"type":"Feature","geometry":{"type":"Point","coordinates":[-83.177173,41.107991]}},{"properties":{"officer":"SGN","city":"Tiffin","zip":"44883","date":{"end_time":"2011/03/16 08:16:00 -0400","original":"3/16/2011 8:15","granularity":"min","time":"2011/03/16 08:15:00 -0400"},"geo_score":0.902,"unit":59,"disposition":"200","cfs":14,"call#":11.002411,"id":"a64n4mp9vr3u","geo_precision":"range","address":"300 S Monroe St","state":"OH","juris":"PD"},"type":"Feature","geometry":{"type":"Point","coordinates":[-83.177173,41.107991]}},{"properties":{"officer":"GTM","city":"Tiffin","zip":"44883","date":{"end_time":"2011/05/01 12:30:00 -0400","original":"5/1/2011 12:29","granularity":"min","time":"2011/05/01 12:29:00 -0400"},"geo_score":0.902,"unit":57,"disposition":"400","cfs":14,"call#":11.004195,"id":"a64n4mx6klld","geo_precision":"range","address":"308 Wall St","state":"OH","juris":"PD"},"type":"Feature","geometry":{"type":"Point","coordinates":[-83.18675,41.123383]}},{"properties":{"officer":"GTM","city":"Tiffin","zip":"44883","date":{"end_time":"2011/05/08 18:08:00 -0400","original":"5/8/2011 18:07","granularity":"min","time":"2011/05/08 18:07:00 -0400"},"geo_score":0.902,"unit":57,"disposition":"200","cfs":14,"call#":11.004463,"id":"a64n4mybizsa","geo_precision":"range","address":"311 Noble St","state":"OH","juris":"PD"},"type":"Feature","geometry":{"type":"Point","coordinates":[-83.183724,41.123879]}},{"properties":{"officer":"JMW","city":"Tiffin","zip":"44883","date":{"end_time":"2011/10/20 18:56:00 -0400","original":"10/20/2011 18:55","granularity":"min","time":"2011/10/20 18:55:00 -0400"},"geo_score":0.902,"unit":60,"disposition":"200","cfs":14,"call#":11.010951,"id":"a64n4mx0nial","geo_precision":"range","address":"314 S Sandusky St","state":"OH","juris":"PD"},"type":"Feature","geometry":{"type":"Point","coordinates":[-83.187977,41.11209]}},{"properties":{"officer":"JPF","city":"Tiffin","zip":"44883","date":{"end_time":"2011/09/22 21:50:00 -0400","original":"9/22/2011 21:49","granularity":"min","time":"2011/09/22 21:49:00 -0400"},"geo_score":0.902,"unit":59,"disposition":"200","cfs":14,"call#":11.00987,"id":"a64n4mq58cj1","geo_precision":"range","address":"315 W Market St","state":"OH","juris":"PD"},"type":"Feature","geometry":{"type":"Point","coordinates":[-83.191142,41.113162]}},{"properties":{"officer":"JMW","city":"Tiffin","zip":"44883","date":{"end_time":"2011/09/07 18:47:00 -0400","original":"9/7/2011 18:46","granularity":"min","time":"2011/09/07 18:46:00 -0400"},"geo_score":0.902,"unit":63,"disposition":"400","cfs":14,"call#":11.009258,"id":"a64n4mq2f7lx","geo_precision":"range","address":"315 W Market St","state":"OH","juris":"PD"},"type":"Feature","geometry":{"type":"Point","coordinates":[-83.191142,41.113162]}},{"properties":{"officer":"SMM","city":"Tiffin","zip":"44883","date":{"end_time":"2011/06/17 00:17:00 -0400","original":"6/17/2011 0:16","granularity":"min","time":"2011/06/17 00:16:00 -0400"},"geo_score":0.902,"unit":59,"disposition":"200","cfs":14,"call#":11.00597,"id":"a64n4ms3085e","geo_precision":"range","address":"318 W Market St","state":"OH","juris":"PD"},"type":"Feature","geometry":{"type":"Point","coordinates":[-83.191227,41.113152]}},{"properties":{"officer":"JMW","city":"Tiffin","zip":"44883","date":{"end_time":"2011/03/08 17:55:00 -0500","original":"3/8/2011 17:54","granularity":"min","time":"2011/03/08 17:54:00 -0500"},"geo_score":0.902,"unit":57,"disposition":"200","cfs":14,"call#":11.002201,"id":"a64n4mrehjm7","geo_precision":"range","address":"318 W Market St","state":"OH","juris":"PD"},"type":"Feature","geometry":{"type":"Point","coordinates":[-83.191227,41.113152]}},{"properties":{"officer":"LMK","city":"Tiffin","zip":"44883","date":{"end_time":"2011/11/18 23:00:00 -0500","original":"11/18/2011 22:59","granularity":"min","time":"2011/11/18 22:59:00 -0500"},"geo_score":0.805,"unit":62,"disposition":"200","cfs":14,"call#":11.012135,"id":"a64n4mwhlqmy","geo_precision":"street","address":"319 S Monroe St","state":"OH","juris":"PD"},"type":"Feature","geometry":{"type":"Point","coordinates":[-83.177116,41.107532]}},{"properties":{"officer":"EDA","city":"Tiffin","zip":"44883","date":{"end_time":"2011/12/10 20:37:00 -0500","original":"12/10/2011 20:36","granularity":"min","time":"2011/12/10 20:36:00 -0500"},"geo_score":0.902,"unit":62,"disposition":"200","cfs":14,"call#":11.013003,"id":"a64n4mywo4z7","geo_precision":"range","address":"321 E Perry St","state":"OH","juris":"PD"},"type":"Feature","geometry":{"type":"Point","coordinates":[-83.167735,41.116985]}},{"properties":{"officer":"FWS","city":"Tiffin","zip":"44883","date":{"end_time":"2011/05/05 02:00:00 -0400","original":"5/5/2011 1:59","granularity":"min","time":"2011/05/05 01:59:00 -0400"},"geo_score":0.902,"unit":60,"disposition":"200","cfs":14,"call#":11.004306,"id":"a64n4mymds7q","geo_precision":"range","address":"329 W Market St","state":"OH","juris":"PD"},"type":"Feature","geometry":{"type":"Point","coordinates":[-83.191758,41.113127]}},{"properties":{"officer":"LMK","city":"Tiffin","zip":"44883","date":{"end_time":"2011/08/05 21:01:00 -0400","original":"8/5/2011 21:00","granularity":"min","time":"2011/08/05 21:00:00 -0400"},"geo_score":0.902,"unit":57,"disposition":"200","cfs":14,"call#":11.007921,"id":"a64n4mrtw7qy","geo_precision":"range","address":"32X Sycamore St","state":"OH","juris":"PD"},"type":"Feature","geometry":{"type":"Point","coordinates":[-83.17631,41.108801]}},{"properties":{"officer":"JDW","city":"Tiffin","zip":"44883","date":{"end_time":"2011/05/18 20:49:00 -0400","original":"5/18/2011 20:48","granularity":"min","time":"2011/05/18 20:48:00 -0400"},"geo_score":0.902,"unit":63,"disposition":"400","cfs":14,"call#":11.004837,"id":"a64n4mrsf9hj","geo_precision":"range","address":"337 Wall St","state":"OH","juris":"PD"},"type":"Feature","geometry":{"type":"Point","coordinates":[-83.186776,41.124216]}},{"properties":{"officer":"RMN","city":"Tiffin","zip":"44883","date":{"end_time":"2011/08/02 02:52:00 -0400","original":"8/2/2011 2:51","granularity":"min","time":"2011/08/02 02:51:00 -0400"},"geo_score":0.902,"unit":57,"disposition":"450","cfs":14,"call#":11.007803,"id":"a64n4mn4n2lj","geo_precision":"range","address":"339 S Monroe St","state":"OH","juris":"PD"},"type":"Feature","geometry":{"type":"Point","coordinates":[-83.177065,41.107119]}},{"properties":{"officer":"JPF","city":"Tiffin","zip":"44883","date":{"end_time":"2011/05/08 01:08:00 -0400","original":"5/8/2011 1:07","granularity":"min","time":"2011/05/08 01:07:00 -0400"},"geo_score":0.902,"unit":59,"disposition":"200","cfs":14,"call#":11.004442,"id":"a64n4mrb3uoz","geo_precision":"range","address":"345 Benner St","state":"OH","juris":"PD"},"type":"Feature","geometry":{"type":"Point","coordinates":[-83.186594,41.112513]}},{"properties":{"officer":"BRB","city":"Tiffin","zip":"44883","date":{"end_time":"2011/01/03 14:40:00 -0500","original":"1/3/2011 14:39","granularity":"min","time":"2011/01/03 14:39:00 -0500"},"geo_score":0.902,"unit":59,"disposition":"200","cfs":14,"call#":11.000086,"id":"a64n4msrubfz","geo_precision":"range","address":"35 Huss St","state":"OH","juris":"PD"},"type":"Feature","geometry":{"type":"Point","coordinates":[-83.167585,41.131124]}},{"properties":{"officer":"JPF","city":"Tiffin","zip":"44883","date":{"end_time":"2011/09/30 20:04:00 -0400","original":"9/30/2011 20:03","granularity":"min","time":"2011/09/30 20:03:00 -0400"},"geo_score":0.876,"unit":59,"disposition":"200","cfs":14,"call#":11.010189,"id":"a64n4muqi24f","geo_precision":"range","address":"35 Virginia Av","state":"OH","juris":"PD"},"type":"Feature","geometry":{"type":"Point","coordinates":[-83.191749,41.115621]}},{"properties":{"officer":"JAD","city":"Tiffin","zip":"44883","date":{"end_time":"2011/10/01 03:05:00 -0400","original":"10/1/2011 3:04","granularity":"min","time":"2011/10/01 03:04:00 -0400"},"geo_score":0.902,"unit":56,"disposition":"200","cfs":14,"call#":11.010202,"id":"a64n4mmlezy0","geo_precision":"range","address":"35 W Perry St","state":"OH","juris":"PD"},"type":"Feature","geometry":{"type":"Point","coordinates":[-83.181409,41.115373]}},{"properties":{"officer":"BRB","city":"Tiffin","zip":"44883","date":{"end_time":"2011/11/22 10:50:00 -0500","original":"11/22/2011 10:49","granularity":"min","time":"2011/11/22 10:49:00 -0500"},"geo_score":0.902,"unit":63,"disposition":"200","cfs":14,"call#":11.012275,"id":"a64n4mkm36vl","geo_precision":"range","address":"355 E Perry St","state":"OH","juris":"PD"},"type":"Feature","geometry":{"type":"Point","coordinates":[-83.165345,41.117556]}},{"properties":{"officer":"SMM","city":"Tiffin","zip":"44883","date":{"end_time":"2011/01/22 06:23:00 -0500","original":"1/22/2011 6:22","granularity":"min","time":"2011/01/22 06:22:00 -0500"},"geo_score":0.873,"unit":60,"disposition":"400","cfs":14,"call#":11.000652,"id":"a64n4mnmls40","geo_precision":"range","address":"36 Clinton Av","state":"OH","juris":"PD"},"type":"Feature","geometry":{"type":"Point","coordinates":[-83.170812,41.117312]}},{"properties":{"officer":"PJD","city":"Tiffin","zip":"44883","date":{"end_time":"2011/08/02 00:35:00 -0400","original":"8/2/2011 0:34","granularity":"min","time":"2011/08/02 00:34:00 -0400"},"geo_score":0.707,"unit":60,"disposition":"200","cfs":14,"call#":11.007798,"id":"a64n4mzh19v3","geo_precision":"range","address":"36 Fair Ln","state":"OH","juris":"PD"},"type":"Feature","geometry":{"type":"Point","coordinates":[-83.166786,41.207584]}},{"properties":{"officer":"SMM","city":"Tiffin","zip":"44883","date":{"end_time":"2011/07/06 06:04:00 -0400","original":"7/6/2011 6:03","granularity":"min","time":"2011/07/06 06:03:00 -0400"},"geo_score":0.902,"unit":59,"disposition":"400","cfs":14,"call#":11.006743,"id":"a64n4mn8wo7v","geo_precision":"range","address":"36 Maple St","state":"OH","juris":"PD"},"type":"Feature","geometry":{"type":"Point","coordinates":[-83.184298,41.112965]}},{"properties":{"officer":"JPF","city":"Tiffin","zip":"44883","date":{"end_time":"2011/04/01 19:57:00 -0400","original":"4/1/2011 19:56","granularity":"min","time":"2011/04/01 19:56:00 -0400"},"geo_score":0.902,"unit":59,"disposition":"200","cfs":14,"call#":11.002923,"id":"a64n4n0k3uqi","geo_precision":"range","address":"362 Wall St","state":"OH","juris":"PD"},"type":"Feature","geometry":{"type":"Point","coordinates":[-83.186793,41.12471]}},{"properties":{"officer":"RJO","city":"Tiffin","zip":"44883","date":{"end_time":"2011/05/06 16:02:00 -0400","original":"5/6/2011 16:01","granularity":"min","time":"2011/05/06 16:01:00 -0400"},"geo_score":0.902,"unit":60,"disposition":"200","cfs":14,"call#":11.004367,"id":"a64n4mm1jht7","geo_precision":"range","address":"366 Wentz St","state":"OH","juris":"PD"},"type":"Feature","geometry":{"type":"Point","coordinates":[-83.198801,41.11361]}},{"properties":{"officer":"AMR","city":"Tiffin","zip":"44883","date":{"end_time":"2011/03/21 21:43:00 -0400","original":"3/21/2011 21:42","granularity":"min","time":"2011/03/21 21:42:00 -0400"},"geo_score":0.902,"unit":63,"disposition":"400","cfs":14,"call#":11.002606,"id":"a64n4mzjg6u3","geo_precision":"range","address":"366 Wentz St","state":"OH","juris":"PD"},"type":"Feature","geometry":{"type":"Point","coordinates":[-83.198801,41.11361]}},{"properties":{"officer":"DES","city":"Tiffin","zip":"44883","date":{"end_time":"2011/03/11 10:44:00 -0500","original":"3/11/2011 10:43","granularity":"min","time":"2011/03/11 10:43:00 -0500"},"geo_score":0.902,"unit":61,"disposition":"200","cfs":14,"call#":11.002288,"id":"a64n4mwn0l67","geo_precision":"range","address":"366 Wentz St","state":"OH","juris":"PD"},"type":"Feature","geometry":{"type":"Point","coordinates":[-83.198801,41.11361]}},{"properties":{"officer":"JAD","city":"Tiffin","zip":"44883","date":{"end_time":"2011/03/10 22:22:00 -0500","original":"3/10/2011 22:21","granularity":"min","time":"2011/03/10 22:21:00 -0500"},"geo_score":0.902,"unit":56,"disposition":"400","cfs":14,"call#":11.002272,"id":"a64n4mt65den","geo_precision":"range","address":"366 Wentz St","state":"OH","juris":"PD"},"type":"Feature","geometry":{"type":"Point","coordinates":[-83.198801,41.11361]}},{"properties":{"officer":"EDA","city":"Tiffin","zip":"44883","date":{"end_time":"2011/02/12 17:32:00 -0500","original":"2/12/2011 17:31","granularity":"min","time":"2011/02/12 17:31:00 -0500"},"geo_score":0.902,"unit":59,"disposition":"400","cfs":14,"call#":11.001406,"id":"a64n4mwjkvx1","geo_precision":"range","address":"366 Wentz St","state":"OH","juris":"PD"},"type":"Feature","geometry":{"type":"Point","coordinates":[-83.198801,41.11361]}},{"properties":{"officer":"SGN","city":"Tiffin","zip":"44883","date":{"end_time":"2011/02/08 08:41:00 -0500","original":"2/8/2011 8:40","granularity":"min","time":"2011/02/08 08:40:00 -0500"},"geo_score":0.902,"unit":59,"disposition":"200","cfs":14,"call#":11.001234,"id":"a64n4mujk3gz","geo_precision":"range","address":"366 Wentz St","state":"OH","juris":"PD"},"type":"Feature","geometry":{"type":"Point","coordinates":[-83.198801,41.11361]}},{"properties":{"officer":"BRB","city":"Tiffin","zip":"44883","date":{"end_time":"2011/05/01 14:46:00 -0400","original":"5/1/2011 14:45","granularity":"min","time":"2011/05/01 14:45:00 -0400"},"geo_score":0.902,"unit":63,"disposition":"200","cfs":14,"call#":11.004198,"id":"a64n4n0ao0cb","geo_precision":"range","address":"37 Fostoria St","state":"OH","juris":"PD"},"type":"Feature","geometry":{"type":"Point","coordinates":[-83.196953,41.114719]}},{"properties":{"officer":"GTM","city":"Tiffin","zip":"44883","date":{"end_time":"2011/04/24 13:03:00 -0400","original":"4/24/2011 13:02","granularity":"min","time":"2011/04/24 13:02:00 -0400"},"geo_score":0.902,"unit":57,"disposition":"200","cfs":14,"call#":11.003857,"id":"a64n4mvn4x2b","geo_precision":"range","address":"372 W Perry St","state":"OH","juris":"PD"},"type":"Feature","geometry":{"type":"Point","coordinates":[-83.19373,41.114379]}},{"properties":{"officer":"JSC","city":"Tiffin","zip":"44883","date":{"end_time":"2011/10/27 23:56:00 -0400","original":"10/27/2011 23:55","granularity":"min","time":"2011/10/27 23:55:00 -0400"},"geo_score":0.873,"unit":58,"disposition":"200","cfs":14,"call#":11.011239,"id":"a64n4mlmyznk","geo_precision":"range","address":"38 Clinton Av","state":"OH","juris":"PD"},"type":"Feature","geometry":{"type":"Point","coordinates":[-83.170802,41.117347]}},{"properties":{"officer":"BRB","city":"Tiffin","zip":"44883","date":{"end_time":"2011/07/26 11:53:00 -0400","original":"7/26/2011 11:52","granularity":"min","time":"2011/07/26 11:52:00 -0400"},"geo_score":0.902,"unit":57,"disposition":"200","cfs":14,"call#":11.007501,"id":"a64n4mtwge2v","geo_precision":"range","address":"385X E Perry St","state":"OH","juris":"PD"},"type":"Feature","geometry":{"type":"Point","coordinates":[-83.165299,41.117572]}},{"properties":{"officer":"EDA","city":"Tiffin","zip":"44883","date":{"end_time":"2011/04/10 06:21:00 -0400","original":"4/10/2011 6:20","granularity":"min","time":"2011/04/10 06:20:00 -0400"},"geo_score":0.902,"unit":57,"disposition":"400","cfs":14,"call#":11.003291,"id":"a64n4n0rzgsz","geo_precision":"range","address":"387 W Perry St","state":"OH","juris":"PD"},"type":"Feature","geometry":{"type":"Point","coordinates":[-83.194107,41.114312]}},{"properties":{"officer":"MEM","city":"Tiffin","zip":"44883","date":{"end_time":"2011/05/27 14:04:00 -0400","original":"5/27/2011 14:03","granularity":"min","time":"2011/05/27 14:03:00 -0400"},"geo_score":0.429,"unit":63,"disposition":"200","cfs":14,"call#":11.005167,"id":"a64n4mxe2bxa","geo_precision":"street","address":"388 S Washington St,B","state":"OH","juris":"PD"},"type":"Feature","geometry":{"type":"Point","coordinates":[-83.177111,41.118089]}},{"properties":{"officer":"JPF","city":"Tiffin","zip":"44883","date":{"end_time":"2011/04/28 19:32:00 -0400","original":"4/28/2011 19:31","granularity":"min","time":"2011/04/28 19:31:00 -0400"},"geo_score":0.429,"unit":59,"disposition":"230","cfs":14,"call#":11.004017,"id":"a64n4mrmlyup","geo_precision":"street","address":"388 S Washington St,B","state":"OH","juris":"PD"},"type":"Feature","geometry":{"type":"Point","coordinates":[-83.177111,41.118089]}},{"properties":{"officer":"JDW","city":"Tiffin","zip":"44883","date":{"end_time":"2011/09/07 14:36:00 -0400","original":"9/7/2011 14:35","granularity":"min","time":"2011/09/07 14:35:00 -0400"},"geo_score":0.514,"unit":60,"disposition":"100","cfs":14,"call#":11.00925,"id":"a64n4mv0xtku","geo_precision":"street","address":"39 W Perry St,C","state":"OH","juris":"PD"},"type":"Feature","geometry":{"type":"Point","coordinates":[-83.174672,41.108987]}},{"properties":{"officer":"LMK","city":"Tiffin","zip":"44883","date":{"end_time":"2011/05/11 21:37:00 -0400","original":"5/11/2011 21:36","granularity":"min","time":"2011/05/11 21:36:00 -0400"},"geo_score":0.902,"unit":63,"disposition":"200","cfs":14,"call#":11.004583,"id":"a64n4mzo8p25","geo_precision":"range","address":"397 W Market St","state":"OH","juris":"PD"},"type":"Feature","geometry":{"type":"Point","coordinates":[-83.193972,41.1129]}},{"properties":{"officer":"SMM","city":"Tiffin","zip":"44883","date":{"end_time":"2011/04/28 00:05:00 -0400","original":"4/28/2011 0:04","granularity":"min","time":"2011/04/28 00:04:00 -0400"},"geo_score":0.902,"unit":61,"disposition":"200","cfs":14,"call#":11.003978,"id":"a64n4n0hb2vv","geo_precision":"range","address":"397 W Market St","state":"OH","juris":"PD"},"type":"Feature","geometry":{"type":"Point","coordinates":[-83.193972,41.1129]}},{"properties":{"officer":"FWS","city":"Tiffin","zip":"44883","date":{"end_time":"2011/04/19 21:15:00 -0400","original":"4/19/2011 21:14","granularity":"min","time":"2011/04/19 21:14:00 -0400"},"geo_score":0.902,"unit":60,"disposition":"400","cfs":14,"call#":11.003666,"id":"a64n4mmdq9hx","geo_precision":"range","address":"40 W Market St","state":"OH","juris":"PD"},"type":"Feature","geometry":{"type":"Point","coordinates":[-83.181821,41.114081]}},{"properties":{"officer":"SGN","city":"Tiffin","zip":"44883","date":{"end_time":"2011/03/16 13:31:00 -0400","original":"3/16/2011 13:30","granularity":"min","time":"2011/03/16 13:30:00 -0400"},"geo_score":0.902,"unit":59,"disposition":"200","cfs":14,"call#":11.002419,"id":"a64n4mra42sy","geo_precision":"range","address":"400X N Sandusky St","state":"OH","juris":"PD"},"type":"Feature","geometry":{"type":"Point","coordinates":[-83.175902,41.129233]}},{"properties":{"officer":"SGN","city":"Tiffin","zip":"44883","date":{"end_time":"2011/10/13 13:58:00 -0400","original":"10/13/2011 13:57","granularity":"min","time":"2011/10/13 13:57:00 -0400"},"geo_score":0.902,"unit":59,"disposition":"100","cfs":14,"call#":11.010712,"id":"a64n4mtu7obi","geo_precision":"range","address":"40X N Washington St","state":"OH","juris":"PD"},"type":"Feature","geometry":{"type":"Point","coordinates":[-83.177211,41.118721]}},{"properties":{"officer":"JPF","city":"Tiffin","zip":"44883","date":{"end_time":"2011/03/03 00:17:00 -0500","original":"3/3/2011 0:16","granularity":"min","time":"2011/03/03 00:16:00 -0500"},"geo_score":0.902,"unit":59,"disposition":"200","cfs":14,"call#":11.001985,"id":"a64n4mu10rwo","geo_precision":"range","address":"40X N Washington St","state":"OH","juris":"PD"},"type":"Feature","geometry":{"type":"Point","coordinates":[-83.177211,41.118721]}},{"properties":{"officer":"LMK","city":"Tiffin","zip":"44883","date":{"end_time":"2011/09/24 21:58:00 -0400","original":"9/24/2011 21:57","granularity":"min","time":"2011/09/24 21:57:00 -0400"},"geo_score":0.902,"unit":60,"disposition":"200","cfs":14,"call#":11.009952,"id":"a64n4mtghvoy","geo_precision":"range","address":"412 Sycamore St","state":"OH","juris":"PD"},"type":"Feature","geometry":{"type":"Point","coordinates":[-83.180915,41.103723]}},{"properties":{"officer":"GTM","city":"Tiffin","zip":"44883","date":{"end_time":"2011/08/06 08:44:00 -0400","original":"8/6/2011 8:43","granularity":"min","time":"2011/08/06 08:43:00 -0400"},"geo_score":0.902,"unit":59,"disposition":"200","cfs":14,"call#":11.007938,"id":"a64n4mxw19xm","geo_precision":"range","address":"419 S Washington St","state":"OH","juris":"PD"},"type":"Feature","geometry":{"type":"Point","coordinates":[-83.175246,41.106172]}},{"properties":{"officer":"GTM","city":"Tiffin","zip":"44883","date":{"end_time":"2011/12/31 10:01:00 -0500","original":"12/31/2011 10:00","granularity":"min","time":"2011/12/31 10:00:00 -0500"},"geo_score":0.902,"unit":62,"disposition":"400","cfs":14,"call#":11.013747,"id":"a64n4mqe91k8","geo_precision":"range","address":"43 Minerva St","state":"OH","juris":"PD"},"type":"Feature","geometry":{"type":"Point","coordinates":[-83.176061,41.12171]}},{"properties":{"officer":"MEM","city":"Tiffin","zip":"44883","date":{"end_time":"2011/05/05 14:52:00 -0400","original":"5/5/2011 14:51","granularity":"min","time":"2011/05/05 14:51:00 -0400"},"geo_score":0.902,"unit":61,"disposition":"200","cfs":14,"call#":11.004319,"id":"a64n4mwosc2t","geo_precision":"range","address":"431 Water St","state":"OH","juris":"PD"},"type":"Feature","geometry":{"type":"Point","coordinates":[-83.172503,41.12425]}},{"properties":{"officer":"FWS","city":"Tiffin","zip":"44883","date":{"end_time":"2011/11/14 13:47:00 -0500","original":"11/14/2011 13:46","granularity":"min","time":"2011/11/14 13:46:00 -0500"},"geo_score":0.902,"unit":58,"disposition":"200","cfs":14,"call#":11.011948,"id":"a64n4mzsuwsv","geo_precision":"range","address":"44 Fostoria St","state":"OH","juris":"PD"},"type":"Feature","geometry":{"type":"Point","coordinates":[-83.197879,41.114648]}},{"properties":{"officer":"JSC","city":"Tiffin","zip":"44883","date":{"end_time":"2011/08/12 20:51:00 -0400","original":"8/12/2011 20:50","granularity":"min","time":"2011/08/12 20:50:00 -0400"},"geo_score":0.876,"unit":58,"disposition":"200","cfs":14,"call#":11.008173,"id":"a64n4mozungq","geo_precision":"range","address":"44 Virginia Av","state":"OH","juris":"PD"},"type":"Feature","geometry":{"type":"Point","coordinates":[-83.191103,41.115797]}},{"properties":{"officer":"EDA","city":"Tiffin","zip":"44883","date":{"end_time":"2011/12/27 17:00:00 -0500","original":"12/27/2011 16:59","granularity":"min","time":"2011/12/27 16:59:00 -0500"},"geo_score":0.516,"unit":62,"disposition":"200","cfs":14,"call#":11.01363,"id":"a64n4mu4vrw7","geo_precision":"street","address":"45 St Lawrence Dr","state":"OH","juris":"PD"},"type":"Feature","geometry":{"type":"Point","coordinates":[-82.718729,41.455282]}},{"properties":{"officer":"PJD","city":"Tiffin","zip":"44883","date":{"end_time":"2011/01/11 01:58:00 -0500","original":"1/11/2011 1:57","granularity":"min","time":"2011/01/11 01:57:00 -0500"},"geo_score":0.516,"unit":61,"disposition":"400","cfs":14,"call#":11.000293,"id":"a64n4mxjhfdt","geo_precision":"street","address":"45 St Lawrence Dr","state":"OH","juris":"PD"},"type":"Feature","geometry":{"type":"Point","coordinates":[-82.718729,41.455282]}},{"properties":{"officer":"JDW","city":"Tiffin","zip":"44883","date":{"end_time":"2011/03/17 11:38:00 -0400","original":"3/17/2011 11:37","granularity":"min","time":"2011/03/17 11:37:00 -0400"},"geo_score":0.902,"unit":60,"disposition":"200","cfs":14,"call#":11.002445,"id":"a64n4mqhh27d","geo_precision":"range","address":"46 St Clair St","state":"OH","juris":"PD"},"type":"Feature","geometry":{"type":"Point","coordinates":[-83.181355,41.112736]}},{"properties":{"officer":"FWS","city":"Tiffin","zip":"44883","date":{"end_time":"2011/03/16 10:12:00 -0400","original":"3/16/2011 10:11","granularity":"min","time":"2011/03/16 10:11:00 -0400"},"geo_score":0.902,"unit":57,"disposition":"200","cfs":14,"call#":11.002413,"id":"a64n4mm45pgn","geo_precision":"range","address":"47 S Washington St","state":"OH","juris":"PD"},"type":"Feature","geometry":{"type":"Point","coordinates":[-83.17685,41.116247]}},{"properties":{"officer":"MEM","city":"Tiffin","zip":"44883","date":{"end_time":"2011/07/13 07:40:00 -0400","original":"7/13/2011 7:39","granularity":"min","time":"2011/07/13 07:39:00 -0400"},"geo_score":0.718,"unit":61,"disposition":"200","cfs":14,"call#":11.006994,"id":"a64n4myptamt","geo_precision":"street","address":"47 S Washington St,3","state":"OH","juris":"PD"},"type":"Feature","geometry":{"type":"Point","coordinates":[-83.176943,41.117025]}},{"properties":{"officer":"JMW","city":"Tiffin","zip":"44883","date":{"end_time":"2011/11/08 20:33:00 -0500","original":"11/8/2011 20:32","granularity":"min","time":"2011/11/08 20:32:00 -0500"},"geo_score":0.902,"unit":60,"disposition":"200","cfs":14,"call#":11.011689,"id":"a64n4myjckwn","geo_precision":"range","address":"485 E Perry St","state":"OH","juris":"PD"},"type":"Feature","geometry":{"type":"Point","coordinates":[-83.162228,41.118449]}},{"properties":{"officer":"JSC","city":"Tiffin","zip":"44883","date":{"end_time":"2011/08/31 21:34:00 -0400","original":"8/31/2011 21:33","granularity":"min","time":"2011/08/31 21:33:00 -0400"},"geo_score":0.902,"unit":62,"disposition":"200","cfs":14,"call#":11.008966,"id":"a64n4mzbulm5","geo_precision":"range","address":"491 Coe St","state":"OH","juris":"PD"},"type":"Feature","geometry":{"type":"Point","coordinates":[-83.160385,41.102667]}},{"properties":{"officer":"LMK","city":"Tiffin","zip":"44883","date":{"end_time":"2011/06/29 21:58:00 -0400","original":"6/29/2011 21:57","granularity":"min","time":"2011/06/29 21:57:00 -0400"},"geo_score":0.902,"unit":58,"disposition":"200","cfs":14,"call#":11.00647,"id":"a64n4mpp1rl3","geo_precision":"range","address":"491 Coe St","state":"OH","juris":"PD"},"type":"Feature","geometry":{"type":"Point","coordinates":[-83.160385,41.102667]}},{"properties":{"officer":"AMR","city":"Tiffin","zip":"44883","date":{"end_time":"2011/06/29 20:08:00 -0400","original":"6/29/2011 20:07","granularity":"min","time":"2011/06/29 20:07:00 -0400"},"geo_score":0.902,"unit":63,"disposition":"400","cfs":14,"call#":11.006464,"id":"a64n4mp9gmsv","geo_precision":"range","address":"491 Coe St","state":"OH","juris":"PD"},"type":"Feature","geometry":{"type":"Point","coordinates":[-83.160385,41.102667]}},{"properties":{"officer":"SMM","city":"Tiffin","zip":"44883","date":{"end_time":"2011/08/24 05:28:00 -0400","original":"8/24/2011 5:27","granularity":"min","time":"2011/08/24 05:27:00 -0400"},"geo_score":0.902,"unit":763,"disposition":"400","cfs":14,"call#":11.008648,"id":"a64n4mpx2gyl","geo_precision":"range","address":"50 Clay St","state":"OH","juris":"PD"},"type":"Feature","geometry":{"type":"Point","coordinates":[-83.181533,41.116163]}},{"properties":{"officer":"JDW","city":"Tiffin","zip":"44883","date":{"end_time":"2011/08/06 12:10:00 -0400","original":"8/6/2011 12:09","granularity":"min","time":"2011/08/06 12:09:00 -0400"},"geo_score":0.902,"unit":58,"disposition":"200","cfs":14,"call#":11.007947,"id":"a64n4muuae9n","geo_precision":"range","address":"50 Clay St","state":"OH","juris":"PD"},"type":"Feature","geometry":{"type":"Point","coordinates":[-83.181533,41.116163]}},{"properties":{"officer":"RMN","city":"Tiffin","zip":"44883","date":{"end_time":"2011/06/22 00:02:00 -0400","original":"6/22/2011 0:01","granularity":"min","time":"2011/06/22 00:01:00 -0400"},"geo_score":0.902,"unit":59,"disposition":"200","cfs":14,"call#":11.006181,"id":"a64n4mlk9a0m","geo_precision":"range","address":"50 N Washington St","state":"OH","juris":"PD"},"type":"Feature","geometry":{"type":"Point","coordinates":[-83.177244,41.118979]}},{"properties":{"officer":"JSC","city":"Tiffin","zip":"44883","date":{"end_time":"2011/02/15 16:51:00 -0500","original":"2/15/2011 16:50","granularity":"min","time":"2011/02/15 16:50:00 -0500"},"geo_score":0.902,"unit":59,"disposition":"400","cfs":14,"call#":11.001506,"id":"a64n4mmtikgz","geo_precision":"range","address":"501 W Perry St","state":"OH","juris":"PD"},"type":"Feature","geometry":{"type":"Point","coordinates":[-83.198064,41.113738]}},{"properties":{"officer":"GTM","city":"Tiffin","zip":"44883","date":{"end_time":"2011/05/14 12:16:00 -0400","original":"5/14/2011 12:15","granularity":"min","time":"2011/05/14 12:15:00 -0400"},"geo_score":0.902,"unit":57,"disposition":"200","cfs":14,"call#":11.004694,"id":"a64n4mzxaq90","geo_precision":"range","address":"510 Miami St","state":"OH","juris":"PD"},"type":"Feature","geometry":{"type":"Point","coordinates":[-83.199171,41.117527]}},{"properties":{"officer":"RLT","city":"Tiffin","zip":"44883","date":{"end_time":"2011/06/27 02:56:00 -0400","original":"6/27/2011 2:55","granularity":"min","time":"2011/06/27 02:55:00 -0400"},"geo_score":0.902,"unit":58,"disposition":"200","cfs":14,"call#":11.006364,"id":"a64n4mqv6vcn","geo_precision":"range","address":"54 W Perry St","state":"OH","juris":"PD"},"type":"Feature","geometry":{"type":"Point","coordinates":[-83.18195,41.115302]}},{"properties":{"officer":"SGN","city":"Tiffin","zip":"44883","date":{"end_time":"2011/09/08 15:43:00 -0400","original":"9/8/2011 15:42","granularity":"min","time":"2011/09/08 15:42:00 -0400"},"geo_score":0.902,"unit":59,"disposition":"200","cfs":14,"call#":11.009283,"id":"a64n4mus4c53","geo_precision":"range","address":"549 Circular St","state":"OH","juris":"PD"},"type":"Feature","geometry":{"type":"Point","coordinates":[-83.178525,41.105311]}},{"properties":{"officer":"LMK","city":"Tiffin","zip":"44883","date":{"end_time":"2011/06/02 22:11:00 -0400","original":"6/2/2011 22:10","granularity":"min","time":"2011/06/02 22:10:00 -0400"},"geo_score":0.902,"unit":61,"disposition":"200","cfs":14,"call#":11.005442,"id":"a64n4mtcv5tb","geo_precision":"range","address":"549 Circular St","state":"OH","juris":"PD"},"type":"Feature","geometry":{"type":"Point","coordinates":[-83.178525,41.105311]}},{"properties":{"officer":"JMW","city":"Tiffin","zip":"44883","date":{"end_time":"2011/04/21 19:41:00 -0400","original":"4/21/2011 19:40","granularity":"min","time":"2011/04/21 19:40:00 -0400"},"geo_score":0.902,"unit":57,"disposition":"400","cfs":14,"call#":11.003725,"id":"a64n4ml491qo","geo_precision":"range","address":"55 Avery St","state":"OH","juris":"PD"},"type":"Feature","geometry":{"type":"Point","coordinates":[-83.178149,41.110468]}},{"properties":{"officer":"FWS","city":"Tiffin","zip":"44883","date":{"end_time":"2011/09/13 09:27:00 -0400","original":"9/13/2011 9:26","granularity":"min","time":"2011/09/13 09:26:00 -0400"},"geo_score":0.902,"unit":58,"disposition":"200","cfs":14,"call#":11.009481,"id":"a64n4mqug38a","geo_precision":"range","address":"55 Madison St","state":"OH","juris":"PD"},"type":"Feature","geometry":{"type":"Point","coordinates":[-83.177509,41.113285]}},{"properties":{"officer":"SMM","city":"Tiffin","zip":"44883","date":{"end_time":"2011/03/15 04:52:00 -0400","original":"3/15/2011 4:51","granularity":"min","time":"2011/03/15 04:51:00 -0400"},"geo_score":0.902,"unit":60,"disposition":"100","cfs":14,"call#":11.002389,"id":"a64n4my62lw7","geo_precision":"range","address":"55 Madison St,4","state":"OH","juris":"PD"},"type":"Feature","geometry":{"type":"Point","coordinates":[-83.178806,41.113146]}},{"properties":{"officer":"JMW","city":"Tiffin","zip":"44883","date":{"end_time":"2011/06/15 22:44:00 -0400","original":"6/15/2011 22:43","granularity":"min","time":"2011/06/15 22:43:00 -0400"},"geo_score":0.902,"unit":57,"disposition":"400","cfs":14,"call#":11.005939,"id":"a64n4mz5b0w9","geo_precision":"range","address":"552X N Sandusky St","state":"OH","juris":"PD"},"type":"Feature","geometry":{"type":"Point","coordinates":[-83.173272,41.132934]}},{"properties":{"officer":"JAD","city":"Tiffin","zip":"44883","date":{"end_time":"2011/05/01 23:33:00 -0400","original":"5/1/2011 23:32","granularity":"min","time":"2011/05/01 23:32:00 -0400"},"geo_score":0.902,"unit":56,"disposition":"200","cfs":14,"call#":11.004213,"id":"a64n4mlmk3xl","geo_precision":"range","address":"552X N Sandusky St","state":"OH","juris":"PD"},"type":"Feature","geometry":{"type":"Point","coordinates":[-83.173272,41.132934]}},{"properties":{"officer":"JMW","city":"Tiffin","zip":"44883","date":{"end_time":"2011/03/03 20:26:00 -0500","original":"3/3/2011 20:25","granularity":"min","time":"2011/03/03 20:25:00 -0500"},"geo_score":0.902,"unit":57,"disposition":"400","cfs":14,"call#":11.002021,"id":"a64n4ml30i46","geo_precision":"range","address":"555 N Sandusky St","state":"OH","juris":"PD"},"type":"Feature","geometry":{"type":"Point","coordinates":[-83.173244,41.132984]}},{"properties":{"officer":"JMW","city":"Tiffin","zip":"44883","date":{"end_time":"2011/05/17 20:34:00 -0400","original":"5/17/2011 20:33","granularity":"min","time":"2011/05/17 20:33:00 -0400"},"geo_score":0.902,"unit":60,"disposition":"200","cfs":14,"call#":11.004804,"id":"a64n4ml48hir","geo_precision":"range","address":"56 Hall St","state":"OH","juris":"PD"},"type":"Feature","geometry":{"type":"Point","coordinates":[-83.179546,41.121435]}},{"properties":{"officer":"RMN","city":"Tiffin","zip":"44883","date":{"end_time":"2011/07/05 03:09:00 -0400","original":"7/5/2011 3:08","granularity":"min","time":"2011/07/05 03:08:00 -0400"},"geo_score":0.902,"unit":59,"disposition":"200","cfs":14,"call#":11.00671,"id":"a64n4mohd004","geo_precision":"range","address":"575 E Perry St","state":"OH","juris":"PD"},"type":"Feature","geometry":{"type":"Point","coordinates":[-83.158917,41.119267]}},{"properties":{"officer":"JMW","city":"Tiffin","zip":"44883","date":{"end_time":"2011/09/28 19:03:00 -0400","original":"9/28/2011 19:02","granularity":"min","time":"2011/09/28 19:02:00 -0400"},"geo_score":0.873,"unit":63,"disposition":"200","cfs":14,"call#":11.010118,"id":"a64n4mza9m65","geo_precision":"range","address":"58 Cottage Av","state":"OH","juris":"PD"},"type":"Feature","geometry":{"type":"Point","coordinates":[-83.193349,41.107339]}},{"properties":{"officer":"BAR","city":"Tiffin","zip":"44883","date":{"end_time":"2011/01/22 17:04:00 -0500","original":"1/22/2011 17:03","granularity":"min","time":"2011/01/22 17:03:00 -0500"},"geo_score":0.902,"unit":63,"disposition":"400","cfs":14,"call#":11.000657,"id":"a64n4mlq393h","geo_precision":"range","address":"59 E Market St","state":"OH","juris":"PD"},"type":"Feature","geometry":{"type":"Point","coordinates":[-83.177936,41.114461]}},{"properties":{"officer":"SGN","city":"Tiffin","zip":"44883","date":{"end_time":"2011/10/11 16:50:00 -0400","original":"10/11/2011 16:49","granularity":"min","time":"2011/10/11 16:49:00 -0400"},"geo_score":0.471,"unit":59,"disposition":"200","cfs":14,"call#":11.01064,"id":"a64n4mo0lzdg","geo_precision":"street","address":"600 S Sandusky St,A","state":"OH","juris":"PD"},"type":"Feature","geometry":{"type":"Point","coordinates":[-83.152097,41.240958]}},{"properties":{"officer":"MEM","city":"Tiffin","zip":"44883","date":{"end_time":"2011/01/15 03:53:00 -0500","original":"1/15/2011 3:52","granularity":"min","time":"2011/01/15 03:52:00 -0500"},"geo_score":0.429,"unit":63,"disposition":"200","cfs":14,"call#":11.0004,"id":"a64n4mnancs1","geo_precision":"street","address":"61 W Perry St,A","state":"OH","juris":"PD"},"type":"Feature","geometry":{"type":"Point","coordinates":[-83.178368,41.11568]}},{"properties":{"officer":"JMW","city":"Tiffin","zip":"44883","date":{"end_time":"2011/05/25 16:03:00 -0400","original":"5/25/2011 16:02","granularity":"min","time":"2011/05/25 16:02:00 -0400"},"geo_score":0.471,"unit":60,"disposition":"200","cfs":14,"call#":11.005096,"id":"a64n4mvwivfz","geo_precision":"street","address":"610 S Sandusky St,A","state":"OH","juris":"PD"},"type":"Feature","geometry":{"type":"Point","coordinates":[-83.152097,41.240958]}},{"properties":{"officer":"BRB","city":"Tiffin","zip":"44883","date":{"end_time":"2011/06/27 14:31:00 -0400","original":"6/27/2011 14:30","granularity":"min","time":"2011/06/27 14:30:00 -0400"},"geo_score":0.902,"unit":63,"disposition":"200","cfs":14,"call#":11.006374,"id":"a64n4mknlvcb","geo_precision":"range","address":"62 Valleyview Pl","state":"OH","juris":"PD"},"type":"Feature","geometry":{"type":"Point","coordinates":[-83.160763,41.10424]}},{"properties":{"officer":"RJO","city":"Tiffin","zip":"44883","date":{"end_time":"2011/10/22 07:57:00 -0400","original":"10/22/2011 7:56","granularity":"min","time":"2011/10/22 07:56:00 -0400"},"geo_score":0.545,"unit":57,"disposition":"200","cfs":14,"call#":11.011,"id":"a64n4muj88q5","geo_precision":"street","address":"64 Augusta Ln","state":"OH","juris":"PD"},"type":"Feature","geometry":{"type":"Point","coordinates":[-83.429469,41.165368]}},{"properties":{"officer":"LMK","city":"Tiffin","zip":"44883","date":{"end_time":"2011/08/31 22:04:00 -0400","original":"8/31/2011 22:03","granularity":"min","time":"2011/08/31 22:03:00 -0400"},"geo_score":0.902,"unit":57,"disposition":"200","cfs":14,"call#":11.008967,"id":"a64n4n0s7ued","geo_precision":"range","address":"65 Noble St","state":"OH","juris":"PD"},"type":"Feature","geometry":{"type":"Point","coordinates":[-83.175208,41.122665]}},{"properties":{"officer":"JPF","city":"Tiffin","zip":"44883","date":{"end_time":"2011/01/05 21:30:00 -0500","original":"1/5/2011 21:29","granularity":"min","time":"2011/01/05 21:29:00 -0500"},"geo_score":0.902,"unit":59,"disposition":"500","cfs":14,"call#":11.000143,"id":"a64n4mrrmxms","geo_precision":"range","address":"65 Noble St","state":"OH","juris":"PD"},"type":"Feature","geometry":{"type":"Point","coordinates":[-83.175208,41.122665]}},{"properties":{"officer":"JAD","city":"Tiffin","zip":"44883","date":{"end_time":"2011/07/02 04:39:00 -0400","original":"7/2/2011 4:38","granularity":"min","time":"2011/07/02 04:38:00 -0400"},"geo_score":0.902,"unit":56,"disposition":"200","cfs":14,"call#":11.006583,"id":"a64n4mot8yc7","geo_precision":"range","address":"66 Charlotte St","state":"OH","juris":"PD"},"type":"Feature","geometry":{"type":"Point","coordinates":[-83.178163,41.110346]}},{"properties":{"officer":"DES","city":"Tiffin","zip":"44883","date":{"end_time":"2011/04/23 15:14:00 -0400","original":"4/23/2011 15:13","granularity":"min","time":"2011/04/23 15:13:00 -0400"},"geo_score":0.902,"unit":61,"disposition":"400","cfs":14,"call#":11.003807,"id":"a64n4mzdtck5","geo_precision":"range","address":"66 Charlotte St","state":"OH","juris":"PD"},"type":"Feature","geometry":{"type":"Point","coordinates":[-83.178163,41.110346]}},{"properties":{"officer":"FWS","city":"Tiffin","zip":"44883","date":{"end_time":"2011/09/01 12:02:00 -0400","original":"9/1/2011 12:01","granularity":"min","time":"2011/09/01 12:01:00 -0400"},"geo_score":0.902,"unit":58,"disposition":"200","cfs":14,"call#":11.008988,"id":"a64n4my18mgq","geo_precision":"range","address":"66 E Market St","state":"OH","juris":"PD"},"type":"Feature","geometry":{"type":"Point","coordinates":[-83.177742,41.114486]}},{"properties":{"officer":"RJO","city":"Tiffin","zip":"44883","date":{"end_time":"2011/07/07 14:22:00 -0400","original":"7/7/2011 14:21","granularity":"min","time":"2011/07/07 14:21:00 -0400"},"geo_score":0.902,"unit":60,"disposition":"200","cfs":14,"call#":11.006779,"id":"a64n4mupvbhp","geo_precision":"range","address":"66 Erie St","state":"OH","juris":"PD"},"type":"Feature","geometry":{"type":"Point","coordinates":[-83.17459,41.122564]}},{"properties":{"officer":"RJO","city":"Tiffin","zip":"44883","date":{"end_time":"2011/11/20 10:38:00 -0500","original":"11/20/2011 10:37","granularity":"min","time":"2011/11/20 10:37:00 -0500"},"geo_score":0.902,"unit":60,"disposition":"200","cfs":14,"call#":11.012187,"id":"a64n4n00ptl1","geo_precision":"range","address":"66 Liberty St","state":"OH","juris":"PD"},"type":"Feature","geometry":{"type":"Point","coordinates":[-83.173022,41.117295]}},{"properties":{"officer":"JSC","city":"Tiffin","zip":"44883","date":{"end_time":"2011/08/06 04:04:00 -0400","original":"8/6/2011 4:03","granularity":"min","time":"2011/08/06 04:03:00 -0400"},"geo_score":0.718,"unit":58,"disposition":"400","cfs":14,"call#":11.007934,"id":"a64n4n0njwst","geo_precision":"street","address":"686 S Sandusky St,1","state":"OH","juris":"PD"},"type":"Feature","geometry":{"type":"Point","coordinates":[-83.182777,41.119569]}},{"properties":{"officer":"JPF","city":"Tiffin","zip":"44883","date":{"end_time":"2011/06/01 19:46:00 -0400","original":"6/1/2011 19:45","granularity":"min","time":"2011/06/01 19:45:00 -0400"},"geo_score":0.902,"unit":59,"disposition":"400","cfs":14,"call#":11.0054,"id":"a64n4mpdphs6","geo_precision":"range","address":"686 S Sandusky St,105","state":"OH","juris":"PD"},"type":"Feature","geometry":{"type":"Point","coordinates":[-83.184493,41.117083]}},{"properties":{"officer":"BAR","city":"Tiffin","zip":"44883","date":{"end_time":"2011/12/10 22:17:00 -0500","original":"12/10/2011 22:16","granularity":"min","time":"2011/12/10 22:16:00 -0500"},"geo_score":0.902,"unit":63,"disposition":"400","cfs":14,"call#":11.013014,"id":"a64n4mzcwvrc","geo_precision":"range","address":"71 E Market St","state":"OH","juris":"PD"},"type":"Feature","geometry":{"type":"Point","coordinates":[-83.177644,41.114498]}},{"properties":{"officer":"BAR","city":"Tiffin","zip":"44883","date":{"end_time":"2011/11/27 02:55:00 -0500","original":"11/27/2011 2:54","granularity":"min","time":"2011/11/27 02:54:00 -0500"},"geo_score":0.902,"unit":63,"disposition":"100","cfs":14,"call#":11.012465,"id":"a64n4mnl74pi","geo_precision":"range","address":"72 St Clair St","state":"OH","juris":"PD"},"type":"Feature","geometry":{"type":"Point","coordinates":[-83.181225,41.111941]}},{"properties":{"officer":"JAD","city":"Tiffin","zip":"44883","date":{"end_time":"2011/01/16 22:35:00 -0500","original":"1/16/2011 22:34","granularity":"min","time":"2011/01/16 22:34:00 -0500"},"geo_score":0.902,"unit":56,"disposition":"200","cfs":14,"call#":11.000495,"id":"a64n4mzvzdvu","geo_precision":"range","address":"747 W Market St","state":"OH","juris":"PD"},"type":"Feature","geometry":{"type":"Point","coordinates":[-83.206231,41.111378]}},{"properties":{"officer":"RJO","city":"Tiffin","zip":"44883","date":{"end_time":"2011/12/09 12:47:00 -0500","original":"12/9/2011 12:46","granularity":"min","time":"2011/12/09 12:46:00 -0500"},"geo_score":0.902,"unit":60,"disposition":"200","cfs":14,"call#":11.012939,"id":"a64n4ms8i9y5","geo_precision":"range","address":"77 Jefferson St","state":"OH","juris":"PD"},"type":"Feature","geometry":{"type":"Point","coordinates":[-83.17514,41.115976]}},{"properties":{"officer":"GTM","city":"Tiffin","zip":"44883","date":{"end_time":"2011/05/14 16:22:00 -0400","original":"5/14/2011 16:21","granularity":"min","time":"2011/05/14 16:21:00 -0400"},"geo_score":0.902,"unit":57,"disposition":"200","cfs":14,"call#":11.004708,"id":"a64n4mxlksiw","geo_precision":"range","address":"78 Grace St","state":"OH","juris":"PD"},"type":"Feature","geometry":{"type":"Point","coordinates":[-83.186038,41.121415]}},{"properties":{"officer":"RLT","city":"Tiffin","zip":"44883","date":{"end_time":"2011/12/11 22:18:00 -0500","original":"12/11/2011 22:17","granularity":"min","time":"2011/12/11 22:17:00 -0500"},"geo_score":0.902,"unit":62,"disposition":"200","cfs":14,"call#":11.013051,"id":"a64n4mmxzynq","geo_precision":"range","address":"781 N Water St","state":"OH","juris":"PD"},"type":"Feature","geometry":{"type":"Point","coordinates":[-83.164554,41.133981]}},{"properties":{"officer":"EDA","city":"Tiffin","zip":"44883","date":{"end_time":"2011/11/13 18:01:00 -0500","original":"11/13/2011 18:00","granularity":"min","time":"2011/11/13 18:00:00 -0500"},"geo_score":0.78,"unit":62,"disposition":"200","cfs":14,"call#":11.01191,"id":"a64n4mkmkq8m","geo_precision":"range","address":"790 W Market St","state":"OH","juris":"PD"},"type":"Feature","geometry":{"type":"Point","coordinates":[-83.207496,41.111156]}},{"properties":{"officer":"JAD","city":"Tiffin","zip":"44883","date":{"end_time":"2011/09/03 22:41:00 -0400","original":"9/3/2011 22:40","granularity":"min","time":"2011/09/03 22:40:00 -0400"},"geo_score":0.78,"unit":56,"disposition":"200","cfs":14,"call#":11.009099,"id":"a64n4mzwcwoo","geo_precision":"range","address":"790 W Market St","state":"OH","juris":"PD"},"type":"Feature","geometry":{"type":"Point","coordinates":[-83.207496,41.111156]}},{"properties":{"officer":"JAD","city":"Tiffin","zip":"44883","date":{"end_time":"2011/06/05 22:24:00 -0400","original":"6/5/2011 22:23","granularity":"min","time":"2011/06/05 22:23:00 -0400"},"geo_score":0.756,"unit":56,"disposition":"200","cfs":14,"call#":11.005562,"id":"a64n4mz8npep","geo_precision":"range","address":"82 First Av","state":"OH","juris":"PD"},"type":"Feature","geometry":{"type":"Point","coordinates":[-83.179518,41.127923]}},{"properties":{"officer":"JPF","city":"Tiffin","zip":"44883","date":{"end_time":"2011/01/22 00:30:00 -0500","original":"1/22/2011 0:29","granularity":"min","time":"2011/01/22 00:29:00 -0500"},"geo_score":0.902,"unit":59,"disposition":"400","cfs":14,"call#":11.000647,"id":"a64n4mz67v0i","geo_precision":"range","address":"82 Franklin St","state":"OH","juris":"PD"},"type":"Feature","geometry":{"type":"Point","coordinates":[-83.182978,41.117359]}},{"properties":{"officer":"GTM","city":"Tiffin","zip":"44883","date":{"end_time":"2011/05/29 12:15:00 -0400","original":"5/29/2011 12:14","granularity":"min","time":"2011/05/29 12:14:00 -0400"},"geo_score":0.756,"unit":57,"disposition":"200","cfs":14,"call#":11.005268,"id":"a64n4mrap3q3","geo_precision":"range","address":"82 Second Av","state":"OH","juris":"PD"},"type":"Feature","geometry":{"type":"Point","coordinates":[-83.179223,41.128789]}},{"properties":{"officer":"DES","city":"Tiffin","zip":"44883","date":{"end_time":"2011/01/10 09:33:00 -0500","original":"1/10/2011 9:32","granularity":"min","time":"2011/01/10 09:32:00 -0500"},"geo_score":0.902,"unit":61,"disposition":"200","cfs":14,"call#":11.000257,"id":"a64n4mvhnamv","geo_precision":"range","address":"82X Franklin St","state":"OH","juris":"PD"},"type":"Feature","geometry":{"type":"Point","coordinates":[-83.182978,41.117359]}},{"properties":{"officer":"RMN","city":"Tiffin","zip":"44883","date":{"end_time":"2011/06/27 23:51:00 -0400","original":"6/27/2011 23:50","granularity":"min","time":"2011/06/27 23:50:00 -0400"},"geo_score":0.902,"unit":62,"disposition":"200","cfs":14,"call#":11.006393,"id":"a64n4mssxaua","geo_precision":"range","address":"83 Charlotte St","state":"OH","juris":"PD"},"type":"Feature","geometry":{"type":"Point","coordinates":[-83.180544,41.110136]}},{"properties":{"officer":"DES","city":"Tiffin","zip":"44883","date":{"end_time":"2011/10/15 15:39:00 -0400","original":"10/15/2011 15:38","granularity":"min","time":"2011/10/15 15:38:00 -0400"},"geo_score":0.415,"unit":58,"disposition":"200","cfs":14,"call#":11.010787,"id":"a64n4mkmore9","geo_precision":"street","address":"84 Dallas St","state":"OH","juris":"PD"},"type":"Feature","geometry":{"type":"Point","coordinates":[-82.562576,41.384496]}},{"properties":{"officer":"BRB","city":"Tiffin","zip":"44883","date":{"end_time":"2011/05/22 14:02:00 -0400","original":"5/22/2011 14:01","granularity":"min","time":"2011/05/22 14:01:00 -0400"},"geo_score":0.415,"unit":63,"disposition":"200","cfs":14,"call#":11.004996,"id":"a64n4mqliaox","geo_precision":"street","address":"84 Dallas St","state":"OH","juris":"PD"},"type":"Feature","geometry":{"type":"Point","coordinates":[-82.562576,41.384496]}},{"properties":{"officer":"DES","city":"Tiffin","zip":"44883","date":{"end_time":"2011/07/23 12:57:00 -0400","original":"7/23/2011 12:56","granularity":"min","time":"2011/07/23 12:56:00 -0400"},"geo_score":0.902,"unit":58,"disposition":"200","cfs":14,"call#":11.007378,"id":"a64n4mmnrip1","geo_precision":"range","address":"84 Miami St","state":"OH","juris":"PD"},"type":"Feature","geometry":{"type":"Point","coordinates":[-83.182179,41.117839]}},{"properties":{"officer":"MEM","city":"Tiffin","zip":"44883","date":{"end_time":"2011/07/20 14:49:00 -0400","original":"7/20/2011 14:48","granularity":"min","time":"2011/07/20 14:48:00 -0400"},"geo_score":0.902,"unit":61,"disposition":"200","cfs":14,"call#":11.007258,"id":"a64n4mn9101l","geo_precision":"range","address":"84 Miami St","state":"OH","juris":"PD"},"type":"Feature","geometry":{"type":"Point","coordinates":[-83.182179,41.117839]}},{"properties":{"officer":"JAD","city":"Tiffin","zip":"44883","date":{"end_time":"2011/07/17 00:04:00 -0400","original":"7/17/2011 0:03","granularity":"min","time":"2011/07/17 00:03:00 -0400"},"geo_score":0.902,"unit":56,"disposition":"400","cfs":14,"call#":11.007154,"id":"a64n4mvdyceu","geo_precision":"range","address":"84 N Washington St","state":"OH","juris":"PD"},"type":"Feature","geometry":{"type":"Point","coordinates":[-83.177423,41.120102]}},{"properties":{"officer":"MEM","city":"Tiffin","zip":"44883","date":{"end_time":"2011/12/27 22:24:00 -0500","original":"12/27/2011 22:23","granularity":"min","time":"2011/12/27 22:23:00 -0500"},"geo_score":0.902,"unit":58,"disposition":"200","cfs":14,"call#":11.013643,"id":"a64n4mnrsi62","geo_precision":"range","address":"85 Oil St","state":"OH","juris":"PD"},"type":"Feature","geometry":{"type":"Point","coordinates":[-83.190222,41.112684]}},{"properties":{"officer":"SGN","city":"Tiffin","zip":"44883","date":{"end_time":"2011/06/14 13:47:00 -0400","original":"6/14/2011 13:46","granularity":"min","time":"2011/06/14 13:46:00 -0400"},"geo_score":0.902,"unit":59,"disposition":"400","cfs":14,"call#":11.005889,"id":"a64n4mypv42g","geo_precision":"range","address":"859 Miami St,34","state":"OH","juris":"PD"},"type":"Feature","geometry":{"type":"Point","coordinates":[-83.180394,41.117211]}},{"properties":{"officer":"JDW","city":"Tiffin","zip":"44883","date":{"end_time":"2011/09/07 12:24:00 -0400","original":"9/7/2011 12:23","granularity":"min","time":"2011/09/07 12:23:00 -0400"},"geo_score":0.902,"unit":60,"disposition":"200","cfs":14,"call#":11.009245,"id":"a64n4myaj9xx","geo_precision":"range","address":"859 Miami St,37","state":"OH","juris":"PD"},"type":"Feature","geometry":{"type":"Point","coordinates":[-83.180469,41.11725]}},{"properties":{"officer":"BRB","city":"Tiffin","zip":"44883","date":{"end_time":"2011/12/19 15:54:00 -0500","original":"12/19/2011 15:53","granularity":"min","time":"2011/12/19 15:53:00 -0500"},"geo_score":0.429,"unit":60,"disposition":"200","cfs":14,"call#":11.013384,"id":"a64n4mr0nfra","geo_precision":"street","address":"859 Miami St,O","state":"OH","juris":"PD"},"type":"Feature","geometry":{"type":"Point","coordinates":[-83.181876,41.117677]}},{"properties":{"officer":"MMS","city":"Tiffin","zip":"44883","date":{"end_time":"2011/09/26 13:10:00 -0400","original":"9/26/2011 13:09","granularity":"min","time":"2011/09/26 13:09:00 -0400"},"geo_score":0.429,"unit":63,"disposition":"200","cfs":14,"call#":11.010023,"id":"a64n4mpdr6bp","geo_precision":"street","address":"859 Miami St,O","state":"OH","juris":"PD"},"type":"Feature","geometry":{"type":"Point","coordinates":[-83.181876,41.117677]}},{"properties":{"officer":"SMM","city":"Tiffin","zip":"44883","date":{"end_time":"2011/12/21 03:45:00 -0500","original":"12/21/2011 3:44","granularity":"min","time":"2011/12/21 03:44:00 -0500"},"geo_score":0.902,"unit":58,"disposition":"200","cfs":14,"call#":11.013442,"id":"a64n4mt7jfos","geo_precision":"range","address":"87 Erie St","state":"OH","juris":"PD"},"type":"Feature","geometry":{"type":"Point","coordinates":[-83.174685,41.123166]}},{"properties":{"officer":"RJO","city":"Tiffin","zip":"44883","date":{"end_time":"2011/01/02 12:51:00 -0500","original":"1/2/2011 12:50","granularity":"min","time":"2011/01/02 12:50:00 -0500"},"geo_score":0.78,"unit":58,"disposition":"200","cfs":14,"call#":11.00006,"id":"a64n4mz2en42","geo_precision":"range","address":"870 W Market St","state":"OH","juris":"PD"},"type":"Feature","geometry":{"type":"Point","coordinates":[-83.207559,41.111141]}},{"properties":{"officer":"MEM","city":"Tiffin","zip":"44883","date":{"end_time":"2011/10/26 20:00:00 -0400","original":"10/26/2011 19:59","granularity":"min","time":"2011/10/26 19:59:00 -0400"},"geo_score":0.902,"unit":58,"disposition":"200","cfs":14,"call#":11.011183,"id":"a64n4myt9mbr","geo_precision":"range","address":"89X Jefferson St","state":"OH","juris":"PD"},"type":"Feature","geometry":{"type":"Point","coordinates":[-83.175026,41.115182]}},{"properties":{"officer":"FWS","city":"Tiffin","zip":"44883","date":{"end_time":"2011/04/11 13:36:00 -0400","original":"4/11/2011 13:35","granularity":"min","time":"2011/04/11 13:35:00 -0400"},"geo_score":0.902,"unit":60,"disposition":"200","cfs":14,"call#":11.003334,"id":"a64n4mvmubho","geo_precision":"range","address":"9 Ann St","state":"OH","juris":"PD"},"type":"Feature","geometry":{"type":"Point","coordinates":[-83.171374,41.112808]}},{"properties":{"officer":"SGN","city":"Tiffin","zip":"44883","date":{"end_time":"2011/09/17 23:21:00 -0400","original":"9/17/2011 23:20","granularity":"min","time":"2011/09/17 23:20:00 -0400"},"geo_score":0.902,"unit":244,"disposition":"100","cfs":14,"call#":11.009679,"id":"a64n4mm0awd9","geo_precision":"range","address":"90 S Washington St","state":"OH","juris":"PD"},"type":"Feature","geometry":{"type":"Point","coordinates":[-83.176636,41.114983]}},{"properties":{"officer":"SMM","city":"Tiffin","zip":"44883","date":{"end_time":"2011/04/26 21:36:00 -0400","original":"4/26/2011 21:35","granularity":"min","time":"2011/04/26 21:35:00 -0400"},"geo_score":0.902,"unit":60,"disposition":"200","cfs":14,"call#":11.003937,"id":"a64n4mp70utt","geo_precision":"range","address":"91 W Market St","state":"OH","juris":"PD"},"type":"Feature","geometry":{"type":"Point","coordinates":[-83.183459,41.113913]}},{"properties":{"officer":"MMS","city":"Tiffin","zip":"44883","date":{"end_time":"2011/12/11 01:13:00 -0500","original":"12/11/2011 1:12","granularity":"min","time":"2011/12/11 01:12:00 -0500"},"geo_score":0.902,"unit":59,"disposition":"CAN","cfs":14,"call#":11.013029,"id":"a64n4mv166mz","geo_precision":"range","address":"92 Madison St","state":"OH","juris":"PD"},"type":"Feature","geometry":{"type":"Point","coordinates":[-83.176333,41.113386]}},{"properties":{"officer":"RLT","city":"Tiffin","zip":"44883","date":{"end_time":"2011/10/16 01:01:00 -0400","original":"10/16/2011 1:00","granularity":"min","time":"2011/10/16 01:00:00 -0400"},"geo_score":0.902,"unit":62,"disposition":"200","cfs":14,"call#":11.010812,"id":"a64n4mmnptuh","geo_precision":"range","address":"92 Madison St","state":"OH","juris":"PD"},"type":"Feature","geometry":{"type":"Point","coordinates":[-83.176333,41.113386]}},{"properties":{"officer":"MEM","city":"Tiffin","zip":"44883","date":{"end_time":"2011/09/29 13:47:00 -0400","original":"9/29/2011 13:46","granularity":"min","time":"2011/09/29 13:46:00 -0400"},"geo_score":0.78,"unit":60,"disposition":"200","cfs":14,"call#":11.01014,"id":"a64n4mrum5p9","geo_precision":"range","address":"928 W Market St","state":"OH","juris":"PD"},"type":"Feature","geometry":{"type":"Point","coordinates":[-83.207604,41.111131]}},{"properties":{"officer":"JDW","city":"Tiffin","zip":"44883","date":{"end_time":"2011/08/17 16:37:00 -0400","original":"8/17/2011 16:36","granularity":"min","time":"2011/08/17 16:36:00 -0400"},"geo_score":0.902,"unit":60,"disposition":"200","cfs":14,"call#":11.008373,"id":"a64n4mwpw2lp","geo_precision":"range","address":"94 W Market St","state":"OH","juris":"PD"},"type":"Feature","geometry":{"type":"Point","coordinates":[-83.183702,41.113904]}},{"properties":{"officer":"BAR","city":"Tiffin","zip":"44883","date":{"end_time":"2011/08/11 21:04:00 -0400","original":"8/11/2011 21:03","granularity":"min","time":"2011/08/11 21:03:00 -0400"},"geo_score":0.902,"unit":57,"disposition":"200","cfs":14,"call#":11.008136,"id":"a64n4mp4ugok","geo_precision":"range","address":"94 W Market St","state":"OH","juris":"PD"},"type":"Feature","geometry":{"type":"Point","coordinates":[-83.183702,41.113904]}},{"properties":{"officer":"JDW","city":"Tiffin","zip":"44883","date":{"end_time":"2011/08/05 16:28:00 -0400","original":"8/5/2011 16:27","granularity":"min","time":"2011/08/05 16:27:00 -0400"},"geo_score":0.902,"unit":57,"disposition":"200","cfs":14,"call#":11.007913,"id":"a64n4mwsmjfo","geo_precision":"range","address":"94 W Market St","state":"OH","juris":"PD"},"type":"Feature","geometry":{"type":"Point","coordinates":[-83.183702,41.113904]}},{"properties":{"officer":"JMW","city":"Tiffin","zip":"44883","date":{"end_time":"2011/08/12 16:40:00 -0400","original":"8/12/2011 16:39","granularity":"min","time":"2011/08/12 16:39:00 -0400"},"geo_score":0.902,"unit":60,"disposition":"200","cfs":14,"call#":11.008167,"id":"a64n4mrbbun7","geo_precision":"range","address":"95 Hudson St","state":"OH","juris":"PD"},"type":"Feature","geometry":{"type":"Point","coordinates":[-83.18094,41.120111]}},{"properties":{"officer":"BAR","city":"Tiffin","zip":"44883","date":{"end_time":"2011/04/23 16:25:00 -0400","original":"4/23/2011 16:24","granularity":"min","time":"2011/04/23 16:24:00 -0400"},"geo_score":0.902,"unit":63,"disposition":"200","cfs":14,"call#":11.00381,"id":"a64n4mslxhn2","geo_precision":"range","address":"95 W Market St","state":"OH","juris":"PD"},"type":"Feature","geometry":{"type":"Point","coordinates":[-83.183702,41.113904]}},{"properties":{"officer":"MEM","city":"Tiffin","zip":"44883","date":{"end_time":"2011/08/22 21:05:00 -0400","original":"8/22/2011 21:04","granularity":"min","time":"2011/08/22 21:04:00 -0400"},"geo_score":0.756,"unit":58,"disposition":"200","cfs":14,"call#":11.008584,"id":"a64n4n04rv1z","geo_precision":"range","address":"97 First Av","state":"OH","juris":"PD"},"type":"Feature","geometry":{"type":"Point","coordinates":[-83.180681,41.127913]}},{"properties":{"officer":"JPF","city":"Tiffin","zip":"44883","date":{"end_time":"2011/12/01 20:31:00 -0500","original":"12/1/2011 20:30","granularity":"min","time":"2011/12/01 20:30:00 -0500"},"geo_score":0.902,"unit":59,"disposition":"200","cfs":14,"call#":11.012662,"id":"a64n4mrk37vb","geo_precision":"range","address":"97 W Market St","state":"OH","juris":"PD"},"type":"Feature","geometry":{"type":"Point","coordinates":[-83.183752,41.113898]}},{"properties":{"officer":"FWS","city":"Tiffin","zip":"44883","date":{"end_time":"2011/09/22 12:09:00 -0400","original":"9/22/2011 12:08","granularity":"min","time":"2011/09/22 12:08:00 -0400"},"geo_score":0.902,"unit":58,"disposition":"200","cfs":14,"call#":11.009845,"id":"a64n4mofegon","geo_precision":"range","address":"98X S Washington St","state":"OH","juris":"PD"},"type":"Feature","geometry":{"type":"Point","coordinates":[-83.176613,41.114784]}},{"properties":{"officer":"JAD","city":"Tiffin","zip":"44883","date":{"end_time":"2011/09/17 23:51:00 -0400","original":"9/17/2011 23:50","granularity":"min","time":"2011/09/17 23:50:00 -0400"},"geo_score":0.857,"unit":56,"disposition":"200","cfs":14,"call#":11.009685,"id":"a64n4mr9b8vs","geo_precision":"street","address":"E Perry St/S Washington St","state":"OH","juris":"PD"},"type":"Feature","geometry":{"type":"Point","coordinates":[-83.178368,41.11568]}},{"properties":{"officer":"JAD","city":"Tiffin","zip":"44883","date":{"end_time":"2011/08/07 05:20:00 -0400","original":"8/7/2011 5:19","granularity":"min","time":"2011/08/07 05:19:00 -0400"},"geo_score":0.857,"unit":56,"disposition":"200","cfs":14,"call#":11.00798,"id":"a64n4mprhelo","geo_precision":"street","address":"Martin St/W Market St","state":"OH","juris":"PD"},"type":"Feature","geometry":{"type":"Point","coordinates":[-83.189201,41.112873]}},{"properties":{"officer":"EDA","city":"Tiffin","zip":"44883","date":{"end_time":"2011/12/13 18:51:00 -0500","original":"12/13/2011 18:50","granularity":"min","time":"2011/12/13 18:50:00 -0500"},"geo_score":0.857,"unit":62,"disposition":"100","cfs":14,"call#":11.013147,"id":"a64n4mvl47xa","geo_precision":"street","address":"N Monroe St/Adams St","state":"OH","juris":"PD"},"type":"Feature","geometry":{"type":"Point","coordinates":[-83.178727,41.117967]}},{"properties":{"officer":"JAD","city":"Tiffin","zip":"44883","date":{"end_time":"2011/06/21 02:38:00 -0400","original":"6/21/2011 2:37","granularity":"min","time":"2011/06/21 02:37:00 -0400"},"geo_score":0.857,"unit":56,"disposition":"200","cfs":14,"call#":11.00615,"id":"a64n4mqkqzom","geo_precision":"street","address":"S Washington St/E Market St","state":"OH","juris":"PD"},"type":"Feature","geometry":{"type":"Point","coordinates":[-83.179559,41.114309]}},{"properties":{"officer":"JDW","city":"Tiffin","zip":"44883","date":{"end_time":"2011/03/09 12:07:00 -0500","original":"3/9/2011 12:06","granularity":"min","time":"2011/03/09 12:06:00 -0500"},"geo_score":0.857,"unit":63,"disposition":"200","cfs":14,"call#":11.002226,"id":"a64n4mkjnr83","geo_precision":"street","address":"S Washington St/E Market St","state":"OH","juris":"PD"},"type":"Feature","geometry":{"type":"Point","coordinates":[-83.179559,41.114309]}},{"properties":{"officer":"MEM","city":"Tiffin","zip":"44883","date":{"end_time":"2011/05/07 07:55:00 -0400","original":"5/7/2011 7:54","granularity":"min","time":"2011/05/07 07:54:00 -0400"},"geo_score":0.762,"unit":61,"disposition":"400","cfs":14,"call#":11.004396,"id":"a64n4mra3943","geo_precision":"street","address":"W Market St/Frost Py","state":"OH","juris":"PD"},"type":"Feature","geometry":{"type":"Point","coordinates":[-83.180549,41.115641]}},{"properties":{"officer":"JAD","city":"Tiffin","zip":"44883","date":{"end_time":"2011/10/09 03:30:00 -0400","original":"10/9/2011 3:29","granularity":"min","time":"2011/10/09 03:29:00 -0400"},"geo_score":0.762,"unit":56,"disposition":"200","cfs":14,"call#":11.010535,"id":"a64n4n0msk08","geo_precision":"street","address":"W Perry St/Frost Py","state":"OH","juris":"PD"},"type":"Feature","geometry":{"type":"Point","coordinates":[-83.180549,41.115641]}},{"properties":{"officer":"FWS","city":"Tiffin","zip":"44883","date":{"end_time":"2011/10/06 14:13:00 -0400","original":"10/6/2011 14:12","granularity":"min","time":"2011/10/06 14:12:00 -0400"},"geo_score":0.857,"unit":62,"disposition":"100","cfs":14,"call#":11.010415,"id":"a64n4mt1796d","geo_precision":"street","address":"W Perry St/Melissa St","state":"OH","juris":"PD"},"type":"Feature","geometry":{"type":"Point","coordinates":[-83.183601,41.115173]}}],"is_temporal":true,"author":{"url":"","metadata":"","contact_name":"","contact_address":"","source":"","contact_phone":""},"source":"","pagination":{"sort":null,"start":0,"total":288,"limit":1000000},"state":"complete","tags":"","published":"2014-08-15T04:07:20-04:00","id":219384}