{"type":"FeatureCollection","data_type":"Dataset","url_type":null,"permissions":[{"permissions":{"download":true,"view":true},"group_id":"everyone"}],"classification":null,"title":"smartUSA, smart car Dealer Locations, USA, 6.2008","count":69,"stream_id":2197,"contributor":{"url":"http://geocommons.com/users/139","name":"Burkey"},"data_attributes":null,"calculation_params":null,"icon_link":null,"link":"http://geocommons.com/overlays/2197.json","extent":[-122.772,25.7477,-71.0063,47.4581],"geometry_types":["point"],"unique_name":null,"name":"smartUSA, smart car Dealer Locations, USA, 6.2008","feature_count":69,"description":"This dataset displays all the smart car Dealer Locations throughout the USA as of 6.2008. The information includes; Dealer Name, Dealer Location, Dealer Phone, Dealer Website. The data comes from the website of smartUSA at  smartusa.com and the lat/lons were obtained by geocoding the location's street address.\n","next_feature":null,"is_raster":false,"short_classification":"Y","stats":{"lon":{"max":-71.006302,"mean":-90.8556439130434,"variance":286.554472121077,"stdev":16.927919899417,"min":-122.771575,"median":-83.309973},"zip":{"max":98188,"mean":47496.1594202899,"variance":1002913981.60656,"stdev":31668.8171804153,"min":1940,"median":37922},"lat":{"max":47.458103,"mean":37.0181691884058,"variance":26.8801594935234,"stdev":5.18460794019407,"min":25.747664,"median":38.596144}},"features":[{"properties":{"city":"Albuquerque","lon":-106.619476,"zip":87107,"dealer":"smart center Albuquerque","website":"www.smartcenteralbuquerque.com","phone":"505.999.2500","id":"a623dgj026c4","address":"1220 Renaissance NE","lat":35.134032,"state":"NM"},"type":"Feature","geometry":{"type":"Point","coordinates":[-106.619476,35.134032]}},{"properties":{"city":"Alexandria","lon":-77.083625,"zip":22302,"dealer":"smart center Alexandria","website":"www.smartcenteralexandria.com","phone":"703.998.5600","id":"a623dgk0s2q5","address":"1605 Fern St","lat":38.828314,"state":"VA"},"type":"Feature","geometry":{"type":"Point","coordinates":[-77.083625,38.828314]}},{"properties":{"city":"Annapolis","lon":-76.48544,"zip":21403,"dealer":"smart center Annapolis","website":"www.smartcenterannapolis.com","phone":"443.875.0477","id":"a623dgj3mfb4","address":"324 Sixth St","lat":38.97133,"state":"MD"},"type":"Feature","geometry":{"type":"Point","coordinates":[-76.48544,38.97133]}},{"properties":{"city":"Bedford","lon":-81.553353,"zip":44146,"dealer":"smart center Bedford","website":"www.smartcenterbedford.com","phone":"440.359.1560","id":"a623dgp9orep","address":"99 Broadway","lat":41.403415,"state":"OH"},"type":"Feature","geometry":{"type":"Point","coordinates":[-81.553353,41.403415]}},{"properties":{"city":"Beverly Hills","lon":-118.393856,"zip":90210,"dealer":"smart center Beverly Hills","website":"www.smartcenterbeverlyhills.com","phone":"310.860.4495","id":"a623dgtyfm4n","address":"9250 Beverly Blvd","lat":34.07703,"state":"CA"},"type":"Feature","geometry":{"type":"Point","coordinates":[-118.393856,34.07703]}},{"properties":{"city":"Bloomfield Hills","lon":-83.309973,"zip":48302,"dealer":"smart center Bloomfield","website":"www.smartcenterbloomfield.com","phone":"248.292.2044","id":"a623dgnbc43n","address":"1765 S Telegraph","lat":42.61458,"state":"MI"},"type":"Feature","geometry":{"type":"Point","coordinates":[-83.309973,42.61458]}},{"properties":{"city":"Bloomington","lon":-93.301516,"zip":55431,"dealer":"smart center Bloomington","website":"www.smartcenterbloomington.com","phone":"952.945.4200","id":"a623dgysg5b9","address":"8033 Knox Ave","lat":44.857919,"state":"MN"},"type":"Feature","geometry":{"type":"Point","coordinates":[-93.301516,44.857919]}},{"properties":{"city":"Somerville","lon":-71.088631,"zip":2145,"dealer":"smart center Boston","website":"www.smartcenterboston.com","phone":"617.591.2600","id":"a623dgrkh67m","address":"259 McGrath Hwy","lat":42.377552,"state":"MA"},"type":"Feature","geometry":{"type":"Point","coordinates":[-71.088631,42.377552]}},{"properties":{"city":"Atlanta","lon":-84.367851,"zip":30305,"dealer":"smart center Buckhead","website":"www.smartcenterbuckhead.com","phone":"404.846.3500","id":"a623dgtk3ve2","address":"2799 Piedmont Rd","lat":33.831059,"state":"GA"},"type":"Feature","geometry":{"type":"Point","coordinates":[-84.367851,33.831059]}},{"properties":{"city":"Williamsville","lon":-78.689079,"zip":14221,"dealer":"smart center Buffalo","website":"www.smartcenterbuffalo.com","phone":"716.633.0088","id":"a623dglh4brw","address":"8185 Main St","lat":42.964919,"state":"NY"},"type":"Feature","geometry":{"type":"Point","coordinates":[-78.689079,42.964919]}},{"properties":{"city":"Cary","lon":-78.813419,"zip":27511,"dealer":"smart center Cary","website":"www.smartcentercary.com","phone":"919.653.3330","id":"a623dgm4kuov","address":"2500 Auto Park Blvd","lat":35.73975,"state":"NC"},"type":"Feature","geometry":{"type":"Point","coordinates":[-78.813419,35.73975]}},{"properties":{"city":"Chandler","lon":-111.970319,"zip":85226,"dealer":"smart center Chandler","website":"www.smartcenterchandler.com","phone":"480.421.4300","id":"a623dgnuq7jz","address":"7450 W Orchid Ln","lat":33.323657,"state":"AZ"},"type":"Feature","geometry":{"type":"Point","coordinates":[-111.970319,33.323657]}},{"properties":{"city":"Charleston","lon":-80.005224,"zip":29407,"dealer":"smart center Charleston","website":"www.smartcentercharleston.com","phone":"843.852.4000","id":"a623dgn278g1","address":"1513 Savannah Hwy","lat":32.785281,"state":"SC"},"type":"Feature","geometry":{"type":"Point","coordinates":[-80.005224,32.785281]}},{"properties":{"city":"Cherry Hill","lon":-75.036003,"zip":8002,"dealer":"smart center Cherry Hill","website":"www.smartcentercherryhill.com","phone":"856.663.3200","id":"a623dgspdufm","address":"2151 Rte 70 W","lat":39.920096,"state":"NJ"},"type":"Feature","geometry":{"type":"Point","coordinates":[-75.036003,39.920096]}},{"properties":{"city":"Clearwater","lon":-82.730337,"zip":33764,"dealer":"smart center Clearwater","website":"www.smartcenterclearwater.com","phone":"727.530.1661","id":"a623dgmwkaoq","address":"19820 US 19 N","lat":27.952848,"state":"FL"},"type":"Feature","geometry":{"type":"Point","coordinates":[-82.730337,27.952848]}},{"properties":{"city":"Coral Gables","lon":-80.259965,"zip":33134,"dealer":"smart center Coral Gables","website":"www.smartcentercoralgables.com","phone":"305.567.3422","id":"a623dgraluvn","address":"272 Valencia Ave","lat":25.747664,"state":"FL"},"type":"Feature","geometry":{"type":"Point","coordinates":[-80.259965,25.747664]}},{"properties":{"city":"Creve Coeur","lon":-90.444424,"zip":63141,"dealer":"smart center Creve Coeur","website":"www.smartcentercrevecoeur.com","phone":"314.301.1700","id":"a623dgq8ioz4","address":"11830 Olive St Rd","lat":38.670785,"state":"MO"},"type":"Feature","geometry":{"type":"Point","coordinates":[-90.444424,38.670785]}},{"properties":{"city":"Dallas","lon":-96.829062,"zip":75209,"dealer":"smart center Dallas","website":"www.smartcenterdallas.com","phone":"214.224.7200","id":"a623dgovex2k","address":"6113 Lemmon Ave","lat":32.832812,"state":"TX"},"type":"Feature","geometry":{"type":"Point","coordinates":[-96.829062,32.832812]}},{"properties":{"city":"Englewood","lon":-104.987804,"zip":80113,"dealer":"smart center Denver","website":"www.smartcenterdenver.com","phone":"303.597.6278","id":"a623dgsbshjt","address":"2855 S Broadway","lat":39.664893,"state":"CO"},"type":"Feature","geometry":{"type":"Point","coordinates":[-104.987804,39.664893]}},{"properties":{"city":"Devon","lon":-75.425045,"zip":19333,"dealer":"smart center Devon","website":"www.smartcenterenglewood.com","phone":"610.848.7627","id":"a623dgx6v54r","address":"215 W Lancaster Ave","lat":40.045289,"state":"PA"},"type":"Feature","geometry":{"type":"Point","coordinates":[-75.425045,40.045289]}},{"properties":{"city":"Columbus","lon":-82.918167,"zip":43219,"dealer":"smart center Easton","website":"www.smartcentereaston.com","phone":"614.291.2007","id":"a623dgq101qw","address":"4300 Morse Crossing","lat":40.056782,"state":"OH"},"type":"Feature","geometry":{"type":"Point","coordinates":[-82.918167,40.056782]}},{"properties":{"city":"Edison","lon":-74.372749,"zip":8817,"dealer":"smart center Edison","website":"www.smartcenteredison.com","phone":"732.549.6601","id":"a623dgqf9o4x","address":"910 US Rte 1","lat":40.515949,"state":"NJ"},"type":"Feature","geometry":{"type":"Point","coordinates":[-74.372749,40.515949]}},{"properties":{"city":"Englewood","lon":-73.973618,"zip":7631,"dealer":"smart center Englewood","website":"www.smartcenterenglewood.com","phone":"888.211.8045","id":"a623dgywx4u3","address":"24 Grand Ave","lat":40.892086,"state":"NJ"},"type":"Feature","geometry":{"type":"Point","coordinates":[-73.973618,40.892086]}},{"properties":{"city":"Fairfield","lon":-122.133011,"zip":6825,"dealer":"smart center Fairfield","website":"www.smartcenterfairfield.com","phone":"203.336.7285","id":"a623dgxp4np7","address":"80 Commerce Dr","lat":38.21785,"state":"CT"},"type":"Feature","geometry":{"type":"Point","coordinates":[-122.133011,38.21785]}},{"properties":{"city":"Germantown","lon":-77.264574,"zip":20874,"dealer":"smart center Germantown","website":"www.smartcentergermantown.com","phone":"301.601.5500","id":"a623dgvy6cxd","address":"19750 Germantown Rd","lat":39.18041,"state":"MD"},"type":"Feature","geometry":{"type":"Point","coordinates":[-77.264574,39.18041]}},{"properties":{"city":"East Hartford","lon":-72.657635,"zip":6108,"dealer":"smart center Hartford","website":"www.smartcenterhartford.com","phone":"860.290.5500","id":"a623dgox9bap","address":"650 Connecticut Blvd","lat":41.769519,"state":"CT"},"type":"Feature","geometry":{"type":"Point","coordinates":[-72.657635,41.769519]}},{"properties":{"city":"Houston","lon":-95.428365,"zip":77090,"dealer":"smart center Houston North","website":"www.smartcenterhoustonnorth.com","phone":"281.233.6044","id":"a623dgnfez0c","address":"17510 I 45 N","lat":30.023048,"state":"TX"},"type":"Feature","geometry":{"type":"Point","coordinates":[-95.428365,30.023048]}},{"properties":{"city":"Indianapolis","lon":-86.104478,"zip":46240,"dealer":"smart center Indianapolis","website":"www.smartcenterindianapolis.com","phone":"317.580.6801","id":"a623dgl0541c","address":"4000 E 96th St","lat":39.927025,"state":"IN"},"type":"Feature","geometry":{"type":"Point","coordinates":[-86.104478,39.927025]}},{"properties":{"city":"Jacksonville","lon":-81.737109,"zip":32244,"dealer":"smart center Jacksonville","website":"www.smartcenterjacksonville.com","phone":"904.253.7300","id":"a623dgnqjc1j","address":"7018 Blanding Blvd","lat":30.220804,"state":"FL"},"type":"Feature","geometry":{"type":"Point","coordinates":[-81.737109,30.220804]}},{"properties":{"city":"Knoxville","lon":-84.123871,"zip":37922,"dealer":"smart center Knoxville","website":"www.smartcenterknoxville.com","phone":"865.777.2222","id":"a623dgqeun94","address":"10131 Parkside Dr","lat":35.90872,"state":"TN"},"type":"Feature","geometry":{"type":"Point","coordinates":[-84.123871,35.90872]}},{"properties":{"city":"LaVista","lon":-96.107297,"zip":68128,"dealer":"smart center La Vista","website":"www.smartcenterlavista.com","phone":"402.339.3131","id":"a623dgp9msqv","address":"7010 S 124th Circle","lat":41.189775,"state":"NE"},"type":"Feature","geometry":{"type":"Point","coordinates":[-96.107297,41.189775]}},{"properties":{"city":"Laguna Niguel","lon":-117.675471,"zip":92677,"dealer":"smart center Laguna Niguel","website":"www.smartcenterlagunaniguel.com","phone":"949.347.smart","id":"a623dgqkkgu0","address":"1 Star Dr","lat":33.545641,"state":"CA"},"type":"Feature","geometry":{"type":"Point","coordinates":[-117.675471,33.545641]}},{"properties":{"city":"Lake Bluff","lon":-87.8778,"zip":60044,"dealer":"smart center Lake Bluff","website":"www.smartcenterlakebluff.com","phone":"847.234.2800","id":"a623dgt0pyp0","address":"775 Rockland Rd","lat":42.279859,"state":"IL"},"type":"Feature","geometry":{"type":"Point","coordinates":[-87.8778,42.279859]}},{"properties":{"city":"Latham","lon":-73.814254,"zip":12110,"dealer":"smart center Latham","website":"www.smartcenterlatham.com","phone":"518.785.4197","id":"a623dgtyh95a","address":"1111 Troy Schenectady Rd","lat":42.766655,"state":"NY"},"type":"Feature","geometry":{"type":"Point","coordinates":[-73.814254,42.766655]}},{"properties":{"city":"Lincolnwood","lon":-87.73499,"zip":60712,"dealer":"smart center Lincolnwood","website":"www.smartcenterlincolnwood.com","phone":"847.675.1000","id":"a623dgwtsudj","address":"4255 W Touhy Ave","lat":42.011622,"state":"IL"},"type":"Feature","geometry":{"type":"Point","coordinates":[-87.73499,42.011622]}},{"properties":{"city":"Lindon","lon":-111.730859,"zip":84042,"dealer":"smart center Lindon","website":"www.smartcenterlindon.com","phone":"801.222.4400","id":"a623dgvudd6x","address":"530 S Lindon Park Dr","lat":40.327632,"state":"UT"},"type":"Feature","geometry":{"type":"Point","coordinates":[-111.730859,40.327632]}},{"properties":{"city":"Louisville","lon":-85.537658,"zip":40299,"dealer":"smart center Louisville","website":"www.smartcenterlouisville.com","phone":"502.499.4530","id":"a623dgiz3t0w","address":"2400 Blankenbaker Pkwy","lat":38.202076,"state":"KY"},"type":"Feature","geometry":{"type":"Point","coordinates":[-85.537658,38.202076]}},{"properties":{"city":"Lynnfield","lon":-71.006302,"zip":1940,"dealer":"smart center Lynnfield","website":"www.smartcenterlynnfield.com","phone":"781.346.6222","id":"a623dgvxkjog","address":"385 Broadway","lat":42.512272,"state":"MA"},"type":"Feature","geometry":{"type":"Point","coordinates":[-71.006302,42.512272]}},{"properties":{"city":"New York","lon":-73.997345,"zip":10036,"dealer":"smart center Manhattan","website":"www.smartcentermanhattan.com","phone":"212.629.1639","id":"a623dgus5tb6","address":"536 W 41 St","lat":40.759382,"state":"NY"},"type":"Feature","geometry":{"type":"Point","coordinates":[-73.997345,40.759382]}},{"properties":{"city":"Merriam","lon":-94.695201,"zip":66203,"dealer":"smart center Merriam","website":"www.smartcentermerriam.com","phone":"913.677.3300","id":"a623dgtc7kka","address":"9400 W 65th St","lat":39.011383,"state":"KS"},"type":"Feature","geometry":{"type":"Point","coordinates":[-94.695201,39.011383]}},{"properties":{"city":"Milwaukee","lon":-88.049547,"zip":53224,"dealer":"smart center Milwaukee","website":"www.smartcentermilwaukee.com","phone":"414.434.8800","id":"a623dgugi8pu","address":"11340 W Metro Blvd","lat":43.14466,"state":"WI"},"type":"Feature","geometry":{"type":"Point","coordinates":[-88.049547,43.14466]}},{"properties":{"city":"Orlando","lon":-81.42988,"zip":32819,"dealer":"smart center Orlando","website":"www.smartcenterorlando.com","phone":"407.992.3250","id":"a623dgsg5nm3","address":"8675 Commodity Circle","lat":28.446691,"state":"FL"},"type":"Feature","geometry":{"type":"Point","coordinates":[-81.42988,28.446691]}},{"properties":{"city":"West Palm Beach","lon":-80.104288,"zip":33409,"dealer":"smart center Palm Beach","website":"www.smartcenterpalmbeach.com","phone":"561.471.7664","id":"a623dgojjsfj","address":"3974 Okeechobee Blvd","lat":26.706653,"state":"FL"},"type":"Feature","geometry":{"type":"Point","coordinates":[-80.104288,26.706653]}},{"properties":{"city":"Pittsburgh","lon":-79.949753,"zip":15213,"dealer":"smart center Pittsburgh","website":"www.smartcenterpittsburgh.com","phone":"412.683.5000","id":"a623dgjsrkgm","address":"4709 Baum Blvd","lat":40.454165,"state":"PA"},"type":"Feature","geometry":{"type":"Point","coordinates":[-79.949753,40.454165]}},{"properties":{"city":"Portland","lon":-122.771575,"zip":97225,"dealer":"smart center Portland","website":"www.smartcenterportland.com","phone":"503.200.5200","id":"a623dgrznoge","address":"9215 SW Canyon Rd","lat":45.495876,"state":"OR"},"type":"Feature","geometry":{"type":"Point","coordinates":[-122.771575,45.495876]}},{"properties":{"city":"Riverside","lon":-117.423172,"zip":92504,"dealer":"smart center Riverside","website":"www.smartcenterriverside.com","phone":"951.688.3332","id":"a623dglhmoqb","address":"8505 Indiana Ave","lat":33.924645,"state":"CA"},"type":"Feature","geometry":{"type":"Point","coordinates":[-117.423172,33.924645]}},{"properties":{"city":"Roslyn","lon":-73.641798,"zip":11576,"dealer":"smart center Roslyn","website":"www.smartcenterroslyn.com","phone":"516.801.8800","id":"a623dgkx37e1","address":"1600 Northern Blvd","lat":40.804861,"state":"NY"},"type":"Feature","geometry":{"type":"Point","coordinates":[-73.641798,40.804861]}},{"properties":{"city":"Round Rock","lon":-97.689474,"zip":78664,"dealer":"smart center Round Rock","website":"www.smartcenterroundrock.com","phone":"512.493.9000","id":"a623dgn78q7y","address":"2132 North Mays","lat":30.531191,"state":"TX"},"type":"Feature","geometry":{"type":"Point","coordinates":[-97.689474,30.531191]}},{"properties":{"city":"Sacramento","lon":-121.400301,"zip":95825,"dealer":"smart center Sacramento","website":"www.smartcentersacramento.com","phone":"916.484.5994","id":"a623dgvm3mvj","address":"2625 Arden Way","lat":38.596144,"state":"CA"},"type":"Feature","geometry":{"type":"Point","coordinates":[-121.400301,38.596144]}},{"properties":{"city":"San Antonio","lon":-98.572885,"zip":78230,"dealer":"smart center San Antonio","website":"www.smartcentersanantonio.com","phone":"210.558.2650","id":"a623dgnv2yev","address":"10739 IH 10 West","lat":29.541446,"state":"TX"},"type":"Feature","geometry":{"type":"Point","coordinates":[-98.572885,29.541446]}},{"properties":{"city":"San Diego","lon":-117.146137,"zip":92111,"dealer":"smart center San Diego","website":"www.smartcentersandiego.com","phone":"858.430.2301","id":"a623dgw0glmt","address":"4750 Kearny Mesa Rd","lat":32.824721,"state":"CA"},"type":"Feature","geometry":{"type":"Point","coordinates":[-117.146137,32.824721]}},{"properties":{"city":"San Francisco","lon":-122.406966,"zip":94103,"dealer":"smart center San Francisco","website":"www.smartcentersanfrancisco.com","phone":"415.553.4280","id":"a623dgu7h6h8","address":"500 8th St","lat":37.772407,"state":"CA"},"type":"Feature","geometry":{"type":"Point","coordinates":[-122.406966,37.772407]}},{"properties":{"city":"San Jose","lon":-121.971207,"zip":95129,"dealer":"smart center San Jose","website":"www.smartcentersanjose.com","phone":"408.247.9034","id":"a623dgwyfx09","address":"3940 Stevens Creek Blvd","lat":37.32304,"state":"CA"},"type":"Feature","geometry":{"type":"Point","coordinates":[-121.971207,37.32304]}},{"properties":{"city":"Santa Barbara","lon":-119.747155,"zip":93105,"dealer":"smart center Santa Barbara","website":"www.smartcentersantabarbara.com","phone":"805.682.2000","id":"a623dglb50oq","address":"401 S Hope Ave","lat":34.435332,"state":"CA"},"type":"Feature","geometry":{"type":"Point","coordinates":[-119.747155,34.435332]}},{"properties":{"city":"Sarasota","lon":-82.472251,"zip":34233,"dealer":"smart center Sarasota","website":"www.smartcentersarasota.com","phone":"941.924.3019","id":"a623dgn1so1w","address":"4821 Clark Rd","lat":27.269376,"state":"FL"},"type":"Feature","geometry":{"type":"Point","coordinates":[-82.472251,27.269376]}},{"properties":{"city":"Seattle","lon":-122.253717,"zip":98188,"dealer":"smart center Seattle","website":"www.smartcenterseattle.com","phone":"206.243.1455","id":"a623dgoit7dj","address":"311 Baker Blvd","lat":47.458103,"state":"WA"},"type":"Feature","geometry":{"type":"Point","coordinates":[-122.253717,47.458103]}},{"properties":{"city":"St. James","lon":-73.162599,"zip":11780,"dealer":"smart center Smithtown","website":"www.smartcentersmithtown.com","phone":"631.361.4500","id":"a623dgmjt0vj","address":"463 Middle Country Rd","lat":40.859126,"state":"NY"},"type":"Feature","geometry":{"type":"Point","coordinates":[-73.162599,40.859126]}},{"properties":{"city":"Pineville","lon":-80.884365,"zip":28134,"dealer":"smart center South Charlotte","website":"www.smartcentersouthcharlotte.com","phone":"704.889.4555","id":"a623dgv4f3o5","address":"950 N Polk St","lat":35.092976,"state":"NC"},"type":"Feature","geometry":{"type":"Point","coordinates":[-80.884365,35.092976]}},{"properties":{"city":"Sugar Land","lon":-95.61416,"zip":77478,"dealer":"smart center Sugar Land","website":"www.smartcentersuagarland.com","phone":"281.207.3888","id":"a623dgqs61g1","address":"15625 SW Freeway","lat":29.605582,"state":"TX"},"type":"Feature","geometry":{"type":"Point","coordinates":[-95.61416,29.605582]}},{"properties":{"city":"Tampa","lon":-82.506632,"zip":33614,"dealer":"smart center Tampa Bay","website":"www.smartcentertampa.com","phone":"813.712.2777","id":"a623dgo62b40","address":"3800 W Hillsborough Ave","lat":27.995912,"state":"FL"},"type":"Feature","geometry":{"type":"Point","coordinates":[-82.506632,27.995912]}},{"properties":{"city":"Tulsa","lon":-95.8862,"zip":74133,"dealer":"smart center Tulsa","website":"www.smartcentertulsa.com","phone":"918.249.9393","id":"a623dgsnbndw","address":"9393 S Memorial","lat":36.027289,"state":"OK"},"type":"Feature","geometry":{"type":"Point","coordinates":[-95.8862,36.027289]}},{"properties":{"city":"Vienna","lon":-77.243503,"zip":22182,"dealer":"smart center Tysons Corner","website":"www.smartcentertysonscorner.com","phone":"703.442.8200","id":"a623dguby496","address":"8601 Westwood Center Dr","lat":38.929502,"state":"VA"},"type":"Feature","geometry":{"type":"Point","coordinates":[-77.243503,38.929502]}},{"properties":{"city":"North Hollywood","lon":-118.363695,"zip":91603,"dealer":"smart center Universal City","website":"www.smartcenteruniversal.com","phone":"818.762.7875","id":"a623dgizo7il","address":"4227 Lankershim Blvd","lat":34.146519,"state":"CA"},"type":"Feature","geometry":{"type":"Point","coordinates":[-118.363695,34.146519]}},{"properties":{"city":"Virginia Beach","lon":-76.16042,"zip":23462,"dealer":"smart center Virginia Beach","website":"www.smartcentervirginiabeach.com","phone":"757.490.1111","id":"a623dgmy7jwr","address":"5193 Virginia Beach Blvd","lat":36.847001,"state":"VA"},"type":"Feature","geometry":{"type":"Point","coordinates":[-76.16042,36.847001]}},{"properties":{"city":"Warwick","lon":-71.497513,"zip":2886,"dealer":"smart center Warwick","website":"www.smartcenterwarwick.com","phone":"401.821.1510","id":"a623dgq9bp0s","address":"1557 Bald Hill Rd","lat":41.696887,"state":"RI"},"type":"Feature","geometry":{"type":"Point","coordinates":[-71.497513,41.696887]}},{"properties":{"city":"West Covina","lon":-117.902797,"zip":91791,"dealer":"smart center West Covina","website":"www.smartcenterwestcovina.com","phone":"626.430.3700","id":"a623dgyw1la5","address":"2010 E Garvey Ave S","lat":34.07164,"state":"CA"},"type":"Feature","geometry":{"type":"Point","coordinates":[-117.902797,34.07164]}},{"properties":{"city":"Davie","lon":-80.362666,"zip":33331,"dealer":"smart center Weston","website":"www.smartcenterweston.com","phone":"954.903.5311","id":"a623dgq40vit","address":"3500 Weston Rd","lat":26.077399,"state":"FL"},"type":"Feature","geometry":{"type":"Point","coordinates":[-80.362666,26.077399]}},{"properties":{"city":"White Plains","lon":-73.799677,"zip":10607,"dealer":"smart center White Plains","website":"www.smartcenterwhiteplains.com","phone":"914.328.6200","id":"a623dgmzkclm","address":"460 Tarrytown Rd","lat":41.043308,"state":"NY"},"type":"Feature","geometry":{"type":"Point","coordinates":[-73.799677,41.043308]}},{"properties":{"city":"Winston-Salem","lon":-80.339941,"zip":27103,"dealer":"smart center Winston-Salem","website":"www.smartcenterwinston-salem.com","phone":"336.760.4580","id":"a623dgv6oxqh","address":"691 Jonestown Rd","lat":36.069507,"state":"NC"},"type":"Feature","geometry":{"type":"Point","coordinates":[-80.339941,36.069507]}}],"is_temporal":false,"author":{"url":"http://www.smartusa.com/smart-usa-find-a-dealer.aspx","metadata":"","contact_name":"","contact_address":"","source":"smartUSA","contact_phone":""},"source":"http://www.smartusa.com/smart-usa-find-a-dealer.aspx","pagination":{"sort":null,"start":0,"total":69,"limit":1000000},"state":"complete","tags":"car,commute,smart,smartusa,transportation,travel,usa,vehicle","published":"2008-06-19T12:00:00Z","id":2197}