{"type":"FeatureCollection","data_type":"Dataset","url_type":null,"permissions":[{"permissions":{"download":true,"view":true},"group_id":"everyone"}],"classification":null,"title":"vandalism damage mischeif 2011","count":270,"stream_id":219830,"contributor":{"url":"http://geocommons.com/users/42302","name":"hillproject"},"data_attributes":null,"calculation_params":null,"icon_link":null,"link":"http://geocommons.com/overlays/219830.json","extent":[-83.4356,41.0294,-82.6051,41.4553],"geometry_types":["point"],"unique_name":null,"name":"vandalism damage mischeif 2011","feature_count":270,"description":"","next_feature":null,"is_raster":false,"short_classification":"Y","stats":{"date":{"max":"2011/12/30 23:56:00 -0500","mean":"2011/07/09 15:50:38 -0400","variance":61259769418087.5,"stdev":7826862.04159033,"min":"2011/01/14 12:06:00 -0500","median":"2011/06/30 17:37:00 -0400"},"unit":{"max":1081,"mean":63.5485074626866,"variance":3896.578162558,"stdev":62.4225773463256,"min":56,"median":60},"cfs":{"max":9,"mean":9.0,"variance":0.0,"stdev":0.0,"min":9,"median":9},"call#":{"max":11.013735,"mean":11.0069003407407,"variance":1.25682334819771e-05,"stdev":0.00354517044470038,"min":11.00037,"median":11.006505}},"features":[{"properties":{"officer":"BAR","city":"Tiffin","zip":"44883","date":{"end_time":"2011/06/03 17:18:00 -0400","original":"6/3/2011 17:17","granularity":"min","time":"2011/06/03 17:17:00 -0400"},"geo_score":0.835,"unit":63,"disposition":"200","cfs":9,"call#":11.005466,"id":"a633wni4d9i3","geo_precision":"range","address":"1 Beechwood Park","state":"OH","juris":"PD"},"type":"Feature","geometry":{"type":"Point","coordinates":[-83.199876,41.115392]}},{"properties":{"officer":"SGN","city":"Tiffin","zip":"44883","date":{"end_time":"2011/04/12 08:17:00 -0400","original":"4/12/2011 8:16","granularity":"min","time":"2011/04/12 08:16:00 -0400"},"geo_score":0.683,"unit":59,"disposition":"200","cfs":9,"call#":11.003363,"id":"a633wnwgy1cv","geo_precision":"range","address":"1 City Lot 6","state":"OH","juris":"PD"},"type":"Feature","geometry":{"type":"Point","coordinates":[-83.17022,41.029424]}},{"properties":{"officer":"JSC","city":"Tiffin","zip":"44883","date":{"end_time":"2011/07/23 18:56:00 -0400","original":"7/23/2011 18:55","granularity":"min","time":"2011/07/23 18:55:00 -0400"},"geo_score":0.87,"unit":57,"disposition":"200","cfs":9,"call#":11.007387,"id":"a633wnlbeuz2","geo_precision":"range","address":"1 Colony Av","state":"OH","juris":"PD"},"type":"Feature","geometry":{"type":"Point","coordinates":[-83.187743,41.114477]}},{"properties":{"officer":"BRB","city":"Tiffin","zip":"44883","date":{"end_time":"2011/08/07 16:12:00 -0400","original":"8/7/2011 16:11","granularity":"min","time":"2011/08/07 16:11:00 -0400"},"geo_score":0.637,"unit":57,"disposition":"100","cfs":9,"call#":11.007989,"id":"a633wns6cn9e","geo_precision":"street","address":"1 Highland Park","state":"OH","juris":"PD"},"type":"Feature","geometry":{"type":"Point","coordinates":[-83.176302,41.133976]}},{"properties":{"officer":"RJO","city":"Tiffin","zip":"44883","date":{"end_time":"2011/05/06 11:41:00 -0400","original":"5/6/2011 11:40","granularity":"min","time":"2011/05/06 11:40:00 -0400"},"geo_score":0.637,"unit":60,"disposition":"200","cfs":9,"call#":11.004357,"id":"a633wnitj3r4","geo_precision":"street","address":"1 Highland Park","state":"OH","juris":"PD"},"type":"Feature","geometry":{"type":"Point","coordinates":[-83.176302,41.133976]}},{"properties":{"officer":"FWS","city":"Tiffin","zip":"44883","date":{"end_time":"2011/03/10 12:42:00 -0500","original":"3/10/2011 12:41","granularity":"min","time":"2011/03/10 12:41:00 -0500"},"geo_score":0.902,"unit":58,"disposition":"200","cfs":9,"call#":11.002248,"id":"a633wnoiq8mz","geo_precision":"range","address":"10 Main St","state":"OH","juris":"PD"},"type":"Feature","geometry":{"type":"Point","coordinates":[-83.17443,41.111466]}},{"properties":{"officer":"BRB","city":"Tiffin","zip":"44883","date":{"end_time":"2011/06/24 11:43:00 -0400","original":"6/24/2011 11:42","granularity":"min","time":"2011/06/24 11:42:00 -0400"},"geo_score":0.902,"unit":63,"disposition":"200","cfs":9,"call#":11.006254,"id":"a633wnim77b7","geo_precision":"range","address":"101 Minerva St","state":"OH","juris":"PD"},"type":"Feature","geometry":{"type":"Point","coordinates":[-83.176283,41.123059]}},{"properties":{"officer":"RJO","city":"Tiffin","zip":"44883","date":{"end_time":"2011/03/12 14:21:00 -0500","original":"3/12/2011 14:20","granularity":"min","time":"2011/03/12 14:20:00 -0500"},"geo_score":0.902,"unit":60,"disposition":"100","cfs":9,"call#":11.002328,"id":"a633wnsqw67b","geo_precision":"range","address":"103 E Perry St","state":"OH","juris":"PD"},"type":"Feature","geometry":{"type":"Point","coordinates":[-83.176291,41.115884]}},{"properties":{"officer":"JSC","city":"Tiffin","zip":"44883","date":{"end_time":"2011/04/19 20:13:00 -0400","original":"4/19/2011 20:12","granularity":"min","time":"2011/04/19 20:12:00 -0400"},"geo_score":0.902,"unit":59,"disposition":"200","cfs":9,"call#":11.00366,"id":"a633wnsdnuvj","geo_precision":"range","address":"104 E Market St","state":"OH","juris":"PD"},"type":"Feature","geometry":{"type":"Point","coordinates":[-83.176392,41.114606]}},{"properties":{"officer":"RLT","city":"Tiffin","zip":"44883","date":{"end_time":"2011/07/01 03:57:00 -0400","original":"7/1/2011 3:56","granularity":"min","time":"2011/07/01 03:56:00 -0400"},"geo_score":0.902,"unit":62,"disposition":"200","cfs":9,"call#":11.006534,"id":"a633wnlghbaz","geo_precision":"range","address":"104 Liberty St","state":"OH","juris":"PD"},"type":"Feature","geometry":{"type":"Point","coordinates":[-83.171884,41.116982]}},{"properties":{"officer":"EDA","city":"Tiffin","zip":"44883","date":{"end_time":"2011/08/13 12:59:00 -0400","original":"8/13/2011 12:58","granularity":"min","time":"2011/08/13 12:58:00 -0400"},"geo_score":0.902,"unit":60,"disposition":"200","cfs":9,"call#":11.008211,"id":"a633wnslj2m5","geo_precision":"range","address":"104 Walker St","state":"OH","juris":"PD"},"type":"Feature","geometry":{"type":"Point","coordinates":[-83.169223,41.110946]}},{"properties":{"officer":"FWS","city":"Tiffin","zip":"44883","date":{"end_time":"2011/11/15 08:25:00 -0500","original":"11/15/2011 8:24","granularity":"min","time":"2011/11/15 08:24:00 -0500"},"geo_score":0.902,"unit":58,"disposition":"200","cfs":9,"call#":11.011982,"id":"a633wnq1v01y","geo_precision":"range","address":"105 Madison St","state":"OH","juris":"PD"},"type":"Feature","geometry":{"type":"Point","coordinates":[-83.176039,41.113418]}},{"properties":{"officer":"BAR","city":"Tiffin","zip":"44883","date":{"end_time":"2011/11/20 16:51:00 -0500","original":"11/20/2011 16:50","granularity":"min","time":"2011/11/20 16:50:00 -0500"},"geo_score":0.756,"unit":63,"disposition":"200","cfs":9,"call#":11.012193,"id":"a633wnmtef51","geo_precision":"range","address":"107 First Av","state":"OH","juris":"PD"},"type":"Feature","geometry":{"type":"Point","coordinates":[-83.180927,41.12791]}},{"properties":{"officer":"MMS","city":"Tiffin","zip":"44883","date":{"end_time":"2011/08/29 22:00:00 -0400","original":"8/29/2011 21:59","granularity":"min","time":"2011/08/29 21:59:00 -0400"},"geo_score":0.902,"unit":63,"disposition":"400","cfs":9,"call#":11.008873,"id":"a633wniptbry","geo_precision":"range","address":"107 Frost Pkwy","state":"OH","juris":"PD"},"type":"Feature","geometry":{"type":"Point","coordinates":[-83.179348,41.116848]}},{"properties":{"officer":"GTM","city":"Tiffin","zip":"44883","date":{"end_time":"2011/06/28 14:34:00 -0400","original":"6/28/2011 14:33","granularity":"min","time":"2011/06/28 14:33:00 -0400"},"geo_score":0.873,"unit":61,"disposition":"200","cfs":9,"call#":11.006412,"id":"a633wnhp1txn","geo_precision":"range","address":"107X Clinton Av","state":"OH","juris":"PD"},"type":"Feature","geometry":{"type":"Point","coordinates":[-83.170006,41.119587]}},{"properties":{"officer":"GTM","city":"Tiffin","zip":"44883","date":{"end_time":"2011/04/12 09:20:00 -0400","original":"4/12/2011 9:19","granularity":"min","time":"2011/04/12 09:19:00 -0400"},"geo_score":0.902,"unit":57,"disposition":"200","cfs":9,"call#":11.003366,"id":"a633wnpe4anw","geo_precision":"range","address":"111 N Washington St","state":"OH","juris":"PD"},"type":"Feature","geometry":{"type":"Point","coordinates":[-83.177562,41.120903]}},{"properties":{"officer":"SMM","city":"Tiffin","zip":"44883","date":{"end_time":"2011/06/15 01:37:00 -0400","original":"6/15/2011 1:36","granularity":"min","time":"2011/06/15 01:36:00 -0400"},"geo_score":0.902,"unit":60,"disposition":"200","cfs":9,"call#":11.005912,"id":"a633wnod6zqd","geo_precision":"range","address":"115 N Washington St","state":"OH","juris":"PD"},"type":"Feature","geometry":{"type":"Point","coordinates":[-83.177575,41.121015]}},{"properties":{"officer":"BRB","city":"Tiffin","zip":"44883","date":{"end_time":"2011/04/12 09:51:00 -0400","original":"4/12/2011 9:50","granularity":"min","time":"2011/04/12 09:50:00 -0400"},"geo_score":0.902,"unit":63,"disposition":"200","cfs":9,"call#":11.00337,"id":"a633wnmnavsv","geo_precision":"range","address":"115 N Washington St","state":"OH","juris":"PD"},"type":"Feature","geometry":{"type":"Point","coordinates":[-83.177575,41.121015]}},{"properties":{"officer":"MEM","city":"Tiffin","zip":"44883","date":{"end_time":"2011/08/10 19:40:00 -0400","original":"8/10/2011 19:39","granularity":"min","time":"2011/08/10 19:39:00 -0400"},"geo_score":0.902,"unit":57,"disposition":"200","cfs":9,"call#":11.008093,"id":"a633wnlfvw1j","geo_precision":"range","address":"115X W Perry St","state":"OH","juris":"PD"},"type":"Feature","geometry":{"type":"Point","coordinates":[-83.184438,41.115091]}},{"properties":{"officer":"SGN","city":"Tiffin","zip":"44883","date":{"end_time":"2011/03/16 16:15:00 -0400","original":"3/16/2011 16:14","granularity":"min","time":"2011/03/16 16:14:00 -0400"},"geo_score":0.902,"unit":59,"disposition":"200","cfs":9,"call#":11.002425,"id":"a633wno81i3e","geo_precision":"range","address":"120 Union St","state":"OH","juris":"PD"},"type":"Feature","geometry":{"type":"Point","coordinates":[-83.181911,41.107638]}},{"properties":{"officer":"RJO","city":"Tiffin","zip":"44883","date":{"end_time":"2011/06/03 13:56:00 -0400","original":"6/3/2011 13:55","granularity":"min","time":"2011/06/03 13:55:00 -0400"},"geo_score":0.902,"unit":60,"disposition":"200","cfs":9,"call#":11.005462,"id":"a633wnuahcnr","geo_precision":"range","address":"124 Douglas St","state":"OH","juris":"PD"},"type":"Feature","geometry":{"type":"Point","coordinates":[-83.172222,41.127745]}},{"properties":{"officer":"JMW","city":"Tiffin","zip":"44883","date":{"end_time":"2011/05/11 17:55:00 -0400","original":"5/11/2011 17:54","granularity":"min","time":"2011/05/11 17:54:00 -0400"},"geo_score":0.902,"unit":57,"disposition":"200","cfs":9,"call#":11.004574,"id":"a633wnm869dy","geo_precision":"range","address":"128 Gail Ln","state":"OH","juris":"PD"},"type":"Feature","geometry":{"type":"Point","coordinates":[-83.19656,41.100464]}},{"properties":{"officer":"BRB","city":"Tiffin","zip":"44883","date":{"end_time":"2011/08/30 11:58:00 -0400","original":"8/30/2011 11:57","granularity":"min","time":"2011/08/30 11:57:00 -0400"},"geo_score":0.902,"unit":57,"disposition":"200","cfs":9,"call#":11.008907,"id":"a633wnp7jyxs","geo_precision":"range","address":"130 Melmore St","state":"OH","juris":"PD"},"type":"Feature","geometry":{"type":"Point","coordinates":[-83.172795,41.106537]}},{"properties":{"officer":"SGN","city":"Tiffin","zip":"44883","date":{"end_time":"2011/03/22 14:40:00 -0400","original":"3/22/2011 14:39","granularity":"min","time":"2011/03/22 14:39:00 -0400"},"geo_score":0.902,"unit":58,"disposition":"200","cfs":9,"call#":11.002626,"id":"a633wnnhoyqc","geo_precision":"range","address":"130 S Washington St","state":"OH","juris":"PD"},"type":"Feature","geometry":{"type":"Point","coordinates":[-83.176489,41.113923]}},{"properties":{"officer":"RJO","city":"Tiffin","zip":"44883","date":{"end_time":"2011/03/11 12:04:00 -0500","original":"3/11/2011 12:03","granularity":"min","time":"2011/03/11 12:03:00 -0500"},"geo_score":0.902,"unit":60,"disposition":"200","cfs":9,"call#":11.002289,"id":"a633wnrcjr1h","geo_precision":"range","address":"131 E Perry St","state":"OH","juris":"PD"},"type":"Feature","geometry":{"type":"Point","coordinates":[-83.17514,41.115976]}},{"properties":{"officer":"JMW","city":"Tiffin","zip":"44883","date":{"end_time":"2011/08/18 22:23:00 -0400","original":"8/18/2011 22:22","granularity":"min","time":"2011/08/18 22:22:00 -0400"},"geo_score":0.902,"unit":60,"disposition":"200","cfs":9,"call#":11.00842,"id":"a633wnnila73","geo_precision":"range","address":"132 S Washington St","state":"OH","juris":"PD"},"type":"Feature","geometry":{"type":"Point","coordinates":[-83.176482,41.113863]}},{"properties":{"officer":"RJO","city":"Tiffin","zip":"44883","date":{"end_time":"2011/11/26 11:55:00 -0500","original":"11/26/2011 11:54","granularity":"min","time":"2011/11/26 11:54:00 -0500"},"geo_score":0.756,"unit":60,"disposition":"200","cfs":9,"call#":11.012432,"id":"a633wnh3qp6s","geo_precision":"range","address":"134 Second Av","state":"OH","juris":"PD"},"type":"Feature","geometry":{"type":"Point","coordinates":[-83.181106,41.128765]}},{"properties":{"officer":"GTM","city":"Tiffin","zip":"44883","date":{"end_time":"2011/09/25 08:53:00 -0400","original":"9/25/2011 8:52","granularity":"min","time":"2011/09/25 08:52:00 -0400"},"geo_score":0.902,"unit":59,"disposition":"200","cfs":9,"call#":11.009976,"id":"a633wnlk5is8","geo_precision":"range","address":"135 N Monroe St","state":"OH","juris":"PD"},"type":"Feature","geometry":{"type":"Point","coordinates":[-83.179189,41.12089]}},{"properties":{"officer":"RJO","city":"Tiffin","zip":"44883","date":{"end_time":"2011/03/06 16:17:00 -0500","original":"3/6/2011 16:16","granularity":"min","time":"2011/03/06 16:16:00 -0500"},"geo_score":0.844,"unit":60,"disposition":"200","cfs":9,"call#":11.002137,"id":"a633wnutr32l","geo_precision":"range","address":"1355 Seneca Av","state":"OH","juris":"PD"},"type":"Feature","geometry":{"type":"Point","coordinates":[-83.196984,41.108264]}},{"properties":{"officer":"DES","city":"Tiffin","zip":"44883","date":{"end_time":"2011/11/26 09:12:00 -0500","original":"11/26/2011 9:11","granularity":"min","time":"2011/11/26 09:11:00 -0500"},"geo_score":0.756,"unit":61,"disposition":"200","cfs":9,"call#":11.012428,"id":"a633wnin0rjr","geo_precision":"range","address":"136 Second Av","state":"OH","juris":"PD"},"type":"Feature","geometry":{"type":"Point","coordinates":[-83.181166,41.128764]}},{"properties":{"officer":"RJO","city":"Tiffin","zip":"44883","date":{"end_time":"2011/09/24 09:24:00 -0400","original":"9/24/2011 9:23","granularity":"min","time":"2011/09/24 09:23:00 -0400"},"geo_score":0.902,"unit":60,"disposition":"200","cfs":9,"call#":11.009925,"id":"a633wnv4932h","geo_precision":"range","address":"136 W Market St","state":"OH","juris":"PD"},"type":"Feature","geometry":{"type":"Point","coordinates":[-83.184964,41.11378]}},{"properties":{"officer":"DES","city":"Tiffin","zip":"44883","date":{"end_time":"2011/10/01 08:19:00 -0400","original":"10/1/2011 8:18","granularity":"min","time":"2011/10/01 08:18:00 -0400"},"geo_score":0.902,"unit":58,"disposition":"200","cfs":9,"call#":11.010205,"id":"a633wnmbsv4c","geo_precision":"range","address":"138 Greenfield St","state":"OH","juris":"PD"},"type":"Feature","geometry":{"type":"Point","coordinates":[-83.165562,41.114974]}},{"properties":{"officer":"GTM","city":"Tiffin","zip":"44883","date":{"end_time":"2011/04/12 11:25:00 -0400","original":"4/12/2011 11:24","granularity":"min","time":"2011/04/12 11:24:00 -0400"},"geo_score":0.902,"unit":57,"disposition":"200","cfs":9,"call#":11.003376,"id":"a633wnuvyafd","geo_precision":"range","address":"14 W Market St","state":"OH","juris":"PD"},"type":"Feature","geometry":{"type":"Point","coordinates":[-83.181159,41.114146]}},{"properties":{"officer":"GTM","city":"Tiffin","zip":"44883","date":{"end_time":"2011/05/14 08:35:00 -0400","original":"5/14/2011 8:34","granularity":"min","time":"2011/05/14 08:34:00 -0400"},"geo_score":0.673,"unit":57,"disposition":"200","cfs":9,"call#":11.004689,"id":"a633wnstbpy0","geo_precision":"street","address":"1406 Seneca Av","state":"OH","juris":"PD"},"type":"Feature","geometry":{"type":"Point","coordinates":[-83.198464,41.109322]}},{"properties":{"officer":"GTM","city":"Tiffin","zip":"44883","date":{"end_time":"2011/02/27 16:17:00 -0500","original":"2/27/2011 16:16","granularity":"min","time":"2011/02/27 16:16:00 -0500"},"geo_score":0.902,"unit":57,"disposition":"200","cfs":9,"call#":11.001885,"id":"a633wnu2uwxu","geo_precision":"range","address":"142 Ann St","state":"OH","juris":"PD"},"type":"Feature","geometry":{"type":"Point","coordinates":[-83.17079,41.10925]}},{"properties":{"officer":"SGN","city":"Tiffin","zip":"44883","date":{"end_time":"2011/07/26 08:14:00 -0400","original":"7/26/2011 8:13","granularity":"min","time":"2011/07/26 08:13:00 -0400"},"geo_score":0.902,"unit":59,"disposition":"200","cfs":9,"call#":11.007492,"id":"a633wnqnqs8g","geo_precision":"range","address":"142 Duchess Ln","state":"OH","juris":"PD"},"type":"Feature","geometry":{"type":"Point","coordinates":[-83.191515,41.099983]}},{"properties":{"officer":"SGN","city":"Tiffin","zip":"44883","date":{"end_time":"2011/08/02 14:25:00 -0400","original":"8/2/2011 14:24","granularity":"min","time":"2011/08/02 14:24:00 -0400"},"geo_score":0.756,"unit":59,"disposition":"200","cfs":9,"call#":11.007814,"id":"a633wnqm1kfo","geo_precision":"range","address":"143 First Av","state":"OH","juris":"PD"},"type":"Feature","geometry":{"type":"Point","coordinates":[-83.182034,41.127895]}},{"properties":{"officer":"SGN","city":"Tiffin","zip":"44883","date":{"end_time":"2011/08/23 09:46:00 -0400","original":"8/23/2011 9:45","granularity":"min","time":"2011/08/23 09:45:00 -0400"},"geo_score":0.902,"unit":59,"disposition":"200","cfs":9,"call#":11.00861,"id":"a633wnkwitzm","geo_precision":"range","address":"144 Minerva St","state":"OH","juris":"PD"},"type":"Feature","geometry":{"type":"Point","coordinates":[-83.176502,41.124494]}},{"properties":{"officer":"AMR","city":"Tiffin","zip":"44883","date":{"end_time":"2011/11/10 09:37:00 -0500","original":"11/10/2011 9:36","granularity":"min","time":"2011/11/10 09:36:00 -0500"},"geo_score":0.902,"unit":63,"disposition":"200","cfs":9,"call#":11.011756,"id":"a633wnp9nksa","geo_precision":"range","address":"145 Madison St","state":"OH","juris":"PD"},"type":"Feature","geometry":{"type":"Point","coordinates":[-83.174721,41.113518]}},{"properties":{"officer":"SGN","city":"Tiffin","zip":"44883","date":{"end_time":"2011/04/22 08:55:00 -0400","original":"4/22/2011 8:54","granularity":"min","time":"2011/04/22 08:54:00 -0400"},"geo_score":0.902,"unit":59,"disposition":"200","cfs":9,"call#":11.003755,"id":"a633wnq350de","geo_precision":"range","address":"146 Melmore St","state":"OH","juris":"PD"},"type":"Feature","geometry":{"type":"Point","coordinates":[-83.172525,41.106184]}},{"properties":{"officer":"GTM","city":"Tiffin","zip":"44883","date":{"end_time":"2011/04/11 06:44:00 -0400","original":"4/11/2011 6:43","granularity":"min","time":"2011/04/11 06:43:00 -0400"},"geo_score":0.902,"unit":57,"disposition":"200","cfs":9,"call#":11.003324,"id":"a633wnh8vhub","geo_precision":"range","address":"146 Riverside Dr","state":"OH","juris":"PD"},"type":"Feature","geometry":{"type":"Point","coordinates":[-83.173257,41.119889]}},{"properties":{"officer":"BRB","city":"Tiffin","zip":"44883","date":{"end_time":"2011/11/22 09:56:00 -0500","original":"11/22/2011 9:55","granularity":"min","time":"2011/11/22 09:55:00 -0500"},"geo_score":0.902,"unit":63,"disposition":"200","cfs":9,"call#":11.012265,"id":"a633wnrin9yn","geo_precision":"range","address":"147 Madison St","state":"OH","juris":"PD"},"type":"Feature","geometry":{"type":"Point","coordinates":[-83.174677,41.113524]}},{"properties":{"officer":"GTM","city":"Tiffin","zip":"44883","date":{"end_time":"2011/04/18 07:31:00 -0400","original":"4/18/2011 7:30","granularity":"min","time":"2011/04/18 07:30:00 -0400"},"geo_score":0.902,"unit":57,"disposition":"200","cfs":9,"call#":11.003602,"id":"a633wnwbtpcl","geo_precision":"range","address":"147 Madison St","state":"OH","juris":"PD"},"type":"Feature","geometry":{"type":"Point","coordinates":[-83.174677,41.113524]}},{"properties":{"officer":"DES","city":"Tiffin","zip":"44883","date":{"end_time":"2011/06/25 12:10:00 -0400","original":"6/25/2011 12:09","granularity":"min","time":"2011/06/25 12:09:00 -0400"},"geo_score":0.902,"unit":61,"disposition":"200","cfs":9,"call#":11.006312,"id":"a633wnr65min","geo_precision":"range","address":"148 Longfellow Dr","state":"OH","juris":"PD"},"type":"Feature","geometry":{"type":"Point","coordinates":[-83.194738,41.09994]}},{"properties":{"officer":"BRB","city":"Tiffin","zip":"44883","date":{"end_time":"2011/04/12 08:12:00 -0400","original":"4/12/2011 8:11","granularity":"min","time":"2011/04/12 08:11:00 -0400"},"geo_score":0.902,"unit":63,"disposition":"200","cfs":9,"call#":11.003362,"id":"a633wns6642a","geo_precision":"range","address":"148 S Monroe St","state":"OH","juris":"PD"},"type":"Feature","geometry":{"type":"Point","coordinates":[-83.177882,41.112379]}},{"properties":{"officer":"PJD","city":"Tiffin","zip":"44883","date":{"end_time":"2011/07/10 22:20:00 -0400","original":"7/10/2011 22:19","granularity":"min","time":"2011/07/10 22:19:00 -0400"},"geo_score":0.902,"unit":61,"disposition":"200","cfs":9,"call#":11.006925,"id":"a633wnm3hyb6","geo_precision":"range","address":"149 Circular St","state":"OH","juris":"PD"},"type":"Feature","geometry":{"type":"Point","coordinates":[-83.169304,41.11135]}},{"properties":{"officer":"MEM","city":"Tiffin","zip":"44883","date":{"end_time":"2011/04/13 13:06:00 -0400","original":"4/13/2011 13:05","granularity":"min","time":"2011/04/13 13:05:00 -0400"},"geo_score":0.902,"unit":60,"disposition":"200","cfs":9,"call#":11.003411,"id":"a633wnir58hm","geo_precision":"range","address":"149 Franklin St","state":"OH","juris":"PD"},"type":"Feature","geometry":{"type":"Point","coordinates":[-83.182166,41.118515]}},{"properties":{"officer":"JMW","city":"Tiffin","zip":"44883","date":{"end_time":"2011/04/05 18:02:00 -0400","original":"4/5/2011 18:01","granularity":"min","time":"2011/04/05 18:01:00 -0400"},"geo_score":0.902,"unit":57,"disposition":"200","cfs":9,"call#":11.003055,"id":"a633wnmj12ps","geo_precision":"range","address":"15 E Market St","state":"OH","juris":"PD"},"type":"Feature","geometry":{"type":"Point","coordinates":[-83.179243,41.114346]}},{"properties":{"officer":"GTM","city":"Tiffin","zip":"44883","date":{"end_time":"2011/04/25 10:34:00 -0400","original":"4/25/2011 10:33","granularity":"min","time":"2011/04/25 10:33:00 -0400"},"geo_score":0.902,"unit":57,"disposition":"200","cfs":9,"call#":11.003881,"id":"a633wnkofik0","geo_precision":"range","address":"152 Madison St","state":"OH","juris":"PD"},"type":"Feature","geometry":{"type":"Point","coordinates":[-83.174582,41.113535]}},{"properties":{"officer":"JPF","city":"Tiffin","zip":"44883","date":{"end_time":"2011/12/09 21:49:00 -0500","original":"12/9/2011 21:48","granularity":"min","time":"2011/12/09 21:48:00 -0500"},"geo_score":0.902,"unit":59,"disposition":"200","cfs":9,"call#":11.012963,"id":"a633wnvyxccp","geo_precision":"range","address":"154 S Washington St","state":"OH","juris":"PD"},"type":"Feature","geometry":{"type":"Point","coordinates":[-83.176365,41.11326]}},{"properties":{"officer":"MMS","city":"Tiffin","zip":"44883","date":{"end_time":"2011/10/02 09:46:00 -0400","original":"10/2/2011 9:45","granularity":"min","time":"2011/10/02 09:45:00 -0400"},"geo_score":0.902,"unit":63,"disposition":"200","cfs":9,"call#":11.010244,"id":"a633wnu2frft","geo_precision":"range","address":"154 S Washington St","state":"OH","juris":"PD"},"type":"Feature","geometry":{"type":"Point","coordinates":[-83.176365,41.11326]}},{"properties":{"officer":"FWS","city":"Tiffin","zip":"44883","date":{"end_time":"2011/07/26 09:50:00 -0400","original":"7/26/2011 9:49","granularity":"min","time":"2011/07/26 09:49:00 -0400"},"geo_score":0.902,"unit":58,"disposition":"200","cfs":9,"call#":11.007496,"id":"a633wnjmjw63","geo_precision":"range","address":"154 S Washington St","state":"OH","juris":"PD"},"type":"Feature","geometry":{"type":"Point","coordinates":[-83.176365,41.11326]}},{"properties":{"officer":"JPF","city":"Tiffin","zip":"44883","date":{"end_time":"2011/07/23 15:02:00 -0400","original":"7/23/2011 15:01","granularity":"min","time":"2011/07/23 15:01:00 -0400"},"geo_score":0.902,"unit":61,"disposition":"200","cfs":9,"call#":11.007381,"id":"a633wnu6kuc8","geo_precision":"range","address":"154 S Washington St","state":"OH","juris":"PD"},"type":"Feature","geometry":{"type":"Point","coordinates":[-83.176365,41.11326]}},{"properties":{"officer":"RJO","city":"Tiffin","zip":"44883","date":{"end_time":"2011/05/26 15:59:00 -0400","original":"5/26/2011 15:58","granularity":"min","time":"2011/05/26 15:58:00 -0400"},"geo_score":0.902,"unit":60,"disposition":"200","cfs":9,"call#":11.00513,"id":"a633wnoav23f","geo_precision":"range","address":"155 Melmore St","state":"OH","juris":"PD"},"type":"Feature","geometry":{"type":"Point","coordinates":[-83.172156,41.106047]}},{"properties":{"officer":"BRB","city":"Tiffin","zip":"44883","date":{"end_time":"2011/11/20 12:33:00 -0500","original":"11/20/2011 12:32","granularity":"min","time":"2011/11/20 12:32:00 -0500"},"geo_score":0.902,"unit":63,"disposition":"200","cfs":9,"call#":11.012188,"id":"a633wnhana5p","geo_precision":"range","address":"155 Miami St","state":"OH","juris":"PD"},"type":"Feature","geometry":{"type":"Point","coordinates":[-83.184778,41.118845]}},{"properties":{"officer":"RJO","city":"Tiffin","zip":"44883","date":{"end_time":"2011/03/31 08:02:00 -0400","original":"3/31/2011 8:01","granularity":"min","time":"2011/03/31 08:01:00 -0400"},"geo_score":0.902,"unit":58,"disposition":"200","cfs":9,"call#":11.002862,"id":"a633wnnnszt2","geo_precision":"range","address":"155 Prospect St","state":"OH","juris":"PD"},"type":"Feature","geometry":{"type":"Point","coordinates":[-83.161627,41.110042]}},{"properties":{"officer":"FWS","city":"Tiffin","zip":"44883","date":{"end_time":"2011/11/16 15:44:00 -0500","original":"11/16/2011 15:43","granularity":"min","time":"2011/11/16 15:43:00 -0500"},"geo_score":0.902,"unit":58,"disposition":"200","cfs":9,"call#":11.012029,"id":"a633wnvd1mjb","geo_precision":"range","address":"158 Miami St","state":"OH","juris":"PD"},"type":"Feature","geometry":{"type":"Point","coordinates":[-83.184873,41.118895]}},{"properties":{"officer":"PJD","city":"Tiffin","zip":"44883","date":{"end_time":"2011/05/23 22:50:00 -0400","original":"5/23/2011 22:49","granularity":"min","time":"2011/05/23 22:49:00 -0400"},"geo_score":0.902,"unit":61,"disposition":"200","cfs":9,"call#":11.00504,"id":"a633wnp4uj1d","geo_precision":"range","address":"158 Miami St","state":"OH","juris":"PD"},"type":"Feature","geometry":{"type":"Point","coordinates":[-83.184873,41.118895]}},{"properties":{"officer":"JSC","city":"Tiffin","zip":"44883","date":{"end_time":"2011/02/13 00:43:00 -0500","original":"2/13/2011 0:42","granularity":"min","time":"2011/02/13 00:42:00 -0500"},"geo_score":0.902,"unit":57,"disposition":"100","cfs":9,"call#":11.001423,"id":"a633wni6gv8u","geo_precision":"range","address":"16 Crayon St","state":"OH","juris":"PD"},"type":"Feature","geometry":{"type":"Point","coordinates":[-83.156987,41.114737]}},{"properties":{"officer":"JDW","city":"Tiffin","zip":"44883","date":{"end_time":"2011/10/29 12:15:00 -0400","original":"10/29/2011 12:14","granularity":"min","time":"2011/10/29 12:14:00 -0400"},"geo_score":0.902,"unit":62,"disposition":"200","cfs":9,"call#":11.011303,"id":"a633wnskt21x","geo_precision":"range","address":"160 Gibson Ct","state":"OH","juris":"PD"},"type":"Feature","geometry":{"type":"Point","coordinates":[-83.180307,41.09637]}},{"properties":{"officer":"BRB","city":"Tiffin","zip":"44883","date":{"end_time":"2011/02/14 12:06:00 -0500","original":"2/14/2011 12:05","granularity":"min","time":"2011/02/14 12:05:00 -0500"},"geo_score":0.873,"unit":59,"disposition":"200","cfs":9,"call#":11.001467,"id":"a633wns4pgcy","geo_precision":"range","address":"162 Cottage Av","state":"OH","juris":"PD"},"type":"Feature","geometry":{"type":"Point","coordinates":[-83.19631,41.109623]}},{"properties":{"officer":"DES","city":"Tiffin","zip":"44883","date":{"end_time":"2011/10/08 08:32:00 -0400","original":"10/8/2011 8:31","granularity":"min","time":"2011/10/08 08:31:00 -0400"},"geo_score":0.902,"unit":58,"disposition":"200","cfs":9,"call#":11.01048,"id":"a633wnrmkddp","geo_precision":"range","address":"162 Minerva St","state":"OH","juris":"PD"},"type":"Feature","geometry":{"type":"Point","coordinates":[-83.176581,41.125127]}},{"properties":{"officer":"DES","city":"Tiffin","zip":"44883","date":{"end_time":"2011/02/14 15:51:00 -0500","original":"2/14/2011 15:50","granularity":"min","time":"2011/02/14 15:50:00 -0500"},"geo_score":0.902,"unit":61,"disposition":"200","cfs":9,"call#":11.001476,"id":"a633wnpj5olp","geo_precision":"range","address":"162 Rosa St","state":"OH","juris":"PD"},"type":"Feature","geometry":{"type":"Point","coordinates":[-83.166043,41.106439]}},{"properties":{"officer":"RMN","city":"Tiffin","zip":"44883","date":{"end_time":"2011/08/10 09:25:00 -0400","original":"8/10/2011 9:24","granularity":"min","time":"2011/08/10 09:24:00 -0400"},"geo_score":0.902,"unit":59,"disposition":"200","cfs":9,"call#":11.008075,"id":"a633wnpe6ws7","geo_precision":"range","address":"162 Tomb St","state":"OH","juris":"PD"},"type":"Feature","geometry":{"type":"Point","coordinates":[-83.170026,41.128788]}},{"properties":{"officer":"BRB","city":"Tiffin","zip":"44883","date":{"end_time":"2011/11/06 10:05:00 -0500","original":"11/6/2011 10:04","granularity":"min","time":"2011/11/06 10:04:00 -0500"},"geo_score":0.902,"unit":63,"disposition":"200","cfs":9,"call#":11.011615,"id":"a633wnlke1o2","geo_precision":"range","address":"164 E Perry St","state":"OH","juris":"PD"},"type":"Feature","geometry":{"type":"Point","coordinates":[-83.173959,41.11612]}},{"properties":{"officer":"RJO","city":"Tiffin","zip":"44883","date":{"end_time":"2011/12/04 12:51:00 -0500","original":"12/4/2011 12:50","granularity":"min","time":"2011/12/04 12:50:00 -0500"},"geo_score":0.902,"unit":60,"disposition":"200","cfs":9,"call#":11.01277,"id":"a633wnly4phg","geo_precision":"range","address":"165 Webster St","state":"OH","juris":"PD"},"type":"Feature","geometry":{"type":"Point","coordinates":[-83.179102,41.123558]}},{"properties":{"officer":"RJO","city":"Tiffin","zip":"44883","date":{"end_time":"2011/09/15 13:36:00 -0400","original":"9/15/2011 13:35","granularity":"min","time":"2011/09/15 13:35:00 -0400"},"geo_score":0.902,"unit":60,"disposition":"200","cfs":9,"call#":11.009553,"id":"a633wniknjcq","geo_precision":"range","address":"167 E Market St","state":"OH","juris":"PD"},"type":"Feature","geometry":{"type":"Point","coordinates":[-83.174089,41.114835]}},{"properties":{"officer":"GTM","city":"Tiffin","zip":"44883","date":{"end_time":"2011/05/23 08:20:00 -0400","original":"5/23/2011 8:19","granularity":"min","time":"2011/05/23 08:19:00 -0400"},"geo_score":0.902,"unit":60,"disposition":"200","cfs":9,"call#":11.005018,"id":"a633wnma219j","geo_precision":"range","address":"167 E Market St","state":"OH","juris":"PD"},"type":"Feature","geometry":{"type":"Point","coordinates":[-83.174089,41.114835]}},{"properties":{"officer":"JAD","city":"Tiffin","zip":"44883","date":{"end_time":"2011/03/28 18:09:00 -0400","original":"3/28/2011 18:08","granularity":"min","time":"2011/03/28 18:08:00 -0400"},"geo_score":0.902,"unit":56,"disposition":"200","cfs":9,"call#":11.002803,"id":"a633wnvybp7y","geo_precision":"range","address":"167 Main St","state":"OH","juris":"PD"},"type":"Feature","geometry":{"type":"Point","coordinates":[-83.168532,41.111997]}},{"properties":{"officer":"GTM","city":"Tiffin","zip":"44883","date":{"end_time":"2011/12/18 10:34:00 -0500","original":"12/18/2011 10:33","granularity":"min","time":"2011/12/18 10:33:00 -0500"},"geo_score":0.902,"unit":62,"disposition":"200","cfs":9,"call#":11.013342,"id":"a633wnpv8i21","geo_precision":"range","address":"169 Melmore St","state":"OH","juris":"PD"},"type":"Feature","geometry":{"type":"Point","coordinates":[-83.17191,41.105722]}},{"properties":{"officer":"DES","city":"Tiffin","zip":"44883","date":{"end_time":"2011/10/29 08:26:00 -0400","original":"10/29/2011 8:25","granularity":"min","time":"2011/10/29 08:25:00 -0400"},"geo_score":0.902,"unit":60,"disposition":"200","cfs":9,"call#":11.011294,"id":"a633wnqxrrh9","geo_precision":"range","address":"1692 W Market St,43","state":"OH","juris":"PD"},"type":"Feature","geometry":{"type":"Point","coordinates":[-83.181879,41.114073]}},{"properties":{"officer":"FWS","city":"Tiffin","zip":"44883","date":{"end_time":"2011/02/02 15:05:00 -0500","original":"2/2/2011 15:04","granularity":"min","time":"2011/02/02 15:04:00 -0500"},"geo_score":0.902,"unit":57,"disposition":"200","cfs":9,"call#":11.000993,"id":"a633wnpih6fk","geo_precision":"range","address":"170 E Perry St","state":"OH","juris":"PD"},"type":"Feature","geometry":{"type":"Point","coordinates":[-83.173309,41.116146]}},{"properties":{"officer":"JDW","city":"Tiffin","zip":"44883","date":{"end_time":"2011/04/14 02:13:00 -0400","original":"4/14/2011 2:12","granularity":"min","time":"2011/04/14 02:12:00 -0400"},"geo_score":0.902,"unit":63,"disposition":"200","cfs":9,"call#":11.003441,"id":"a633wnloygi7","geo_precision":"range","address":"171 Jackson St","state":"OH","juris":"PD"},"type":"Feature","geometry":{"type":"Point","coordinates":[-83.185305,41.118106]}},{"properties":{"officer":"MEM","city":"Tiffin","zip":"44883","date":{"end_time":"2011/11/09 19:31:00 -0500","original":"11/9/2011 19:30","granularity":"min","time":"2011/11/09 19:30:00 -0500"},"geo_score":0.902,"unit":58,"disposition":"200","cfs":9,"call#":11.01174,"id":"a633wnsmtjm2","geo_precision":"range","address":"1714 W Market St","state":"OH","juris":"PD"},"type":"Feature","geometry":{"type":"Point","coordinates":[-83.204289,41.11169]}},{"properties":{"officer":"BRB","city":"Tiffin","zip":"44883","date":{"end_time":"2011/07/17 10:08:00 -0400","original":"7/17/2011 10:07","granularity":"min","time":"2011/07/17 10:07:00 -0400"},"geo_score":0.756,"unit":63,"disposition":"200","cfs":9,"call#":11.007177,"id":"a633wnsmcd25","geo_precision":"range","address":"172 First Av","state":"OH","juris":"PD"},"type":"Feature","geometry":{"type":"Point","coordinates":[-83.183357,41.127884]}},{"properties":{"officer":"JMW","city":"Tiffin","zip":"44883","date":{"end_time":"2011/06/29 16:56:00 -0400","original":"6/29/2011 16:55","granularity":"min","time":"2011/06/29 16:55:00 -0400"},"geo_score":0.756,"unit":61,"disposition":"200","cfs":9,"call#":11.006461,"id":"a633wnvsql19","geo_precision":"range","address":"172 First Av","state":"OH","juris":"PD"},"type":"Feature","geometry":{"type":"Point","coordinates":[-83.183357,41.127884]}},{"properties":{"officer":"DES","city":"Tiffin","zip":"44883","date":{"end_time":"2011/06/12 14:18:00 -0400","original":"6/12/2011 14:17","granularity":"min","time":"2011/06/12 14:17:00 -0400"},"geo_score":0.902,"unit":59,"disposition":"200","cfs":9,"call#":11.005818,"id":"a633wnuf8ml6","geo_precision":"range","address":"172 N Sandusky St","state":"OH","juris":"PD"},"type":"Feature","geometry":{"type":"Point","coordinates":[-83.179692,41.124051]}},{"properties":{"officer":"DES","city":"Tiffin","zip":"44883","date":{"end_time":"2011/07/17 07:08:00 -0400","original":"7/17/2011 7:07","granularity":"min","time":"2011/07/17 07:07:00 -0400"},"geo_score":0.756,"unit":61,"disposition":"200","cfs":9,"call#":11.007175,"id":"a633wnslecwx","geo_precision":"range","address":"176 First Av","state":"OH","juris":"PD"},"type":"Feature","geometry":{"type":"Point","coordinates":[-83.183453,41.127883]}},{"properties":{"officer":"RMN","city":"Tiffin","zip":"44883","date":{"end_time":"2011/07/16 21:05:00 -0400","original":"7/16/2011 21:04","granularity":"min","time":"2011/07/16 21:04:00 -0400"},"geo_score":0.756,"unit":61,"disposition":"200","cfs":9,"call#":11.007147,"id":"a633wnhcp6cp","geo_precision":"range","address":"176 First Av","state":"OH","juris":"PD"},"type":"Feature","geometry":{"type":"Point","coordinates":[-83.183453,41.127883]}},{"properties":{"officer":"JDW","city":"Tiffin","zip":"44883","date":{"end_time":"2011/11/09 13:21:00 -0500","original":"11/9/2011 13:20","granularity":"min","time":"2011/11/09 13:20:00 -0500"},"geo_score":0.902,"unit":62,"disposition":"200","cfs":9,"call#":11.011721,"id":"a633wnwucjz0","geo_precision":"range","address":"1760 W Market St","state":"OH","juris":"PD"},"type":"Feature","geometry":{"type":"Point","coordinates":[-83.204488,41.111644]}},{"properties":{"officer":"SMM","city":"Tiffin","zip":"44883","date":{"end_time":"2011/11/24 04:20:00 -0500","original":"11/24/2011 4:19","granularity":"min","time":"2011/11/24 04:19:00 -0500"},"geo_score":0.902,"unit":63,"disposition":"200","cfs":9,"call#":11.01234,"id":"a633wnh6xaf1","geo_precision":"range","address":"179 N Washington St","state":"OH","juris":"PD"},"type":"Feature","geometry":{"type":"Point","coordinates":[-83.17783,41.122661]}},{"properties":{"officer":"SGN","city":"Tiffin","zip":"44883","date":{"end_time":"2011/07/23 10:11:00 -0400","original":"7/23/2011 10:10","granularity":"min","time":"2011/07/23 10:10:00 -0400"},"geo_score":0.902,"unit":57,"disposition":"200","cfs":9,"call#":11.007371,"id":"a633wnq0n0ek","geo_precision":"range","address":"18 Madison St","state":"OH","juris":"PD"},"type":"Feature","geometry":{"type":"Point","coordinates":[-83.178501,41.113184]}},{"properties":{"officer":"MMS","city":"Tiffin","zip":"44883","date":{"end_time":"2011/10/02 10:32:00 -0400","original":"10/2/2011 10:31","granularity":"min","time":"2011/10/02 10:31:00 -0400"},"geo_score":0.902,"unit":63,"disposition":"200","cfs":9,"call#":11.010246,"id":"a633wnmljbv7","geo_precision":"range","address":"18 Noble St","state":"OH","juris":"PD"},"type":"Feature","geometry":{"type":"Point","coordinates":[-83.173439,41.122836]}},{"properties":{"officer":"BRB","city":"Tiffin","zip":"44883","date":{"end_time":"2011/11/01 11:16:00 -0400","original":"11/1/2011 11:15","granularity":"min","time":"2011/11/01 11:15:00 -0400"},"geo_score":0.902,"unit":63,"disposition":"200","cfs":9,"call#":11.011413,"id":"a633wni5kadu","geo_precision":"range","address":"180 Summit St","state":"OH","juris":"PD"},"type":"Feature","geometry":{"type":"Point","coordinates":[-83.16021,41.110279]}},{"properties":{"officer":"DES","city":"Tiffin","zip":"44883","date":{"end_time":"2011/06/20 16:14:00 -0400","original":"6/20/2011 16:13","granularity":"min","time":"2011/06/20 16:13:00 -0400"},"geo_score":0.902,"unit":61,"disposition":"200","cfs":9,"call#":11.006129,"id":"a633wnjdvnb9","geo_precision":"range","address":"183 N Monroe St","state":"OH","juris":"PD"},"type":"Feature","geometry":{"type":"Point","coordinates":[-83.179152,41.121916]}},{"properties":{"officer":"JDW","city":"Tiffin","zip":"44883","date":{"end_time":"2011/08/26 12:19:00 -0400","original":"8/26/2011 12:18","granularity":"min","time":"2011/08/26 12:18:00 -0400"},"geo_score":0.902,"unit":57,"disposition":"200","cfs":9,"call#":11.008745,"id":"a633wnpcver3","geo_precision":"range","address":"184 E Market St,227","state":"OH","juris":"PD"},"type":"Feature","geometry":{"type":"Point","coordinates":[-83.1716,41.11507]}},{"properties":{"officer":"SGN","city":"Tiffin","zip":"44883","date":{"end_time":"2011/06/02 08:43:00 -0400","original":"6/2/2011 8:42","granularity":"min","time":"2011/06/02 08:42:00 -0400"},"geo_score":0.902,"unit":59,"disposition":"200","cfs":9,"call#":11.005416,"id":"a633wnttieci","geo_precision":"range","address":"186 S Monroe St","state":"OH","juris":"PD"},"type":"Feature","geometry":{"type":"Point","coordinates":[-83.17762,41.110935]}},{"properties":{"officer":"LMK","city":"Tiffin","zip":"44883","date":{"end_time":"2011/06/01 06:27:00 -0400","original":"6/1/2011 6:26","granularity":"min","time":"2011/06/01 06:26:00 -0400"},"geo_score":0.902,"unit":61,"disposition":"200","cfs":9,"call#":11.005373,"id":"a633wnvbcdo3","geo_precision":"range","address":"186 S Monroe St","state":"OH","juris":"PD"},"type":"Feature","geometry":{"type":"Point","coordinates":[-83.17762,41.110935]}},{"properties":{"officer":"RMN","city":"Tiffin","zip":"44883","date":{"end_time":"2011/08/13 23:37:00 -0400","original":"8/13/2011 23:36","granularity":"min","time":"2011/08/13 23:36:00 -0400"},"geo_score":0.902,"unit":57,"disposition":"200","cfs":9,"call#":11.008238,"id":"a633wnx29r1l","geo_precision":"range","address":"188 Coe St","state":"OH","juris":"PD"},"type":"Feature","geometry":{"type":"Point","coordinates":[-83.169935,41.106758]}},{"properties":{"officer":null,"city":"Tiffin","zip":"44883","date":{"end_time":"2011/06/22 15:09:00 -0400","original":"6/22/2011 15:08","granularity":"min","time":"2011/06/22 15:08:00 -0400"},"geo_score":0.902,"unit":null,"disposition":"CAN","cfs":9,"call#":11.006198,"id":"a633wnm7ragx","geo_precision":"range","address":"19 W Market St","state":"OH","juris":"PD"},"type":"Feature","geometry":{"type":"Point","coordinates":[-83.18125,41.114134]}},{"properties":{"officer":"BAR","city":"Tiffin","zip":"44883","date":{"end_time":"2011/04/29 17:57:00 -0400","original":"4/29/2011 17:56","granularity":"min","time":"2011/04/29 17:56:00 -0400"},"geo_score":0.902,"unit":63,"disposition":"200","cfs":9,"call#":11.004055,"id":"a633wnrgen17","geo_precision":"range","address":"19 W Market St","state":"OH","juris":"PD"},"type":"Feature","geometry":{"type":"Point","coordinates":[-83.18125,41.114134]}},{"properties":{"officer":"EDA","city":"Tiffin","zip":"44883","date":{"end_time":"2011/07/17 19:06:00 -0400","original":"7/17/2011 19:05","granularity":"min","time":"2011/07/17 19:05:00 -0400"},"geo_score":0.902,"unit":58,"disposition":"200","cfs":9,"call#":11.007188,"id":"a633wnq8zx6i","geo_precision":"range","address":"190 Hall St","state":"OH","juris":"PD"},"type":"Feature","geometry":{"type":"Point","coordinates":[-83.183663,41.123198]}},{"properties":{"officer":"RJO","city":"Tiffin","zip":"44883","date":{"end_time":"2011/04/29 16:23:00 -0400","original":"4/29/2011 16:22","granularity":"min","time":"2011/04/29 16:22:00 -0400"},"geo_score":0.408,"unit":60,"disposition":"200","cfs":9,"call#":11.004051,"id":"a633wnjco5wa","geo_precision":"street","address":"190 St Francis Av","state":"OH","juris":"PD"},"type":"Feature","geometry":{"type":"Point","coordinates":[-83.435561,41.152397]}},{"properties":{"officer":"RMN","city":"Tiffin","zip":"44883","date":{"end_time":"2011/09/09 17:13:00 -0400","original":"9/9/2011 17:12","granularity":"min","time":"2011/09/09 17:12:00 -0400"},"geo_score":0.902,"unit":57,"disposition":"200","cfs":9,"call#":11.009338,"id":"a633wntwgwhr","geo_precision":"range","address":"191 E Market St","state":"OH","juris":"PD"},"type":"Feature","geometry":{"type":"Point","coordinates":[-83.173515,41.114903]}},{"properties":{"officer":"GTM","city":"Tiffin","zip":"44883","date":{"end_time":"2011/05/22 15:51:00 -0400","original":"5/22/2011 15:50","granularity":"min","time":"2011/05/22 15:50:00 -0400"},"geo_score":0.756,"unit":59,"disposition":"200","cfs":9,"call#":11.004998,"id":"a633wnwle34m","geo_precision":"range","address":"193 Fifth Av","state":"OH","juris":"PD"},"type":"Feature","geometry":{"type":"Point","coordinates":[-83.178779,41.131373]}},{"properties":{"officer":"JMW","city":"Tiffin","zip":"44883","date":{"end_time":"2011/06/30 17:38:00 -0400","original":"6/30/2011 17:37","granularity":"min","time":"2011/06/30 17:37:00 -0400"},"geo_score":0.902,"unit":61,"disposition":"200","cfs":9,"call#":11.006505,"id":"a633wnnafpsy","geo_precision":"range","address":"194 N Washington St","state":"OH","juris":"PD"},"type":"Feature","geometry":{"type":"Point","coordinates":[-83.177889,41.123172]}},{"properties":{"officer":"SGN","city":"Tiffin","zip":"44883","date":{"end_time":"2011/08/30 11:15:00 -0400","original":"8/30/2011 11:14","granularity":"min","time":"2011/08/30 11:14:00 -0400"},"geo_score":0.902,"unit":59,"disposition":"200","cfs":9,"call#":11.008904,"id":"a633wnrrzrfe","geo_precision":"range","address":"195 W Market St","state":"OH","juris":"PD"},"type":"Feature","geometry":{"type":"Point","coordinates":[-83.186948,41.11358]}},{"properties":{"officer":"DES","city":"Tiffin","zip":"44883","date":{"end_time":"2011/04/30 14:41:00 -0400","original":"4/30/2011 14:40","granularity":"min","time":"2011/04/30 14:40:00 -0400"},"geo_score":0.902,"unit":61,"disposition":"200","cfs":9,"call#":11.00412,"id":"a633wnv9h4qb","geo_precision":"range","address":"196 E Market St","state":"OH","juris":"PD"},"type":"Feature","geometry":{"type":"Point","coordinates":[-83.172573,41.114955]}},{"properties":{"officer":"SGN","city":"Tiffin","zip":"44883","date":{"end_time":"2011/05/31 16:20:00 -0400","original":"5/31/2011 16:19","granularity":"min","time":"2011/05/31 16:19:00 -0400"},"geo_score":0.902,"unit":59,"disposition":"200","cfs":9,"call#":11.005349,"id":"a633wnjj96k1","geo_precision":"range","address":"196 Hall St","state":"OH","juris":"PD"},"type":"Feature","geometry":{"type":"Point","coordinates":[-83.183818,41.123278]}},{"properties":{"officer":"RMN","city":"Tiffin","zip":"44883","date":{"end_time":"2011/12/05 20:38:00 -0500","original":"12/5/2011 20:37","granularity":"min","time":"2011/12/05 20:37:00 -0500"},"geo_score":0.902,"unit":57,"disposition":"200","cfs":9,"call#":11.012811,"id":"a633wnuvrnyp","geo_precision":"range","address":"197 Walker St","state":"OH","juris":"PD"},"type":"Feature","geometry":{"type":"Point","coordinates":[-83.165767,41.111263]}},{"properties":{"officer":"SMM","city":"Tiffin","zip":"44883","date":{"end_time":"2011/05/11 00:40:00 -0400","original":"5/11/2011 0:39","granularity":"min","time":"2011/05/11 00:39:00 -0400"},"geo_score":0.873,"unit":62,"disposition":"200","cfs":9,"call#":11.004552,"id":"a633wnka7qib","geo_precision":"range","address":"2 Clinton Av","state":"OH","juris":"PD"},"type":"Feature","geometry":{"type":"Point","coordinates":[-83.1709,41.116357]}},{"properties":{"officer":"FWS","city":"Tiffin","zip":"44883","date":{"end_time":"2011/11/22 10:47:00 -0500","original":"11/22/2011 10:46","granularity":"min","time":"2011/11/22 10:46:00 -0500"},"geo_score":0.902,"unit":58,"disposition":"200","cfs":9,"call#":11.012274,"id":"a633wnw0ugol","geo_precision":"range","address":"20 E Perry St","state":"OH","juris":"PD"},"type":"Feature","geometry":{"type":"Point","coordinates":[-83.178935,41.115637]}},{"properties":{"officer":"SMM","city":"Tiffin","zip":"44883","date":{"end_time":"2011/11/10 23:49:00 -0500","original":"11/10/2011 23:48","granularity":"min","time":"2011/11/10 23:48:00 -0500"},"geo_score":0.429,"unit":62,"disposition":"200","cfs":9,"call#":11.011794,"id":"a633wnvbi9ws","geo_precision":"street","address":"200 E Market St, O","state":"OH","juris":"PD"},"type":"Feature","geometry":{"type":"Point","coordinates":[-83.181592,41.114111]}},{"properties":{"officer":"BAR","city":"Tiffin","zip":"44883","date":{"end_time":"2011/11/06 21:19:00 -0500","original":"11/6/2011 21:18","granularity":"min","time":"2011/11/06 21:18:00 -0500"},"geo_score":0.429,"unit":63,"disposition":"200","cfs":9,"call#":11.01163,"id":"a633wntl3w2f","geo_precision":"street","address":"201 Clay St,O","state":"OH","juris":"PD"},"type":"Feature","geometry":{"type":"Point","coordinates":[-83.1824,41.116381]}},{"properties":{"officer":"JSC","city":"Tiffin","zip":"44883","date":{"end_time":"2011/09/09 22:32:00 -0400","original":"9/9/2011 22:31","granularity":"min","time":"2011/09/09 22:31:00 -0400"},"geo_score":0.756,"unit":60,"disposition":"400","cfs":9,"call#":11.009355,"id":"a633wnmj33zr","geo_precision":"range","address":"203 Fourth Av","state":"OH","juris":"PD"},"type":"Feature","geometry":{"type":"Point","coordinates":[-83.182167,41.130467]}},{"properties":{"officer":"DES","city":"Tiffin","zip":"44883","date":{"end_time":"2011/03/12 06:45:00 -0500","original":"3/12/2011 6:44","granularity":"min","time":"2011/03/12 06:44:00 -0500"},"geo_score":0.902,"unit":61,"disposition":"200","cfs":9,"call#":11.002322,"id":"a633wnpixhjb","geo_precision":"range","address":"205 Beechwood Dr","state":"OH","juris":"PD"},"type":"Feature","geometry":{"type":"Point","coordinates":[-83.208427,41.114152]}},{"properties":{"officer":"SGN","city":"Tiffin","zip":"44883","date":{"end_time":"2011/11/15 08:39:00 -0500","original":"11/15/2011 8:38","granularity":"min","time":"2011/11/15 08:38:00 -0500"},"geo_score":0.902,"unit":59,"disposition":"200","cfs":9,"call#":11.011983,"id":"a633wnses9fl","geo_precision":"range","address":"205 S Washington St","state":"OH","juris":"PD"},"type":"Feature","geometry":{"type":"Point","coordinates":[-83.176174,41.111743]}},{"properties":{"officer":"RMN","city":"Tiffin","zip":"44883","date":{"end_time":"2011/07/21 20:56:00 -0400","original":"7/21/2011 20:55","granularity":"min","time":"2011/07/21 20:55:00 -0400"},"geo_score":0.902,"unit":60,"disposition":"200","cfs":9,"call#":11.007295,"id":"a633wnhn4ujd","geo_precision":"range","address":"205X E Market St","state":"OH","juris":"PD"},"type":"Feature","geometry":{"type":"Point","coordinates":[-83.172198,41.114978]}},{"properties":{"officer":"BRB","city":"Tiffin","zip":"44883","date":{"end_time":"2011/02/18 09:24:00 -0500","original":"2/18/2011 9:23","granularity":"min","time":"2011/02/18 09:23:00 -0500"},"geo_score":0.902,"unit":57,"disposition":"200","cfs":9,"call#":11.00159,"id":"a633wnntqc1e","geo_precision":"range","address":"208 S Washington St","state":"OH","juris":"PD"},"type":"Feature","geometry":{"type":"Point","coordinates":[-83.176158,41.111621]}},{"properties":{"officer":"DES","city":"Tiffin","zip":"44883","date":{"end_time":"2011/10/17 18:03:00 -0400","original":"10/17/2011 18:02","granularity":"min","time":"2011/10/17 18:02:00 -0400"},"geo_score":0.902,"unit":58,"disposition":"400","cfs":9,"call#":11.01086,"id":"a633wnvxfve0","geo_precision":"range","address":"21 Adams St","state":"OH","juris":"PD"},"type":"Feature","geometry":{"type":"Point","coordinates":[-83.178848,41.118031]}},{"properties":{"officer":"SMM","city":"Tiffin","zip":"44883","date":{"end_time":"2011/06/07 18:55:00 -0400","original":"6/7/2011 18:54","granularity":"min","time":"2011/06/07 18:54:00 -0400"},"geo_score":0.902,"unit":60,"disposition":"200","cfs":9,"call#":11.005614,"id":"a633wnhshl8x","geo_precision":"range","address":"210 E Market St","state":"OH","juris":"PD"},"type":"Feature","geometry":{"type":"Point","coordinates":[-83.1721,41.114989]}},{"properties":{"officer":"BRB","city":"Tiffin","zip":"44883","date":{"end_time":"2011/09/14 11:30:00 -0400","original":"9/14/2011 11:29","granularity":"min","time":"2011/09/14 11:29:00 -0400"},"geo_score":0.902,"unit":63,"disposition":"200","cfs":9,"call#":11.009514,"id":"a633wnm82drq","geo_precision":"range","address":"210 N Washington St","state":"OH","juris":"PD"},"type":"Feature","geometry":{"type":"Point","coordinates":[-83.177997,41.123731]}},{"properties":{"officer":"SGN","city":"Tiffin","zip":"44883","date":{"end_time":"2011/03/22 17:19:00 -0400","original":"3/22/2011 17:18","granularity":"min","time":"2011/03/22 17:18:00 -0400"},"geo_score":0.902,"unit":58,"disposition":"200","cfs":9,"call#":11.002631,"id":"a633wnly2m3e","geo_precision":"range","address":"210 Wall St","state":"OH","juris":"PD"},"type":"Feature","geometry":{"type":"Point","coordinates":[-83.187474,41.120872]}},{"properties":{"officer":"PJD","city":"Tiffin","zip":"44883","date":{"end_time":"2011/03/22 03:52:00 -0400","original":"3/22/2011 3:51","granularity":"min","time":"2011/03/22 03:51:00 -0400"},"geo_score":0.902,"unit":61,"disposition":"200","cfs":9,"call#":11.002611,"id":"a633wnlqhi1i","geo_precision":"range","address":"210X S Washington St","state":"OH","juris":"PD"},"type":"Feature","geometry":{"type":"Point","coordinates":[-83.176151,41.111561]}},{"properties":{"officer":"RJO","city":"Tiffin","zip":"44883","date":{"end_time":"2011/04/02 13:43:00 -0400","original":"4/2/2011 13:42","granularity":"min","time":"2011/04/02 13:42:00 -0400"},"geo_score":0.902,"unit":60,"disposition":"200","cfs":9,"call#":11.002953,"id":"a633wnhqw868","geo_precision":"range","address":"212 Walker St","state":"OH","juris":"PD"},"type":"Feature","geometry":{"type":"Point","coordinates":[-83.165461,41.111298]}},{"properties":{"officer":"GTM","city":"Tiffin","zip":"44883","date":{"end_time":"2011/07/16 09:48:00 -0400","original":"7/16/2011 9:47","granularity":"min","time":"2011/07/16 09:47:00 -0400"},"geo_score":0.902,"unit":59,"disposition":"100","cfs":9,"call#":11.007126,"id":"a633wnjdzh9j","geo_precision":"range","address":"214 S Monroe St","state":"OH","juris":"PD"},"type":"Feature","geometry":{"type":"Point","coordinates":[-83.177573,41.110543]}},{"properties":{"officer":"FWS","city":"Tiffin","zip":"44883","date":{"end_time":"2011/03/09 15:13:00 -0500","original":"3/9/2011 15:12","granularity":"min","time":"2011/03/09 15:12:00 -0500"},"geo_score":0.873,"unit":60,"disposition":"200","cfs":9,"call#":11.002232,"id":"a633wnrc4n5p","geo_precision":"range","address":"215 Clinton Av","state":"OH","juris":"PD"},"type":"Feature","geometry":{"type":"Point","coordinates":[-83.168718,41.122294]}},{"properties":{"officer":"RJO","city":"Tiffin","zip":"44883","date":{"end_time":"2011/02/25 14:21:00 -0500","original":"2/25/2011 14:20","granularity":"min","time":"2011/02/25 14:20:00 -0500"},"geo_score":0.902,"unit":58,"disposition":"200","cfs":9,"call#":11.0018,"id":"a633wnjygmjw","geo_precision":"range","address":"215 Melmore St","state":"OH","juris":"PD"},"type":"Feature","geometry":{"type":"Point","coordinates":[-83.170849,41.104687]}},{"properties":{"officer":"JDW","city":"Tiffin","zip":"44883","date":{"end_time":"2011/03/09 11:06:00 -0500","original":"3/9/2011 11:05","granularity":"min","time":"2011/03/09 11:05:00 -0500"},"geo_score":0.902,"unit":63,"disposition":"200","cfs":9,"call#":11.002223,"id":"a633wnj9c6vt","geo_precision":"range","address":"217 S Washington St","state":"OH","juris":"PD"},"type":"Feature","geometry":{"type":"Point","coordinates":[-83.176128,41.111379]}},{"properties":{"officer":"SGN","city":"Tiffin","zip":"44883","date":{"end_time":"2011/06/15 11:26:00 -0400","original":"6/15/2011 11:25","granularity":"min","time":"2011/06/15 11:25:00 -0400"},"geo_score":0.902,"unit":59,"disposition":"200","cfs":9,"call#":11.005923,"id":"a633wnv0s8pb","geo_precision":"range","address":"219 W Market St","state":"OH","juris":"PD"},"type":"Feature","geometry":{"type":"Point","coordinates":[-83.187926,41.113459]}},{"properties":{"officer":"SGN","city":"Tiffin","zip":"44883","date":{"end_time":"2011/10/19 13:19:00 -0400","original":"10/19/2011 13:18","granularity":"min","time":"2011/10/19 13:18:00 -0400"},"geo_score":0.902,"unit":59,"disposition":"200","cfs":9,"call#":11.010912,"id":"a633wnqh530y","geo_precision":"range","address":"2190 W Market St","state":"OH","juris":"PD"},"type":"Feature","geometry":{"type":"Point","coordinates":[-83.212842,41.110132]}},{"properties":{"officer":"RMN","city":"Tiffin","zip":"44883","date":{"end_time":"2011/08/19 23:25:00 -0400","original":"8/19/2011 23:24","granularity":"min","time":"2011/08/19 23:24:00 -0400"},"geo_score":0.87,"unit":57,"disposition":"200","cfs":9,"call#":11.008471,"id":"a633wnjna7j4","geo_precision":"range","address":"22 Edison Av","state":"OH","juris":"PD"},"type":"Feature","geometry":{"type":"Point","coordinates":[-83.179829,41.132292]}},{"properties":{"officer":"JSC","city":"Tiffin","zip":"44883","date":{"end_time":"2011/06/28 16:43:00 -0400","original":"6/28/2011 16:42","granularity":"min","time":"2011/06/28 16:42:00 -0400"},"geo_score":0.902,"unit":58,"disposition":"200","cfs":9,"call#":11.006418,"id":"a633wnpue4j5","geo_precision":"range","address":"2226 W Market St","state":"OH","juris":"PD"},"type":"Feature","geometry":{"type":"Point","coordinates":[-83.213209,41.11005]}},{"properties":{"officer":"JAD","city":"Tiffin","zip":"44883","date":{"end_time":"2011/10/10 19:42:00 -0400","original":"10/10/2011 19:41","granularity":"min","time":"2011/10/10 19:41:00 -0400"},"geo_score":0.429,"unit":56,"disposition":"200","cfs":9,"call#":11.01059,"id":"a633wnpdmr3l","geo_precision":"street","address":"227 Mohawk St,B6","state":"OH","juris":"PD"},"type":"Feature","geometry":{"type":"Point","coordinates":[-83.178062,41.103556]}},{"properties":{"officer":"JSC","city":"Tiffin","zip":"44883","date":{"end_time":"2011/07/17 19:25:00 -0400","original":"7/17/2011 19:24","granularity":"min","time":"2011/07/17 19:24:00 -0400"},"geo_score":0.902,"unit":59,"disposition":"200","cfs":9,"call#":11.007189,"id":"a633wnxbcx66","geo_precision":"range","address":"23 Miami St","state":"OH","juris":"PD"},"type":"Feature","geometry":{"type":"Point","coordinates":[-83.180072,41.117044]}},{"properties":{"officer":"JSC","city":"Tiffin","zip":"44883","date":{"end_time":"2011/04/12 23:29:00 -0400","original":"4/12/2011 23:28","granularity":"min","time":"2011/04/12 23:28:00 -0400"},"geo_score":0.873,"unit":59,"disposition":"200","cfs":9,"call#":11.003401,"id":"a633wnwy6thq","geo_precision":"range","address":"230 Clinton Av","state":"OH","juris":"PD"},"type":"Feature","geometry":{"type":"Point","coordinates":[-83.168315,41.122619]}},{"properties":{"officer":"FWS","city":"Tiffin","zip":"44883","date":{"end_time":"2011/01/25 10:16:00 -0500","original":"1/25/2011 10:15","granularity":"min","time":"2011/01/25 10:15:00 -0500"},"geo_score":0.902,"unit":57,"disposition":"200","cfs":9,"call#":11.000731,"id":"a633wnog8tfk","geo_precision":"range","address":"24 Goodsell St","state":"OH","juris":"PD"},"type":"Feature","geometry":{"type":"Point","coordinates":[-83.166146,41.110423]}},{"properties":{"officer":"DES","city":"Tiffin","zip":"44883","date":{"end_time":"2011/04/18 16:15:00 -0400","original":"4/18/2011 16:14","granularity":"min","time":"2011/04/18 16:14:00 -0400"},"geo_score":0.902,"unit":61,"disposition":"200","cfs":9,"call#":11.003616,"id":"a633wntbunhk","geo_precision":"range","address":"24 Morningside Dr","state":"OH","juris":"PD"},"type":"Feature","geometry":{"type":"Point","coordinates":[-83.190564,41.103253]}},{"properties":{"officer":"PJD","city":"Tiffin","zip":"44883","date":{"end_time":"2011/07/26 21:31:00 -0400","original":"7/26/2011 21:30","granularity":"min","time":"2011/07/26 21:30:00 -0400"},"geo_score":0.902,"unit":61,"disposition":"200","cfs":9,"call#":11.007518,"id":"a633wnhe3rwe","geo_precision":"range","address":"24 Noble St","state":"OH","juris":"PD"},"type":"Feature","geometry":{"type":"Point","coordinates":[-83.173811,41.122793]}},{"properties":{"officer":"RLT","city":"Tiffin","zip":"44883","date":{"end_time":"2011/11/07 23:46:00 -0500","original":"11/7/2011 23:45","granularity":"min","time":"2011/11/07 23:45:00 -0500"},"geo_score":0.902,"unit":63,"disposition":"200","cfs":9,"call#":11.011664,"id":"a633wniebl0n","geo_precision":"range","address":"244X W Perry St","state":"OH","juris":"PD"},"type":"Feature","geometry":{"type":"Point","coordinates":[-83.189069,41.115134]}},{"properties":{"officer":"EDA","city":"Tiffin","zip":"44883","date":{"end_time":"2011/06/26 12:55:00 -0400","original":"6/26/2011 12:54","granularity":"min","time":"2011/06/26 12:54:00 -0400"},"geo_score":0.866,"unit":59,"disposition":"200","cfs":9,"call#":11.006348,"id":"a633wnug374s","geo_precision":"range","address":"248 Grand Av","state":"OH","juris":"PD"},"type":"Feature","geometry":{"type":"Point","coordinates":[-83.174213,41.133646]}},{"properties":{"officer":"JAD","city":"Tiffin","zip":"44883","date":{"end_time":"2011/07/01 13:15:00 -0400","original":"7/1/2011 13:14","granularity":"min","time":"2011/07/01 13:14:00 -0400"},"geo_score":0.902,"unit":56,"disposition":"200","cfs":9,"call#":11.006549,"id":"a633wnsoftvx","geo_precision":"range","address":"252 N Washington St","state":"OH","juris":"PD"},"type":"Feature","geometry":{"type":"Point","coordinates":[-83.178163,41.124797]}},{"properties":{"officer":"BRB","city":"Tiffin","zip":"44883","date":{"end_time":"2011/04/12 14:25:00 -0400","original":"4/12/2011 14:24","granularity":"min","time":"2011/04/12 14:24:00 -0400"},"geo_score":0.902,"unit":63,"disposition":"200","cfs":9,"call#":11.003382,"id":"a633wnoo6p9h","geo_precision":"range","address":"2525 W Market St","state":"OH","juris":"PD"},"type":"Feature","geometry":{"type":"Point","coordinates":[-83.219119,41.109152]}},{"properties":{"officer":"LMK","city":"Tiffin","zip":"44883","date":{"end_time":"2011/05/03 21:38:00 -0400","original":"5/3/2011 21:37","granularity":"min","time":"2011/05/03 21:37:00 -0400"},"geo_score":0.902,"unit":63,"disposition":"200","cfs":9,"call#":11.004273,"id":"a633wnok2707","geo_precision":"range","address":"253 S Washington St","state":"OH","juris":"PD"},"type":"Feature","geometry":{"type":"Point","coordinates":[-83.175917,41.110499]}},{"properties":{"officer":"JDW","city":"Tiffin","zip":"44883","date":{"end_time":"2011/09/10 12:21:00 -0400","original":"9/10/2011 12:20","granularity":"min","time":"2011/09/10 12:20:00 -0400"},"geo_score":0.902,"unit":57,"disposition":"200","cfs":9,"call#":11.009378,"id":"a633wnpd9smw","geo_precision":"range","address":"255 N Washington St","state":"OH","juris":"PD"},"type":"Feature","geometry":{"type":"Point","coordinates":[-83.178157,41.12475]}},{"properties":{"officer":"BAR","city":"Tiffin","zip":"44883","date":{"end_time":"2011/05/28 17:07:00 -0400","original":"5/28/2011 17:06","granularity":"min","time":"2011/05/28 17:06:00 -0400"},"geo_score":0.805,"unit":63,"disposition":"200","cfs":9,"call#":11.005226,"id":"a633wnu16z27","geo_precision":"street","address":"255 W Market St","state":"OH","juris":"PD"},"type":"Feature","geometry":{"type":"Point","coordinates":[-83.189461,41.113339]}},{"properties":{"officer":"JAD","city":"Tiffin","zip":"44883","date":{"end_time":"2011/06/09 12:00:00 -0400","original":"6/9/2011 11:59","granularity":"min","time":"2011/06/09 11:59:00 -0400"},"geo_score":0.902,"unit":56,"disposition":"200","cfs":9,"call#":11.00568,"id":"a633wnikf29q","geo_precision":"range","address":"263 S Monroe St","state":"OH","juris":"PD"},"type":"Feature","geometry":{"type":"Point","coordinates":[-83.177371,41.109317]}},{"properties":{"officer":"FWS","city":"Tiffin","zip":"44883","date":{"end_time":"2011/03/07 11:24:00 -0500","original":"3/7/2011 11:23","granularity":"min","time":"2011/03/07 11:23:00 -0500"},"geo_score":0.756,"unit":63,"disposition":"200","cfs":9,"call#":11.002156,"id":"a633wnpp04jo","geo_precision":"range","address":"265 Sixth Av","state":"OH","juris":"PD"},"type":"Feature","geometry":{"type":"Point","coordinates":[-83.183327,41.132178]}},{"properties":{"officer":"MMS","city":"Tiffin","zip":"44883","date":{"end_time":"2011/12/16 22:12:00 -0500","original":"12/16/2011 22:11","granularity":"min","time":"2011/12/16 22:11:00 -0500"},"geo_score":0.902,"unit":62,"disposition":"200","cfs":9,"call#":11.013283,"id":"a633wnwcxwql","geo_precision":"range","address":"267 S Monroe St","state":"OH","juris":"PD"},"type":"Feature","geometry":{"type":"Point","coordinates":[-83.177355,41.109178]}},{"properties":{"officer":"JMW","city":"Tiffin","zip":"44883","date":{"end_time":"2011/09/06 21:27:00 -0400","original":"9/6/2011 21:26","granularity":"min","time":"2011/09/06 21:26:00 -0400"},"geo_score":0.902,"unit":63,"disposition":"200","cfs":9,"call#":11.009225,"id":"a633wnlu1fsz","geo_precision":"range","address":"269 W Market St","state":"OH","juris":"PD"},"type":"Feature","geometry":{"type":"Point","coordinates":[-83.189762,41.113302]}},{"properties":{"officer":"JSC","city":"Tiffin","zip":"44883","date":{"end_time":"2011/09/08 06:38:00 -0400","original":"9/8/2011 6:37","granularity":"min","time":"2011/09/08 06:37:00 -0400"},"geo_score":0.902,"unit":57,"disposition":"200","cfs":9,"call#":11.00927,"id":"a633wnlm4lxe","geo_precision":"range","address":"27 Boehler St","state":"OH","juris":"PD"},"type":"Feature","geometry":{"type":"Point","coordinates":[-83.188128,41.116915]}},{"properties":{"officer":"DES","city":"Tiffin","zip":"44883","date":{"end_time":"2011/12/26 11:26:00 -0500","original":"12/26/2011 11:25","granularity":"min","time":"2011/12/26 11:25:00 -0500"},"geo_score":0.902,"unit":61,"disposition":"400","cfs":9,"call#":11.013598,"id":"a633wnmdt9sz","geo_precision":"range","address":"275 S Monroe St,3","state":"OH","juris":"PD"},"type":"Feature","geometry":{"type":"Point","coordinates":[-83.178447,41.116176]}},{"properties":{"officer":"RMN","city":"Tiffin","zip":"44883","date":{"end_time":"2011/08/13 15:23:00 -0400","original":"8/13/2011 15:22","granularity":"min","time":"2011/08/13 15:22:00 -0400"},"geo_score":0.902,"unit":57,"disposition":"200","cfs":9,"call#":11.008215,"id":"a633wnq0sy47","geo_precision":"range","address":"277 Jackson St","state":"OH","juris":"PD"},"type":"Feature","geometry":{"type":"Point","coordinates":[-83.183483,41.120668]}},{"properties":{"officer":"FWS","city":"Tiffin","zip":"44883","date":{"end_time":"2011/09/13 11:51:00 -0400","original":"9/13/2011 11:50","granularity":"min","time":"2011/09/13 11:50:00 -0400"},"geo_score":0.902,"unit":58,"disposition":"200","cfs":9,"call#":11.009484,"id":"a633wnlxwwfx","geo_precision":"range","address":"278 Circular St","state":"OH","juris":"PD"},"type":"Feature","geometry":{"type":"Point","coordinates":[-83.170299,41.108144]}},{"properties":{"officer":"DES","city":"Tiffin","zip":"44883","date":{"end_time":"2011/09/09 14:00:00 -0400","original":"9/9/2011 13:59","granularity":"min","time":"2011/09/09 13:59:00 -0400"},"geo_score":0.582,"unit":61,"disposition":"200","cfs":9,"call#":11.009326,"id":"a633wnobnv8r","geo_precision":"street","address":"2801 W Sr 18","state":"OH","juris":"PD"},"type":"Feature","geometry":{"type":"Point","coordinates":[-83.278292,41.108823]}},{"properties":{"officer":"LMK","city":"Tiffin","zip":"44883","date":{"end_time":"2011/04/19 22:56:00 -0400","original":"4/19/2011 22:55","granularity":"min","time":"2011/04/19 22:55:00 -0400"},"geo_score":0.582,"unit":63,"disposition":"200","cfs":9,"call#":11.003672,"id":"a633wnhlfp1p","geo_precision":"street","address":"2801 W Sr 18","state":"OH","juris":"PD"},"type":"Feature","geometry":{"type":"Point","coordinates":[-83.278292,41.108823]}},{"properties":{"officer":"RLT","city":"Tiffin","zip":"44883","date":{"end_time":"2011/05/06 21:06:00 -0400","original":"5/6/2011 21:05","granularity":"min","time":"2011/05/06 21:05:00 -0400"},"geo_score":0.756,"unit":62,"disposition":"400","cfs":9,"call#":11.004378,"id":"a633wnsmkg38","geo_precision":"range","address":"281 Fourth Av","state":"OH","juris":"PD"},"type":"Feature","geometry":{"type":"Point","coordinates":[-83.185195,41.130437]}},{"properties":{"officer":"MMS","city":"Tiffin","zip":"44883","date":{"end_time":"2011/12/04 03:10:00 -0500","original":"12/4/2011 3:09","granularity":"min","time":"2011/12/04 03:09:00 -0500"},"geo_score":0.902,"unit":61,"disposition":"200","cfs":9,"call#":11.012762,"id":"a633wnv7o5e9","geo_precision":"range","address":"282 Main St","state":"OH","juris":"PD"},"type":"Feature","geometry":{"type":"Point","coordinates":[-83.164197,41.11235]}},{"properties":{"officer":"LMK","city":"Tiffin","zip":"44883","date":{"end_time":"2011/08/06 05:05:00 -0400","original":"8/6/2011 5:04","granularity":"min","time":"2011/08/06 05:04:00 -0400"},"geo_score":0.902,"unit":57,"disposition":"200","cfs":9,"call#":11.007936,"id":"a633wnnoenk2","geo_precision":"range","address":"283 S Washington St","state":"OH","juris":"PD"},"type":"Feature","geometry":{"type":"Point","coordinates":[-83.175825,41.10983]}},{"properties":{"officer":"JMW","city":"Tiffin","zip":"44883","date":{"end_time":"2011/06/08 18:18:00 -0400","original":"6/8/2011 18:17","granularity":"min","time":"2011/06/08 18:17:00 -0400"},"geo_score":0.861,"unit":57,"disposition":"200","cfs":9,"call#":11.00565,"id":"a633wnqs3389","geo_precision":"range","address":"286 Ohio Av","state":"OH","juris":"PD"},"type":"Feature","geometry":{"type":"Point","coordinates":[-83.163411,41.126179]}},{"properties":{"officer":"DES","city":"Tiffin","zip":"44883","date":{"end_time":"2011/09/16 08:17:00 -0400","original":"9/16/2011 8:16","granularity":"min","time":"2011/09/16 08:16:00 -0400"},"geo_score":0.902,"unit":61,"disposition":"200","cfs":9,"call#":11.009586,"id":"a633wnqsykwh","geo_precision":"range","address":"287 Noble St","state":"OH","juris":"PD"},"type":"Feature","geometry":{"type":"Point","coordinates":[-83.183236,41.123625]}},{"properties":{"officer":"JAD","city":"Tiffin","zip":"44883","date":{"end_time":"2011/04/24 02:28:00 -0400","original":"4/24/2011 2:27","granularity":"min","time":"2011/04/24 02:27:00 -0400"},"geo_score":0.902,"unit":56,"disposition":"200","cfs":9,"call#":11.003848,"id":"a633wnwdggyp","geo_precision":"range","address":"295 Vine St","state":"OH","juris":"PD"},"type":"Feature","geometry":{"type":"Point","coordinates":[-83.182752,41.132866]}},{"properties":{"officer":"DES","city":"Tiffin","zip":"44883","date":{"end_time":"2011/04/18 12:22:00 -0400","original":"4/18/2011 12:21","granularity":"min","time":"2011/04/18 12:21:00 -0400"},"geo_score":0.902,"unit":61,"disposition":"200","cfs":9,"call#":11.00361,"id":"a633wnwdcgbg","geo_precision":"range","address":"30 Morningside Dr","state":"OH","juris":"PD"},"type":"Feature","geometry":{"type":"Point","coordinates":[-83.190564,41.103102]}},{"properties":{"officer":"GTM","city":"Tiffin","zip":"44883","date":{"end_time":"2011/06/28 06:37:00 -0400","original":"6/28/2011 6:36","granularity":"min","time":"2011/06/28 06:36:00 -0400"},"geo_score":0.902,"unit":61,"disposition":"200","cfs":9,"call#":11.0064,"id":"a633wnmrtyzt","geo_precision":"range","address":"30 St Clair St","state":"OH","juris":"PD"},"type":"Feature","geometry":{"type":"Point","coordinates":[-83.181523,41.113582]}},{"properties":{"officer":"RJO","city":"Tiffin","zip":"44883","date":{"end_time":"2011/10/21 10:22:00 -0400","original":"10/21/2011 10:21","granularity":"min","time":"2011/10/21 10:21:00 -0400"},"geo_score":0.902,"unit":57,"disposition":"200","cfs":9,"call#":11.010967,"id":"a633wnsoelds","geo_precision":"range","address":"300 Hedges St","state":"OH","juris":"PD"},"type":"Feature","geometry":{"type":"Point","coordinates":[-83.167611,41.10878]}},{"properties":{"officer":"GTM","city":"Tiffin","zip":"44883","date":{"end_time":"2011/11/28 10:45:00 -0500","original":"11/28/2011 10:44","granularity":"min","time":"2011/11/28 10:44:00 -0500"},"geo_score":0.902,"unit":62,"disposition":"200","cfs":9,"call#":11.012508,"id":"a633wnwvbzsn","geo_precision":"range","address":"300 S Monroe St","state":"OH","juris":"PD"},"type":"Feature","geometry":{"type":"Point","coordinates":[-83.177173,41.107991]}},{"properties":{"officer":"RLT","city":"Tiffin","zip":"44883","date":{"end_time":"2011/12/26 21:01:00 -0500","original":"12/26/2011 21:00","granularity":"min","time":"2011/12/26 21:00:00 -0500"},"geo_score":0.902,"unit":63,"disposition":"200","cfs":9,"call#":11.013615,"id":"a633wnh7aajl","geo_precision":"range","address":"31 Gross St","state":"OH","juris":"PD"},"type":"Feature","geometry":{"type":"Point","coordinates":[-83.169198,41.105057]}},{"properties":{"officer":"JSC","city":"Tiffin","zip":"44883","date":{"end_time":"2011/04/04 22:33:00 -0400","original":"4/4/2011 22:32","granularity":"min","time":"2011/04/04 22:32:00 -0400"},"geo_score":0.902,"unit":57,"disposition":"100","cfs":9,"call#":11.00304,"id":"a633wnhjveko","geo_precision":"range","address":"310 N Washington St","state":"OH","juris":"PD"},"type":"Feature","geometry":{"type":"Point","coordinates":[-83.178395,41.126157]}},{"properties":{"officer":"RMN","city":"Tiffin","zip":"44883","date":{"end_time":"2011/06/06 08:07:00 -0400","original":"6/6/2011 8:06","granularity":"min","time":"2011/06/06 08:06:00 -0400"},"geo_score":0.902,"unit":63,"disposition":"200","cfs":9,"call#":11.005571,"id":"a633wnvimrjd","geo_precision":"range","address":"312 N Sandusky St","state":"OH","juris":"PD"},"type":"Feature","geometry":{"type":"Point","coordinates":[-83.177703,41.126891]}},{"properties":{"officer":"BRB","city":"Tiffin","zip":"44883","date":{"end_time":"2011/08/22 15:30:00 -0400","original":"8/22/2011 15:29","granularity":"min","time":"2011/08/22 15:29:00 -0400"},"geo_score":0.902,"unit":57,"disposition":"200","cfs":9,"call#":11.008572,"id":"a633wngx7txy","geo_precision":"range","address":"315 W Market St","state":"OH","juris":"PD"},"type":"Feature","geometry":{"type":"Point","coordinates":[-83.191142,41.113162]}},{"properties":{"officer":"RLT","city":"Tiffin","zip":"44883","date":{"end_time":"2011/04/10 04:37:00 -0400","original":"4/10/2011 4:36","granularity":"min","time":"2011/04/10 04:36:00 -0400"},"geo_score":0.902,"unit":61,"disposition":"200","cfs":9,"call#":11.003289,"id":"a633wnjev11z","geo_precision":"range","address":"315 W Market St","state":"OH","juris":"PD"},"type":"Feature","geometry":{"type":"Point","coordinates":[-83.191142,41.113162]}},{"properties":{"officer":"MEM","city":"Tiffin","zip":"44883","date":{"end_time":"2011/01/16 05:43:00 -0500","original":"1/16/2011 5:42","granularity":"min","time":"2011/01/16 05:42:00 -0500"},"geo_score":0.902,"unit":63,"disposition":"200","cfs":9,"call#":11.000473,"id":"a633wnjdudc0","geo_precision":"range","address":"315 W Market St","state":"OH","juris":"PD"},"type":"Feature","geometry":{"type":"Point","coordinates":[-83.191142,41.113162]}},{"properties":{"officer":"JMW","city":"Tiffin","zip":"44883","date":{"end_time":"2011/10/14 18:47:00 -0400","original":"10/14/2011 18:46","granularity":"min","time":"2011/10/14 18:46:00 -0400"},"geo_score":0.902,"unit":60,"disposition":"200","cfs":9,"call#":11.010753,"id":"a633wns3ir8b","geo_precision":"range","address":"318 W Market St","state":"OH","juris":"PD"},"type":"Feature","geometry":{"type":"Point","coordinates":[-83.191227,41.113152]}},{"properties":{"officer":"RJO","city":"Tiffin","zip":"44883","date":{"end_time":"2011/09/03 09:11:00 -0400","original":"9/3/2011 9:10","granularity":"min","time":"2011/09/03 09:10:00 -0400"},"geo_score":0.902,"unit":58,"disposition":"200","cfs":9,"call#":11.009069,"id":"a633wnt33pq6","geo_precision":"range","address":"318 W Market St","state":"OH","juris":"PD"},"type":"Feature","geometry":{"type":"Point","coordinates":[-83.191227,41.113152]}},{"properties":{"officer":"DES","city":"Tiffin","zip":"44883","date":{"end_time":"2011/02/05 12:29:00 -0500","original":"2/5/2011 12:28","granularity":"min","time":"2011/02/05 12:28:00 -0500"},"geo_score":0.902,"unit":61,"disposition":"200","cfs":9,"call#":11.001114,"id":"a633wnvhoewh","geo_precision":"range","address":"323 S Monroe St","state":"OH","juris":"PD"},"type":"Feature","geometry":{"type":"Point","coordinates":[-83.177111,41.107486]}},{"properties":{"officer":"BRB","city":"Tiffin","zip":"44883","date":{"end_time":"2011/08/23 07:27:00 -0400","original":"8/23/2011 7:26","granularity":"min","time":"2011/08/23 07:26:00 -0400"},"geo_score":0.902,"unit":57,"disposition":"200","cfs":9,"call#":11.008606,"id":"a633wnuxyyde","geo_precision":"range","address":"325 Hall St","state":"OH","juris":"PD"},"type":"Feature","geometry":{"type":"Point","coordinates":[-83.188315,41.123622]}},{"properties":{"officer":"JAD","city":"Tiffin","zip":"44883","date":{"end_time":"2011/06/09 14:03:00 -0400","original":"6/9/2011 14:02","granularity":"min","time":"2011/06/09 14:02:00 -0400"},"geo_score":0.902,"unit":56,"disposition":"200","cfs":9,"call#":11.005684,"id":"a633wnlswubi","geo_precision":"range","address":"330 E Market St","state":"OH","juris":"PD"},"type":"Feature","geometry":{"type":"Point","coordinates":[-83.168284,41.116953]}},{"properties":{"officer":"JPF","city":"Tiffin","zip":"44883","date":{"end_time":"2011/09/08 00:37:00 -0400","original":"9/8/2011 0:36","granularity":"min","time":"2011/09/08 00:36:00 -0400"},"geo_score":0.861,"unit":59,"disposition":"200","cfs":9,"call#":11.009267,"id":"a633wnoq9j8v","geo_precision":"range","address":"330 Ohio Av","state":"OH","juris":"PD"},"type":"Feature","geometry":{"type":"Point","coordinates":[-83.163336,41.127609]}},{"properties":{"officer":"JAD","city":"Tiffin","zip":"44883","date":{"end_time":"2011/05/07 22:02:00 -0400","original":"5/7/2011 22:01","granularity":"min","time":"2011/05/07 22:01:00 -0400"},"geo_score":0.902,"unit":56,"disposition":"200","cfs":9,"call#":11.004423,"id":"a633wnlynpqk","geo_precision":"range","address":"339 Benner St","state":"OH","juris":"PD"},"type":"Feature","geometry":{"type":"Point","coordinates":[-83.186439,41.112593]}},{"properties":{"officer":"JDW","city":"Tiffin","zip":"44883","date":{"end_time":"2011/05/18 19:28:00 -0400","original":"5/18/2011 19:27","granularity":"min","time":"2011/05/18 19:27:00 -0400"},"geo_score":0.902,"unit":63,"disposition":"200","cfs":9,"call#":11.004832,"id":"a633wnpotauq","geo_precision":"range","address":"34 Maplewood St","state":"OH","juris":"PD"},"type":"Feature","geometry":{"type":"Point","coordinates":[-83.16226,41.119346]}},{"properties":{"officer":"MEM","city":"Tiffin","zip":"44883","date":{"end_time":"2011/03/31 10:31:00 -0400","original":"3/31/2011 10:30","granularity":"min","time":"2011/03/31 10:30:00 -0400"},"geo_score":0.902,"unit":63,"disposition":"200","cfs":9,"call#":11.002865,"id":"a633wnu3ysii","geo_precision":"range","address":"34 Mccollum St","state":"OH","juris":"PD"},"type":"Feature","geometry":{"type":"Point","coordinates":[-83.161711,41.118187]}},{"properties":{"officer":"JDW","city":"Tiffin","zip":"44883","date":{"end_time":"2011/09/24 11:29:00 -0400","original":"9/24/2011 11:28","granularity":"min","time":"2011/09/24 11:28:00 -0400"},"geo_score":0.902,"unit":62,"disposition":"200","cfs":9,"call#":11.009926,"id":"a633wnwixigq","geo_precision":"range","address":"349 Miami St","state":"OH","juris":"PD"},"type":"Feature","geometry":{"type":"Point","coordinates":[-83.192195,41.119347]}},{"properties":{"officer":"JMW","city":"Tiffin","zip":"44883","date":{"end_time":"2011/12/27 16:31:00 -0500","original":"12/27/2011 16:30","granularity":"min","time":"2011/12/27 16:30:00 -0500"},"geo_score":0.902,"unit":60,"disposition":"200","cfs":9,"call#":11.013629,"id":"a633wnn2rbhs","geo_precision":"range","address":"35 Adams St","state":"OH","juris":"PD"},"type":"Feature","geometry":{"type":"Point","coordinates":[-83.179131,41.118181]}},{"properties":{"officer":"FWS","city":"Tiffin","zip":"44883","date":{"end_time":"2011/12/08 12:27:00 -0500","original":"12/8/2011 12:26","granularity":"min","time":"2011/12/08 12:26:00 -0500"},"geo_score":0.902,"unit":58,"disposition":"200","cfs":9,"call#":11.012892,"id":"a633wnv8tjil","geo_precision":"range","address":"359 Miami St","state":"OH","juris":"PD"},"type":"Feature","geometry":{"type":"Point","coordinates":[-83.192568,41.119259]}},{"properties":{"officer":"FWS","city":"Tiffin","zip":"44883","date":{"end_time":"2011/11/01 12:02:00 -0400","original":"11/1/2011 12:01","granularity":"min","time":"2011/11/01 12:01:00 -0400"},"geo_score":0.902,"unit":58,"disposition":"200","cfs":9,"call#":11.011415,"id":"a633wnk9hi0n","geo_precision":"range","address":"359 Miami St","state":"OH","juris":"PD"},"type":"Feature","geometry":{"type":"Point","coordinates":[-83.192568,41.119259]}},{"properties":{"officer":"GTM","city":"Tiffin","zip":"44883","date":{"end_time":"2011/05/08 08:41:00 -0400","original":"5/8/2011 8:40","granularity":"min","time":"2011/05/08 08:40:00 -0400"},"geo_score":0.902,"unit":57,"disposition":"200","cfs":9,"call#":11.00445,"id":"a633wnw8arnv","geo_precision":"range","address":"36 Hudson St","state":"OH","juris":"PD"},"type":"Feature","geometry":{"type":"Point","coordinates":[-83.179706,41.120028]}},{"properties":{"officer":"MEM","city":"Tiffin","zip":"44883","date":{"end_time":"2011/04/14 11:08:00 -0400","original":"4/14/2011 11:07","granularity":"min","time":"2011/04/14 11:07:00 -0400"},"geo_score":0.902,"unit":63,"disposition":"200","cfs":9,"call#":11.003447,"id":"a633wnnzouo4","geo_precision":"range","address":"36 Hudson St","state":"OH","juris":"PD"},"type":"Feature","geometry":{"type":"Point","coordinates":[-83.179706,41.120028]}},{"properties":{"officer":"FWS","city":"Tiffin","zip":"44883","date":{"end_time":"2011/03/24 14:21:00 -0400","original":"3/24/2011 14:20","granularity":"min","time":"2011/03/24 14:20:00 -0400"},"geo_score":0.902,"unit":57,"disposition":"200","cfs":9,"call#":11.002675,"id":"a633wnkcz4i6","geo_precision":"range","address":"366 Wentz St","state":"OH","juris":"PD"},"type":"Feature","geometry":{"type":"Point","coordinates":[-83.198801,41.11361]}},{"properties":{"officer":"JSC","city":"Tiffin","zip":"44883","date":{"end_time":"2011/03/05 19:08:00 -0500","original":"3/5/2011 19:07","granularity":"min","time":"2011/03/05 19:07:00 -0500"},"geo_score":0.902,"unit":57,"disposition":"200","cfs":9,"call#":11.002102,"id":"a633wnrnf3em","geo_precision":"range","address":"366 Wentz St","state":"OH","juris":"PD"},"type":"Feature","geometry":{"type":"Point","coordinates":[-83.198801,41.11361]}},{"properties":{"officer":"SGN","city":"Tiffin","zip":"44883","date":{"end_time":"2011/08/11 16:28:00 -0400","original":"8/11/2011 16:27","granularity":"min","time":"2011/08/11 16:27:00 -0400"},"geo_score":0.902,"unit":59,"disposition":"200","cfs":9,"call#":11.008127,"id":"a633wnvpmoq2","geo_precision":"range","address":"368 N Washington St","state":"OH","juris":"PD"},"type":"Feature","geometry":{"type":"Point","coordinates":[-83.178624,41.128224]}},{"properties":{"officer":"DES","city":"Tiffin","zip":"44883","date":{"end_time":"2011/03/11 13:22:00 -0500","original":"3/11/2011 13:21","granularity":"min","time":"2011/03/11 13:21:00 -0500"},"geo_score":0.902,"unit":61,"disposition":"200","cfs":9,"call#":11.002291,"id":"a633wnlxbklt","geo_precision":"range","address":"369 W Market St","state":"OH","juris":"PD"},"type":"Feature","geometry":{"type":"Point","coordinates":[-83.192783,41.112999]}},{"properties":{"officer":"DES","city":"Tiffin","zip":"44883","date":{"end_time":"2011/01/14 12:07:00 -0500","original":"1/14/2011 12:06","granularity":"min","time":"2011/01/14 12:06:00 -0500"},"geo_score":0.902,"unit":61,"disposition":"200","cfs":9,"call#":11.00037,"id":"a633wnlzrse5","geo_precision":"range","address":"382 Wentz St","state":"OH","juris":"PD"},"type":"Feature","geometry":{"type":"Point","coordinates":[-83.199161,41.113298]}},{"properties":{"officer":null,"city":"Tiffin","zip":"44883","date":{"end_time":"2011/09/23 01:11:00 -0400","original":"9/23/2011 1:10","granularity":"min","time":"2011/09/23 01:10:00 -0400"},"geo_score":0.902,"unit":null,"disposition":"CAN","cfs":9,"call#":11.009877,"id":"a633wnm6eypn","geo_precision":"range","address":"39 Adams St","state":"OH","juris":"PD"},"type":"Feature","geometry":{"type":"Point","coordinates":[-83.179212,41.118224]}},{"properties":{"officer":"RJO","city":"Tiffin","zip":"44883","date":{"end_time":"2011/07/02 12:50:00 -0400","original":"7/2/2011 12:49","granularity":"min","time":"2011/07/02 12:49:00 -0400"},"geo_score":0.902,"unit":60,"disposition":"200","cfs":9,"call#":11.0066,"id":"a633wnqrgwz2","geo_precision":"range","address":"40X Maple St","state":"OH","juris":"PD"},"type":"Feature","geometry":{"type":"Point","coordinates":[-83.184286,41.112866]}},{"properties":{"officer":"BRB","city":"Tiffin","zip":"44883","date":{"end_time":"2011/04/11 16:11:00 -0400","original":"4/11/2011 16:10","granularity":"min","time":"2011/04/11 16:10:00 -0400"},"geo_score":0.902,"unit":63,"disposition":"200","cfs":9,"call#":11.003339,"id":"a633wnwq3olx","geo_precision":"range","address":"42 Jefferson St","state":"OH","juris":"PD"},"type":"Feature","geometry":{"type":"Point","coordinates":[-83.175456,41.116735]}},{"properties":{"officer":"BRB","city":"Tiffin","zip":"44883","date":{"end_time":"2011/02/18 12:03:00 -0500","original":"2/18/2011 12:02","granularity":"min","time":"2011/02/18 12:02:00 -0500"},"geo_score":0.805,"unit":57,"disposition":"200","cfs":9,"call#":11.001595,"id":"a633wnso5pqu","geo_precision":"street","address":"421 N Washington St","state":"OH","juris":"PD"},"type":"Feature","geometry":{"type":"Point","coordinates":[-83.178657,41.129656]}},{"properties":{"officer":"DES","city":"Tiffin","zip":"44883","date":{"end_time":"2011/09/23 15:03:00 -0400","original":"9/23/2011 15:02","granularity":"min","time":"2011/09/23 15:02:00 -0400"},"geo_score":0.902,"unit":58,"disposition":"200","cfs":9,"call#":11.009892,"id":"a633wnqtuodg","geo_precision":"range","address":"44 Greenfield St","state":"OH","juris":"PD"},"type":"Feature","geometry":{"type":"Point","coordinates":[-83.168209,41.115747]}},{"properties":{"officer":"BRB","city":"Tiffin","zip":"44883","date":{"end_time":"2011/11/14 13:27:00 -0500","original":"11/14/2011 13:26","granularity":"min","time":"2011/11/14 13:26:00 -0500"},"geo_score":0.873,"unit":63,"disposition":"200","cfs":9,"call#":11.011945,"id":"a633wnn9fnr1","geo_precision":"range","address":"45 Cottage Av","state":"OH","juris":"PD"},"type":"Feature","geometry":{"type":"Point","coordinates":[-83.193178,41.107181]}},{"properties":{"officer":"JAD","city":"Tiffin","zip":"44883","date":{"end_time":"2011/04/08 21:38:00 -0400","original":"4/8/2011 21:37","granularity":"min","time":"2011/04/08 21:37:00 -0400"},"geo_score":0.902,"unit":56,"disposition":"200","cfs":9,"call#":11.003191,"id":"a633wnhruk17","geo_precision":"range","address":"45 Douglas St","state":"OH","juris":"PD"},"type":"Feature","geometry":{"type":"Point","coordinates":[-83.175489,41.127649]}},{"properties":{"officer":"MEM","city":"Tiffin","zip":"44883","date":{"end_time":"2011/06/15 10:38:00 -0400","original":"6/15/2011 10:37","granularity":"min","time":"2011/06/15 10:37:00 -0400"},"geo_score":0.902,"unit":61,"disposition":"200","cfs":9,"call#":11.005921,"id":"a633wnux7wyx","geo_precision":"range","address":"45 S Washington St","state":"OH","juris":"PD"},"type":"Feature","geometry":{"type":"Point","coordinates":[-83.176858,41.116307]}},{"properties":{"officer":"SGN","city":"Tiffin","zip":"44883","date":{"end_time":"2011/06/08 07:58:00 -0400","original":"6/8/2011 7:57","granularity":"min","time":"2011/06/08 07:57:00 -0400"},"geo_score":0.516,"unit":59,"disposition":"200","cfs":9,"call#":11.005625,"id":"a633wnsq5a9f","geo_precision":"street","address":"45 St Lawrence Dr","state":"OH","juris":"PD"},"type":"Feature","geometry":{"type":"Point","coordinates":[-82.718729,41.455282]}},{"properties":{"officer":"RLT","city":"Tiffin","zip":"44883","date":{"end_time":"2011/06/25 02:58:00 -0400","original":"6/25/2011 2:57","granularity":"min","time":"2011/06/25 02:57:00 -0400"},"geo_score":0.902,"unit":62,"disposition":"100","cfs":9,"call#":11.006299,"id":"a633wnrcn9ly","geo_precision":"range","address":"458 Miami St","state":"OH","juris":"PD"},"type":"Feature","geometry":{"type":"Point","coordinates":[-83.195763,41.118302]}},{"properties":{"officer":"BRB","city":"Tiffin","zip":"44883","date":{"end_time":"2011/06/01 15:09:00 -0400","original":"6/1/2011 15:08","granularity":"min","time":"2011/06/01 15:08:00 -0400"},"geo_score":0.902,"unit":63,"disposition":"100","cfs":9,"call#":11.005385,"id":"a633wnmf0vzk","geo_precision":"range","address":"465 W Perry St","state":"OH","juris":"PD"},"type":"Feature","geometry":{"type":"Point","coordinates":[-83.196925,41.113941]}},{"properties":{"officer":"MMS","city":"Tiffin","zip":"44883","date":{"end_time":"2011/08/14 22:22:00 -0400","original":"8/14/2011 22:21","granularity":"min","time":"2011/08/14 22:21:00 -0400"},"geo_score":0.712,"unit":1081,"disposition":"200","cfs":9,"call#":11.008277,"id":"a633wnwiehgv","geo_precision":"street","address":"49 Eden St","state":"OH","juris":"PD"},"type":"Feature","geometry":{"type":"Point","coordinates":[-83.192706,41.099588]}},{"properties":{"officer":"BRB","city":"Tiffin","zip":"44883","date":{"end_time":"2011/11/22 09:21:00 -0500","original":"11/22/2011 9:20","granularity":"min","time":"2011/11/22 09:20:00 -0500"},"geo_score":0.902,"unit":63,"disposition":"200","cfs":9,"call#":11.012263,"id":"a633wnrkwh1u","geo_precision":"range","address":"491 Coe St","state":"OH","juris":"PD"},"type":"Feature","geometry":{"type":"Point","coordinates":[-83.160385,41.102667]}},{"properties":{"officer":"MMS","city":"Tiffin","zip":"44883","date":{"end_time":"2011/11/13 22:49:00 -0500","original":"11/13/2011 22:48","granularity":"min","time":"2011/11/13 22:48:00 -0500"},"geo_score":0.902,"unit":58,"disposition":"200","cfs":9,"call#":11.011921,"id":"a633wnjawpkk","geo_precision":"range","address":"491 Coe St","state":"OH","juris":"PD"},"type":"Feature","geometry":{"type":"Point","coordinates":[-83.160385,41.102667]}},{"properties":{"officer":"GTM","city":"Tiffin","zip":"44883","date":{"end_time":"2011/08/14 07:55:00 -0400","original":"8/14/2011 7:54","granularity":"min","time":"2011/08/14 07:54:00 -0400"},"geo_score":0.902,"unit":59,"disposition":"200","cfs":9,"call#":11.008254,"id":"a633wnjpuk86","geo_precision":"range","address":"491 Coe St","state":"OH","juris":"PD"},"type":"Feature","geometry":{"type":"Point","coordinates":[-83.160385,41.102667]}},{"properties":{"officer":"RMN","city":"Tiffin","zip":"44883","date":{"end_time":"2011/06/08 07:57:00 -0400","original":"6/8/2011 7:56","granularity":"min","time":"2011/06/08 07:56:00 -0400"},"geo_score":0.902,"unit":61,"disposition":"200","cfs":9,"call#":11.005624,"id":"a633wnw1fq7m","geo_precision":"range","address":"491 Coe St","state":"OH","juris":"PD"},"type":"Feature","geometry":{"type":"Point","coordinates":[-83.160385,41.102667]}},{"properties":{"officer":"EDA","city":"Tiffin","zip":"44883","date":{"end_time":"2011/05/22 19:29:00 -0400","original":"5/22/2011 19:28","granularity":"min","time":"2011/05/22 19:28:00 -0400"},"geo_score":0.902,"unit":59,"disposition":"200","cfs":9,"call#":11.005004,"id":"a633wnprv241","geo_precision":"range","address":"491 Coe St","state":"OH","juris":"PD"},"type":"Feature","geometry":{"type":"Point","coordinates":[-83.160385,41.102667]}},{"properties":{"officer":"SGN","city":"Tiffin","zip":"44883","date":{"end_time":"2011/05/06 11:03:00 -0400","original":"5/6/2011 11:02","granularity":"min","time":"2011/05/06 11:02:00 -0400"},"geo_score":0.902,"unit":59,"disposition":"200","cfs":9,"call#":11.004356,"id":"a633wnjt6k6k","geo_precision":"range","address":"491 Coe St","state":"OH","juris":"PD"},"type":"Feature","geometry":{"type":"Point","coordinates":[-83.160385,41.102667]}},{"properties":{"officer":"SGN","city":"Tiffin","zip":"44883","date":{"end_time":"2011/04/20 08:16:00 -0400","original":"4/20/2011 8:15","granularity":"min","time":"2011/04/20 08:15:00 -0400"},"geo_score":0.902,"unit":59,"disposition":"200","cfs":9,"call#":11.003674,"id":"a633wnn3d6op","geo_precision":"range","address":"491 Coe St","state":"OH","juris":"PD"},"type":"Feature","geometry":{"type":"Point","coordinates":[-83.160385,41.102667]}},{"properties":{"officer":"FWS","city":"Tiffin","zip":"44883","date":{"end_time":"2011/11/21 09:16:00 -0500","original":"11/21/2011 9:15","granularity":"min","time":"2011/11/21 09:15:00 -0500"},"geo_score":0.902,"unit":58,"disposition":"200","cfs":9,"call#":11.01222,"id":"a633wnqrj69c","geo_precision":"range","address":"50 Gibson Ct","state":"OH","juris":"PD"},"type":"Feature","geometry":{"type":"Point","coordinates":[-83.180357,41.098237]}},{"properties":{"officer":"GTM","city":"Tiffin","zip":"44883","date":{"end_time":"2011/05/23 14:54:00 -0400","original":"5/23/2011 14:53","granularity":"min","time":"2011/05/23 14:53:00 -0400"},"geo_score":0.902,"unit":60,"disposition":"200","cfs":9,"call#":11.005024,"id":"a633wnqhe7py","geo_precision":"range","address":"50 N Washington St","state":"OH","juris":"PD"},"type":"Feature","geometry":{"type":"Point","coordinates":[-83.177244,41.118979]}},{"properties":{"officer":"SGN","city":"Tiffin","zip":"44883","date":{"end_time":"2011/10/28 10:23:00 -0400","original":"10/28/2011 10:22","granularity":"min","time":"2011/10/28 10:22:00 -0400"},"geo_score":0.902,"unit":59,"disposition":"200","cfs":9,"call#":11.011251,"id":"a633wnrhstcb","geo_precision":"range","address":"50 Victoria Dr","state":"OH","juris":"PD"},"type":"Feature","geometry":{"type":"Point","coordinates":[-83.17277,41.10361]}},{"properties":{"officer":"BRB","city":"Tiffin","zip":"44883","date":{"end_time":"2011/09/06 09:10:00 -0400","original":"9/6/2011 9:09","granularity":"min","time":"2011/09/06 09:09:00 -0400"},"geo_score":0.805,"unit":63,"disposition":"200","cfs":9,"call#":11.009197,"id":"a633wnrcyhsy","geo_precision":"street","address":"519 E Perry St","state":"OH","juris":"PD"},"type":"Feature","geometry":{"type":"Point","coordinates":[-83.15937,41.119124]}},{"properties":{"officer":"GTM","city":"Tiffin","zip":"44883","date":{"end_time":"2011/04/03 12:29:00 -0400","original":"4/3/2011 12:28","granularity":"min","time":"2011/04/03 12:28:00 -0400"},"geo_score":0.902,"unit":57,"disposition":"200","cfs":9,"call#":11.003007,"id":"a633wnh1xwbj","geo_precision":"range","address":"52 W Perry St","state":"OH","juris":"PD"},"type":"Feature","geometry":{"type":"Point","coordinates":[-83.181885,41.115311]}},{"properties":{"officer":"DES","city":"Tiffin","zip":"44883","date":{"end_time":"2011/10/23 08:37:00 -0400","original":"10/23/2011 8:36","granularity":"min","time":"2011/10/23 08:36:00 -0400"},"geo_score":0.902,"unit":58,"disposition":"200","cfs":9,"call#":11.011053,"id":"a633wni76krb","geo_precision":"range","address":"53 Clay St","state":"OH","juris":"PD"},"type":"Feature","geometry":{"type":"Point","coordinates":[-83.181386,41.116085]}},{"properties":{"officer":"JAD","city":"Tiffin","zip":"44883","date":{"end_time":"2011/04/02 02:15:00 -0400","original":"4/2/2011 2:14","granularity":"min","time":"2011/04/02 02:14:00 -0400"},"geo_score":0.902,"unit":56,"disposition":"230","cfs":9,"call#":11.002943,"id":"a633wnnkawjp","geo_precision":"range","address":"54 S Washington St","state":"OH","juris":"PD"},"type":"Feature","geometry":{"type":"Point","coordinates":[-83.176822,41.116008]}},{"properties":{"officer":"RMN","city":"Tiffin","zip":"44883","date":{"end_time":"2011/10/22 16:33:00 -0400","original":"10/22/2011 16:32","granularity":"min","time":"2011/10/22 16:32:00 -0400"},"geo_score":0.902,"unit":58,"disposition":"200","cfs":9,"call#":11.011014,"id":"a633wnwdr7a6","geo_precision":"range","address":"54 W Perry St","state":"OH","juris":"PD"},"type":"Feature","geometry":{"type":"Point","coordinates":[-83.18195,41.115302]}},{"properties":{"officer":"JDW","city":"Tiffin","zip":"44883","date":{"end_time":"2011/04/03 02:29:00 -0400","original":"4/3/2011 2:28","granularity":"min","time":"2011/04/03 02:28:00 -0400"},"geo_score":0.902,"unit":61,"disposition":"100","cfs":9,"call#":11.002998,"id":"a633wnnsqvhm","geo_precision":"range","address":"54 W Perry St","state":"OH","juris":"PD"},"type":"Feature","geometry":{"type":"Point","coordinates":[-83.18195,41.115302]}},{"properties":{"officer":"DES","city":"Tiffin","zip":"44883","date":{"end_time":"2011/10/22 10:03:00 -0400","original":"10/22/2011 10:02","granularity":"min","time":"2011/10/22 10:02:00 -0400"},"geo_score":0.902,"unit":58,"disposition":"200","cfs":9,"call#":11.011003,"id":"a633wnndcw4v","geo_precision":"range","address":"545 Circular St","state":"OH","juris":"PD"},"type":"Feature","geometry":{"type":"Point","coordinates":[-83.178485,41.105284]}},{"properties":{"officer":"SGN","city":"Tiffin","zip":"44883","date":{"end_time":"2011/06/24 09:11:00 -0400","original":"6/24/2011 9:10","granularity":"min","time":"2011/06/24 09:10:00 -0400"},"geo_score":0.902,"unit":59,"disposition":"200","cfs":9,"call#":11.006252,"id":"a633wnqcnrob","geo_precision":"range","address":"57 Sycamore St","state":"OH","juris":"PD"},"type":"Feature","geometry":{"type":"Point","coordinates":[-83.176623,41.108326]}},{"properties":{"officer":"BRB","city":"Tiffin","zip":"44883","date":{"end_time":"2011/03/27 12:56:00 -0400","original":"3/27/2011 12:55","granularity":"min","time":"2011/03/27 12:55:00 -0400"},"geo_score":0.902,"unit":63,"disposition":"200","cfs":9,"call#":11.002777,"id":"a633wnl1uyua","geo_precision":"range","address":"58 W Market St","state":"OH","juris":"PD"},"type":"Feature","geometry":{"type":"Point","coordinates":[-83.182233,41.114027]}},{"properties":{"officer":"GTM","city":"Tiffin","zip":"44883","date":{"end_time":"2011/05/10 10:36:00 -0400","original":"5/10/2011 10:35","granularity":"min","time":"2011/05/10 10:35:00 -0400"},"geo_score":0.857,"unit":57,"disposition":"200","cfs":9,"call#":11.004523,"id":"a633wnxdbzi9","geo_precision":"range","address":"59 Brookwood Pk","state":"OH","juris":"PD"},"type":"Feature","geometry":{"type":"Point","coordinates":[-83.180474,41.10286]}},{"properties":{"officer":"RJO","city":"Tiffin","zip":"44883","date":{"end_time":"2011/02/04 09:26:00 -0500","original":"2/4/2011 9:25","granularity":"min","time":"2011/02/04 09:25:00 -0500"},"geo_score":0.902,"unit":60,"disposition":"200","cfs":9,"call#":11.001062,"id":"a633wnscebvj","geo_precision":"range","address":"592 N Washington St","state":"OH","juris":"PD"},"type":"Feature","geometry":{"type":"Point","coordinates":[-83.178745,41.134608]}},{"properties":{"officer":"DES","city":"Tiffin","zip":"44883","date":{"end_time":"2011/04/04 08:18:00 -0400","original":"4/4/2011 8:17","granularity":"min","time":"2011/04/04 08:17:00 -0400"},"geo_score":0.902,"unit":61,"disposition":"200","cfs":9,"call#":11.003031,"id":"a633wngygz8o","geo_precision":"range","address":"60X W Perry St","state":"OH","juris":"PD"},"type":"Feature","geometry":{"type":"Point","coordinates":[-83.182147,41.115276]}},{"properties":{"officer":"DES","city":"Tiffin","zip":"44883","date":{"end_time":"2011/04/17 12:25:00 -0400","original":"4/17/2011 12:24","granularity":"min","time":"2011/04/17 12:24:00 -0400"},"geo_score":0.902,"unit":61,"disposition":"200","cfs":9,"call#":11.003576,"id":"a633wnlineos","geo_precision":"range","address":"61 W Perry St","state":"OH","juris":"PD"},"type":"Feature","geometry":{"type":"Point","coordinates":[-83.182354,41.115249]}},{"properties":{"officer":"RJO","city":"Tiffin","zip":"44883","date":{"end_time":"2011/09/04 15:53:00 -0400","original":"9/4/2011 15:52","granularity":"min","time":"2011/09/04 15:52:00 -0400"},"geo_score":0.902,"unit":57,"disposition":"200","cfs":9,"call#":11.009128,"id":"a633wnjdulz8","geo_precision":"range","address":"613 S Sandusky St","state":"OH","juris":"PD"},"type":"Feature","geometry":{"type":"Point","coordinates":[-83.193844,41.105189]}},{"properties":{"officer":"SGN","city":"Tiffin","zip":"44883","date":{"end_time":"2011/08/13 09:35:00 -0400","original":"8/13/2011 9:34","granularity":"min","time":"2011/08/13 09:34:00 -0400"},"geo_score":0.902,"unit":57,"disposition":"200","cfs":9,"call#":11.008203,"id":"a633wnn1ms8b","geo_precision":"range","address":"62 Gross St","state":"OH","juris":"PD"},"type":"Feature","geometry":{"type":"Point","coordinates":[-83.168144,41.104638]}},{"properties":{"officer":"JAD","city":"Tiffin","zip":"44883","date":{"end_time":"2011/07/24 07:00:00 -0400","original":"7/24/2011 6:59","granularity":"min","time":"2011/07/24 06:59:00 -0400"},"geo_score":0.902,"unit":56,"disposition":"200","cfs":9,"call#":11.007424,"id":"a633wnnyt1pm","geo_precision":"range","address":"631 N Sandusky St","state":"OH","juris":"PD"},"type":"Feature","geometry":{"type":"Point","coordinates":[-83.172113,41.134783]}},{"properties":{"officer":"JAD","city":"Tiffin","zip":"44883","date":{"end_time":"2011/07/02 02:34:00 -0400","original":"7/2/2011 2:33","granularity":"min","time":"2011/07/02 02:33:00 -0400"},"geo_score":0.902,"unit":56,"disposition":"400","cfs":9,"call#":11.006582,"id":"a633wnw8bhok","geo_precision":"range","address":"64 E Perry St","state":"OH","juris":"PD"},"type":"Feature","geometry":{"type":"Point","coordinates":[-83.177734,41.115757]}},{"properties":{"officer":"RMN","city":"Tiffin","zip":"44883","date":{"end_time":"2011/09/04 20:23:00 -0400","original":"9/4/2011 20:22","granularity":"min","time":"2011/09/04 20:22:00 -0400"},"geo_score":0.429,"unit":61,"disposition":"200","cfs":9,"call#":11.009134,"id":"a633wnn0xt33","geo_precision":"street","address":"646 W Market St, O","state":"OH","juris":"PD"},"type":"Feature","geometry":{"type":"Point","coordinates":[-83.181592,41.114111]}},{"properties":{"officer":"SGN","city":"Tiffin","zip":"44883","date":{"end_time":"2011/07/21 09:16:00 -0400","original":"7/21/2011 9:15","granularity":"min","time":"2011/07/21 09:15:00 -0400"},"geo_score":0.902,"unit":59,"disposition":"200","cfs":9,"call#":11.007277,"id":"a633wnjkhq3h","geo_precision":"range","address":"65 N Monroe St","state":"OH","juris":"PD"},"type":"Feature","geometry":{"type":"Point","coordinates":[-83.178811,41.118528]}},{"properties":{"officer":"JAD","city":"Tiffin","zip":"44883","date":{"end_time":"2011/09/24 23:03:00 -0400","original":"9/24/2011 23:02","granularity":"min","time":"2011/09/24 23:02:00 -0400"},"geo_score":0.902,"unit":56,"disposition":"200","cfs":9,"call#":11.009958,"id":"a633wnkyja4e","geo_precision":"range","address":"65 W Perry St","state":"OH","juris":"PD"},"type":"Feature","geometry":{"type":"Point","coordinates":[-83.182499,41.11523]}},{"properties":{"officer":"RLT","city":"Tiffin","zip":"44883","date":{"end_time":"2011/05/08 02:29:00 -0400","original":"5/8/2011 2:28","granularity":"min","time":"2011/05/08 02:28:00 -0400"},"geo_score":0.902,"unit":62,"disposition":"200","cfs":9,"call#":11.004447,"id":"a633wnmz7gjn","geo_precision":"range","address":"68 N Monroe St","state":"OH","juris":"PD"},"type":"Feature","geometry":{"type":"Point","coordinates":[-83.178821,41.118613]}},{"properties":{"officer":"SMM","city":"Tiffin","zip":"44883","date":{"end_time":"2011/12/21 22:13:00 -0500","original":"12/21/2011 22:12","granularity":"min","time":"2011/12/21 22:12:00 -0500"},"geo_score":0.902,"unit":63,"disposition":"200","cfs":9,"call#":11.013472,"id":"a633wntqayo3","geo_precision":"range","address":"686 S Sandusky St,105","state":"OH","juris":"PD"},"type":"Feature","geometry":{"type":"Point","coordinates":[-83.184493,41.117083]}},{"properties":{"officer":"GTM","city":"Tiffin","zip":"44883","date":{"end_time":"2011/06/06 07:06:00 -0400","original":"6/6/2011 7:05","granularity":"min","time":"2011/06/06 07:05:00 -0400"},"geo_score":0.805,"unit":58,"disposition":"200","cfs":9,"call#":11.005569,"id":"a633wnhdlapv","geo_precision":"street","address":"686 S Sandusky St,16","state":"OH","juris":"PD"},"type":"Feature","geometry":{"type":"Point","coordinates":[-83.182777,41.119569]}},{"properties":{"officer":"DES","city":"Tiffin","zip":"44883","date":{"end_time":"2011/07/18 09:44:00 -0400","original":"7/18/2011 9:43","granularity":"min","time":"2011/07/18 09:43:00 -0400"},"geo_score":0.732,"unit":61,"disposition":"200","cfs":9,"call#":11.007196,"id":"a633wnx6qif5","geo_precision":"range","address":"7 N Cedar Ct","state":"OH","juris":"PD"},"type":"Feature","geometry":{"type":"Point","coordinates":[-82.605058,41.242104]}},{"properties":{"officer":"LMK","city":"Tiffin","zip":"44883","date":{"end_time":"2011/08/27 02:09:00 -0400","original":"8/27/2011 2:08","granularity":"min","time":"2011/08/27 02:08:00 -0400"},"geo_score":0.902,"unit":61,"disposition":"200","cfs":9,"call#":11.00878,"id":"a633wnsuwqz3","geo_precision":"range","address":"70 N Monroe St","state":"OH","juris":"PD"},"type":"Feature","geometry":{"type":"Point","coordinates":[-83.178826,41.118655]}},{"properties":{"officer":"LMK","city":"Tiffin","zip":"44883","date":{"end_time":"2011/06/30 02:30:00 -0400","original":"6/30/2011 2:29","granularity":"min","time":"2011/06/30 02:29:00 -0400"},"geo_score":0.902,"unit":58,"disposition":"200","cfs":9,"call#":11.006478,"id":"a633wnnixtnd","geo_precision":"range","address":"70 N Monroe St","state":"OH","juris":"PD"},"type":"Feature","geometry":{"type":"Point","coordinates":[-83.178826,41.118655]}},{"properties":{"officer":"MEM","city":"Tiffin","zip":"44883","date":{"end_time":"2011/02/02 13:44:00 -0500","original":"2/2/2011 13:43","granularity":"min","time":"2011/02/02 13:43:00 -0500"},"geo_score":0.902,"unit":63,"disposition":"200","cfs":9,"call#":11.000991,"id":"a633wnumj19s","geo_precision":"range","address":"71 Jackson St","state":"OH","juris":"PD"},"type":"Feature","geometry":{"type":"Point","coordinates":[-83.187206,41.11531]}},{"properties":{"officer":"BRB","city":"Tiffin","zip":"44883","date":{"end_time":"2011/04/12 13:09:00 -0400","original":"4/12/2011 13:08","granularity":"min","time":"2011/04/12 13:08:00 -0400"},"geo_score":0.902,"unit":63,"disposition":"200","cfs":9,"call#":11.00338,"id":"a633wnqeqmd3","geo_precision":"range","address":"73 Melmore St","state":"OH","juris":"PD"},"type":"Feature","geometry":{"type":"Point","coordinates":[-83.173839,41.107724]}},{"properties":{"officer":"FWS","city":"Tiffin","zip":"44883","date":{"end_time":"2011/12/05 09:49:00 -0500","original":"12/5/2011 9:48","granularity":"min","time":"2011/12/05 09:48:00 -0500"},"geo_score":0.902,"unit":58,"disposition":"200","cfs":9,"call#":11.012792,"id":"a633wnvld896","geo_precision":"range","address":"73 W Davis St","state":"OH","juris":"PD"},"type":"Feature","geometry":{"type":"Point","coordinates":[-83.180538,41.126021]}},{"properties":{"officer":"BRB","city":"Tiffin","zip":"44883","date":{"end_time":"2011/08/29 07:42:00 -0400","original":"8/29/2011 7:41","granularity":"min","time":"2011/08/29 07:41:00 -0400"},"geo_score":0.902,"unit":57,"disposition":"200","cfs":9,"call#":11.008856,"id":"a633wnjx5iv0","geo_precision":"range","address":"74 Franklin St","state":"OH","juris":"PD"},"type":"Feature","geometry":{"type":"Point","coordinates":[-83.183109,41.117109]}},{"properties":{"officer":"RMN","city":"Tiffin","zip":"44883","date":{"end_time":"2011/08/28 22:50:00 -0400","original":"8/28/2011 22:49","granularity":"min","time":"2011/08/28 22:49:00 -0400"},"geo_score":0.902,"unit":57,"disposition":"200","cfs":9,"call#":11.008846,"id":"a633wnpldh5e","geo_precision":"range","address":"74 Franklin St","state":"OH","juris":"PD"},"type":"Feature","geometry":{"type":"Point","coordinates":[-83.183109,41.117109]}},{"properties":{"officer":"EDA","city":"Tiffin","zip":"44883","date":{"end_time":"2011/11/13 19:48:00 -0500","original":"11/13/2011 19:47","granularity":"min","time":"2011/11/13 19:47:00 -0500"},"geo_score":0.902,"unit":62,"disposition":"200","cfs":9,"call#":11.011915,"id":"a633wnrkisp4","geo_precision":"range","address":"747 W Market St","state":"OH","juris":"PD"},"type":"Feature","geometry":{"type":"Point","coordinates":[-83.206231,41.111378]}},{"properties":{"officer":"DES","city":"Tiffin","zip":"44883","date":{"end_time":"2011/11/13 12:10:00 -0500","original":"11/13/2011 12:09","granularity":"min","time":"2011/11/13 12:09:00 -0500"},"geo_score":0.902,"unit":58,"disposition":"200","cfs":9,"call#":11.011904,"id":"a633wnnaqbm1","geo_precision":"range","address":"747 W Market St","state":"OH","juris":"PD"},"type":"Feature","geometry":{"type":"Point","coordinates":[-83.206231,41.111378]}},{"properties":{"officer":"DES","city":"Tiffin","zip":"44883","date":{"end_time":"2011/04/03 15:46:00 -0400","original":"4/3/2011 15:45","granularity":"min","time":"2011/04/03 15:45:00 -0400"},"geo_score":0.902,"unit":61,"disposition":"200","cfs":9,"call#":11.003011,"id":"a633wnpqyaj0","geo_precision":"range","address":"77 Jefferson St","state":"OH","juris":"PD"},"type":"Feature","geometry":{"type":"Point","coordinates":[-83.17514,41.115976]}},{"properties":{"officer":"DES","city":"Tiffin","zip":"44883","date":{"end_time":"2011/07/17 15:44:00 -0400","original":"7/17/2011 15:43","granularity":"min","time":"2011/07/17 15:43:00 -0400"},"geo_score":0.902,"unit":61,"disposition":"200","cfs":9,"call#":11.007184,"id":"a633wnqkfj5w","geo_precision":"range","address":"78X Circular St","state":"OH","juris":"PD"},"type":"Feature","geometry":{"type":"Point","coordinates":[-83.169752,41.113363]}},{"properties":{"officer":"BAR","city":"Tiffin","zip":"44883","date":{"end_time":"2011/10/23 17:24:00 -0400","original":"10/23/2011 17:23","granularity":"min","time":"2011/10/23 17:23:00 -0400"},"geo_score":0.78,"unit":63,"disposition":"200","cfs":9,"call#":11.011065,"id":"a633wntdpyyz","geo_precision":"range","address":"790 W Market St","state":"OH","juris":"PD"},"type":"Feature","geometry":{"type":"Point","coordinates":[-83.207496,41.111156]}},{"properties":{"officer":"JSC","city":"Tiffin","zip":"44883","date":{"end_time":"2011/08/04 18:57:00 -0400","original":"8/4/2011 18:56","granularity":"min","time":"2011/08/04 18:56:00 -0400"},"geo_score":0.78,"unit":57,"disposition":"200","cfs":9,"call#":11.007882,"id":"a633wntlyxs3","geo_precision":"range","address":"790 W Market St","state":"OH","juris":"PD"},"type":"Feature","geometry":{"type":"Point","coordinates":[-83.207496,41.111156]}},{"properties":{"officer":"GTM","city":"Tiffin","zip":"44883","date":{"end_time":"2011/05/03 11:45:00 -0400","original":"5/3/2011 11:44","granularity":"min","time":"2011/05/03 11:44:00 -0400"},"geo_score":0.902,"unit":57,"disposition":"200","cfs":9,"call#":11.004256,"id":"a633wnuxiwsc","geo_precision":"range","address":"809 N Water St","state":"OH","juris":"PD"},"type":"Feature","geometry":{"type":"Point","coordinates":[-83.164223,41.134484]}},{"properties":{"officer":"DES","city":"Tiffin","zip":"44883","date":{"end_time":"2011/12/26 08:35:00 -0500","original":"12/26/2011 8:34","granularity":"min","time":"2011/12/26 08:34:00 -0500"},"geo_score":0.902,"unit":61,"disposition":"200","cfs":9,"call#":11.013593,"id":"a633wnlavmil","geo_precision":"range","address":"82 Elmer St","state":"OH","juris":"PD"},"type":"Feature","geometry":{"type":"Point","coordinates":[-83.193552,41.115373]}},{"properties":{"officer":"JMW","city":"Tiffin","zip":"44883","date":{"end_time":"2011/03/11 15:05:00 -0500","original":"3/11/2011 15:04","granularity":"min","time":"2011/03/11 15:04:00 -0500"},"geo_score":0.902,"unit":57,"disposition":"200","cfs":9,"call#":11.002296,"id":"a633wnr386ng","geo_precision":"range","address":"83 Autumn Ln","state":"OH","juris":"PD"},"type":"Feature","geometry":{"type":"Point","coordinates":[-83.183138,41.098209]}},{"properties":{"officer":"EDA","city":"Tiffin","zip":"44883","date":{"end_time":"2011/08/08 19:49:00 -0400","original":"8/8/2011 19:48","granularity":"min","time":"2011/08/08 19:48:00 -0400"},"geo_score":0.545,"unit":59,"disposition":"200","cfs":9,"call#":11.008029,"id":"a633wniwrlmy","geo_precision":"street","address":"84 Augusta Ln","state":"OH","juris":"PD"},"type":"Feature","geometry":{"type":"Point","coordinates":[-83.429469,41.165368]}},{"properties":{"officer":"BRB","city":"Tiffin","zip":"44883","date":{"end_time":"2011/03/20 11:12:00 -0400","original":"3/20/2011 11:11","granularity":"min","time":"2011/03/20 11:11:00 -0400"},"geo_score":0.545,"unit":63,"disposition":"100","cfs":9,"call#":11.002554,"id":"a633wnpo3qy8","geo_precision":"street","address":"84 Augusta Ln","state":"OH","juris":"PD"},"type":"Feature","geometry":{"type":"Point","coordinates":[-83.429469,41.165368]}},{"properties":{"officer":"BRB","city":"Tiffin","zip":"44883","date":{"end_time":"2011/04/12 10:25:00 -0400","original":"4/12/2011 10:24","granularity":"min","time":"2011/04/12 10:24:00 -0400"},"geo_score":0.902,"unit":63,"disposition":"200","cfs":9,"call#":11.003372,"id":"a633wnmc8x4u","geo_precision":"range","address":"84 Jackson St","state":"OH","juris":"PD"},"type":"Feature","geometry":{"type":"Point","coordinates":[-83.187019,41.115667]}},{"properties":{"officer":"FWS","city":"Tiffin","zip":"44883","date":{"end_time":"2011/10/12 11:06:00 -0400","original":"10/12/2011 11:05","granularity":"min","time":"2011/10/12 11:05:00 -0400"},"geo_score":0.902,"unit":58,"disposition":"200","cfs":9,"call#":11.010672,"id":"a633wno1l0ot","geo_precision":"range","address":"84 Jefferson St","state":"OH","juris":"PD"},"type":"Feature","geometry":{"type":"Point","coordinates":[-83.175043,41.115328]}},{"properties":{"officer":"JSC","city":"Tiffin","zip":"44883","date":{"end_time":"2011/05/02 20:40:00 -0400","original":"5/2/2011 20:39","granularity":"min","time":"2011/05/02 20:39:00 -0400"},"geo_score":0.902,"unit":59,"disposition":"400","cfs":9,"call#":11.004241,"id":"a633wnwrbd5k","geo_precision":"range","address":"84 N Washington St","state":"OH","juris":"PD"},"type":"Feature","geometry":{"type":"Point","coordinates":[-83.177423,41.120102]}},{"properties":{"officer":"MMS","city":"Tiffin","zip":"44883","date":{"end_time":"2011/12/30 23:57:00 -0500","original":"12/30/2011 23:56","granularity":"min","time":"2011/12/30 23:56:00 -0500"},"geo_score":0.902,"unit":61,"disposition":"200","cfs":9,"call#":11.013735,"id":"a633wnrs7chs","geo_precision":"range","address":"85 Douglas St","state":"OH","juris":"PD"},"type":"Feature","geometry":{"type":"Point","coordinates":[-83.173614,41.127701]}},{"properties":{"officer":"RJO","city":"Tiffin","zip":"44883","date":{"end_time":"2011/05/08 09:59:00 -0400","original":"5/8/2011 9:58","granularity":"min","time":"2011/05/08 09:58:00 -0400"},"geo_score":0.902,"unit":60,"disposition":"200","cfs":9,"call#":11.004452,"id":"a633wnlx35iz","geo_precision":"range","address":"85 Minerva St","state":"OH","juris":"PD"},"type":"Feature","geometry":{"type":"Point","coordinates":[-83.176219,41.122696]}},{"properties":{"officer":"BAR","city":"Tiffin","zip":"44883","date":{"end_time":"2011/03/19 18:09:00 -0400","original":"3/19/2011 18:08","granularity":"min","time":"2011/03/19 18:08:00 -0400"},"geo_score":0.902,"unit":63,"disposition":"200","cfs":9,"call#":11.002523,"id":"a633wnod1crt","geo_precision":"range","address":"859 Miami St,36","state":"OH","juris":"PD"},"type":"Feature","geometry":{"type":"Point","coordinates":[-83.180453,41.117242]}},{"properties":{"officer":"LMK","city":"Tiffin","zip":"44883","date":{"end_time":"2011/09/10 23:59:00 -0400","original":"9/10/2011 23:58","granularity":"min","time":"2011/09/10 23:58:00 -0400"},"geo_score":0.78,"unit":61,"disposition":"200","cfs":9,"call#":11.009406,"id":"a633wnhyf3hr","geo_precision":"range","address":"870 W Market St","state":"OH","juris":"PD"},"type":"Feature","geometry":{"type":"Point","coordinates":[-83.207559,41.111141]}},{"properties":{"officer":"SMM","city":"Tiffin","zip":"44883","date":{"end_time":"2011/07/21 00:37:00 -0400","original":"7/21/2011 0:36","granularity":"min","time":"2011/07/21 00:36:00 -0400"},"geo_score":0.78,"unit":63,"disposition":"200","cfs":9,"call#":11.007269,"id":"a633wnnp0kwr","geo_precision":"range","address":"870 W Market St","state":"OH","juris":"PD"},"type":"Feature","geometry":{"type":"Point","coordinates":[-83.207559,41.111141]}},{"properties":{"officer":"RJO","city":"Tiffin","zip":"44883","date":{"end_time":"2011/06/16 13:39:00 -0400","original":"6/16/2011 13:38","granularity":"min","time":"2011/06/16 13:38:00 -0400"},"geo_score":0.476,"unit":60,"disposition":"200","cfs":9,"call#":11.005955,"id":"a633wnmyhlsg","geo_precision":"street","address":"870 W Market St, A","state":"OH","juris":"PD"},"type":"Feature","geometry":{"type":"Point","coordinates":[-83.181592,41.114111]}},{"properties":{"officer":"BRB","city":"Tiffin","zip":"44883","date":{"end_time":"2011/04/12 09:39:00 -0400","original":"4/12/2011 9:38","granularity":"min","time":"2011/04/12 09:38:00 -0400"},"geo_score":0.902,"unit":63,"disposition":"200","cfs":9,"call#":11.003369,"id":"a633wnj98e0q","geo_precision":"range","address":"91 N Washington St","state":"OH","juris":"PD"},"type":"Feature","geometry":{"type":"Point","coordinates":[-83.177472,41.120343]}},{"properties":{"officer":"RJO","city":"Tiffin","zip":"44883","date":{"end_time":"2011/09/18 14:35:00 -0400","original":"9/18/2011 14:34","granularity":"min","time":"2011/09/18 14:34:00 -0400"},"geo_score":0.902,"unit":60,"disposition":"200","cfs":9,"call#":11.009709,"id":"a633wnwwnlnz","geo_precision":"range","address":"91 Riverside Dr","state":"OH","juris":"PD"},"type":"Feature","geometry":{"type":"Point","coordinates":[-83.174582,41.118603]}},{"properties":{"officer":"LMK","city":"Tiffin","zip":"44883","date":{"end_time":"2011/09/17 23:02:00 -0400","original":"9/17/2011 23:01","granularity":"min","time":"2011/09/17 23:01:00 -0400"},"geo_score":0.902,"unit":62,"disposition":"100","cfs":9,"call#":11.009677,"id":"a633wnpwzdxf","geo_precision":"range","address":"91 Riverside Dr","state":"OH","juris":"PD"},"type":"Feature","geometry":{"type":"Point","coordinates":[-83.174582,41.118603]}},{"properties":{"officer":"SMM","city":"Tiffin","zip":"44883","date":{"end_time":"2011/06/14 23:52:00 -0400","original":"6/14/2011 23:51","granularity":"min","time":"2011/06/14 23:51:00 -0400"},"geo_score":0.902,"unit":60,"disposition":"100","cfs":9,"call#":11.005911,"id":"a633wnn6u5xj","geo_precision":"range","address":"91 Riverside Dr","state":"OH","juris":"PD"},"type":"Feature","geometry":{"type":"Point","coordinates":[-83.174582,41.118603]}},{"properties":{"officer":"BRB","city":"Tiffin","zip":"44883","date":{"end_time":"2011/04/06 09:57:00 -0400","original":"4/6/2011 9:56","granularity":"min","time":"2011/04/06 09:56:00 -0400"},"geo_score":0.902,"unit":61,"disposition":"200","cfs":9,"call#":11.003073,"id":"a633wnlhxgvb","geo_precision":"range","address":"93 N Washington St","state":"OH","juris":"PD"},"type":"Feature","geometry":{"type":"Point","coordinates":[-83.17748,41.120405]}},{"properties":{"officer":"EDA","city":"Tiffin","zip":"44883","date":{"end_time":"2011/03/27 16:52:00 -0400","original":"3/27/2011 16:51","granularity":"min","time":"2011/03/27 16:51:00 -0400"},"geo_score":0.902,"unit":59,"disposition":"200","cfs":9,"call#":11.002783,"id":"a633wnsrgbtb","geo_precision":"range","address":"94 Liberty St","state":"OH","juris":"PD"},"type":"Feature","geometry":{"type":"Point","coordinates":[-83.172184,41.117064]}},{"properties":{"officer":"EDA","city":"Tiffin","zip":"44883","date":{"end_time":"2011/06/05 22:18:00 -0400","original":"6/5/2011 22:17","granularity":"min","time":"2011/06/05 22:17:00 -0400"},"geo_score":0.857,"unit":60,"disposition":"100","cfs":9,"call#":11.005561,"id":"a633wnq7v8ot","geo_precision":"street","address":"Clay St/S Sandusky St","state":"OH","juris":"PD"},"type":"Feature","geometry":{"type":"Point","coordinates":[-83.1824,41.116381]}},{"properties":{"officer":"JPF","city":"Tiffin","zip":"44883","date":{"end_time":"2011/10/06 21:59:00 -0400","original":"10/6/2011 21:58","granularity":"min","time":"2011/10/06 21:58:00 -0400"},"geo_score":0.818,"unit":59,"disposition":"100","cfs":9,"call#":11.010425,"id":"a633wnv3z664","geo_precision":"street","address":"Hopewell Av/Woodland Av","state":"OH","juris":"PD"},"type":"Feature","geometry":{"type":"Point","coordinates":[-83.198988,41.111017]}},{"properties":{"officer":"SGN","city":"Tiffin","zip":"44883","date":{"end_time":"2011/12/16 08:20:00 -0500","original":"12/16/2011 8:19","granularity":"min","time":"2011/12/16 08:19:00 -0500"},"geo_score":0.857,"unit":59,"disposition":"100","cfs":9,"call#":11.013242,"id":"a633wnmlrnd3","geo_precision":"street","address":"Hudson St/N Monroe St","state":"OH","juris":"PD"},"type":"Feature","geometry":{"type":"Point","coordinates":[-83.17906,41.120069]}},{"properties":{"officer":"BAR","city":"Tiffin","zip":"44883","date":{"end_time":"2011/05/14 00:16:00 -0400","original":"5/14/2011 0:15","granularity":"min","time":"2011/05/14 00:15:00 -0400"},"geo_score":0.857,"unit":63,"disposition":"200","cfs":9,"call#":11.004669,"id":"a633wnidsjpc","geo_precision":"street","address":"Industrial Av/Riverside Dr","state":"OH","juris":"PD"},"type":"Feature","geometry":{"type":"Point","coordinates":[-83.175456,41.117806]}},{"properties":{"officer":"RLT","city":"Tiffin","zip":"44883","date":{"end_time":"2011/06/10 23:36:00 -0400","original":"6/10/2011 23:35","granularity":"min","time":"2011/06/10 23:35:00 -0400"},"geo_score":0.857,"unit":58,"disposition":"100","cfs":9,"call#":11.005753,"id":"a633wnqas5jy","geo_precision":"street","address":"Liberty St/Clinton Av","state":"OH","juris":"PD"},"type":"Feature","geometry":{"type":"Point","coordinates":[-83.170936,41.116866]}},{"properties":{"officer":"JSC","city":"Tiffin","zip":"44883","date":{"end_time":"2011/06/11 17:32:00 -0400","original":"6/11/2011 17:31","granularity":"min","time":"2011/06/11 17:31:00 -0400"},"geo_score":0.857,"unit":57,"disposition":"100","cfs":9,"call#":11.005778,"id":"a633wnq36fb6","geo_precision":"street","address":"Madison St/S Washington St","state":"OH","juris":"PD"},"type":"Feature","geometry":{"type":"Point","coordinates":[-83.177984,41.113223]}},{"properties":{"officer":"JMW","city":"Tiffin","zip":"44883","date":{"end_time":"2011/02/08 17:11:00 -0500","original":"2/8/2011 17:10","granularity":"min","time":"2011/02/08 17:10:00 -0500"},"geo_score":0.857,"unit":57,"disposition":"200","cfs":9,"call#":11.001246,"id":"a633wnj5amsl","geo_precision":"street","address":"Miami St/Frost Py","state":"OH","juris":"PD"},"type":"Feature","geometry":{"type":"Point","coordinates":[-83.181876,41.117677]}},{"properties":{"officer":"GTM","city":"Tiffin","zip":"44883","date":{"end_time":"2011/10/18 10:49:00 -0400","original":"10/18/2011 10:48","granularity":"min","time":"2011/10/18 10:48:00 -0400"},"geo_score":0.857,"unit":62,"disposition":"200","cfs":9,"call#":11.010877,"id":"a633wnigbsl9","geo_precision":"street","address":"Miami St/Howard Av","state":"OH","juris":"PD"},"type":"Feature","geometry":{"type":"Point","coordinates":[-83.181876,41.117677]}},{"properties":{"officer":"EDA","city":"Tiffin","zip":"44883","date":{"end_time":"2011/09/13 17:14:00 -0400","original":"9/13/2011 17:13","granularity":"min","time":"2011/09/13 17:13:00 -0400"},"geo_score":0.857,"unit":60,"disposition":"200","cfs":9,"call#":11.009489,"id":"a633wns4sd20","geo_precision":"street","address":"S Sandusky St/Miami St","state":"OH","juris":"PD"},"type":"Feature","geometry":{"type":"Point","coordinates":[-83.181876,41.117677]}}],"is_temporal":true,"author":{"url":"","metadata":"","contact_name":"","contact_address":"","source":"","contact_phone":""},"source":"","pagination":{"sort":null,"start":0,"total":270,"limit":1000000},"state":"complete","tags":"","published":"2014-08-15T04:24:28-04:00","id":219830}