{"type":"FeatureCollection","data_type":"Dataset","url_type":null,"permissions":[{"permissions":{"download":true,"view":true},"group_id":"everyone"}],"classification":null,"title":"weapons offense 2011","count":26,"stream_id":219831,"contributor":{"url":"http://geocommons.com/users/42302","name":"hillproject"},"data_attributes":null,"calculation_params":null,"icon_link":null,"link":"http://geocommons.com/overlays/219831.json","extent":[-83.2783,41.1027,-83.1604,41.1387],"geometry_types":["point"],"unique_name":null,"name":"weapons offense 2011","feature_count":26,"description":"","next_feature":null,"is_raster":false,"short_classification":"Y","stats":{"date":{"max":"2011/12/26 09:30:00 -0500","mean":"2011/07/26 02:47:11 -0400","variance":94917984012869.5,"stdev":9742586.1049759,"min":"2011/01/01 02:36:00 -0500","median":"2011/07/16 20:34:00 -0400"},"unit":{"max":63,"mean":59.4230769230769,"variance":3.61384615384615,"stdev":1.90101187630329,"min":56,"median":59},"disposition":{"max":400,"mean":169.230769230769,"variance":9415.38461538462,"stdev":97.0329048075168,"min":100,"median":100},"cfs":{"max":10,"mean":10.0,"variance":0.0,"stdev":0.0,"min":10,"median":10},"call#":{"max":11.013595,"mean":11.0075652307692,"variance":1.94125358646159e-05,"stdev":0.00440596594001995,"min":11.000011,"median":11.007146}},"features":[{"properties":{"officer":"MMS","city":"Tiffin","zip":"44883","date":{"end_time":"2011/12/01 22:12:00 -0500","original":"12/1/2011 22:11","granularity":"min","time":"2011/12/01 22:11:00 -0500"},"geo_score":0.902,"unit":61,"disposition":200,"cfs":10,"call#":11.012665,"id":"a64ru3cf0skf","geo_precision":"range","address":"106 N Washington St","state":"OH","juris":"PD"},"type":"Feature","geometry":{"type":"Point","coordinates":[-83.177532,41.120841]}},{"properties":{"officer":"RLT","city":"Tiffin","zip":"44883","date":{"end_time":"2011/02/19 01:02:00 -0500","original":"2/19/2011 1:01","granularity":"min","time":"2011/02/19 01:01:00 -0500"},"geo_score":0.902,"unit":62,"disposition":200,"cfs":10,"call#":11.001622,"id":"a64ru3h8kf9q","geo_precision":"range","address":"129 S Washington St","state":"OH","juris":"PD"},"type":"Feature","geometry":{"type":"Point","coordinates":[-83.176496,41.113983]}},{"properties":{"officer":"EDA","city":"Tiffin","zip":"44883","date":{"end_time":"2011/01/01 02:37:00 -0500","original":"1/1/2011 2:36","granularity":"min","time":"2011/01/01 02:36:00 -0500"},"geo_score":0.902,"unit":61,"disposition":100,"cfs":10,"call#":11.000011,"id":"a64ru3mcdf81","geo_precision":"range","address":"129 S Washington St","state":"OH","juris":"PD"},"type":"Feature","geometry":{"type":"Point","coordinates":[-83.176496,41.113983]}},{"properties":{"officer":"PJD","city":"Tiffin","zip":"44883","date":{"end_time":"2011/07/13 20:08:00 -0400","original":"7/13/2011 20:07","granularity":"min","time":"2011/07/13 20:07:00 -0400"},"geo_score":0.902,"unit":61,"disposition":100,"cfs":10,"call#":11.00701,"id":"a64ru3lpa76t","geo_precision":"range","address":"152 Madison St","state":"OH","juris":"PD"},"type":"Feature","geometry":{"type":"Point","coordinates":[-83.174582,41.113535]}},{"properties":{"officer":"LMK","city":"Tiffin","zip":"44883","date":{"end_time":"2011/10/01 23:50:00 -0400","original":"10/1/2011 23:49","granularity":"min","time":"2011/10/01 23:49:00 -0400"},"geo_score":0.902,"unit":57,"disposition":400,"cfs":10,"call#":11.010234,"id":"a64ru3r7rpiy","geo_precision":"range","address":"1692 W Market St","state":"OH","juris":"PD"},"type":"Feature","geometry":{"type":"Point","coordinates":[-83.202702,41.109597]}},{"properties":{"officer":"LMK","city":"Tiffin","zip":"44883","date":{"end_time":"2011/04/13 21:08:00 -0400","original":"4/13/2011 21:07","granularity":"min","time":"2011/04/13 21:07:00 -0400"},"geo_score":0.902,"unit":58,"disposition":100,"cfs":10,"call#":11.003429,"id":"a64ru3lf57yk","geo_precision":"range","address":"1692 W Market St,34","state":"OH","juris":"PD"},"type":"Feature","geometry":{"type":"Point","coordinates":[-83.181684,41.114099]}},{"properties":{"officer":"JSC","city":"Tiffin","zip":"44883","date":{"end_time":"2011/04/26 18:51:00 -0400","original":"4/26/2011 18:50","granularity":"min","time":"2011/04/26 18:50:00 -0400"},"geo_score":0.902,"unit":59,"disposition":200,"cfs":10,"call#":11.00393,"id":"a64ru3q94rcn","geo_precision":"range","address":"182 E Market St,113","state":"OH","juris":"PD"},"type":"Feature","geometry":{"type":"Point","coordinates":[-83.176044,41.114648]}},{"properties":{"officer":"JAD","city":"Tiffin","zip":"44883","date":{"end_time":"2011/12/26 00:29:00 -0500","original":"12/26/2011 0:28","granularity":"min","time":"2011/12/26 00:28:00 -0500"},"geo_score":0.902,"unit":56,"disposition":200,"cfs":10,"call#":11.013586,"id":"a64ru3nxmvsl","geo_precision":"range","address":"184 E Market St,325","state":"OH","juris":"PD"},"type":"Feature","geometry":{"type":"Point","coordinates":[-83.168334,41.116907]}},{"properties":{"officer":"DES","city":"Tiffin","zip":"44883","date":{"end_time":"2011/12/09 13:52:00 -0500","original":"12/9/2011 13:51","granularity":"min","time":"2011/12/09 13:51:00 -0500"},"geo_score":0.902,"unit":61,"disposition":400,"cfs":10,"call#":11.012945,"id":"a64ru3cb5afv","geo_precision":"range","address":"187 Melmore St","state":"OH","juris":"PD"},"type":"Feature","geometry":{"type":"Point","coordinates":[-83.171593,41.105303]}},{"properties":{"officer":"JSC","city":"Tiffin","zip":"44883","date":{"end_time":"2011/06/26 18:56:00 -0400","original":"6/26/2011 18:55","granularity":"min","time":"2011/06/26 18:55:00 -0400"},"geo_score":0.902,"unit":61,"disposition":100,"cfs":10,"call#":11.006354,"id":"a64ru3f5vqdz","geo_precision":"range","address":"2300 W Market St","state":"OH","juris":"PD"},"type":"Feature","geometry":{"type":"Point","coordinates":[-83.214732,41.109878]}},{"properties":{"officer":"FWS","city":"Tiffin","zip":"44883","date":{"end_time":"2011/05/04 16:17:00 -0400","original":"5/4/2011 16:16","granularity":"min","time":"2011/05/04 16:16:00 -0400"},"geo_score":0.902,"unit":58,"disposition":100,"cfs":10,"call#":11.004291,"id":"a64ru3r5k8g0","geo_precision":"range","address":"251 Main St","state":"OH","juris":"PD"},"type":"Feature","geometry":{"type":"Point","coordinates":[-83.164041,41.112368]}},{"properties":{"officer":"SGN","city":"Tiffin","zip":"44883","date":{"end_time":"2011/04/12 14:27:00 -0400","original":"4/12/2011 14:26","granularity":"min","time":"2011/04/12 14:26:00 -0400"},"geo_score":0.902,"unit":59,"disposition":100,"cfs":10,"call#":11.003383,"id":"a64ru3jd1ada","geo_precision":"range","address":"265 N Washington St","state":"OH","juris":"PD"},"type":"Feature","geometry":{"type":"Point","coordinates":[-83.178186,41.124992]}},{"properties":{"officer":"JDW","city":"Tiffin","zip":"44883","date":{"end_time":"2011/10/22 12:54:00 -0400","original":"10/22/2011 12:53","granularity":"min","time":"2011/10/22 12:53:00 -0400"},"geo_score":0.902,"unit":62,"disposition":100,"cfs":10,"call#":11.011007,"id":"a64ru3nkely8","geo_precision":"range","address":"279 S Sandusky St","state":"OH","juris":"PD"},"type":"Feature","geometry":{"type":"Point","coordinates":[-83.187918,41.112179]}},{"properties":{"officer":"GTM","city":"Tiffin","zip":"44883","date":{"end_time":"2011/06/28 08:49:00 -0400","original":"6/28/2011 8:48","granularity":"min","time":"2011/06/28 08:48:00 -0400"},"geo_score":0.902,"unit":61,"disposition":100,"cfs":10,"call#":11.006404,"id":"a64ru3nz7aei","geo_precision":"range","address":"28 Miami St","state":"OH","juris":"PD"},"type":"Feature","geometry":{"type":"Point","coordinates":[-83.180216,41.117119]}},{"properties":{"officer":"SGN","city":"Tiffin","zip":"44883","date":{"end_time":"2011/04/14 16:31:00 -0400","original":"4/14/2011 16:30","granularity":"min","time":"2011/04/14 16:30:00 -0400"},"geo_score":0.582,"unit":59,"disposition":200,"cfs":10,"call#":11.003453,"id":"a64ru3jue9bj","geo_precision":"street","address":"2801 W Sr 18","state":"OH","juris":"PD"},"type":"Feature","geometry":{"type":"Point","coordinates":[-83.278292,41.108823]}},{"properties":{"officer":"GTM","city":"Tiffin","zip":"44883","date":{"end_time":"2011/04/04 14:00:00 -0400","original":"4/4/2011 13:59","granularity":"min","time":"2011/04/04 13:59:00 -0400"},"geo_score":0.902,"unit":57,"disposition":200,"cfs":10,"call#":11.003034,"id":"a64ru3nzarb8","geo_precision":"range","address":"491 Coe St","state":"OH","juris":"PD"},"type":"Feature","geometry":{"type":"Point","coordinates":[-83.160385,41.102667]}},{"properties":{"officer":"DES","city":"Tiffin","zip":"44883","date":{"end_time":"2011/12/26 09:31:00 -0500","original":"12/26/2011 9:30","granularity":"min","time":"2011/12/26 09:30:00 -0500"},"geo_score":0.902,"unit":61,"disposition":200,"cfs":10,"call#":11.013595,"id":"a64ru3kvvwox","geo_precision":"range","address":"54 S Washington St","state":"OH","juris":"PD"},"type":"Feature","geometry":{"type":"Point","coordinates":[-83.176822,41.116008]}},{"properties":{"officer":"SMM","city":"Tiffin","zip":"44883","date":{"end_time":"2011/12/08 19:01:00 -0500","original":"12/8/2011 19:00","granularity":"min","time":"2011/12/08 19:00:00 -0500"},"geo_score":0.902,"unit":58,"disposition":200,"cfs":10,"call#":11.012908,"id":"a64ru3nifr6i","geo_precision":"range","address":"56 W Perry St","state":"OH","juris":"PD"},"type":"Feature","geometry":{"type":"Point","coordinates":[-83.182016,41.115294]}},{"properties":{"officer":"GTM","city":"Tiffin","zip":"44883","date":{"end_time":"2011/03/21 10:34:00 -0400","original":"3/21/2011 10:33","granularity":"min","time":"2011/03/21 10:33:00 -0400"},"geo_score":0.902,"unit":57,"disposition":100,"cfs":10,"call#":11.002588,"id":"a64ru3ie2o3c","geo_precision":"range","address":"7 Beechwood Dr","state":"OH","juris":"PD"},"type":"Feature","geometry":{"type":"Point","coordinates":[-83.200784,41.115377]}},{"properties":{"officer":"MEM","city":"Tiffin","zip":"44883","date":{"end_time":"2011/11/09 21:20:00 -0500","original":"11/9/2011 21:19","granularity":"min","time":"2011/11/09 21:19:00 -0500"},"geo_score":0.876,"unit":58,"disposition":100,"cfs":10,"call#":11.011747,"id":"a64ru3dh21uc","geo_precision":"range","address":"7 Fairview Av","state":"OH","juris":"PD"},"type":"Feature","geometry":{"type":"Point","coordinates":[-83.186939,41.116665]}},{"properties":{"officer":"EDA","city":"Tiffin","zip":"44883","date":{"end_time":"2011/07/16 20:35:00 -0400","original":"7/16/2011 20:34","granularity":"min","time":"2011/07/16 20:34:00 -0400"},"geo_score":0.902,"unit":58,"disposition":100,"cfs":10,"call#":11.007146,"id":"a64ru3mtypqv","geo_precision":"range","address":"73 Ella St","state":"OH","juris":"PD"},"type":"Feature","geometry":{"type":"Point","coordinates":[-83.182218,41.104284]}},{"properties":{"officer":"DES","city":"Tiffin","zip":"44883","date":{"end_time":"2011/03/26 14:14:00 -0400","original":"3/26/2011 14:13","granularity":"min","time":"2011/03/26 14:13:00 -0400"},"geo_score":0.78,"unit":61,"disposition":400,"cfs":10,"call#":11.002744,"id":"a64ru3hjcu32","geo_precision":"range","address":"806 W Market St","state":"OH","juris":"PD"},"type":"Feature","geometry":{"type":"Point","coordinates":[-83.207509,41.111153]}},{"properties":{"officer":"BRB","city":"Tiffin","zip":"44883","date":{"end_time":"2011/12/20 13:53:00 -0500","original":"12/20/2011 13:52","granularity":"min","time":"2011/12/20 13:52:00 -0500"},"geo_score":0.78,"unit":63,"disposition":100,"cfs":10,"call#":11.013419,"id":"a64ru3f5khcl","geo_precision":"range","address":"928 W Market St","state":"OH","juris":"PD"},"type":"Feature","geometry":{"type":"Point","coordinates":[-83.207604,41.111131]}},{"properties":{"officer":"MEM","city":"Tiffin","zip":"44883","date":{"end_time":"2011/10/03 20:23:00 -0400","original":"10/3/2011 20:22","granularity":"min","time":"2011/10/03 20:22:00 -0400"},"geo_score":0.786,"unit":58,"disposition":100,"cfs":10,"call#":11.010303,"id":"a64ru3h4oun8","geo_precision":"street","address":"Riverlea Pk/Riverside Dr","state":"OH","juris":"PD"},"type":"Feature","geometry":{"type":"Point","coordinates":[-83.17103,41.120556]}},{"properties":{"officer":"BRB","city":"Tiffin","zip":"44883","date":{"end_time":"2011/10/19 07:54:00 -0400","original":"10/19/2011 7:53","granularity":"min","time":"2011/10/19 07:53:00 -0400"},"geo_score":0.857,"unit":58,"disposition":200,"cfs":10,"call#":11.010902,"id":"a64ru3e2fjbj","geo_precision":"street","address":"Tyber Rd/N Water St","state":"OH","juris":"PD"},"type":"Feature","geometry":{"type":"Point","coordinates":[-83.164693,41.138695]}},{"properties":{"officer":"JSC","city":"Tiffin","zip":"44883","date":{"end_time":"2011/08/07 12:25:00 -0400","original":"8/7/2011 12:24","granularity":"min","time":"2011/08/07 12:24:00 -0400"},"geo_score":0.857,"unit":60,"disposition":100,"cfs":10,"call#":11.007986,"id":"a64ru3fhxxxe","geo_precision":"street","address":"W Market St/S Sandusky St","state":"OH","juris":"PD"},"type":"Feature","geometry":{"type":"Point","coordinates":[-83.181592,41.114111]}}],"is_temporal":true,"author":{"url":"","metadata":"","contact_name":"","contact_address":"","source":"","contact_phone":""},"source":"","pagination":{"sort":null,"start":0,"total":26,"limit":1000000},"state":"complete","tags":"","published":"2014-08-15T04:24:32-04:00","id":219831}