{"type":"FeatureCollection","data_type":"Dataset","url_type":null,"permissions":[{"permissions":{"download":true,"view":true},"group_id":"everyone"}],"classification":null,"title":"Starbucks Coffee Company in Quezon City","count":29,"stream_id":219846,"contributor":{"url":"http://geocommons.com/users/42560","name":"mylene.bersamira"},"data_attributes":null,"calculation_params":null,"icon_link":null,"link":"http://geocommons.com/overlays/219846.json","extent":[0.0,0.0,0.0,0.0],"geometry_types":[],"unique_name":null,"name":"Starbucks Coffee Company in Quezon City","feature_count":29,"description":"","next_feature":null,"is_raster":false,"short_classification":"Y","stats":{"latitude":{"max":14.15223889,"mean":14.1098136017241,"variance":0.00187683657778937,"stdev":0.0433224719722844,"min":14.00104722,"median":14.11796944},"longitude":{"max":121.083525,"mean":120.987523558621,"variance":0.0540988909689389,"stdev":0.232591682931568,"min":120.1502611,"median":121.0505444}},"features":[{"properties":{"name":"Starbucks ABS-CBN","latitude":14.13495278,"longitude":121.0337944,"id":"0","address":"Scout Albano Street, Dilman"},"type":"Feature","geometry":null},{"properties":{"name":"Starbucks Ali Mall","latitude":14.11684167,"longitude":121.0505444,"id":"1","address":"Times Square, Araneta Center"},"type":"Feature","geometry":null},{"properties":{"name":"Starbucks  Araneta Center","latitude":14.11796944,"longitude":121.0506722,"id":"2","address":"Araneta Coliseum, Cubao, Quezon City"},"type":"Feature","geometry":null},{"properties":{"name":"Starbucks  Commonwealth","latitude":14.00169722,"longitude":121.067925,"id":"3","address":"Diliman Comm. Ctr, Don Mariano Marcos Av"},"type":"Feature","geometry":null},{"properties":{"name":"Starbucks Corinthian Hills","latitude":14.08576667,"longitude":121.0668556,"id":"4","address":"G/F Corinthian Hills, Temple Drive"},"type":"Feature","geometry":null},{"properties":{"name":"Starbucks E. Rodriguez - St. Lukes","latitude":14.10223056,"longitude":121.0672056,"id":"5","address":"E Rodriguez Sr Ave"},"type":"Feature","geometry":null},{"properties":{"name":"Starbucks  Eastwood","latitude":14.10153889,"longitude":121.0672278,"id":"6","address":"G/F Citywalk 2, Eastwood, Libis, Q.C."},"type":"Feature","geometry":null},{"properties":{"name":"Starbucks Eastwood Mall-","latitude":14.10220833,"longitude":121.0687972,"id":"7","address":"Level 4, Unit A411"},"type":"Feature","geometry":null},{"properties":{"name":"Starbucks FEU NRMF Hospital Regalado","latitude":14.01867778,"longitude":121.0669056,"id":"8","address":"Ground Floor Regalado Avenue"},"type":"Feature","geometry":null},{"properties":{"name":"Starbucks Imperial Palace Suites","latitude":14.13351389,"longitude":121.0333833,"id":"9","address":"Tomas Morato &amp; Timog Avenue"},"type":"Feature","geometry":null},{"properties":{"name":"Starbucks Katipunan","latitude":14.13433333,"longitude":121.0679583,"id":"10","address":"Katipunan Avenue &amp; Rosa Alvero"},"type":"Feature","geometry":null},{"properties":{"name":"Starbucks Landmark QC","latitude":14.15010556,"longitude":121.0335889,"id":"11","address":"Trinoma, EDSA cor North Ave"},"type":"Feature","geometry":null},{"properties":{"name":"Starbucks Libis","latitude":14.10065,"longitude":121.0690444,"id":"12","address":"184-B - E. Rodriguez Jr. Ave. Libis"},"type":"Feature","geometry":null},{"properties":{"name":"Starbucks Petron Katipunan","latitude":14.13548333,"longitude":121.0667639,"id":"13","address":"Katipunan Ave &amp; Mangyan St"},"type":"Feature","geometry":null},{"properties":{"name":"Starbucks Quezon Ave Sykes","latitude":14.13357778,"longitude":121.0333528,"id":"14","address":"1614 Quezon Ave"},"type":"Feature","geometry":null},{"properties":{"name":"Starbucks Retiro corner Speaker Perez","latitude":14.11710556,"longitude":120.1509,"id":"15","address":"Retiro St. cor Speaker Perez St"},"type":"Feature","geometry":null},{"properties":{"name":"Starbucks Robinsons Galleria","latitude":14.08583611,"longitude":121.0510694,"id":"16","address":"4/F Cinema Level, Robinsons Galleria"},"type":"Feature","geometry":null},{"properties":{"name":"Starbucks Robinsons Place-Main Entrance Expn","latitude":14.06797222,"longitude":120.1502611,"id":"17","address":"Pedro Gil cor. Adriatico Sts."},"type":"Feature","geometry":null},{"properties":{"name":"Starbucks RSI Gateway Center","latitude":14.11789722,"longitude":121.0501083,"id":"18","address":"G/F Rustans Supermarket Araneta Center"},"type":"Feature","geometry":null},{"properties":{"name":"Starbucks RSI Katipunan","latitude":14.1338,"longitude":121.0685278,"id":"19","address":"Katipunan Avenue"},"type":"Feature","geometry":null},{"properties":{"name":"Starbucks Shopwise Commonwealth Ave","latitude":14.00104722,"longitude":121.083525,"id":"20","address":"Shopwise Commonwealth Ave"},"type":"Feature","geometry":null},{"properties":{"name":"Starbucks Sky Garden - SM North EDSA","latitude":14.15032222,"longitude":121.0168361,"id":"21","address":"F &amp; B 14 SM North EDSA Sky Garden"},"type":"Feature","geometry":null},{"properties":{"name":"Starbucks SM Fairview","latitude":14.06669444,"longitude":121.0511139,"id":"22","address":"Ground Floor, SM Fairview Annex Bldg."},"type":"Feature","geometry":null},{"properties":{"name":"Starbucks SM North EDSA","latitude":14.15032778,"longitude":121.0168361,"id":"23","address":"CC 102-B Upper G/F, Supermarket Level"},"type":"Feature","geometry":null},{"properties":{"name":"Starbucks  Tomas Morato 2","latitude":14.11895,"longitude":121.0335806,"id":"24","address":"212 Morato Ave. cor. Dr. Lazcano Street"},"type":"Feature","geometry":null},{"properties":{"name":"Starbucks  Trinoma Mall - Lobby","latitude":14.15076667,"longitude":121.0190472,"id":"25","address":"Space P004B Lobby Level, Trinoma Mall"},"type":"Feature","geometry":null},{"properties":{"name":"Starbucks Trinoma Mall Level M2","latitude":14.15039167,"longitude":121.0334333,"id":"26","address":"EDSA &amp; North Avenue"},"type":"Feature","geometry":null},{"properties":{"name":"Starbucks Trinoma Mall Level M4","latitude":14.15169722,"longitude":121.0184917,"id":"27","address":"EDSA &amp; North Avenue"},"type":"Feature","geometry":null},{"properties":{"name":"Starbucks UP Ayala Land","latitude":14.15223889,"longitude":121.0504333,"id":"28","address":"Commonwealth Ave"},"type":"Feature","geometry":null}],"is_temporal":false,"author":{"url":"http://www.mystore411.com","metadata":"http://www.mystore411.com/store/list_city/15/Metro%20Manila/Quezon+City/Philippines/Starbucks-store-locations","contact_name":"","contact_address":"","source":"mystore411: Listing of store locations and store hours","contact_phone":""},"source":"http://www.mystore411.com","pagination":{"sort":null,"start":0,"total":29,"limit":1000000},"state":"complete","tags":"","published":"2014-08-15T04:24:57-04:00","id":219846}