{"type":"FeatureCollection","data_type":"Dataset","url_type":null,"permissions":[{"permissions":{"download":true,"view":true},"group_id":"everyone"}],"classification":null,"title":"sex offense 2010","count":27,"stream_id":219965,"contributor":{"url":"http://geocommons.com/users/42302","name":"hillproject"},"data_attributes":null,"calculation_params":null,"icon_link":null,"link":"http://geocommons.com/overlays/219965.json","extent":[-83.2043,41.1012,-82.6726,41.3996],"geometry_types":["point"],"unique_name":null,"name":"sex offense 2010","feature_count":27,"description":"","next_feature":null,"is_raster":false,"short_classification":"Y","stats":{"date":{"max":"2010/12/28 10:15:47 -0500","mean":"2010/06/03 05:36:51 -0400","variance":93791617202216.6,"stdev":9684607.23014705,"min":"2010/01/01 03:48:38 -0500","median":"2010/06/01 15:00:09 -0400"},"unit":{"max":879,"mean":134.074074074074,"variance":46701.2250712251,"stdev":216.104662307931,"min":56,"median":61},"disposition":{"max":700,"mean":233.333333333333,"variance":18461.5384615385,"stdev":135.873244097351,"min":100,"median":200},"cfs":{"max":18,"mean":18.0,"variance":0.0,"stdev":0.0,"min":18,"median":18},"call#":{"max":10.011722,"mean":10.0050142222222,"variance":1.44254960256401e-05,"stdev":0.00379809110286208,"min":10.00001,"median":10.004817}},"features":[{"properties":{"officer":"BAR","city":"Tiffin","zip":"44883","date":{"end_time":"2010/12/28 10:15:48 -0500","original":"12/28/2010 10:15:47 AM","granularity":"sec","time":"2010/12/28 10:15:47 -0500"},"geo_score":0.902,"unit":63,"disposition":200,"cfs":18,"call#":10.011722,"id":"a6dqf6g26wbi","geo_precision":"range","address":"240 Circular St","state":"OH","juris":"PD"},"type":"Feature","geometry":{"type":"Point","coordinates":[-83.169382,41.109145]}},{"properties":{"officer":"DES","city":"Tiffin","zip":"44883","date":{"end_time":"2010/11/20 09:19:13 -0500","original":"11/20/2010 9:19:12 AM","granularity":"sec","time":"2010/11/20 09:19:12 -0500"},"geo_score":0.429,"unit":61,"disposition":200,"cfs":18,"call#":10.010696,"id":"a6dqf6figw0i","geo_precision":"street","address":"590 S Sandusky St,B","state":"OH","juris":"PD"},"type":"Feature","geometry":{"type":"Point","coordinates":[-83.183613,41.118373]}},{"properties":{"officer":"BAR","city":"Tiffin","zip":"44883","date":{"end_time":"2010/11/15 08:27:45 -0500","original":"11/15/2010 8:27:44 AM","granularity":"sec","time":"2010/11/15 08:27:44 -0500"},"geo_score":0.902,"unit":63,"disposition":200,"cfs":18,"call#":10.010527,"id":"a6dqf6h6xhj6","geo_precision":"range","address":"201 S Washington St","state":"OH","juris":"PD"},"type":"Feature","geometry":{"type":"Point","coordinates":[-83.176189,41.111864]}},{"properties":{"officer":"RJO","city":"Tiffin","zip":"44883","date":{"end_time":"2010/11/11 10:49:55 -0500","original":"11/11/2010 10:49:54 AM","granularity":"sec","time":"2010/11/11 10:49:54 -0500"},"geo_score":0.902,"unit":60,"disposition":200,"cfs":18,"call#":10.010402,"id":"a6dqf6hl492h","geo_precision":"range","address":"46 St Clair St","state":"OH","juris":"PD"},"type":"Feature","geometry":{"type":"Point","coordinates":[-83.181355,41.112736]}},{"properties":{"officer":"RAG","city":"Tiffin","zip":"44883","date":{"end_time":"2010/10/01 12:26:55 -0400","original":"10/1/2010 12:26:54 PM","granularity":"sec","time":"2010/10/01 12:26:54 -0400"},"geo_score":0.902,"unit":59,"disposition":200,"cfs":18,"call#":10.009064,"id":"a6dqf68qb4tu","geo_precision":"range","address":"73 Hancock St","state":"OH","juris":"PD"},"type":"Feature","geometry":{"type":"Point","coordinates":[-83.168093,41.109625]}},{"properties":{"officer":"SGN","city":"Tiffin","zip":"44883","date":{"end_time":"2010/09/08 12:00:00 -0400","original":"9/8/2010 11:00:00 AM","granularity":"hour","time":"2010/09/08 11:00:00 -0400"},"geo_score":0.756,"unit":59,"disposition":200,"cfs":18,"call#":10.008242,"id":"a6dqf6cynx2d","geo_precision":"range","address":"270 First Av","state":"OH","juris":"PD"},"type":"Feature","geometry":{"type":"Point","coordinates":[-83.186173,41.127842]}},{"properties":{"officer":"SDV","city":"Tiffin","zip":"44883","date":{"end_time":"2010/08/31 14:52:08 -0400","original":"8/31/2010 2:52:07 PM","granularity":"sec","time":"2010/08/31 14:52:07 -0400"},"geo_score":0.756,"unit":879,"disposition":200,"cfs":18,"call#":10.009498,"id":"a6dqf6eb48nj","geo_precision":"range","address":"176 First Av","state":"OH","juris":"PD"},"type":"Feature","geometry":{"type":"Point","coordinates":[-83.183453,41.127883]}},{"properties":{"officer":"DGH","city":"Tiffin","zip":"44883","date":{"end_time":"2010/08/25 10:07:42 -0400","original":"8/25/2010 10:07:41 AM","granularity":"sec","time":"2010/08/25 10:07:41 -0400"},"geo_score":0.902,"unit":63,"disposition":200,"cfs":18,"call#":10.007772,"id":"a6dqf6fx93nm","geo_precision":"range","address":"686 S Sandusky St,87","state":"OH","juris":"PD"},"type":"Feature","geometry":{"type":"Point","coordinates":[-83.18408,41.117482]}},{"properties":{"officer":"JMW","city":"Tiffin","zip":"44883","date":{"end_time":"2010/08/21 18:12:50 -0400","original":"8/21/2010 6:12:49 PM","granularity":"sec","time":"2010/08/21 18:12:49 -0400"},"geo_score":0.902,"unit":58,"disposition":200,"cfs":18,"call#":10.007648,"id":"a6dqf6a26dz0","geo_precision":"range","address":"652 N Sandusky St,13","state":"OH","juris":"PD"},"type":"Feature","geometry":{"type":"Point","coordinates":[-83.18221,41.120491]}},{"properties":{"officer":"JSC","city":"Tiffin","zip":"44883","date":{"end_time":"2010/08/06 19:17:28 -0400","original":"8/6/2010 7:17:27 PM","granularity":"sec","time":"2010/08/06 19:17:27 -0400"},"geo_score":0.902,"unit":57,"disposition":200,"cfs":18,"call#":10.007136,"id":"a6dqf66l8zrp","geo_precision":"range","address":"372 E Perry St","state":"OH","juris":"PD"},"type":"Feature","geometry":{"type":"Point","coordinates":[-83.165318,41.117565]}},{"properties":{"officer":"JDW","city":"Tiffin","zip":"44883","date":{"end_time":"2010/07/22 10:49:38 -0400","original":"7/22/2010 10:49:37 AM","granularity":"sec","time":"2010/07/22 10:49:37 -0400"},"geo_score":0.902,"unit":648,"disposition":700,"cfs":18,"call#":10.00663,"id":"a6dqf6gju59w","geo_precision":"range","address":"170 Hall St","state":"OH","juris":"PD"},"type":"Feature","geometry":{"type":"Point","coordinates":[-83.183148,41.122928]}},{"properties":{"officer":"RAG","city":"Tiffin","zip":"44883","date":{"end_time":"2010/06/16 10:41:37 -0400","original":"6/16/2010 10:41:36 AM","granularity":"sec","time":"2010/06/16 10:41:36 -0400"},"geo_score":0.902,"unit":58,"disposition":200,"cfs":18,"call#":10.005341,"id":"a6dqf6aansx6","geo_precision":"range","address":"680 W Market St","state":"OH","juris":"PD"},"type":"Feature","geometry":{"type":"Point","coordinates":[-83.203688,41.111822]}},{"properties":{"officer":"DGH","city":"Tiffin","zip":"44883","date":{"end_time":"2010/06/09 14:43:56 -0400","original":"6/9/2010 2:43:55 PM","granularity":"sec","time":"2010/06/09 14:43:55 -0400"},"geo_score":0.902,"unit":63,"disposition":100,"cfs":18,"call#":10.005102,"id":"a6dqf62sm3pr","geo_precision":"range","address":"859 Miami St,18","state":"OH","juris":"PD"},"type":"Feature","geometry":{"type":"Point","coordinates":[-83.179921,41.116966]}},{"properties":{"officer":"RAG","city":"Tiffin","zip":"44883","date":{"end_time":"2010/06/01 15:00:10 -0400","original":"6/1/2010 3:00:09 PM","granularity":"sec","time":"2010/06/01 15:00:09 -0400"},"geo_score":0.708,"unit":61,"disposition":200,"cfs":18,"call#":10.004817,"id":"a6dqf661kk8a","geo_precision":"street","address":"849 N Water St,313","state":"OH","juris":"PD"},"type":"Feature","geometry":{"type":"Point","coordinates":[-83.166843,41.131124]}},{"properties":{"officer":"LMK","city":"Tiffin","zip":"44883","date":{"end_time":"2010/05/17 20:05:41 -0400","original":"5/17/2010 8:05:40 PM","granularity":"sec","time":"2010/05/17 20:05:40 -0400"},"geo_score":0.902,"unit":61,"disposition":200,"cfs":18,"call#":10.004343,"id":"a6dqf651d8bg","geo_precision":"range","address":"1714 W Market St","state":"OH","juris":"PD"},"type":"Feature","geometry":{"type":"Point","coordinates":[-83.204289,41.11169]}},{"properties":{"officer":"JAD","city":"Tiffin","zip":"44883","date":{"end_time":"2010/03/27 22:02:25 -0400","original":"3/27/2010 10:02:24 PM","granularity":"sec","time":"2010/03/27 22:02:24 -0400"},"geo_score":0.902,"unit":56,"disposition":200,"cfs":18,"call#":10.002638,"id":"a6dqf62a643g","geo_precision":"range","address":"222 S Sandusky St","state":"OH","juris":"PD"},"type":"Feature","geometry":{"type":"Point","coordinates":[-83.18631,41.114343]}},{"properties":{"officer":"SGN","city":"Tiffin","zip":"44883","date":{"end_time":"2010/03/19 09:22:33 -0400","original":"3/19/2010 9:22:32 AM","granularity":"sec","time":"2010/03/19 09:22:32 -0400"},"geo_score":0.756,"unit":62,"disposition":200,"cfs":18,"call#":10.002374,"id":"a6dqf62k5jxn","geo_precision":"range","address":"209 Fifth Av","state":"OH","juris":"PD"},"type":"Feature","geometry":{"type":"Point","coordinates":[-83.178799,41.131372]}},{"properties":{"officer":"REB","city":"Tiffin","zip":"44883","date":{"end_time":"2010/03/16 11:36:54 -0400","original":"3/16/2010 11:36:53 AM","granularity":"sec","time":"2010/03/16 11:36:53 -0400"},"geo_score":0.902,"unit":57,"disposition":200,"cfs":18,"call#":10.002278,"id":"a6dqf6dk5eb3","geo_precision":"range","address":"51 E Market St","state":"OH","juris":"PD"},"type":"Feature","geometry":{"type":"Point","coordinates":[-83.17813,41.114436]}},{"properties":{"officer":"JDW","city":"Tiffin","zip":"44883","date":{"end_time":"2010/03/09 08:20:25 -0500","original":"3/9/2010 8:20:24 AM","granularity":"sec","time":"2010/03/09 08:20:24 -0500"},"geo_score":0.902,"unit":648,"disposition":700,"cfs":18,"call#":10.002066,"id":"a6dqf670eh6w","geo_precision":"range","address":"375 Melmore St","state":"OH","juris":"PD"},"type":"Feature","geometry":{"type":"Point","coordinates":[-83.167295,41.101198]}},{"properties":{"officer":"RAG","city":"Tiffin","zip":"44883","date":{"end_time":"2010/03/04 15:39:00 -0500","original":"3/4/2010 3:38:00 PM","granularity":"min","time":"2010/03/04 15:38:00 -0500"},"geo_score":0.902,"unit":57,"disposition":200,"cfs":18,"call#":10.001899,"id":"a6dqf6fyzjg5","geo_precision":"range","address":"245 W Market St","state":"OH","juris":"PD"},"type":"Feature","geometry":{"type":"Point","coordinates":[-83.188976,41.113374]}},{"properties":{"officer":"BRB","city":"Tiffin","zip":"44883","date":{"end_time":"2010/02/21 11:22:33 -0500","original":"2/21/2010 11:22:32 AM","granularity":"sec","time":"2010/02/21 11:22:32 -0500"},"geo_score":0.902,"unit":62,"disposition":200,"cfs":18,"call#":10.001557,"id":"a6dqf66ra07r","geo_precision":"range","address":"449 S Jefferson St","state":"OH","juris":"PD"},"type":"Feature","geometry":{"type":"Point","coordinates":[-83.173407,41.104792]}},{"properties":{"officer":"SGN","city":"Tiffin","zip":"44883","date":{"end_time":"2010/02/18 13:30:12 -0500","original":"2/18/2010 1:30:11 PM","granularity":"sec","time":"2010/02/18 13:30:11 -0500"},"geo_score":0.902,"unit":62,"disposition":200,"cfs":18,"call#":10.001451,"id":"a6dqf6ibmgle","geo_precision":"range","address":"16 E Market St","state":"OH","juris":"PD"},"type":"Feature","geometry":{"type":"Point","coordinates":[-83.179228,41.114348]}},{"properties":{"officer":"GTM","city":"Tiffin","zip":"44883","date":{"end_time":"2010/02/10 22:46:47 -0500","original":"2/10/2010 10:46:46 PM","granularity":"sec","time":"2010/02/10 22:46:46 -0500"},"geo_score":0.902,"unit":59,"disposition":200,"cfs":18,"call#":10.001163,"id":"a6dqf6695j93","geo_precision":"range","address":"155 Miami St","state":"OH","juris":"PD"},"type":"Feature","geometry":{"type":"Point","coordinates":[-83.184778,41.118845]}},{"properties":{"officer":"SGN","city":"Tiffin","zip":"44883","date":{"end_time":"2010/02/04 13:52:33 -0500","original":"2/4/2010 1:52:32 PM","granularity":"sec","time":"2010/02/04 13:52:32 -0500"},"geo_score":0.902,"unit":62,"disposition":200,"cfs":18,"call#":10.000915,"id":"a6dqf6cfscal","geo_precision":"range","address":"51 E Market St","state":"OH","juris":"PD"},"type":"Feature","geometry":{"type":"Point","coordinates":[-83.17813,41.114436]}},{"properties":{"officer":"RJO","city":"Tiffin","zip":"44883","date":{"end_time":"2010/01/04 14:15:50 -0500","original":"1/4/2010 2:15:49 PM","granularity":"sec","time":"2010/01/04 14:15:49 -0500"},"geo_score":0.333,"unit":57,"disposition":200,"cfs":18,"call#":10.000068,"id":"a6dqf67kc30j","geo_precision":"street","address":"153 Dallas St,E","state":"OH","juris":"PD"},"type":"Feature","geometry":{"type":"Point","coordinates":[-82.672609,41.399588]}},{"properties":{"officer":"JPF","city":"Tiffin","zip":"44883","date":{"end_time":"2010/01/02 11:47:47 -0500","original":"1/2/2010 11:47:46 AM","granularity":"sec","time":"2010/01/02 11:47:46 -0500"},"geo_score":0.902,"unit":63,"disposition":200,"cfs":18,"call#":10.000025,"id":"a6dqf6g9qaan","geo_precision":"range","address":"91 W Market St","state":"OH","juris":"PD"},"type":"Feature","geometry":{"type":"Point","coordinates":[-83.183459,41.113913]}},{"properties":{"officer":"GTM","city":"Tiffin","zip":"44883","date":{"end_time":"2010/01/01 03:48:39 -0500","original":"1/1/2010 3:48:38 AM","granularity":"sec","time":"2010/01/01 03:48:38 -0500"},"geo_score":0.902,"unit":62,"disposition":200,"cfs":18,"call#":10.00001,"id":"a6dqf66qg222","geo_precision":"range","address":"176 Hudson St","state":"OH","juris":"PD"},"type":"Feature","geometry":{"type":"Point","coordinates":[-83.183466,41.121364]}}],"is_temporal":true,"author":{"url":"","metadata":"","contact_name":"","contact_address":"","source":"","contact_phone":""},"source":"","pagination":{"sort":null,"start":0,"total":27,"limit":1000000},"state":"complete","tags":"","published":"2014-08-15T04:29:35-04:00","id":219965}