{"type":"FeatureCollection","data_type":"Dataset","url_type":null,"permissions":[{"permissions":{"download":true,"view":true},"group_id":"everyone"}],"classification":null,"title":"Bobby_-_First_American_-_ran_March_26th","count":7,"stream_id":220005,"contributor":{"url":"http://geocommons.com/users/39447","name":"sam.felipe"},"data_attributes":null,"calculation_params":null,"icon_link":null,"link":"http://geocommons.com/overlays/220005.json","extent":[-119.808,35.1181,-117.67,36.837],"geometry_types":["point"],"unique_name":null,"name":"Bobby_-_First_American_-_ran_March_26th","feature_count":7,"description":"","next_feature":null,"is_raster":false,"short_classification":"Y","stats":{"competitor code":{"max":12,"mean":12.0,"variance":0.0,"stdev":0.0,"min":12,"median":12},"mode":{"max":50,"mean":50.0,"variance":0.0,"stdev":0.0,"min":50,"median":50}},"features":[{"properties":{"city":"Fresno","name of competitor":"First American Title","zip":"93711","competitor code":12,"mode":50,"geo_score":0.5,"street address":"7625 N Palm","id":"a640o39oruzi","geo_precision":"street"},"type":"Feature","geometry":{"type":"Point","coordinates":[-119.808288,36.837005]}},{"properties":{"city":"Clovis","name of competitor":"First American Title","zip":"93612","competitor code":12,"mode":50,"geo_score":0.758,"street address":"644 Pollasky","id":"a640o35e2jvd","geo_precision":"range"},"type":"Feature","geometry":{"type":"Point","coordinates":[-119.701997,36.822588]}},{"properties":{"city":"Kingsburg","name of competitor":"First American Title","zip":"93631","competitor code":12,"mode":50,"geo_score":0.829,"street address":"1340 Sierra","id":"a640o2zux876","geo_precision":"range"},"type":"Feature","geometry":{"type":"Point","coordinates":[-119.553177,36.517904]}},{"properties":{"city":"Visalia","name of competitor":"First American Title","zip":"93277","competitor code":12,"mode":50,"geo_score":0.902,"street address":"1850 S Central St.","id":"a640o34givj3","geo_precision":"range"},"type":"Feature","geometry":{"type":"Point","coordinates":[-119.312059,36.314324]}},{"properties":{"city":"Bakersfield","name of competitor":"First American Title","zip":"93311","competitor code":12,"mode":50,"geo_score":0.708,"street address":"9201 camino Media","id":"a640o3bp1m42","geo_precision":"street"},"type":"Feature","geometry":{"type":"Point","coordinates":[-119.115257,35.344425]}},{"properties":{"city":"Tehachapi","name of competitor":"First American Title","zip":"93561","competitor code":12,"mode":50,"geo_score":0.702,"street address":"675 Tucker Road","id":"a640o3aj7wjt","geo_precision":"range"},"type":"Feature","geometry":{"type":"Point","coordinates":[-118.467777,35.118054]}},{"properties":{"city":"Ridgecrest","name of competitor":"First American Title","zip":"93555","competitor code":12,"mode":50,"geo_score":0.902,"street address":"634 S China Lake Blvd","id":"a640o3cuxqzy","geo_precision":"range"},"type":"Feature","geometry":{"type":"Point","coordinates":[-117.670177,35.614384]}}],"is_temporal":false,"author":{"url":"","metadata":null,"contact_name":null,"contact_address":null,"source":null,"contact_phone":null},"source":"","pagination":{"sort":null,"start":0,"total":7,"limit":1000000},"state":"complete","tags":"","published":"2014-08-14T14:50:07-04:00","id":220005}