{"type":"FeatureCollection","data_type":"Dataset","url_type":null,"permissions":[{"permissions":{"download":true,"view":true},"group_id":"everyone"}],"classification":null,"title":"Christine_-_First_American_-_ran_March_26th","count":12,"stream_id":220151,"contributor":{"url":"http://geocommons.com/users/39447","name":"sam.felipe"},"data_attributes":null,"calculation_params":null,"icon_link":null,"link":"http://geocommons.com/overlays/220151.json","extent":[-122.114,36.9737,-120.851,37.6891],"geometry_types":["point"],"unique_name":null,"name":"Christine_-_First_American_-_ran_March_26th","feature_count":12,"description":"","next_feature":null,"is_raster":false,"short_classification":"Y","stats":{"competitor code":{"max":12,"mean":12.0,"variance":0.0,"stdev":0.0,"min":12,"median":12},"mode":{"max":50,"mean":50.0,"variance":0.0,"stdev":0.0,"min":50,"median":50}},"features":[{"properties":{"city":"Modesto","name of competitor":"First American Title","zip":"95350","competitor code":12,"mode":50,"geo_score":0.902,"street address":"220 Standiford Ave.","id":"a646r0crypnn","geo_precision":"range"},"type":"Feature","geometry":{"type":"Point","coordinates":[-120.994411,37.68909]}},{"properties":{"city":"Turlock","name of competitor":"First American Title","zip":"95380","competitor code":12,"mode":50,"geo_score":0.482,"street address":"501 E. Olive Ave.","id":"a646r0cqmawg","geo_precision":"street"},"type":"Feature","geometry":{"type":"Point","coordinates":[-120.851359,37.493716]}},{"properties":{"city":"Santa Cruz","name of competitor":"First American Title","zip":"95062","competitor code":12,"mode":50,"geo_score":0.816,"street address":"330 Soquel Ave","id":"a646r0cbsrib","geo_precision":"range"},"type":"Feature","geometry":{"type":"Point","coordinates":[-122.020682,36.974055]}},{"properties":{"city":"Capitola","name of competitor":"First American Title","zip":"95010","competitor code":12,"mode":50,"geo_score":0.707,"street address":"4450 Capitola Rd. #103","id":"a646r0lnnejz","geo_precision":"street"},"type":"Feature","geometry":{"type":"Point","coordinates":[-121.964902,36.973718]}},{"properties":{"city":"Saratoga","name of competitor":"First American Title","zip":"95070","competitor code":12,"mode":50,"geo_score":0.633,"street address":"12880 Saratoga-Sunnyvale Rd.","id":"a646r0bm8dir","geo_precision":"street"},"type":"Feature","geometry":{"type":"Point","coordinates":[-122.03243,37.289]}},{"properties":{"city":"Los Gatos","name of competitor":"First American Title","zip":"95030","competitor code":12,"mode":50,"geo_score":0.817,"street address":"264 Los Gatos-Saratoga Rd.","id":"a646r0pjow7j","geo_precision":"range"},"type":"Feature","geometry":{"type":"Point","coordinates":[-121.982459,37.229921]}},{"properties":{"city":"Los Gatos","name of competitor":"First American Title","zip":"95030","competitor code":12,"mode":50,"geo_score":0.817,"street address":"455 North Santa Cruz Ave.","id":"a646r0jlc1zv","geo_precision":"range"},"type":"Feature","geometry":{"type":"Point","coordinates":[-121.980182,37.230622]}},{"properties":{"city":"Cupertino","name of competitor":"First American Title","zip":"95014","competitor code":12,"mode":50,"geo_score":0.779,"street address":"20545 Valley Green","id":"a646r0i68fj1","geo_precision":"range"},"type":"Feature","geometry":{"type":"Point","coordinates":[-122.034344,37.332309]}},{"properties":{"city":"Los Altos","name of competitor":"First American Title","zip":"94022","competitor code":12,"mode":50,"geo_score":0.841,"street address":"161 South San Antonio Rd.","id":"a646r0m25vqg","geo_precision":"range"},"type":"Feature","geometry":{"type":"Point","coordinates":[-122.114038,37.379694]}},{"properties":{"city":"San Jose","name of competitor":"First American Title","zip":"95112","competitor code":12,"mode":50,"geo_score":0.805,"street address":"1737 North First St.","id":"a646r0cx60qm","geo_precision":"range"},"type":"Feature","geometry":{"type":"Point","coordinates":[-121.915042,37.369]}},{"properties":{"city":"San Jose","name of competitor":"First American Title","zip":"95118","competitor code":12,"mode":50,"geo_score":0.792,"street address":"4991-A Cherry Ave","id":"a646r0g5sbun","geo_precision":"range"},"type":"Feature","geometry":{"type":"Point","coordinates":[-121.876719,37.258985]}},{"properties":{"city":"Modesto","name of competitor":"First American Title","zip":"95354","competitor code":12,"mode":50,"geo_score":0.902,"street address":"1506 H Street","id":"a646r0mskv44","geo_precision":"range"},"type":"Feature","geometry":{"type":"Point","coordinates":[-120.993166,37.642178]}}],"is_temporal":false,"author":{"url":"","metadata":null,"contact_name":null,"contact_address":null,"source":null,"contact_phone":null},"source":"","pagination":{"sort":null,"start":0,"total":12,"limit":1000000},"state":"complete","tags":"","published":"2014-08-14T15:02:43-04:00","id":220151}