{"type":"FeatureCollection","data_type":"Dataset","url_type":null,"permissions":[{"permissions":{"download":true,"view":true},"group_id":"everyone"}],"classification":null,"title":"TomosUSA, Tomos Dealer Locations, USA, 6.2008","count":157,"stream_id":2201,"contributor":{"url":"http://geocommons.com/users/139","name":"Burkey"},"data_attributes":null,"calculation_params":null,"icon_link":null,"link":"http://geocommons.com/overlays/2201.json","extent":[-123.07,-31.8187,115.797,48.5428],"geometry_types":["point"],"unique_name":null,"name":"TomosUSA, Tomos Dealer Locations, USA, 6.2008","feature_count":157,"description":"This dataset displays all the Tomos Dealer Locations throughout the USA as of 6.2008. Tomos is a company based in Slovenia that specializes in the production and sale of 2-wheel vehicles like the scooter and the moped. They have carried their operation into the USA and are one of the most widely recognized moped/scooter distributors throughout the country. The information includes; Dealer Name, Dealer Location, Dealer Phone. The data comes from the website of TomosUSA at  tomosusa.com and the lat/lons were obtained by geocoding the location's street address.\n","next_feature":null,"is_raster":false,"short_classification":"Y","stats":{"lon":{"max":115.797203,"mean":-84.0923131719745,"variance":460.408127970925,"stdev":21.4571230124387,"min":-123.069949,"median":-81.451881},"zip":{"max":98250,"mean":37251.0891719745,"variance":733925098.466356,"stdev":27091.0519999936,"min":1001,"median":31008},"lat":{"max":48.54278,"mean":37.8122653566879,"variance":53.7690936522661,"stdev":7.3327412099614,"min":-31.818659,"median":39.309618}},"features":[{"properties":{"city":"San Francisco","lon":-122.419158,"zip":94103,"dealer":"1977 MOPEDS","phone":"Tel: 415.822.1976","id":"a625s5rkpvqp","addres":"2973 16th St.","lat":37.764941,"state":"CA"},"type":"Feature","geometry":{"type":"Point","coordinates":[-122.419158,37.764941]}},{"properties":{"city":"KALAMAZOO","lon":-85.583087,"zip":49007,"dealer":"1977 MOPEDS","phone":"Tel: 269-344-1977","id":"a625s5zt9kkz","addres":"248 N. KALAMAZOO MALL","lat":42.29311,"state":"MI"},"type":"Feature","geometry":{"type":"Point","coordinates":[-85.583087,42.29311]}},{"properties":{"city":"Boise","lon":-116.287106,"zip":83704,"dealer":"A-1 SCOOTERS","phone":"Tel: (208) 375-5750","id":"a625s5scuc1j","addres":"8401 W. Fairview Ave","lat":43.619344,"state":"ID"},"type":"Feature","geometry":{"type":"Point","coordinates":[-116.287106,43.619344]}},{"properties":{"city":"MIAMI","lon":-80.332225,"zip":33155,"dealer":"AA MOPED/MOTORSPORTS OF MIAMI,INC.","phone":"Tel: 305-223-2041","id":"a625s62v0t62","addres":"8427 BIRD ROAD","lat":25.733401,"state":"FL"},"type":"Feature","geometry":{"type":"Point","coordinates":[-80.332225,25.733401]}},{"properties":{"city":"Burlington","lon":-79.38956,"zip":27217,"dealer":"ACE CYCLE SALES, Inc.","phone":"Tel: 336.227.1491","id":"a625s5p7ornh","addres":"2468 N. Church St.","lat":36.091923,"state":"NC"},"type":"Feature","geometry":{"type":"Point","coordinates":[-79.38956,36.091923]}},{"properties":{"city":"HAYWARD","lon":-122.106763,"zip":94545,"dealer":"ACTION SPORTS LTD.","phone":"Tel: 510-786-1025","id":"a625s5x3x3mw","addres":"27365 INDUSTRIAL BLVD. UNIT F","lat":37.627011,"state":"CA"},"type":"Feature","geometry":{"type":"Point","coordinates":[-122.106763,37.627011]}},{"properties":{"city":"METUCHEN","lon":-74.369251,"zip":8840,"dealer":"ACTION YAMAHA","phone":"Tel: 732-494-5555","id":"a625s60wpv2g","addres":"108 ESSEX AVE.","lat":40.537177,"state":"NJ"},"type":"Feature","geometry":{"type":"Point","coordinates":[-74.369251,40.537177]}},{"properties":{"city":"WAUSEON","lon":-84.14041,"zip":43567,"dealer":"ALL IN ONE SALES &amp; SERVICE","phone":"Tel: 419-335-8358","id":"a625s62of3jn","addres":"270 E. LINFOOT STREET","lat":41.558692,"state":"OH"},"type":"Feature","geometry":{"type":"Point","coordinates":[-84.14041,41.558692]}},{"properties":{"city":"ROANOKE","lon":-79.99551,"zip":24018,"dealer":"ALLSPORT CYCLES","phone":"Tel: 540-772-2500","id":"a625s5nazbvx","addres":"3664 COLONIAL AVE. SW","lat":37.229788,"state":"VA"},"type":"Feature","geometry":{"type":"Point","coordinates":[-79.99551,37.229788]}},{"properties":{"city":"LINDEN","lon":-74.264671,"zip":7036,"dealer":"ANDY'S CYCLE CENTER LLC.","phone":"Tel: 908-486-3032","id":"a625s5qx5hc8","addres":"22 WEST ST. GEORGES AVE.","lat":40.637096,"state":"NJ"},"type":"Feature","geometry":{"type":"Point","coordinates":[-74.264671,40.637096]}},{"properties":{"city":"TAYLORSVILLE","lon":-81.177073,"zip":28681,"dealer":"ANTIQUES &amp; PAWN","phone":"Tel: 828-632-7846","id":"a625s623aiyn","addres":"208 WEST MAIN STREET","lat":35.92256,"state":"NC"},"type":"Feature","geometry":{"type":"Point","coordinates":[-81.177073,35.92256]}},{"properties":{"city":"Grand Island","lon":-98.340576,"zip":68801,"dealer":"APT POWER","phone":"Tel: 308.390.6620","id":"a625s5xrzsz5","addres":"320 S. Cleyburn","lat":40.920529,"state":"NE"},"type":"Feature","geometry":{"type":"Point","coordinates":[-98.340576,40.920529]}},{"properties":{"city":"St. Petersburg","lon":-82.728762,"zip":33709,"dealer":"Action Wheel Sport","phone":"Tel: (727) 541-2453","id":"a625s5pmshlg","addres":"5310 66th Street","lat":27.820047,"state":"FL"},"type":"Feature","geometry":{"type":"Point","coordinates":[-82.728762,27.820047]}},{"properties":{"city":"LODI","lon":-74.086746,"zip":7644,"dealer":"BERGEN SPORT CYCLE INC.","phone":"Tel: 201-641-0100","id":"a625s5tub7o7","addres":"30 US HIGHWAY 46 E","lat":40.883545,"state":"NJ"},"type":"Feature","geometry":{"type":"Point","coordinates":[-74.086746,40.883545]}},{"properties":{"city":"LAFAYETTE","lon":-86.882109,"zip":47904,"dealer":"BEYOND THE LIMITS MOTORCYCLES","phone":"Tel: 765-420-0006","id":"a625s5ni6az2","addres":"1315 N. 14TH ST.","lat":40.430451,"state":"IN"},"type":"Feature","geometry":{"type":"Point","coordinates":[-86.882109,40.430451]}},{"properties":{"city":"HIGHPOINT","lon":-80.021959,"zip":27262,"dealer":"BICYCLE TOY &amp; HOBBY","phone":"Tel: 336-887-1933","id":"a625s5xt88n9","addres":"2000 NORTH MAIN STREET","lat":35.981353,"state":"NC"},"type":"Feature","geometry":{"type":"Point","coordinates":[-80.021959,35.981353]}},{"properties":{"city":"JACKSONVILLE","lon":-77.375249,"zip":28546,"dealer":"BIKE ARCADE","phone":"Tel: 910-577-7022","id":"a625s5txcirz","addres":"1907 LEJEUNE BLVD.","lat":34.742501,"state":"NC"},"type":"Feature","geometry":{"type":"Point","coordinates":[-77.375249,34.742501]}},{"properties":{"city":"BRISTOL","lon":-85.805926,"zip":46507,"dealer":"BILL`S MICHIANA MOPED","phone":"Tel: 574-848-7111","id":"a625s5sjrnra","addres":"1007 E. ELKHART STREET","lat":41.71979,"state":"IN"},"type":"Feature","geometry":{"type":"Point","coordinates":[-85.805926,41.71979]}},{"properties":{"city":"STRASBURG","lon":-81.50283,"zip":44680,"dealer":"BLACKHAWK POWERSPORTS","phone":"Tel: 330-878-7060","id":"a625s60gdwnc","addres":"8396 FT. LAURENS RD NW","lat":40.605044,"state":"OH"},"type":"Feature","geometry":{"type":"Point","coordinates":[-81.50283,40.605044]}},{"properties":{"city":"Concord","lon":-80.597706,"zip":28027,"dealer":"BLACKWELDER'S BODY SHOP","phone":"Tel: 704.782.9865","id":"a625s5zi4djg","addres":"874 Old Charlotte Rd.","lat":35.3834,"state":"NC"},"type":"Feature","geometry":{"type":"Point","coordinates":[-80.597706,35.3834]}},{"properties":{"city":"NEW BERLIN","lon":-76.987098,"zip":17855,"dealer":"BOB SAUERS CYCLE SHOP","phone":"Tel: 570-966-2183","id":"a625s5vxlacq","addres":"6880 STATE ROUTE 304","lat":40.878799,"state":"PA"},"type":"Feature","geometry":{"type":"Point","coordinates":[-76.987098,40.878799]}},{"properties":{"city":"BOWLING GREEN","lon":-83.650235,"zip":43402,"dealer":"BOB'S SCOOTER SHACK","phone":"Tel: 419-354-1280","id":"a625s5ttwhxi","addres":"1011 SOUTH MAIN STREET","lat":41.358971,"state":"OH"},"type":"Feature","geometry":{"type":"Point","coordinates":[-83.650235,41.358971]}},{"properties":{"city":"STRATFORD","lon":-73.127495,"zip":6614,"dealer":"BONES KART SHOP","phone":"Tel: 203-385-0814","id":"a625s5rsd1cu","addres":"725 BARNUM AVE. CUTOFF","lat":41.198784,"state":"CT"},"type":"Feature","geometry":{"type":"Point","coordinates":[-73.127495,41.198784]}},{"properties":{"city":"Baltimore","lon":-76.593256,"zip":21231,"dealer":"BROADWAY CYCLE","phone":"Tel: (410) 276-0266","id":"a625s5rfa0j3","addres":"415-417 South Broadway","lat":39.28641,"state":"MD"},"type":"Feature","geometry":{"type":"Point","coordinates":[-76.593256,39.28641]}},{"properties":{"city":"Baltimore","lon":-76.614799,"zip":21225,"dealer":"BROOKLYN CYCLE WORLD","phone":"Tel: (410) 636-0600","id":"a625s5pua7a3","addres":"5810 Ritchie Hwy","lat":39.215026,"state":"MD"},"type":"Feature","geometry":{"type":"Point","coordinates":[-76.614799,39.215026]}},{"properties":{"city":"BURBANK","lon":-118.349546,"zip":91505,"dealer":"BURBANK KAWASAKI","phone":"Tel: 818-848-6627","id":"a625s5y8t5i3","addres":"1329 N. HOLLYWOOD WAY","lat":34.173365,"state":"CA"},"type":"Feature","geometry":{"type":"Point","coordinates":[-118.349546,34.173365]}},{"properties":{"city":"Sunnyvale","lon":-121.989984,"zip":94089,"dealer":"Battlescooter Corp.","phone":"Tel: 408.734.2677","id":"a625s61nevmw","addres":"1230 Mtn View Alviso Rd.","lat":37.410534,"state":"CA"},"type":"Feature","geometry":{"type":"Point","coordinates":[-121.989984,37.410534]}},{"properties":{"city":"Altoona","lon":-86.37274,"zip":35952,"dealer":"C &amp; H SUPPLY","phone":"Tel: 205.466.7626","id":"a625s5py9xi1","addres":"88806 US HWY 278","lat":34.105015,"state":"AL"},"type":"Feature","geometry":{"type":"Point","coordinates":[-86.37274,34.105015]}},{"properties":{"city":"Redding","lon":-122.355329,"zip":96002,"dealer":"CANNONBALL CUSTOM CYCLES","phone":"Tel: (530) 945-4977","id":"a625s6011qui","addres":"2335 Larkspur Ln.","lat":40.573365,"state":"CA"},"type":"Feature","geometry":{"type":"Point","coordinates":[-122.355329,40.573365]}},{"properties":{"city":"NEWPORT NEWS","lon":-76.471479,"zip":23601,"dealer":"CASEY CYCLE CITY","phone":"Tel: 757 595-9769","id":"a625s62q32ev","addres":"634 J. CLYDE MORRIS BLVD.","lat":37.074963,"state":"VA"},"type":"Feature","geometry":{"type":"Point","coordinates":[-76.471479,37.074963]}},{"properties":{"city":"Colchester","lon":-72.308655,"zip":6415,"dealer":"CBC MOTORCYCLES","phone":"Tel: 860.537.0202","id":"a625s5xv5cfv","addres":"304 New London Rd. Rt 85","lat":41.547028,"state":"CT"},"type":"Feature","geometry":{"type":"Point","coordinates":[-72.308655,41.547028]}},{"properties":{"city":"LOS ANGELES","lon":-118.285818,"zip":90029,"dealer":"CHOKE","phone":"Tel: 323-662-4653","id":"a625s61hmw0d","addres":"4157 NORMAL AVENUE","lat":34.086769,"state":"CA"},"type":"Feature","geometry":{"type":"Point","coordinates":[-118.285818,34.086769]}},{"properties":{"city":"TORRINGTON","lon":-73.117897,"zip":6790,"dealer":"CITY CYCLE","phone":"Tel: 860-482-5526","id":"a625s5pent48","addres":"169 EAST MAIN STREET","lat":41.802891,"state":"CT"},"type":"Feature","geometry":{"type":"Point","coordinates":[-73.117897,41.802891]}},{"properties":{"city":"WILLIAMSTON","lon":-82.470484,"zip":29697,"dealer":"CITY SCOOTERS","phone":"Tel: 864-847-7222","id":"a625s5w73lce","addres":"602 GREENVILLE DRIVE","lat":34.627077,"state":"SC"},"type":"Feature","geometry":{"type":"Point","coordinates":[-82.470484,34.627077]}},{"properties":{"city":"Foxboro","lon":-71.284615,"zip":2035,"dealer":"CLAUDE'S CYLCLE","phone":"Tel: (508) 543-0490","id":"a625s5n73qyr","addres":"16 Cedar Lane","lat":42.02095,"state":"MA"},"type":"Feature","geometry":{"type":"Point","coordinates":[-71.284615,42.02095]}},{"properties":{"city":"Saybrook","lon":-71.145271,"zip":6475,"dealer":"COASTLINE MOTORSPORTS","phone":"Tel: 860.395.0236","id":"a625s5tg0nmx","addres":"309 Boston Post Rd.","lat":42.353905,"state":"CT"},"type":"Feature","geometry":{"type":"Point","coordinates":[-71.145271,42.353905]}},{"properties":{"city":"CODY","lon":-109.064171,"zip":82414,"dealer":"CODY CUSTOM CYCLE","phone":"Tel: 307-527-4533","id":"a625s5tyh9pq","addres":"1131 12TH STREET","lat":44.525674,"state":"WY"},"type":"Feature","geometry":{"type":"Point","coordinates":[-109.064171,44.525674]}},{"properties":{"city":"BRISTOL","lon":-72.951096,"zip":6010,"dealer":"CONNECTICUT MOPED CENTER","phone":"Tel: 860-582-1899","id":"a625s5yrxg92","addres":"50 TERRYVILLE AVE","lat":41.681995,"state":"CT"},"type":"Feature","geometry":{"type":"Point","coordinates":[-72.951096,41.681995]}},{"properties":{"city":"OCEAN CITY","lon":-75.063957,"zip":21842,"dealer":"CONTINENTAL CYCLE, Inc.","phone":"Tel: 410-524-1313","id":"a625s5tsg4o7","addres":"7203 COASTAL HWY.","lat":38.393128,"state":"MD"},"type":"Feature","geometry":{"type":"Point","coordinates":[-75.063957,38.393128]}},{"properties":{"city":"Williamsburg","lon":-76.734769,"zip":23188,"dealer":"CONTRACTOR TRUCK SALES (MIDAS)","phone":"Tel: 757.253.2300","id":"a625s62gbls9","addres":"4407 Ironbound Rd","lat":37.284861,"state":"VA"},"type":"Feature","geometry":{"type":"Point","coordinates":[-76.734769,37.284861]}},{"properties":{"city":"Wallingford","lon":-72.817993,"zip":6492,"dealer":"CT POWER SPORT","phone":"Tel: 203.265.1206","id":"a625s5pzzp6m","addres":"935 North Main St.","lat":41.4547,"state":"CT"},"type":"Feature","geometry":{"type":"Point","coordinates":[-72.817993,41.4547]}},{"properties":{"city":"Greer","lon":-82.222359,"zip":29651,"dealer":"CYCLE SCENE","phone":"Tel: 864.877.7178","id":"a625s5o6b84j","addres":"13755 East Wade Hampton","lat":34.94807,"state":"SC"},"type":"Feature","geometry":{"type":"Point","coordinates":[-82.222359,34.94807]}},{"properties":{"city":"Baltimore","lon":-76.514372,"zip":21237,"dealer":"CYCLE WORLD","phone":"Tel: (410) 574-6800","id":"a625s60kup3v","addres":"7930 Pulaski Hwy. (Rt. 40 East)","lat":39.317927,"state":"MD"},"type":"Feature","geometry":{"type":"Point","coordinates":[-76.514372,39.317927]}},{"properties":{"city":"Beverly","lon":-70.875221,"zip":1915,"dealer":"CYCLES 128","phone":"Tel: 978.927.3400","id":"a625s5n5161o","addres":"107 Brimbal Ave","lat":42.571377,"state":"MA"},"type":"Feature","geometry":{"type":"Point","coordinates":[-70.875221,42.571377]}},{"properties":{"city":"Waycross","lon":-82.346272,"zip":31501,"dealer":"Conley's Scooters","phone":"Tel: 912.283.2100","id":"a625s5u9x18g","addres":"1638 Plant Ave","lat":31.219848,"state":"GA"},"type":"Feature","geometry":{"type":"Point","coordinates":[-82.346272,31.219848]}},{"properties":{"city":"BRYAN","lon":-84.550924,"zip":43506,"dealer":"DAVIS GO KART SALES","phone":"Tel: 419-636-6252","id":"a625s5yvhqc2","addres":"610 NORTH MAIN STREET","lat":41.481093,"state":"OH"},"type":"Feature","geometry":{"type":"Point","coordinates":[-84.550924,41.481093]}},{"properties":{"city":"CARSON CITY","lon":-119.751916,"zip":89701,"dealer":"DC MOTORSPORTS","phone":"Tel: 775-841-1122","id":"a625s5zadej5","addres":"1501 E. 5TH ST STE. 104","lat":39.161233,"state":"NV"},"type":"Feature","geometry":{"type":"Point","coordinates":[-119.751916,39.161233]}},{"properties":{"city":"Sumter","lon":-80.341196,"zip":29150,"dealer":"DIXIE PRODUCTS","phone":"Tel: 803.775.4391","id":"a625s63eqssl","addres":"1255 N. Lafayette Blvd","lat":33.942819,"state":"SC"},"type":"Feature","geometry":{"type":"Point","coordinates":[-80.341196,33.942819]}},{"properties":{"city":"Fort Myers","lon":-81.872103,"zip":33907,"dealer":"DRAGON CYCLE","phone":"Tel: 239.690.2925","id":"a625s5rvlp9x","addres":"11100 S. Cleveland Ave","lat":26.578221,"state":"FL"},"type":"Feature","geometry":{"type":"Point","coordinates":[-81.872103,26.578221]}},{"properties":{"city":"AHOSKIE","lon":-76.985271,"zip":27910,"dealer":"EDDIE HARRELL AUTO","phone":"Tel: 252.332.9430","id":"a625s5pevzs6","addres":"211 E. Church St.","lat":36.284137,"state":"NC"},"type":"Feature","geometry":{"type":"Point","coordinates":[-76.985271,36.284137]}},{"properties":{"city":"BEAUFORT","lon":-76.655325,"zip":28516,"dealer":"ESA CYCLES &amp; POWER EQUIPMENT","phone":"Tel: 252-728-1342","id":"a625s624f7cj","addres":"645 W. BEAUFORT RD.","lat":34.726339,"state":"NC"},"type":"Feature","geometry":{"type":"Point","coordinates":[-76.655325,34.726339]}},{"properties":{"city":"FREDERICKSBURG","lon":-77.438129,"zip":22405,"dealer":"FREDERICKSBURG MOTOR SPORTS","phone":"Tel: 540-899-9100","id":"a625s5n4zaaw","addres":"430 KINGS HWY.","lat":38.287313,"state":"VA"},"type":"Feature","geometry":{"type":"Point","coordinates":[-77.438129,38.287313]}},{"properties":{"city":"Frederick","lon":-77.433329,"zip":21701,"dealer":"FUN ON WHEELS","phone":"Tel: 301.696.1911","id":"a625s5rfc4dr","addres":"1780 C North Market St.","lat":39.41189,"state":"MD"},"type":"Feature","geometry":{"type":"Point","coordinates":[-77.433329,39.41189]}},{"properties":{"city":"PALM DESERT","lon":-116.374258,"zip":92260,"dealer":"FUNSEEKERS MOPEDS","phone":"Tel: 760-674-6042","id":"a625s5w3zh50","addres":"73981 HWY 111","lat":33.720918,"state":"CA"},"type":"Feature","geometry":{"type":"Point","coordinates":[-116.374258,33.720918]}},{"properties":{"city":"New Port Richey","lon":-82.735665,"zip":34652,"dealer":"Faulkner Motorsports","phone":"Tel: (727) 847-2474","id":"a625s5xke357","addres":"4237 US Hwy 19","lat":28.220854,"state":"FL"},"type":"Feature","geometry":{"type":"Point","coordinates":[-82.735665,28.220854]}},{"properties":{"city":"Key West","lon":-81.779715,"zip":33040,"dealer":"Florida Keys Cycle","phone":"Tel: (305) 296-8600","id":"a625s5zf3cbg","addres":"2222 Roosevelt Blvd","lat":24.560557,"state":"FL"},"type":"Feature","geometry":{"type":"Point","coordinates":[-81.779715,24.560557]}},{"properties":{"city":"Waynesboro","lon":-77.583965,"zip":17268,"dealer":"GORDON CYCLE SHOP","phone":"Tel: 717.749.3400","id":"a625s5wemcl6","addres":"220 South Potomac St. (Rear Area)","lat":39.752906,"state":"PA"},"type":"Feature","geometry":{"type":"Point","coordinates":[-77.583965,39.752906]}},{"properties":{"city":"Kalispell","lon":-114.322851,"zip":59901,"dealer":"GREAT SCOOT","phone":"Tel: 406.752.6606","id":"a625s5n4tw7u","addres":"528 W. Idaho","lat":48.200702,"state":"MT"},"type":"Feature","geometry":{"type":"Point","coordinates":[-114.322851,48.200702]}},{"properties":{"city":"Arlington","lon":-71.172089,"zip":2149,"dealer":"GREATER BOSTON MOTOR SPORTS","phone":"Tel: 781.648.1300","id":"a625s5oe8vd4","addres":"1098 Massachusetts Ave","lat":42.421497,"state":"MA"},"type":"Feature","geometry":{"type":"Point","coordinates":[-71.172089,42.421497]}},{"properties":{"city":"Conway","lon":-79.058213,"zip":29527,"dealer":"GREG FAULK AUTO SALES LLC.","phone":"Tel: 843.488.2822","id":"a625s5xwagkd","addres":"416 Wright Blvd","lat":33.832685,"state":"SC"},"type":"Feature","geometry":{"type":"Point","coordinates":[-79.058213,33.832685]}},{"properties":{"city":"Rock Hill","lon":-80.985727,"zip":29730,"dealer":"HAGERMOTORSPORT","phone":"Tel: 803.324.8800","id":"a625s5pqy1xc","addres":"808 Riverview Rd.","lat":34.967716,"state":"SC"},"type":"Feature","geometry":{"type":"Point","coordinates":[-80.985727,34.967716]}},{"properties":{"city":"HAGERSTOWN","lon":-77.735188,"zip":21740,"dealer":"HAGERSTOWN MOPED","phone":"Tel: 301-797-5996","id":"a625s5t792um","addres":"443 S. BURHANS","lat":39.640633,"state":"MD"},"type":"Feature","geometry":{"type":"Point","coordinates":[-77.735188,39.640633]}},{"properties":{"city":"CAPE MAY COURT HOUSE","lon":-74.823997,"zip":8210,"dealer":"HALE BICYCLE CORPORATION","phone":"Tel: 609-465-3126","id":"a625s60c0f8w","addres":"5 MECHANIC STREET","lat":39.082378,"state":"NJ"},"type":"Feature","geometry":{"type":"Point","coordinates":[-74.823997,39.082378]}},{"properties":{"city":"COLUMBUS","lon":-83.034403,"zip":43212,"dealer":"HANDY BIKES USA","phone":"Tel: 614-299-0550","id":"a625s5v921nf","addres":"1055 WEST 5TH AVENUE","lat":39.988149,"state":"OH"},"type":"Feature","geometry":{"type":"Point","coordinates":[-83.034403,39.988149]}},{"properties":{"city":"Virginia Beach","lon":-76.149035,"zip":23462,"dealer":"HANK'S MOWER REPAIR","phone":"Tel: 757.497.7645","id":"a625s5wgio1b","addres":"4961 Cleveland St.","lat":36.84183,"state":"VA"},"type":"Feature","geometry":{"type":"Point","coordinates":[-76.149035,36.84183]}},{"properties":{"city":"CANTON","lon":-81.317169,"zip":44705,"dealer":"HARDINGS PARK CYCLE","phone":"Tel: 330-454-6171","id":"a625s5o9rz7f","addres":"4330 KIRBY AVE. N.E.","lat":40.838767,"state":"OH"},"type":"Feature","geometry":{"type":"Point","coordinates":[-81.317169,40.838767]}},{"properties":{"city":"PAW PAW","lon":-85.963943,"zip":49079,"dealer":"HARVEY MOTORS","phone":"Tel: 269-657-2913","id":"a625s5yn07co","addres":"42800 W. RED ARROW HWY.","lat":42.210908,"state":"MI"},"type":"Feature","geometry":{"type":"Point","coordinates":[-85.963943,42.210908]}},{"properties":{"city":"NORTH MANCHESTER","lon":-85.760491,"zip":46962,"dealer":"HEETERS PERFORMANCE CENTER INC.","phone":"Tel: 260-982-6817","id":"a625s5y4mk9n","addres":"1413 EAST STREET","lat":41.011182,"state":"IN"},"type":"Feature","geometry":{"type":"Point","coordinates":[-85.760491,41.011182]}},{"properties":{"city":"AGAWAM","lon":-72.616982,"zip":1001,"dealer":"HOGAN`S CYCLE SHOP","phone":"Tel: 413-786-9170","id":"a625s6301b6a","addres":"1782 MAIN STREET","lat":42.03273,"state":"MA"},"type":"Feature","geometry":{"type":"Point","coordinates":[-72.616982,42.03273]}},{"properties":{"city":"LANCASTER","lon":-80.757384,"zip":29720,"dealer":"HOME SPECIALTIES","phone":"Tel: 803-285-8421","id":"a625s61rgp5a","addres":"660 LANCASTER BYPASS E","lat":34.728714,"state":"SC"},"type":"Feature","geometry":{"type":"Point","coordinates":[-80.757384,34.728714]}},{"properties":{"city":"WILMINGTON","lon":-77.860642,"zip":28405,"dealer":"HONDA OF WILMINGTON","phone":"Tel: 910-799-6150","id":"a625s5yjrnom","addres":"5725 MARKET STREET","lat":34.249254,"state":"NC"},"type":"Feature","geometry":{"type":"Point","coordinates":[-77.860642,34.249254]}},{"properties":{"city":"Grovertown","lon":-86.46803,"zip":46531,"dealer":"HOUSE OF PUCH","phone":"Tel: 574.936.4469","id":"a625s5pux1cm","addres":"11960 E- 500 North","lat":41.375019,"state":"IN"},"type":"Feature","geometry":{"type":"Point","coordinates":[-86.46803,41.375019]}},{"properties":{"city":"Lincolnton","lon":-81.259098,"zip":28092,"dealer":"HUITT MOTORSPORTS","phone":"Tel: 704.732.7764","id":"a625s5sa1kjz","addres":"627 N. Aspen St.","lat":35.47699,"state":"NC"},"type":"Feature","geometry":{"type":"Point","coordinates":[-81.259098,35.47699]}},{"properties":{"city":"Port Orange","lon":-80.973514,"zip":32127,"dealer":"HUNT FOR CARS","phone":"Tel: 386.322.0057","id":"a625s5x5hbf3","addres":"5796 South Ridgewood","lat":29.110962,"state":"FL"},"type":"Feature","geometry":{"type":"Point","coordinates":[-80.973514,29.110962]}},{"properties":{"city":"GEORGETOWN","lon":-83.871004,"zip":45121,"dealer":"IKES BIKES","phone":"Tel: 937-446-2115","id":"a625s5yennni","addres":"11279 HAMER ROAD","lat":38.951957,"state":"OH"},"type":"Feature","geometry":{"type":"Point","coordinates":[-83.871004,38.951957]}},{"properties":{"city":"Santa Cruz","lon":-121.986477,"zip":95062,"dealer":"IL Motorino","phone":"Tel: 831.479.9075","id":"a625s5v7qhfg","addres":"2890 Soquel Ave","lat":36.986119,"state":"CA"},"type":"Feature","geometry":{"type":"Point","coordinates":[-121.986477,36.986119]}},{"properties":{"city":"Key West","lon":-81.73647,"zip":33040,"dealer":"JK Motorshop","phone":"Tel: (305) 292-5444","id":"a625s628954e","addres":"5670 Laurel Av","lat":24.573532,"state":"FL"},"type":"Feature","geometry":{"type":"Point","coordinates":[-81.73647,24.573532]}},{"properties":{"city":"Carey","lon":-83.296206,"zip":43316,"dealer":"JOHN'S PERFORMANCE SHOP","phone":"Tel: 419.396.6201","id":"a625s5oytdfc","addres":"10455 Co. Hwy 16","lat":40.963288,"state":"OH"},"type":"Feature","geometry":{"type":"Point","coordinates":[-83.296206,40.963288]}},{"properties":{"city":"OCEAN ISLE BEACH","lon":-78.459921,"zip":28469,"dealer":"JOHNSON GOLF CARS, INC.","phone":"Tel: 910-579-5498","id":"a625s5xgui8m","addres":"6709-B BEACH DR.","lat":33.8999,"state":"NC"},"type":"Feature","geometry":{"type":"Point","coordinates":[-78.459921,33.8999]}},{"properties":{"city":"Byron","lon":-83.740535,"zip":31008,"dealer":"JUGHEADS","phone":"Tel: (478) 956-4777","id":"a625s5yl1yf6","addres":"100 Peachtree Pkwy","lat":32.663625,"state":"GA"},"type":"Feature","geometry":{"type":"Point","coordinates":[-83.740535,32.663625]}},{"properties":{"city":"BARRYTON","lon":-85.147491,"zip":49305,"dealer":"KELLEY'S AUTO SALES","phone":"Tel: 989-382-5595","id":"a625s60ujc97","addres":"19950 N. 30th Ave. (M-66)","lat":43.755055,"state":"MI"},"type":"Feature","geometry":{"type":"Point","coordinates":[-85.147491,43.755055]}},{"properties":{"city":"Louisville","lon":-85.885946,"zip":40272,"dealer":"KEVIN'S ON ROAD OFF ROAD CONNECTION","phone":"Tel: 502.935.3502","id":"a625s5pn8kr3","addres":"13307 Dixie Hwy Suite 3","lat":38.063225,"state":"KY"},"type":"Feature","geometry":{"type":"Point","coordinates":[-85.885946,38.063225]}},{"properties":{"city":"SALIDA","lon":-121.095095,"zip":95368,"dealer":"KID SPORT","phone":"Tel: 209-545-5251","id":"a625s5rwt5hg","addres":"5434 PIRRONE ROAD","lat":37.718707,"state":"CA"},"type":"Feature","geometry":{"type":"Point","coordinates":[-121.095095,37.718707]}},{"properties":{"city":"DUNN","lon":-78.600769,"zip":28334,"dealer":"LANKY'S BICYCLE SHOP","phone":"Tel: 910-892-9257","id":"a625s5zphpws","addres":"356 POPE RD","lat":35.2832,"state":"NC"},"type":"Feature","geometry":{"type":"Point","coordinates":[-78.600769,35.2832]}},{"properties":{"city":"West Liberty","lon":-83.782791,"zip":43357,"dealer":"LOFFER ENTERPRISES","phone":"Tel: (937) 465-7310","id":"a625s5wxr91z","addres":"1314 T.R. 30 W","lat":40.289477,"state":"OH"},"type":"Feature","geometry":{"type":"Point","coordinates":[-83.782791,40.289477]}},{"properties":{"city":"WEST LIBERTY","lon":-83.782791,"zip":43357,"dealer":"LOFFER ENTERPRISES","phone":"Tel: 937-465-7310","id":"a625s5xoe23v","addres":"1314 T.R. 30 W.","lat":40.289477,"state":"OH"},"type":"Feature","geometry":{"type":"Point","coordinates":[-83.782791,40.289477]}},{"properties":{"city":"DELPHOS","lon":-84.339944,"zip":45833,"dealer":"LYLE'S MOTOR SALES","phone":"Tel: 419-692-0249","id":"a625s604wyha","addres":"1133 NORTH MAIN STREET","lat":40.853343,"state":"OH"},"type":"Feature","geometry":{"type":"Point","coordinates":[-84.339944,40.853343]}},{"properties":{"city":"TERRE HAUTE","lon":-87.436948,"zip":47802,"dealer":"M &amp; R CYCLES","phone":"Tel: 812-232-0075","id":"a625s5u5yh31","addres":"3644 S. STATE RD. 63","lat":39.422263,"state":"IN"},"type":"Feature","geometry":{"type":"Point","coordinates":[-87.436948,39.422263]}},{"properties":{"city":"LAKE WORTH","lon":-80.111595,"zip":33461,"dealer":"MAD DOG SCOOTERS","phone":"Tel: (561) 967-7740","id":"a625s5wgvnhr","addres":"4400 10th Ave North","lat":26.629307,"state":"FL"},"type":"Feature","geometry":{"type":"Point","coordinates":[-80.111595,26.629307]}},{"properties":{"city":"ENFIELD","lon":-72.594139,"zip":6082,"dealer":"MARK`S MOTORSPORTS","phone":"Tel: 860-741-5115","id":"a625s5o3c18n","addres":"70 ENFIELD STREET","lat":41.999744,"state":"CT"},"type":"Feature","geometry":{"type":"Point","coordinates":[-72.594139,41.999744]}},{"properties":{"city":"Winchester","lon":-78.135843,"zip":22602,"dealer":"MAXX POWERSPORT","phone":"Tel: 540.535.1993","id":"a625s5nrquha","addres":"207 Dairy Corner Place","lat":39.184597,"state":"VA"},"type":"Feature","geometry":{"type":"Point","coordinates":[-78.135843,39.184597]}},{"properties":{"city":"FORT SMITH","lon":-94.420955,"zip":72901,"dealer":"MIDWAY AUTO SALES &amp; CLASSIC CARS","phone":"Tel: 479-785-5317","id":"a625s5ypyvig","addres":"323 TOWSON AVENUE","lat":35.38095,"state":"AR"},"type":"Feature","geometry":{"type":"Point","coordinates":[-94.420955,35.38095]}},{"properties":{"city":"LINDENWOLD","lon":-74.990997,"zip":8021,"dealer":"MINI TRAIL BIKES - MOPEDS","phone":"Tel: 856.783.5963","id":"a625s5uq74ru","addres":"307 WHITEHORSE PK.","lat":39.815582,"state":"NJ"},"type":"Feature","geometry":{"type":"Point","coordinates":[-74.990997,39.815582]}},{"properties":{"city":"TALLMADGE","lon":-81.451881,"zip":44278,"dealer":"MOPED DEPOT","phone":"Tel: (330)634-0001","id":"a625s5tiaa6k","addres":"298 WEST AVENUE","lat":41.10173,"state":"OH"},"type":"Feature","geometry":{"type":"Point","coordinates":[-81.451881,41.10173]}},{"properties":{"city":"FAIRFAX","lon":-77.233642,"zip":22031,"dealer":"MOPEDS MPG","phone":"Tel: 703-573-9655","id":"a625s5unebsa","addres":"2831 DORR AVE.","lat":38.876857,"state":"VA"},"type":"Feature","geometry":{"type":"Point","coordinates":[-77.233642,38.876857]}},{"properties":{"city":"COLLINSVILLE","lon":-79.906919,"zip":24078,"dealer":"MOTOR IMPORTS","phone":"Tel: 540-647-1121","id":"a625s5vz1urg","addres":"2111 VIRGINIA AVE.","lat":36.70998,"state":"VA"},"type":"Feature","geometry":{"type":"Point","coordinates":[-79.906919,36.70998]}},{"properties":{"city":"NAPLES","lon":-81.800007,"zip":34103,"dealer":"MOTOR-TOYS SUPERIOR ENGINEERING","phone":"Tel: 239-435-3223","id":"a625s5u5db7z","addres":"4520 N. TAMIAMI TRAIL","lat":26.202206,"state":"FL"},"type":"Feature","geometry":{"type":"Point","coordinates":[-81.800007,26.202206]}},{"properties":{"city":"GRAND JUNCTION","lon":-108.541297,"zip":81501,"dealer":"MOTORCYCLE ACCESSORIES","phone":"Tel: 970-242-9495","id":"a625s5rroj68","addres":"2060 EAST MAIN ST.","lat":39.067611,"state":"CO"},"type":"Feature","geometry":{"type":"Point","coordinates":[-108.541297,39.067611]}},{"properties":{"city":"ROCKTON","lon":-78.654855,"zip":15856,"dealer":"MOUNTAIN EXTREME","phone":"Tel: 814-583-7030","id":"a625s62ums4n","addres":"6381 ROCKTON MOUNTAIN HWY.","lat":41.085373,"state":"PA"},"type":"Feature","geometry":{"type":"Point","coordinates":[-78.654855,41.085373]}},{"properties":{"city":"FULLERTON","lon":-82.529541,"zip":92833,"dealer":"MYRONS MOPEDS","phone":"Tel: 714-992-5592","id":"a625s614hzb6","addres":"1879 W. COMMONWEALTH AVE. # L","lat":33.192508,"state":"CA"},"type":"Feature","geometry":{"type":"Point","coordinates":[-82.529541,33.192508]}},{"properties":{"city":"MANSFIELD","lon":-82.496183,"zip":44905,"dealer":"McCUNE CYCLE WORLD","phone":"Tel: 419-524-2222","id":"a625s5xpqqwe","addres":"327 ASHLAND ROAD","lat":40.763425,"state":"OH"},"type":"Feature","geometry":{"type":"Point","coordinates":[-82.496183,40.763425]}},{"properties":{"city":"MOOSUP","lon":-71.872322,"zip":6354,"dealer":"NASIN MACHINE CO.","phone":"Tel: 860-230-0759","id":"a625s5rmchag","addres":"345 NORTH MAIN ST","lat":41.719013,"state":"CT"},"type":"Feature","geometry":{"type":"Point","coordinates":[-71.872322,41.719013]}},{"properties":{"city":"Groton","lon":-72.045967,"zip":6340,"dealer":"NEW ENGLAND CYCLE WORKS","phone":"Tel: 860.445.8158","id":"a625s5rlpfk8","addres":"661 Gold Star Hwy","lat":41.374424,"state":"CT"},"type":"Feature","geometry":{"type":"Point","coordinates":[-72.045967,41.374424]}},{"properties":{"city":"NEW HAVEN","lon":-72.937134,"zip":6511,"dealer":"NEW HAVEN POWERSPORTS","phone":"Tel: 203-562-3900","id":"a625s5tddvlo","addres":"143 WHALLEY AVE.","lat":41.314964,"state":"CT"},"type":"Feature","geometry":{"type":"Point","coordinates":[-72.937134,41.314964]}},{"properties":{"city":"Ludington","lon":-86.447811,"zip":49431,"dealer":"NUBIKE of West Michigan","phone":"Tel: 231.845.1185","id":"a625s5uurprb","addres":"2472 N. Rath","lat":44.000181,"state":"MI"},"type":"Feature","geometry":{"type":"Point","coordinates":[-86.447811,44.000181]}},{"properties":{"city":"Guilford","lon":-72.686043,"zip":6437,"dealer":"PALUMBO AUTOMOTIVE","phone":"Tel: 203.453.1788","id":"a625s5olrfxi","addres":"1099 Boston Post Rd.","lat":41.287766,"state":"CT"},"type":"Feature","geometry":{"type":"Point","coordinates":[-72.686043,41.287766]}},{"properties":{"city":"Everett","lon":-71.04908,"zip":2149,"dealer":"PARKWAY CYCLES","phone":"Tel: 617.389.7000","id":"a625s620yv4i","addres":"1865 Revere Beach Parkway","lat":42.40287,"state":"MA"},"type":"Feature","geometry":{"type":"Point","coordinates":[-71.04908,42.40287]}},{"properties":{"city":"Wilkesboro","lon":-81.165948,"zip":28697,"dealer":"PAYNE POWER EQUIPMENT","phone":"Tel: 336.667.1581","id":"a625s5zsht0t","addres":"912 River Street","lat":36.143674,"state":"NC"},"type":"Feature","geometry":{"type":"Point","coordinates":[-81.165948,36.143674]}},{"properties":{"city":"WAYNE","lon":-74.204308,"zip":7470,"dealer":"PERLMUTTER'S BIKE SHOP","phone":"Tel: 973-956-1254","id":"a625s5yw0f6n","addres":"179 HAMBURG TURNPIKE","lat":40.944595,"state":"NJ"},"type":"Feature","geometry":{"type":"Point","coordinates":[-74.204308,40.944595]}},{"properties":{"city":"Paistow","lon":-71.106735,"zip":3865,"dealer":"PLAISTOW POWER SPORTS","phone":"Tel: 877.781.3978","id":"a625s5p5tach","addres":"107 Plaistow Rd. Rte 125","lat":42.844414,"state":"NH"},"type":"Feature","geometry":{"type":"Point","coordinates":[-71.106735,42.844414]}},{"properties":{"city":"Port Hueneme","lon":-119.195064,"zip":93041,"dealer":"PORT POSTAL","phone":"Tel: 805.216.1848","id":"a625s635deac","addres":"417 East Hueneme Rd.","lat":34.147962,"state":"CA"},"type":"Feature","geometry":{"type":"Point","coordinates":[-119.195064,34.147962]}},{"properties":{"city":"HARTFORD","lon":-72.705902,"zip":6106,"dealer":"POWER PLUS EQUIP.&amp; MOTORSPORTS","phone":"Tel: 860-232-5408","id":"a625s5qwq1gg","addres":"281 HAMILTON ST.","lat":41.754677,"state":"CT"},"type":"Feature","geometry":{"type":"Point","coordinates":[-72.705902,41.754677]}},{"properties":{"city":"Portland","lon":-122.63066,"zip":97202,"dealer":"PTOWN SCOOTERS INC","phone":"Tel: 503.241.4745","id":"a625s5swshm3","addres":"3347 SE DIVISION ST.","lat":45.504921,"state":"NC"},"type":"Feature","geometry":{"type":"Point","coordinates":[-122.63066,45.504921]}},{"properties":{"city":"Monroe","lon":-80.550117,"zip":6468,"dealer":"R.E.R. PERFORMANCE","phone":"Tel: 203.459.1299","id":"a625s5ppfeea","addres":"126 Main St.","lat":34.981575,"state":"CT"},"type":"Feature","geometry":{"type":"Point","coordinates":[-80.550117,34.981575]}},{"properties":{"city":"COLDWATER","lon":-84.628844,"zip":45828,"dealer":"RAFFEL'S ENGINE SERVICE","phone":"Tel: 419-678-2698","id":"a625s61vhzix","addres":"910 N. 2nd STREET","lat":40.489305,"state":"OH"},"type":"Feature","geometry":{"type":"Point","coordinates":[-84.628844,40.489305]}},{"properties":{"city":"VERSAILLES","lon":-84.460449,"zip":45380,"dealer":"REHMERT CYCLE SALES &amp; SERVICE, INC.","phone":"Tel: 937-526-4741","id":"a625s5qdnlah","addres":"11136 STATE RD. 47 E.","lat":40.246031,"state":"OH"},"type":"Feature","geometry":{"type":"Point","coordinates":[-84.460449,40.246031]}},{"properties":{"city":"Monroe","lon":-80.550117,"zip":6468,"dealer":"RER PERFORMANCE INC.","phone":"Tel: 203.459.1299","id":"a625s5zycqfy","addres":"126 Main St.","lat":34.981575,"state":"CT"},"type":"Feature","geometry":{"type":"Point","coordinates":[-80.550117,34.981575]}},{"properties":{"city":"Medina","lon":-81.798744,"zip":44256,"dealer":"RICK ROUSH MOTORSPORTS","phone":"Tel: 330.723.3105","id":"a625s5qvac9j","addres":"3057 East Pointe Dr.","lat":41.13806,"state":"OH"},"type":"Feature","geometry":{"type":"Point","coordinates":[-81.798744,41.13806]}},{"properties":{"city":"Menomonie","lon":-91.931667,"zip":54751,"dealer":"RIVERSIDE CYCLE SHOP","phone":"Tel: 715.235.6044","id":"a625s603yhzt","addres":"119 Meadow Hill Drive","lat":44.885121,"state":"WI"},"type":"Feature","geometry":{"type":"Point","coordinates":[-91.931667,44.885121]}},{"properties":{"city":"Sacramento","lon":-82.529541,"zip":95815,"dealer":"SAC MOPED","phone":"Tel: 916.925.8696","id":"a625s5xj65il","addres":"1900 Marconi Ave #B","lat":33.192508,"state":"CA"},"type":"Feature","geometry":{"type":"Point","coordinates":[-82.529541,33.192508]}},{"properties":{"city":"Unionville","lon":-83.467322,"zip":48767,"dealer":"SCHMIDT'S MOTORS","phone":"Tel: (989) 674-8611","id":"a625s60b4drq","addres":"3043 Bay Street","lat":43.65336,"state":"MI"},"type":"Feature","geometry":{"type":"Point","coordinates":[-83.467322,43.65336]}},{"properties":{"city":"YPSILANTI","lon":-83.588495,"zip":48198,"dealer":"SCOOT AROUND TOWN","phone":"Tel: (734) 484-9993","id":"a625s5pxyg29","addres":"1180 E Michigan Ave","lat":42.244086,"state":"MI"},"type":"Feature","geometry":{"type":"Point","coordinates":[-83.588495,42.244086]}},{"properties":{"city":"Richmond","lon":-77.441912,"zip":23224,"dealer":"SCOOT RICHMOND","phone":"Tel: 804.230.1000","id":"a625s62uv7np","addres":"217 W 7th St.","lat":37.525427,"state":"VA"},"type":"Feature","geometry":{"type":"Point","coordinates":[-77.441912,37.525427]}},{"properties":{"city":"Bentonville","lon":-94.21066,"zip":72712,"dealer":"SCOOT-N-SCOOTERS","phone":"Tel: (479) 273-0639","id":"a625s5u78ujt","addres":"2503 S. Walton Blvd","lat":36.346723,"state":"AR"},"type":"Feature","geometry":{"type":"Point","coordinates":[-94.21066,36.346723]}},{"properties":{"city":"Plainville","lon":-72.859108,"zip":6062,"dealer":"SCOOTER CENTRALE","phone":"Tel: 860.747.2552","id":"a625s63k5th6","addres":"161 Woodford Ave","lat":41.672588,"state":"CT"},"type":"Feature","geometry":{"type":"Point","coordinates":[-72.859108,41.672588]}},{"properties":{"city":"Tempe","lon":-111.908004,"zip":85281,"dealer":"SCOOTER INVASION","phone":"Tel: 480.829.0800","id":"a625s5wkzxxq","addres":"1828 E University Dr.","lat":33.422156,"state":"AZ"},"type":"Feature","geometry":{"type":"Point","coordinates":[-111.908004,33.422156]}},{"properties":{"city":"MADISON","lon":-89.369964,"zip":53703,"dealer":"SCOOTER THERAPY","phone":"Tel: 800-411-1543","id":"a625s5teit8e","addres":"9 N. INGERSOLL","lat":43.085166,"state":"WI"},"type":"Feature","geometry":{"type":"Point","coordinates":[-89.369964,43.085166]}},{"properties":{"city":"Missoula","lon":-113.994564,"zip":59802,"dealer":"SCOOTERVILLE MONTANA","phone":"Tel: 406.721.9666","id":"a625s5qv2b6i","addres":"138 W Broadway","lat":46.872425,"state":"MT"},"type":"Feature","geometry":{"type":"Point","coordinates":[-113.994564,46.872425]}},{"properties":{"city":"Seattle","lon":-122.325813,"zip":98105,"dealer":"SEATTLE MOPEDS","phone":"Tel: (206) 545-7337","id":"a625s5uzo6ve","addres":"265 NE 45th St","lat":47.661202,"state":"WA"},"type":"Feature","geometry":{"type":"Point","coordinates":[-122.325813,47.661202]}},{"properties":{"city":"Sandersville","lon":-82.859083,"zip":31082,"dealer":"SEGARS SPORTS II","phone":"Tel: 478.552.1486","id":"a625s5zeasvl","addres":"2956 GA HWY 68 N","lat":32.958714,"state":"GA"},"type":"Feature","geometry":{"type":"Point","coordinates":[-82.859083,32.958714]}},{"properties":{"city":"Waterbury","lon":-73.028236,"zip":6704,"dealer":"SETERO MOTORS","phone":"Tel: 203.573.0733","id":"a625s5r8f848","addres":"11 Chase Ave","lat":41.578125,"state":"CT"},"type":"Feature","geometry":{"type":"Point","coordinates":[-73.028236,41.578125]}},{"properties":{"city":"NEW RIVER","lon":-80.592189,"zip":24129,"dealer":"SHEFFEY'S BIKE SHOP","phone":"Tel: 540-639-5026","id":"a625s5yjk6t0","addres":"P.O. BOX 83","lat":37.147164,"state":"VA"},"type":"Feature","geometry":{"type":"Point","coordinates":[-80.592189,37.147164]}},{"properties":{"city":"FAIRFIELD","lon":-84.486818,"zip":45014,"dealer":"SHIPPS WHEELSPORT, INC.","phone":"Tel: 513-860-3232","id":"a625s5sq4pzp","addres":"7220 DIXIE HWY.","lat":39.309618,"state":"OH"},"type":"Feature","geometry":{"type":"Point","coordinates":[-84.486818,39.309618]}},{"properties":{"city":"GRENWICH","lon":115.797203,"zip":6830,"dealer":"SOLO MOTO","phone":"Tel: 203-531-5252","id":"a625s5yckack","addres":"10 BEECH STREET","lat":-31.818659,"state":"CT"},"type":"Feature","geometry":{"type":"Point","coordinates":[115.797203,-31.818659]}},{"properties":{"city":"GREAT FALLS","lon":-111.215148,"zip":59405,"dealer":"SPORTS CITY CYCLERY","phone":"Tel: 406-727-8566","id":"a625s5vjmgcm","addres":"101 57TH ST. S","lat":47.505065,"state":"MT"},"type":"Feature","geometry":{"type":"Point","coordinates":[-111.215148,47.505065]}},{"properties":{"city":"COCOA","lon":-80.743415,"zip":32922,"dealer":"STEVE'S CYCLES INC.","phone":"Tel: 321-633-4665","id":"a625s5ondbx6","addres":"1045 W. KING STREET","lat":28.35551,"state":"FL"},"type":"Feature","geometry":{"type":"Point","coordinates":[-80.743415,28.35551]}},{"properties":{"city":"Dumont","lon":-73.995476,"zip":7628,"dealer":"STEVE'S MOPED &amp; BICYCLE WORLD","phone":"Tel: (201) 384-7777","id":"a625s5oe3n6c","addres":"40 PARK AVE","lat":40.940117,"state":"NJ"},"type":"Feature","geometry":{"type":"Point","coordinates":[-73.995476,40.940117]}},{"properties":{"city":"PT. PLEASANT","lon":-74.076698,"zip":8742,"dealer":"STEVE`S MOPED &amp; BIKE","phone":"Tel: 732-295-4200","id":"a625s627pf4n","addres":"2427 BRIDGE AVENUE","lat":40.073772,"state":"NJ"},"type":"Feature","geometry":{"type":"Point","coordinates":[-74.076698,40.073772]}},{"properties":{"city":"NEPTUNE","lon":-74.028366,"zip":7753,"dealer":"STUMPY'S SALES AND SERVICE","phone":"Tel: 732-776-5514","id":"a625s5yrz1g6","addres":"1207 ROUTE 35","lat":40.211803,"state":"NJ"},"type":"Feature","geometry":{"type":"Point","coordinates":[-74.028366,40.211803]}},{"properties":{"city":"LAWRENCE","lon":-95.235162,"zip":66044,"dealer":"SUBSONIC SCOOTERS LLC.","phone":"Tel: 785-749-0200","id":"a625s5y13dwo","addres":"624 N. 2ND ST","lat":38.981117,"state":"KS"},"type":"Feature","geometry":{"type":"Point","coordinates":[-95.235162,38.981117]}},{"properties":{"city":"SPRINGFIELD","lon":-93.348908,"zip":65807,"dealer":"SUPER SCOOTER SHOP TWO WHEEL TOURIST","phone":"Tel: 417-865-9500","id":"a625s5oi21kn","addres":"2684 S. LAUREL AVENUE","lat":37.167097,"state":"MO"},"type":"Feature","geometry":{"type":"Point","coordinates":[-93.348908,37.167097]}},{"properties":{"city":"FRIDAY HARBOR","lon":-123.069949,"zip":98250,"dealer":"SUSIE'S MOPED RENTALS","phone":"Tel: 360.378.5244","id":"a625s5ziyeap","addres":"P.O. BOX 1972","lat":48.54278,"state":"WA"},"type":"Feature","geometry":{"type":"Point","coordinates":[-123.069949,48.54278]}},{"properties":{"city":"HOLLYWOOD","lon":-80.153456,"zip":33020,"dealer":"Scooter Superstore","phone":"Tel: 954-929-1325","id":"a625s5p9n1ng","addres":"2300 N. 23RD AVE","lat":26.031628,"state":"FL"},"type":"Feature","geometry":{"type":"Point","coordinates":[-80.153456,26.031628]}},{"properties":{"city":"Nicholasville","lon":-84.549008,"zip":40356,"dealer":"Southview Outdoor Power Epuip","phone":"Tel: (859) 885-6416","id":"a625s5s4olst","addres":"2150 Lexington Pike","lat":37.931238,"state":"KY"},"type":"Feature","geometry":{"type":"Point","coordinates":[-84.549008,37.931238]}},{"properties":{"city":"PLAINVILLE","lon":-72.868271,"zip":6062,"dealer":"THE MOPED WAREHOUSE, LLC.","phone":"Tel: 860-747-5555","id":"a625s5zpxj83","addres":"ONE TOWNLINE ROAD (RTE.177)","lat":41.671162,"state":"CT"},"type":"Feature","geometry":{"type":"Point","coordinates":[-72.868271,41.671162]}},{"properties":{"city":"NINETY SIX","lon":-82.006455,"zip":29666,"dealer":"TL CYCLES","phone":"Tel: 864-543-3144","id":"a625s5u6q2m3","addres":"P.O. BOX 358","lat":34.155538,"state":"SC"},"type":"Feature","geometry":{"type":"Point","coordinates":[-82.006455,34.155538]}},{"properties":{"city":"Salem","lon":-70.934723,"zip":1970,"dealer":"TOMOSSCOOTER","phone":"Tel: 781.710.0173","id":"a625s5nje6kw","addres":"462 Highland Ave","lat":42.49271,"state":"MA"},"type":"Feature","geometry":{"type":"Point","coordinates":[-70.934723,42.49271]}},{"properties":{"city":"TUCKAHOE","lon":-74.750702,"zip":8250,"dealer":"TUCKAHOE MOTORSPORTS","phone":"Tel: 609-628-4545","id":"a625s5nmgwf7","addres":"1971 TR. 50","lat":39.283669,"state":"NJ"},"type":"Feature","geometry":{"type":"Point","coordinates":[-74.750702,39.283669]}},{"properties":{"city":"ABBEVILLE","lon":-82.377113,"zip":29620,"dealer":"UNDERGROUND CYCLES","phone":"Tel: 864-366-2902","id":"a625s63cz2dd","addres":"301 POPLAR STREET","lat":34.178128,"state":"SC"},"type":"Feature","geometry":{"type":"Point","coordinates":[-82.377113,34.178128]}},{"properties":{"city":"GREENVILLE","lon":-82.371692,"zip":29607,"dealer":"UPSTATE CYCLE","phone":"Tel: 864-232-7223","id":"a625s5zo5clv","addres":"904 LAURENS RD","lat":34.848235,"state":"SC"},"type":"Feature","geometry":{"type":"Point","coordinates":[-82.371692,34.848235]}},{"properties":{"city":"Ft. Wayne","lon":-85.134412,"zip":46805,"dealer":"URBAN ASSUALT MOTORSPORTS","phone":"Tel: 260.420.2806","id":"a625s5z79bnf","addres":"1530 Spy Run Ave","lat":41.088202,"state":"IN"},"type":"Feature","geometry":{"type":"Point","coordinates":[-85.134412,41.088202]}},{"properties":{"city":"LAS VEGAS","lon":-115.190295,"zip":89103,"dealer":"VEGAS MOTORSPORTS","phone":"Tel: (702) 362-9294","id":"a625s5xjulca","addres":"3867 South Valley View","lat":36.119971,"state":"NV"},"type":"Feature","geometry":{"type":"Point","coordinates":[-115.190295,36.119971]}},{"properties":{"city":"Atlanta","lon":-84.159032,"zip":30096,"dealer":"VESPA ATLANTA","phone":"Tel: 678.417.6447","id":"a625s62slpyf","addres":"3175 Pleasant Hill Rd.","lat":33.984767,"state":"GA"},"type":"Feature","geometry":{"type":"Point","coordinates":[-84.159032,33.984767]}},{"properties":{"city":"CHICAGO","lon":-87.691987,"zip":49007,"dealer":"WARBUX MOPEDS","phone":"Tel: 800 965 1977","id":"a625s61iqrxn","addres":"2123 N. MILWAUKEE AVE.","lat":41.919795,"state":"IL"},"type":"Feature","geometry":{"type":"Point","coordinates":[-87.691987,41.919795]}},{"properties":{"city":"TAMPA","lon":-82.407707,"zip":33619,"dealer":"WEST COAST CYCLE INC.","phone":"Tel: 813-247-2344","id":"a625s62kcofp","addres":"4511 CAUSEWAY BLVD.","lat":27.922884,"state":"FL"},"type":"Feature","geometry":{"type":"Point","coordinates":[-82.407707,27.922884]}},{"properties":{"city":"ERIE","lon":-80.088044,"zip":16508,"dealer":"WHEELS BIKE SHOP &amp; IMPORT","phone":"Tel: 814-453-5724","id":"a625s5v5jz8p","addres":"667 W 26TH STREET","lat":42.10647,"state":"PA"},"type":"Feature","geometry":{"type":"Point","coordinates":[-80.088044,42.10647]}},{"properties":{"city":"Belair","lon":-76.353349,"zip":21014,"dealer":"X-TREME SKOOTERS OF BELAIR","phone":"Tel: 410.638.0420","id":"a625s5pwtcwk","addres":"544 Baltimore Pike","lat":39.527703,"state":"MD"},"type":"Feature","geometry":{"type":"Point","coordinates":[-76.353349,39.527703]}}],"is_temporal":false,"author":{"url":"http://www.tomosusa.com/pages/verkooppunten","metadata":"","contact_name":"","contact_address":"","source":"TomosUSA","contact_phone":""},"source":"http://www.tomosusa.com/pages/verkooppunten","pagination":{"sort":null,"start":0,"total":157,"limit":1000000},"state":"complete","tags":"commute,moped,scooter,tomos,transportation,travel,usa,vehicle","published":"2008-06-20T12:00:00Z","id":2201}