{"type":"FeatureCollection","data_type":"Dataset","url_type":null,"permissions":[{"permissions":{"download":true,"view":true},"group_id":"everyone"}],"classification":null,"title":"rape sex battery 2009","count":15,"stream_id":220635,"contributor":{"url":"http://geocommons.com/users/42302","name":"hillproject"},"data_attributes":null,"calculation_params":null,"icon_link":null,"link":"http://geocommons.com/overlays/220635.json","extent":[-83.2083,41.1027,-82.7187,41.4553],"geometry_types":["point"],"unique_name":null,"name":"rape sex battery 2009","feature_count":15,"description":"","next_feature":null,"is_raster":false,"short_classification":"Y","stats":{"date":{"max":"2009/11/24 06:59:23 -0500","mean":"2009/07/10 05:55:17 -0400","variance":82800283688711.4,"stdev":9099466.12108158,"min":"2009/01/02 00:00:00 -0500","median":"2009/08/25 11:49:50 -0400"},"unit":{"max":648,"mean":412.333333333333,"variance":89260.0952380952,"stdev":298.764280391909,"min":57,"median":648},"disposition":{"max":700,"mean":513.333333333333,"variance":58380.9523809524,"stdev":241.621506453694,"min":200,"median":700},"cfs":{"max":3,"mean":3.0,"variance":0.0,"stdev":0.0,"min":3,"median":3},"call#":{"max":9.011483,"mean":9.00670193333333,"variance":1.37203614952373e-05,"stdev":0.00370410063243931,"min":9.000259,"median":9.008307}},"features":[{"properties":{"officer":null,"city":"Tiffin","zip":"44883","date":{"end_time":"2009/11/24 06:59:24 -0500","original":"11/24/2009 6:59:23 AM","granularity":"sec","time":"2009/11/24 06:59:23 -0500"},"geo_score":0.902,"unit":648,"disposition":700,"cfs":3,"call#":9.011483,"id":"a67vf5mbmt0e","geo_precision":"range","address":"51 E Market St","state":"OH","juris":"PD"},"type":"Feature","geometry":{"type":"Point","coordinates":[-83.17813,41.114436]}},{"properties":{"officer":null,"city":"Tiffin","zip":"44883","date":{"end_time":"2009/10/22 09:29:35 -0400","original":"10/22/2009 9:29:34 AM","granularity":"sec","time":"2009/10/22 09:29:34 -0400"},"geo_score":0.902,"unit":648,"disposition":700,"cfs":3,"call#":9.010542,"id":"a67vf5nn89ud","geo_precision":"range","address":"245 W Market St","state":"OH","juris":"PD"},"type":"Feature","geometry":{"type":"Point","coordinates":[-83.188976,41.113374]}},{"properties":{"officer":null,"city":"Tiffin","zip":"44883","date":{"end_time":"2009/10/15 14:26:57 -0400","original":"10/15/2009 2:26:56 PM","granularity":"sec","time":"2009/10/15 14:26:56 -0400"},"geo_score":0.902,"unit":648,"disposition":700,"cfs":3,"call#":9.010131,"id":"a67vf59rq8dp","geo_precision":"range","address":"245 W Market St","state":"OH","juris":"PD"},"type":"Feature","geometry":{"type":"Point","coordinates":[-83.188976,41.113374]}},{"properties":{"officer":"EDA","city":"Tiffin","zip":"44883","date":{"end_time":"2009/10/10 20:16:20 -0400","original":"10/10/2009 8:16:19 PM","granularity":"sec","time":"2009/10/10 20:16:19 -0400"},"geo_score":0.902,"unit":57,"disposition":200,"cfs":3,"call#":9.009986,"id":"a67vf5mcrs77","geo_precision":"range","address":"1 Huss St","state":"OH","juris":"PD"},"type":"Feature","geometry":{"type":"Point","coordinates":[-83.166843,41.131124]}},{"properties":{"officer":null,"city":"Tiffin","zip":"44883","date":{"end_time":"2009/09/08 08:58:54 -0400","original":"9/8/2009 8:58:53 AM","granularity":"sec","time":"2009/09/08 08:58:53 -0400"},"geo_score":0.785,"unit":648,"disposition":700,"cfs":3,"call#":9.008893,"id":"a67vf5etsnih","geo_precision":"range","address":"49 Second St","state":"OH","juris":"PD"},"type":"Feature","geometry":{"type":"Point","coordinates":[-83.181747,41.109064]}},{"properties":{"officer":"REB","city":"Tiffin","zip":"44883","date":{"end_time":"2009/09/06 15:00:00 -0400","original":"9/6/2009 2:00:00 PM","granularity":"hour","time":"2009/09/06 14:00:00 -0400"},"geo_score":0.429,"unit":59,"disposition":200,"cfs":3,"call#":9.008797,"id":"a67vf5o10pzl","geo_precision":"street","address":"1692 W Market St,O","state":"OH","juris":"PD"},"type":"Feature","geometry":{"type":"Point","coordinates":[-83.181592,41.114111]}},{"properties":{"officer":"SGN","city":"Tiffin","zip":"44883","date":{"end_time":"2009/08/27 11:33:25 -0400","original":"8/27/2009 11:33:24 AM","granularity":"sec","time":"2009/08/27 11:33:24 -0400"},"geo_score":0.902,"unit":62,"disposition":200,"cfs":3,"call#":9.008379,"id":"a67vf5ns9pln","geo_precision":"range","address":"7 Beechwood Dr,202","state":"OH","juris":"PD"},"type":"Feature","geometry":{"type":"Point","coordinates":[-83.20834,41.114124]}},{"properties":{"officer":null,"city":"Tiffin","zip":"44883","date":{"end_time":"2009/08/25 11:49:51 -0400","original":"8/25/2009 11:49:50 AM","granularity":"sec","time":"2009/08/25 11:49:50 -0400"},"geo_score":0.429,"unit":648,"disposition":700,"cfs":3,"call#":9.008307,"id":"a67vf5kezrbm","geo_precision":"street","address":"1742 W Market St,B","state":"OH","juris":"PD"},"type":"Feature","geometry":{"type":"Point","coordinates":[-83.181592,41.114111]}},{"properties":{"officer":null,"city":"Tiffin","zip":"44883","date":{"end_time":"2009/07/30 14:11:33 -0400","original":"7/30/2009 2:11:32 PM","granularity":"sec","time":"2009/07/30 14:11:32 -0400"},"geo_score":0.902,"unit":648,"disposition":700,"cfs":3,"call#":9.007378,"id":"a67vf5mwn4it","geo_precision":"range","address":"491 Coe St","state":"OH","juris":"PD"},"type":"Feature","geometry":{"type":"Point","coordinates":[-83.160385,41.102667]}},{"properties":{"officer":"AMR","city":"Tiffin","zip":"44883","date":{"end_time":"2009/06/08 21:11:26 -0400","original":"6/8/2009 9:11:25 PM","granularity":"sec","time":"2009/06/08 21:11:25 -0400"},"geo_score":0.902,"unit":58,"disposition":200,"cfs":3,"call#":9.005408,"id":"a67vf5jandj1","geo_precision":"range","address":"781 N Water St","state":"OH","juris":"PD"},"type":"Feature","geometry":{"type":"Point","coordinates":[-83.164554,41.133981]}},{"properties":{"officer":"JMW","city":"Tiffin","zip":"44883","date":{"end_time":"2009/05/22 20:39:57 -0400","original":"5/22/2009 8:39:56 PM","granularity":"sec","time":"2009/05/22 20:39:56 -0400"},"geo_score":0.902,"unit":60,"disposition":400,"cfs":3,"call#":9.004838,"id":"a67vf5ezdbab","geo_precision":"range","address":"51 E Market St","state":"OH","juris":"PD"},"type":"Feature","geometry":{"type":"Point","coordinates":[-83.17813,41.114436]}},{"properties":{"officer":"DGH","city":"Tiffin","zip":"44883","date":{"end_time":"2009/04/09 03:55:09 -0400","original":"4/9/2009 3:55:08 AM","granularity":"sec","time":"2009/04/09 03:55:08 -0400"},"geo_score":0.516,"unit":57,"disposition":200,"cfs":3,"call#":9.003359,"id":"a67vf5if56um","geo_precision":"street","address":"45 St Lawrence Dr","state":"OH","juris":"PD"},"type":"Feature","geometry":{"type":"Point","coordinates":[-82.718729,41.455282]}},{"properties":{"officer":null,"city":"Tiffin","zip":"44883","date":{"end_time":"2009/03/12 14:04:24 -0400","original":"3/12/2009 2:04:23 PM","granularity":"sec","time":"2009/03/12 14:04:23 -0400"},"geo_score":0.902,"unit":648,"disposition":700,"cfs":3,"call#":9.002506,"id":"a67vf58li6c2","geo_precision":"range","address":"79 Hancock St","state":"OH","juris":"PD"},"type":"Feature","geometry":{"type":"Point","coordinates":[-83.167628,41.10964]}},{"properties":{"officer":null,"city":"Tiffin","zip":"44883","date":{"end_time":"2009/01/07 10:12:42 -0500","original":"1/7/2009 10:12:41 AM","granularity":"sec","time":"2009/01/07 10:12:41 -0500"},"geo_score":0.756,"unit":648,"disposition":700,"cfs":3,"call#":9.000259,"id":"a67vf5jcpeb7","geo_precision":"range","address":"217 Fourth Av","state":"OH","juris":"PD"},"type":"Feature","geometry":{"type":"Point","coordinates":[-83.182988,41.130462]}},{"properties":{"officer":null,"city":"Tiffin","zip":"44883","date":{"end_time":"2009/01/03 00:00:00 -0500","original":"1/2/2009 12:00:00 AM","granularity":"day","time":"2009/01/02 00:00:00 -0500"},"geo_score":0.717,"unit":648,"disposition":700,"cfs":3,"call#":9.000263,"id":"a67vf5oi56k3","geo_precision":"street","address":"269 S Washington St,1","state":"OH","juris":"PD"},"type":"Feature","geometry":{"type":"Point","coordinates":[-83.176943,41.117025]}}],"is_temporal":true,"author":{"url":"","metadata":"","contact_name":"","contact_address":"","source":"","contact_phone":""},"source":"","pagination":{"sort":null,"start":0,"total":15,"limit":1000000},"state":"complete","tags":"","published":"2014-08-14T15:35:45-04:00","id":220635}