{"type":"FeatureCollection","data_type":"Dataset","url_type":null,"permissions":[{"permissions":{"download":true,"view":true},"group_id":"everyone"}],"classification":null,"title":"alcohol viol 2008","count":36,"stream_id":220693,"contributor":{"url":"http://geocommons.com/users/42302","name":"hillproject"},"data_attributes":null,"calculation_params":null,"icon_link":null,"link":"http://geocommons.com/overlays/220693.json","extent":[-83.1954,41.1035,-83.1658,41.1329],"geometry_types":["point"],"unique_name":null,"name":"alcohol viol 2008","feature_count":36,"description":"","next_feature":null,"is_raster":false,"short_classification":"Y","stats":{"date":{"max":"2008/12/31 17:26:11 -0500","mean":"2008/07/21 02:08:20 -0400","variance":91864443799210.7,"stdev":9584594.08630385,"min":"2008/01/01 01:05:10 -0500","median":"2008/07/20 02:31:03 -0400"},"unit":{"max":64,"mean":59.0277777777778,"variance":5.85634920634921,"stdev":2.4199895054213,"min":56,"median":59},"disposition":{"max":400,"mean":240.833333333333,"variance":15167.8571428571,"stdev":123.157854572322,"min":100,"median":200},"cfs":{"max":12,"mean":12.0,"variance":0.0,"stdev":0.0,"min":12,"median":12},"call#":{"max":8.013679,"mean":8.00762866666667,"variance":1.85522354857136e-05,"stdev":0.00430723060512362,"min":8.000006,"median":8.007559}},"features":[{"properties":{"officer":"MAM","city":"Tiffin","zip":"44883","date":{"end_time":"2008/12/27 02:16:24 -0500","original":"12/27/2008 2:16:23 AM","granularity":"sec","time":"2008/12/27 02:16:23 -0500"},"geo_score":0.646,"unit":58,"disposition":230,"cfs":12,"call#":8.013554,"id":"a64stnz383ze","geo_precision":"range","address":"1 City Lot 5","state":"OH","juris":"PD"},"type":"Feature","geometry":{"type":"Point","coordinates":[-83.174656,41.130966]}},{"properties":{"officer":"JAD","city":"Tiffin","zip":"44883","date":{"end_time":"2008/10/11 22:10:39 -0400","original":"10/11/2008 10:10:38 PM","granularity":"sec","time":"2008/10/11 22:10:38 -0400"},"geo_score":0.837,"unit":56,"disposition":100,"cfs":12,"call#":8.011063,"id":"a64stnnvkuf6","geo_precision":"range","address":"105 Frost Py","state":"OH","juris":"PD"},"type":"Feature","geometry":{"type":"Point","coordinates":[-83.179373,41.116816]}},{"properties":{"officer":"RJO","city":"Tiffin","zip":"44883","date":{"end_time":"2008/06/30 16:43:18 -0400","original":"6/30/2008 4:43:17 PM","granularity":"sec","time":"2008/06/30 16:43:17 -0400"},"geo_score":0.902,"unit":57,"disposition":400,"cfs":12,"call#":8.006747,"id":"a64stnpkdxqd","geo_precision":"range","address":"106 S Washington St","state":"OH","juris":"PD"},"type":"Feature","geometry":{"type":"Point","coordinates":[-83.176566,41.114585]}},{"properties":{"officer":"GTM","city":"Tiffin","zip":"44883","date":{"end_time":"2008/11/06 12:05:48 -0500","original":"11/6/2008 12:05:47 PM","granularity":"sec","time":"2008/11/06 12:05:47 -0500"},"geo_score":0.902,"unit":58,"disposition":100,"cfs":12,"call#":8.011985,"id":"a64sto0vlf03","geo_precision":"range","address":"108 Jackson St","state":"OH","juris":"PD"},"type":"Feature","geometry":{"type":"Point","coordinates":[-83.186646,41.116381]}},{"properties":{"officer":"REB","city":"Tiffin","zip":"44883","date":{"end_time":"2008/04/26 13:36:03 -0400","original":"4/26/2008 1:36:02 PM","granularity":"sec","time":"2008/04/26 13:36:02 -0400"},"geo_score":0.902,"unit":63,"disposition":400,"cfs":12,"call#":8.004227,"id":"a64stnv588wh","geo_precision":"range","address":"118 Jackson St","state":"OH","juris":"PD"},"type":"Feature","geometry":{"type":"Point","coordinates":[-83.18649,41.116678]}},{"properties":{"officer":"JAD","city":"Tiffin","zip":"44883","date":{"end_time":"2008/08/23 21:53:11 -0400","original":"8/23/2008 9:53:10 PM","granularity":"sec","time":"2008/08/23 21:53:10 -0400"},"geo_score":0.902,"unit":56,"disposition":230,"cfs":12,"call#":8.00896,"id":"a64stnvt2ck1","geo_precision":"range","address":"121 Jackson St","state":"OH","juris":"PD"},"type":"Feature","geometry":{"type":"Point","coordinates":[-83.186428,41.116797]}},{"properties":{"officer":"MAM","city":"Tiffin","zip":"44883","date":{"end_time":"2008/12/27 02:20:06 -0500","original":"12/27/2008 2:20:05 AM","granularity":"sec","time":"2008/12/27 02:20:05 -0500"},"geo_score":0.902,"unit":58,"disposition":230,"cfs":12,"call#":8.013555,"id":"a64sto1b3ae2","geo_precision":"range","address":"129 S Washington St","state":"OH","juris":"PD"},"type":"Feature","geometry":{"type":"Point","coordinates":[-83.176496,41.113983]}},{"properties":{"officer":"JAD","city":"Tiffin","zip":"44883","date":{"end_time":"2008/07/20 02:32:25 -0400","original":"7/20/2008 2:32:24 AM","granularity":"sec","time":"2008/07/20 02:32:24 -0400"},"geo_score":0.902,"unit":56,"disposition":230,"cfs":12,"call#":8.00756,"id":"a64stnvipfda","geo_precision":"range","address":"129 S Washington St","state":"OH","juris":"PD"},"type":"Feature","geometry":{"type":"Point","coordinates":[-83.176496,41.113983]}},{"properties":{"officer":"BAR","city":"Tiffin","zip":"44883","date":{"end_time":"2008/05/16 23:59:24 -0400","original":"5/16/2008 11:59:23 PM","granularity":"sec","time":"2008/05/16 23:59:23 -0400"},"geo_score":0.902,"unit":58,"disposition":400,"cfs":12,"call#":8.005019,"id":"a64sto1usjmf","geo_precision":"range","address":"129 S Washington St","state":"OH","juris":"PD"},"type":"Feature","geometry":{"type":"Point","coordinates":[-83.176496,41.113983]}},{"properties":{"officer":"JAD","city":"Tiffin","zip":"44883","date":{"end_time":"2008/04/27 01:58:22 -0400","original":"4/27/2008 1:58:21 AM","granularity":"sec","time":"2008/04/27 01:58:21 -0400"},"geo_score":0.902,"unit":56,"disposition":100,"cfs":12,"call#":8.004269,"id":"a64sto2jy0ln","geo_precision":"range","address":"129 S Washington St","state":"OH","juris":"PD"},"type":"Feature","geometry":{"type":"Point","coordinates":[-83.176496,41.113983]}},{"properties":{"officer":"MEM","city":"Tiffin","zip":"44883","date":{"end_time":"2008/11/21 03:33:46 -0500","original":"11/21/2008 3:33:45 AM","granularity":"sec","time":"2008/11/21 03:33:45 -0500"},"geo_score":0.902,"unit":57,"disposition":400,"cfs":12,"call#":8.01246,"id":"a64stnr8mz6a","geo_precision":"range","address":"12X Schonhardt St","state":"OH","juris":"PD"},"type":"Feature","geometry":{"type":"Point","coordinates":[-83.172959,41.112852]}},{"properties":{"officer":"RLT","city":"Tiffin","zip":"44883","date":{"end_time":"2008/04/27 02:24:27 -0400","original":"4/27/2008 2:24:26 AM","granularity":"sec","time":"2008/04/27 02:24:26 -0400"},"geo_score":0.902,"unit":64,"disposition":100,"cfs":12,"call#":8.004273,"id":"a64sto2cyg1n","geo_precision":"range","address":"187 S Washington St","state":"OH","juris":"PD"},"type":"Feature","geometry":{"type":"Point","coordinates":[-83.176242,41.112289]}},{"properties":{"officer":"SMM","city":"Tiffin","zip":"44883","date":{"end_time":"2008/10/28 20:41:43 -0400","original":"10/28/2008 8:41:42 PM","granularity":"sec","time":"2008/10/28 20:41:42 -0400"},"geo_score":0.902,"unit":62,"disposition":100,"cfs":12,"call#":8.01167,"id":"a64stnv3776c","geo_precision":"range","address":"19 Adams St","state":"OH","juris":"PD"},"type":"Feature","geometry":{"type":"Point","coordinates":[-83.178808,41.11801]}},{"properties":{"officer":"MEM","city":"Tiffin","zip":"44883","date":{"end_time":"2008/02/15 22:07:41 -0500","original":"2/15/2008 10:07:40 PM","granularity":"sec","time":"2008/02/15 22:07:40 -0500"},"geo_score":0.482,"unit":59,"disposition":200,"cfs":12,"call#":8.00162,"id":"a64stnysmjn7","geo_precision":"street","address":"235 Walker St,A","state":"OH","juris":"PD"},"type":"Feature","geometry":{"type":"Point","coordinates":[-83.171708,41.110726]}},{"properties":{"officer":"EDA","city":"Tiffin","zip":"44883","date":{"end_time":"2008/11/14 21:20:11 -0500","original":"11/14/2008 9:20:10 PM","granularity":"sec","time":"2008/11/14 21:20:10 -0500"},"geo_score":0.902,"unit":59,"disposition":400,"cfs":12,"call#":8.012275,"id":"a64stnstttwi","geo_precision":"range","address":"25 E Market St","state":"OH","juris":"PD"},"type":"Feature","geometry":{"type":"Point","coordinates":[-83.179017,41.114372]}},{"properties":{"officer":"DES","city":"Tiffin","zip":"44883","date":{"end_time":"2008/10/31 17:35:09 -0400","original":"10/31/2008 5:35:08 PM","granularity":"sec","time":"2008/10/31 17:35:08 -0400"},"geo_score":0.902,"unit":62,"disposition":400,"cfs":12,"call#":8.011763,"id":"a64stnwoz3er","geo_precision":"range","address":"25 E Market St","state":"OH","juris":"PD"},"type":"Feature","geometry":{"type":"Point","coordinates":[-83.179017,41.114372]}},{"properties":{"officer":"EDA","city":"Tiffin","zip":"44883","date":{"end_time":"2008/04/27 01:59:44 -0400","original":"4/27/2008 1:59:43 AM","granularity":"sec","time":"2008/04/27 01:59:43 -0400"},"geo_score":0.902,"unit":59,"disposition":400,"cfs":12,"call#":8.00427,"id":"a64stnzcvetx","geo_precision":"range","address":"252 Main St","state":"OH","juris":"PD"},"type":"Feature","geometry":{"type":"Point","coordinates":[-83.165836,41.112268]}},{"properties":{"officer":"AMR","city":"Tiffin","zip":"44883","date":{"end_time":"2008/12/02 03:44:35 -0500","original":"12/2/2008 3:44:34 AM","granularity":"sec","time":"2008/12/02 03:44:34 -0500"},"geo_score":0.902,"unit":63,"disposition":100,"cfs":12,"call#":8.012783,"id":"a64sto21is37","geo_precision":"range","address":"265 N Washington St","state":"OH","juris":"PD"},"type":"Feature","geometry":{"type":"Point","coordinates":[-83.178186,41.124992]}},{"properties":{"officer":"JAD","city":"Tiffin","zip":"44883","date":{"end_time":"2008/11/23 01:06:10 -0500","original":"11/23/2008 1:06:09 AM","granularity":"sec","time":"2008/11/23 01:06:09 -0500"},"geo_score":0.902,"unit":56,"disposition":400,"cfs":12,"call#":8.012538,"id":"a64sto2x2r60","geo_precision":"range","address":"285 E Perry St","state":"OH","juris":"PD"},"type":"Feature","geometry":{"type":"Point","coordinates":[-83.169743,41.116546]}},{"properties":{"officer":"LMK","city":"Tiffin","zip":"44883","date":{"end_time":"2008/11/22 23:45:43 -0500","original":"11/22/2008 11:45:42 PM","granularity":"sec","time":"2008/11/22 23:45:42 -0500"},"geo_score":0.902,"unit":62,"disposition":100,"cfs":12,"call#":8.012534,"id":"a64stnwqe2v3","geo_precision":"range","address":"295 Vine St","state":"OH","juris":"PD"},"type":"Feature","geometry":{"type":"Point","coordinates":[-83.182752,41.132866]}},{"properties":{"officer":"BRB","city":"Tiffin","zip":"44883","date":{"end_time":"2008/03/21 02:47:07 -0400","original":"3/21/2008 2:47:06 AM","granularity":"sec","time":"2008/03/21 02:47:06 -0400"},"geo_score":0.902,"unit":57,"disposition":200,"cfs":12,"call#":8.002784,"id":"a64sto26pcjo","geo_precision":"range","address":"295 Vine St","state":"OH","juris":"PD"},"type":"Feature","geometry":{"type":"Point","coordinates":[-83.182752,41.132866]}},{"properties":{"officer":"LMK","city":"Tiffin","zip":"44883","date":{"end_time":"2008/01/01 01:05:11 -0500","original":"1/1/2008 1:05:10 AM","granularity":"sec","time":"2008/01/01 01:05:10 -0500"},"geo_score":0.902,"unit":59,"disposition":200,"cfs":12,"call#":8.000006,"id":"a64stnrqo09o","geo_precision":"range","address":"30 Ella St","state":"OH","juris":"PD"},"type":"Feature","geometry":{"type":"Point","coordinates":[-83.181037,41.104382]}},{"properties":{"officer":"MEM","city":"Tiffin","zip":"44883","date":{"end_time":"2008/07/11 22:26:00 -0400","original":"7/11/2008 10:25:59 PM","granularity":"sec","time":"2008/07/11 22:25:59 -0400"},"geo_score":0.902,"unit":62,"disposition":100,"cfs":12,"call#":8.007212,"id":"a64sto11z4jk","geo_precision":"range","address":"315 W Market St","state":"OH","juris":"PD"},"type":"Feature","geometry":{"type":"Point","coordinates":[-83.191142,41.113162]}},{"properties":{"officer":"DES","city":"Tiffin","zip":"44883","date":{"end_time":"2008/12/31 17:26:12 -0500","original":"12/31/2008 5:26:11 PM","granularity":"sec","time":"2008/12/31 17:26:11 -0500"},"geo_score":0.902,"unit":62,"disposition":100,"cfs":12,"call#":8.013679,"id":"a64stnwefoz0","geo_precision":"range","address":"382 W Market St","state":"OH","juris":"PD"},"type":"Feature","geometry":{"type":"Point","coordinates":[-83.193569,41.112952]}},{"properties":{"officer":"DGH","city":"Tiffin","zip":"44883","date":{"end_time":"2008/10/08 12:13:40 -0400","original":"10/8/2008 12:13:39 PM","granularity":"sec","time":"2008/10/08 12:13:39 -0400"},"geo_score":0.873,"unit":59,"disposition":100,"cfs":12,"call#":8.010933,"id":"a64stnpc8dgj","geo_precision":"range","address":"52X Clinton Av","state":"OH","juris":"PD"},"type":"Feature","geometry":{"type":"Point","coordinates":[-83.170732,41.117597]}},{"properties":{"officer":"SWK","city":"Tiffin","zip":"44883","date":{"end_time":"2008/09/08 18:10:04 -0400","original":"9/8/2008 6:10:03 PM","granularity":"sec","time":"2008/09/08 18:10:03 -0400"},"geo_score":0.429,"unit":61,"disposition":200,"cfs":12,"call#":8.009662,"id":"a64sto0z7dfl","geo_precision":"street","address":"580 S Sandusky St, O","state":"OH","juris":"PD"},"type":"Feature","geometry":{"type":"Point","coordinates":[-83.183613,41.118373]}},{"properties":{"officer":"BRB","city":"Tiffin","zip":"44883","date":{"end_time":"2008/04/30 21:13:52 -0400","original":"4/30/2008 9:13:51 PM","granularity":"sec","time":"2008/04/30 21:13:51 -0400"},"geo_score":0.902,"unit":59,"disposition":200,"cfs":12,"call#":8.004406,"id":"a64stns6t6f9","geo_precision":"range","address":"686 S Sandusky St","state":"OH","juris":"PD"},"type":"Feature","geometry":{"type":"Point","coordinates":[-83.195347,41.103548]}},{"properties":{"officer":"DES","city":"Tiffin","zip":"44883","date":{"end_time":"2008/04/25 18:41:40 -0400","original":"4/25/2008 6:41:39 PM","granularity":"sec","time":"2008/04/25 18:41:39 -0400"},"geo_score":0.902,"unit":63,"disposition":200,"cfs":12,"call#":8.004182,"id":"a64stnz5o8km","geo_precision":"range","address":"686 S Sandusky St,19","state":"OH","juris":"PD"},"type":"Feature","geometry":{"type":"Point","coordinates":[-83.182777,41.119569]}},{"properties":{"officer":"BAR","city":"Tiffin","zip":"44883","date":{"end_time":"2008/05/14 21:29:06 -0400","original":"5/14/2008 9:29:05 PM","granularity":"sec","time":"2008/05/14 21:29:05 -0400"},"geo_score":0.902,"unit":58,"disposition":400,"cfs":12,"call#":8.004932,"id":"a64stno1bjb3","geo_precision":"range","address":"84 N Washington St","state":"OH","juris":"PD"},"type":"Feature","geometry":{"type":"Point","coordinates":[-83.177423,41.120102]}},{"properties":{"officer":"SMM","city":"Tiffin","zip":"44883","date":{"end_time":"2008/10/25 01:18:21 -0400","original":"10/25/2008 1:18:20 AM","granularity":"sec","time":"2008/10/25 01:18:20 -0400"},"geo_score":0.902,"unit":59,"disposition":400,"cfs":12,"call#":8.011537,"id":"a64stnrc4h6l","geo_precision":"range","address":"92 Madison St","state":"OH","juris":"PD"},"type":"Feature","geometry":{"type":"Point","coordinates":[-83.176333,41.113386]}},{"properties":{"officer":"BAR","city":"Tiffin","zip":"44883","date":{"end_time":"2008/07/20 02:31:04 -0400","original":"7/20/2008 2:31:03 AM","granularity":"sec","time":"2008/07/20 02:31:03 -0400"},"geo_score":0.902,"unit":59,"disposition":230,"cfs":12,"call#":8.007559,"id":"a64stnrmpgxe","geo_precision":"range","address":"92 Madison St","state":"OH","juris":"PD"},"type":"Feature","geometry":{"type":"Point","coordinates":[-83.176333,41.113386]}},{"properties":{"officer":"JAD","city":"Tiffin","zip":"44883","date":{"end_time":"2008/03/02 01:43:54 -0500","original":"3/2/2008 1:43:53 AM","granularity":"sec","time":"2008/03/02 01:43:53 -0500"},"geo_score":0.902,"unit":56,"disposition":120,"cfs":12,"call#":8.002175,"id":"a64sto2nrh99","geo_precision":"range","address":"92 Madison St","state":"OH","juris":"PD"},"type":"Feature","geometry":{"type":"Point","coordinates":[-83.176333,41.113386]}},{"properties":{"officer":"JAD","city":"Tiffin","zip":"44883","date":{"end_time":"2008/02/09 03:07:49 -0500","original":"2/9/2008 3:07:48 AM","granularity":"sec","time":"2008/02/09 03:07:48 -0500"},"geo_score":0.902,"unit":56,"disposition":200,"cfs":12,"call#":8.001389,"id":"a64sto0p3xic","geo_precision":"range","address":"92 Madison St","state":"OH","juris":"PD"},"type":"Feature","geometry":{"type":"Point","coordinates":[-83.176333,41.113386]}},{"properties":{"officer":"RLT","city":"Tiffin","zip":"44883","date":{"end_time":"2008/02/04 23:29:56 -0500","original":"2/4/2008 11:29:55 PM","granularity":"sec","time":"2008/02/04 23:29:55 -0500"},"geo_score":0.902,"unit":60,"disposition":200,"cfs":12,"call#":8.001238,"id":"a64sto27proy","geo_precision":"range","address":"92 Madison St","state":"OH","juris":"PD"},"type":"Feature","geometry":{"type":"Point","coordinates":[-83.176333,41.113386]}},{"properties":{"officer":"MAM","city":"Tiffin","zip":"44883","date":{"end_time":"2008/06/08 00:12:23 -0400","original":"6/8/2008 12:12:22 AM","granularity":"sec","time":"2008/06/08 00:12:22 -0400"},"geo_score":0.857,"unit":58,"disposition":400,"cfs":12,"call#":8.005857,"id":"a64stnsqxlsv","geo_precision":"street","address":"Clay St/Franklin St","state":"OH","juris":"PD"},"type":"Feature","geometry":{"type":"Point","coordinates":[-83.1824,41.116381]}},{"properties":{"officer":"MAM","city":"Tiffin","zip":"44883","date":{"end_time":"2008/04/19 17:09:33 -0400","original":"4/19/2008 5:09:32 PM","granularity":"sec","time":"2008/04/19 17:09:32 -0400"},"geo_score":0.857,"unit":58,"disposition":400,"cfs":12,"call#":8.003956,"id":"a64sto1ndenj","geo_precision":"street","address":"S Sandusky St/Benner St","state":"OH","juris":"PD"},"type":"Feature","geometry":{"type":"Point","coordinates":[-83.178861,41.118824]}}],"is_temporal":true,"author":{"url":"","metadata":"","contact_name":"","contact_address":"","source":"","contact_phone":""},"source":"","pagination":{"sort":null,"start":0,"total":36,"limit":1000000},"state":"complete","tags":"","published":"2014-08-14T15:39:40-04:00","id":220693}