{"type":"FeatureCollection","data_type":"Dataset","url_type":null,"permissions":[{"permissions":{"download":true,"view":true},"group_id":"everyone"}],"classification":null,"title":"assault dom viol 2008","count":353,"stream_id":220692,"contributor":{"url":"http://geocommons.com/users/42302","name":"hillproject"},"data_attributes":null,"calculation_params":null,"icon_link":null,"link":"http://geocommons.com/overlays/220692.json","extent":[-83.2783,40.9616,-82.5626,41.4553],"geometry_types":["point"],"unique_name":null,"name":"assault dom viol 2008","feature_count":353,"description":"","next_feature":null,"is_raster":false,"short_classification":"Y","stats":{"date":{"max":"2008/12/31 22:02:57 -0500","mean":"2008/07/05 00:20:11 -0400","variance":69988193994629.1,"stdev":8365894.69182042,"min":"2008/01/01 02:03:06 -0500","median":"2008/07/06 01:03:08 -0400"},"unit":{"max":1028,"mean":68.6771428571429,"variance":7565.66337290217,"stdev":86.980821868399,"min":55,"median":59},"cfs":{"max":14,"mean":14.0,"variance":0.0,"stdev":0.0,"min":14,"median":14},"call#":{"max":8.013685,"mean":8.00702583852691,"variance":1.43468468232843e-05,"stdev":0.00378772317141634,"min":8.000011,"median":8.006974}},"features":[{"properties":{"officer":"JMW","city":"Tiffin","zip":"44883","date":{"end_time":"2008/10/18 12:54:30 -0400","original":"10/18/2008 12:54:29 PM","granularity":"sec","time":"2008/10/18 12:54:29 -0400"},"geo_score":0.578,"unit":60,"disposition":"200","cfs":14,"call#":8.011309,"id":"a64sttsa44yr","geo_precision":"street","address":"1 Applejack Park","state":"OH","juris":"PD"},"type":"Feature","geometry":{"type":"Point","coordinates":[-83.172916,41.112623]}},{"properties":{"officer":"JPF","city":"Tiffin","zip":"44883","date":{"end_time":"2008/10/03 18:09:27 -0400","original":"10/3/2008 6:09:26 PM","granularity":"sec","time":"2008/10/03 18:09:26 -0400"},"geo_score":0.454,"unit":57,"disposition":"200","cfs":14,"call#":8.010767,"id":"a64sttn97zvg","geo_precision":"street","address":"1 City Lot 3","state":"OH","juris":"PD"},"type":"Feature","geometry":{"type":"Point","coordinates":[-83.184117,41.108723]}},{"properties":{"officer":"RJO","city":"Tiffin","zip":"44883","date":{"end_time":"2008/11/05 16:30:48 -0500","original":"11/5/2008 4:30:47 PM","granularity":"sec","time":"2008/11/05 16:30:47 -0500"},"geo_score":0.546,"unit":57,"disposition":"200","cfs":14,"call#":8.011959,"id":"a64stu1pjaut","geo_precision":"street","address":"1 Oakley Park","state":"OH","juris":"PD"},"type":"Feature","geometry":{"type":"Point","coordinates":[-83.172916,41.112623]}},{"properties":{"officer":"JSC","city":"Tiffin","zip":"44883","date":{"end_time":"2008/09/16 17:50:10 -0400","original":"9/16/2008 5:50:09 PM","granularity":"sec","time":"2008/09/16 17:50:09 -0400"},"geo_score":0.546,"unit":58,"disposition":"200","cfs":14,"call#":8.01005,"id":"a64stu2cpkit","geo_precision":"street","address":"1 Oakley Park","state":"OH","juris":"PD"},"type":"Feature","geometry":{"type":"Point","coordinates":[-83.172916,41.112623]}},{"properties":{"officer":null,"city":"Tiffin","zip":"44883","date":{"end_time":"2008/01/26 00:43:00 -0500","original":"1/26/2008 12:42:00 AM","granularity":"min","time":"2008/01/26 00:42:00 -0500"},"geo_score":0.78,"unit":null,"disposition":"CAN","cfs":14,"call#":8.000883,"id":"a64sttz1pz2g","geo_precision":"range","address":"1 Seneca County","state":"OH","juris":"PD"},"type":"Feature","geometry":{"type":"Point","coordinates":[-83.160743,41.122079]}},{"properties":{"officer":"MAM","city":"Tiffin","zip":"44883","date":{"end_time":"2008/01/24 20:10:28 -0500","original":"1/24/2008 8:10:27 PM","granularity":"sec","time":"2008/01/24 20:10:27 -0500"},"geo_score":0.902,"unit":58,"disposition":"200","cfs":14,"call#":8.000851,"id":"a64sttun40bp","geo_precision":"range","address":"10 Sycamore St","state":"OH","juris":"PD"},"type":"Feature","geometry":{"type":"Point","coordinates":[-83.175923,41.109389]}},{"properties":{"officer":"RLT","city":"Tiffin","zip":"44883","date":{"end_time":"2008/11/03 08:33:00 -0500","original":"11/3/2008 8:32:59 AM","granularity":"sec","time":"2008/11/03 08:32:59 -0500"},"geo_score":0.902,"unit":58,"disposition":"200","cfs":14,"call#":8.01188,"id":"a64stu0gak4s","geo_precision":"range","address":"102 Melmore St","state":"OH","juris":"PD"},"type":"Feature","geometry":{"type":"Point","coordinates":[-83.173267,41.107154]}},{"properties":{"officer":"EDA","city":"Tiffin","zip":"44883","date":{"end_time":"2008/11/03 00:22:14 -0500","original":"11/3/2008 12:22:13 AM","granularity":"sec","time":"2008/11/03 00:22:13 -0500"},"geo_score":0.902,"unit":58,"disposition":"200","cfs":14,"call#":8.011874,"id":"a64stu0et015","geo_precision":"range","address":"102 Melmore St","state":"OH","juris":"PD"},"type":"Feature","geometry":{"type":"Point","coordinates":[-83.173267,41.107154]}},{"properties":{"officer":"SMM","city":"Tiffin","zip":"44883","date":{"end_time":"2008/02/22 07:55:02 -0500","original":"2/22/2008 7:55:01 AM","granularity":"sec","time":"2008/02/22 07:55:01 -0500"},"geo_score":0.902,"unit":58,"disposition":"200","cfs":14,"call#":8.001853,"id":"a64sttvuhosh","geo_precision":"range","address":"103 Coe St","state":"OH","juris":"PD"},"type":"Feature","geometry":{"type":"Point","coordinates":[-83.172876,41.108159]}},{"properties":{"officer":"DAL","city":"Tiffin","zip":"44883","date":{"end_time":"2008/05/16 15:46:44 -0400","original":"5/16/2008 3:46:43 PM","granularity":"sec","time":"2008/05/16 15:46:43 -0400"},"geo_score":0.902,"unit":55,"disposition":"200","cfs":14,"call#":8.005,"id":"a64sttwuxsfy","geo_precision":"range","address":"103 E Perry St","state":"OH","juris":"PD"},"type":"Feature","geometry":{"type":"Point","coordinates":[-83.176291,41.115884]}},{"properties":{"officer":"RJO","city":"Tiffin","zip":"44883","date":{"end_time":"2008/05/20 15:31:55 -0400","original":"5/20/2008 3:31:54 PM","granularity":"sec","time":"2008/05/20 15:31:54 -0400"},"geo_score":0.585,"unit":57,"disposition":"200","cfs":14,"call#":8.005162,"id":"a64sttumpb6m","geo_precision":"zip","address":"103 Shepherd Dr","state":"OH","juris":"PD"},"type":"Feature","geometry":{"type":"Point","coordinates":[-83.225755,41.214776]}},{"properties":{"officer":"SGN","city":"Tiffin","zip":"44883","date":{"end_time":"2008/04/30 13:54:43 -0400","original":"4/30/2008 1:54:42 PM","granularity":"sec","time":"2008/04/30 13:54:42 -0400"},"geo_score":0.585,"unit":62,"disposition":"200","cfs":14,"call#":8.004388,"id":"a64stu2abyhi","geo_precision":"zip","address":"103 Shepherd Dr","state":"OH","juris":"PD"},"type":"Feature","geometry":{"type":"Point","coordinates":[-83.225755,41.214776]}},{"properties":{"officer":"RJO","city":"Tiffin","zip":"44883","date":{"end_time":"2008/04/16 15:51:03 -0400","original":"4/16/2008 3:51:02 PM","granularity":"sec","time":"2008/04/16 15:51:02 -0400"},"geo_score":0.585,"unit":57,"disposition":"200","cfs":14,"call#":8.003816,"id":"a64sttyefuo8","geo_precision":"zip","address":"103 Shepherd Dr","state":"OH","juris":"PD"},"type":"Feature","geometry":{"type":"Point","coordinates":[-83.225755,41.214776]}},{"properties":{"officer":"EDA","city":"Tiffin","zip":"44883","date":{"end_time":"2008/12/13 20:06:21 -0500","original":"12/13/2008 8:06:20 PM","granularity":"sec","time":"2008/12/13 20:06:20 -0500"},"geo_score":0.902,"unit":60,"disposition":"200","cfs":14,"call#":8.013183,"id":"a64stu0jd5cq","geo_precision":"range","address":"103 W Market St","state":"OH","juris":"PD"},"type":"Feature","geometry":{"type":"Point","coordinates":[-83.183901,41.113878]}},{"properties":{"officer":"JMW","city":"Tiffin","zip":"44883","date":{"end_time":"2008/04/20 09:20:27 -0400","original":"4/20/2008 9:20:26 AM","granularity":"sec","time":"2008/04/20 09:20:26 -0400"},"geo_score":0.902,"unit":60,"disposition":"200","cfs":14,"call#":8.00399,"id":"a64stu27ntp1","geo_precision":"range","address":"103 W Market St","state":"OH","juris":"PD"},"type":"Feature","geometry":{"type":"Point","coordinates":[-83.183901,41.113878]}},{"properties":{"officer":"JAD","city":"Tiffin","zip":"44883","date":{"end_time":"2008/06/06 04:39:32 -0400","original":"6/6/2008 4:39:31 AM","granularity":"sec","time":"2008/06/06 04:39:31 -0400"},"geo_score":0.902,"unit":56,"disposition":"400","cfs":14,"call#":8.005773,"id":"a64sttumkpmw","geo_precision":"range","address":"106 Wentz St","state":"OH","juris":"PD"},"type":"Feature","geometry":{"type":"Point","coordinates":[-83.190154,41.11682]}},{"properties":{"officer":"SMM","city":"Tiffin","zip":"44883","date":{"end_time":"2008/09/21 03:27:06 -0400","original":"9/21/2008 3:27:05 AM","granularity":"sec","time":"2008/09/21 03:27:05 -0400"},"geo_score":0.902,"unit":763,"disposition":"400","cfs":14,"call#":8.010281,"id":"a64sttq4zvn6","geo_precision":"range","address":"109 S Washington St","state":"OH","juris":"PD"},"type":"Feature","geometry":{"type":"Point","coordinates":[-83.176566,41.114585]}},{"properties":{"officer":"BAR","city":"Tiffin","zip":"44883","date":{"end_time":"2008/12/20 03:25:57 -0500","original":"12/20/2008 3:25:56 AM","granularity":"sec","time":"2008/12/20 03:25:56 -0500"},"geo_score":0.902,"unit":63,"disposition":"200","cfs":14,"call#":8.013369,"id":"a64sttsj48ns","geo_precision":"range","address":"113 E Perry St","state":"OH","juris":"PD"},"type":"Feature","geometry":{"type":"Point","coordinates":[-83.176001,41.11592]}},{"properties":{"officer":"JAD","city":"Tiffin","zip":"44883","date":{"end_time":"2008/08/22 20:51:41 -0400","original":"8/22/2008 8:51:40 PM","granularity":"sec","time":"2008/08/22 20:51:40 -0400"},"geo_score":0.902,"unit":56,"disposition":"200","cfs":14,"call#":8.008898,"id":"a64sttub67be","geo_precision":"range","address":"114 Miami St","state":"OH","juris":"PD"},"type":"Feature","geometry":{"type":"Point","coordinates":[-83.183125,41.118262]}},{"properties":{"officer":"SMM","city":"Tiffin","zip":"44883","date":{"end_time":"2008/05/07 11:30:15 -0400","original":"5/7/2008 11:30:14 AM","granularity":"sec","time":"2008/05/07 11:30:14 -0400"},"geo_score":0.756,"unit":58,"disposition":"200","cfs":14,"call#":8.004679,"id":"a64stu27vj09","geo_precision":"range","address":"115 Third Av","state":"OH","juris":"PD"},"type":"Feature","geometry":{"type":"Point","coordinates":[-83.179833,41.129639]}},{"properties":{"officer":"MAM","city":"Tiffin","zip":"44883","date":{"end_time":"2008/01/03 17:58:34 -0500","original":"1/3/2008 5:58:33 PM","granularity":"sec","time":"2008/01/03 17:58:33 -0500"},"geo_score":0.756,"unit":58,"disposition":"200","cfs":14,"call#":8.000097,"id":"a64sttx2dypb","geo_precision":"range","address":"115 Third Av","state":"OH","juris":"PD"},"type":"Feature","geometry":{"type":"Point","coordinates":[-83.179833,41.129639]}},{"properties":{"officer":"MAM","city":"Tiffin","zip":"44883","date":{"end_time":"2008/01/03 17:28:39 -0500","original":"1/3/2008 5:28:38 PM","granularity":"sec","time":"2008/01/03 17:28:38 -0500"},"geo_score":0.756,"unit":58,"disposition":"200","cfs":14,"call#":8.000096,"id":"a64sttw9sp0y","geo_precision":"range","address":"115 Third Av","state":"OH","juris":"PD"},"type":"Feature","geometry":{"type":"Point","coordinates":[-83.179833,41.129639]}},{"properties":{"officer":"RLT","city":"Tiffin","zip":"44883","date":{"end_time":"2008/09/02 12:34:36 -0400","original":"9/2/2008 12:34:35 PM","granularity":"sec","time":"2008/09/02 12:34:35 -0400"},"geo_score":0.902,"unit":57,"disposition":"200","cfs":14,"call#":8.009393,"id":"a64sttn2kuty","geo_precision":"range","address":"115 Thomas St","state":"OH","juris":"PD"},"type":"Feature","geometry":{"type":"Point","coordinates":[-83.171083,41.129909]}},{"properties":{"officer":"JMW","city":"Tiffin","zip":"44883","date":{"end_time":"2008/11/22 14:07:18 -0500","original":"11/22/2008 2:07:17 PM","granularity":"sec","time":"2008/11/22 14:07:17 -0500"},"geo_score":0.902,"unit":60,"disposition":"200","cfs":14,"call#":8.012514,"id":"a64sttsofwcc","geo_precision":"range","address":"115 Wall St","state":"OH","juris":"PD"},"type":"Feature","geometry":{"type":"Point","coordinates":[-83.188821,41.117672]}},{"properties":{"officer":"EDA","city":"Tiffin","zip":"44883","date":{"end_time":"2008/07/13 22:36:20 -0400","original":"7/13/2008 10:36:19 PM","granularity":"sec","time":"2008/07/13 22:36:19 -0400"},"geo_score":0.902,"unit":60,"disposition":"200","cfs":14,"call#":8.007298,"id":"a64sttnq2fsa","geo_precision":"range","address":"127 Melmore St","state":"OH","juris":"PD"},"type":"Feature","geometry":{"type":"Point","coordinates":[-83.172862,41.106625]}},{"properties":{"officer":"BAR","city":"Tiffin","zip":"44883","date":{"end_time":"2008/11/23 02:23:25 -0500","original":"11/23/2008 2:23:24 AM","granularity":"sec","time":"2008/11/23 02:23:24 -0500"},"geo_score":0.902,"unit":63,"disposition":"100","cfs":14,"call#":8.012543,"id":"a64sttzjlkh7","geo_precision":"range","address":"129 S Washington St","state":"OH","juris":"PD"},"type":"Feature","geometry":{"type":"Point","coordinates":[-83.176496,41.113983]}},{"properties":{"officer":"BAR","city":"Tiffin","zip":"44883","date":{"end_time":"2008/09/28 01:20:54 -0400","original":"9/28/2008 1:20:53 AM","granularity":"sec","time":"2008/09/28 01:20:53 -0400"},"geo_score":0.902,"unit":63,"disposition":"200","cfs":14,"call#":8.010558,"id":"a64stu0ye5hy","geo_precision":"range","address":"129 S Washington St","state":"OH","juris":"PD"},"type":"Feature","geometry":{"type":"Point","coordinates":[-83.176496,41.113983]}},{"properties":{"officer":"JAD","city":"Tiffin","zip":"44883","date":{"end_time":"2008/09/07 02:18:06 -0400","original":"9/7/2008 2:18:05 AM","granularity":"sec","time":"2008/09/07 02:18:05 -0400"},"geo_score":0.902,"unit":56,"disposition":"400","cfs":14,"call#":8.009595,"id":"a64sttw4gbz0","geo_precision":"range","address":"129 S Washington St","state":"OH","juris":"PD"},"type":"Feature","geometry":{"type":"Point","coordinates":[-83.176496,41.113983]}},{"properties":{"officer":"MAM","city":"Tiffin","zip":"44883","date":{"end_time":"2008/08/31 02:19:31 -0400","original":"8/31/2008 2:19:30 AM","granularity":"sec","time":"2008/08/31 02:19:30 -0400"},"geo_score":0.902,"unit":125,"disposition":"400","cfs":14,"call#":8.009309,"id":"a64sttu1mx9j","geo_precision":"range","address":"129 S Washington St","state":"OH","juris":"PD"},"type":"Feature","geometry":{"type":"Point","coordinates":[-83.176496,41.113983]}},{"properties":{"officer":"JPF","city":"Tiffin","zip":"44883","date":{"end_time":"2008/08/30 01:31:30 -0400","original":"8/30/2008 1:31:29 AM","granularity":"sec","time":"2008/08/30 01:31:29 -0400"},"geo_score":0.902,"unit":57,"disposition":"200","cfs":14,"call#":8.009237,"id":"a64stu2cuzdf","geo_precision":"range","address":"129 S Washington St","state":"OH","juris":"PD"},"type":"Feature","geometry":{"type":"Point","coordinates":[-83.176496,41.113983]}},{"properties":{"officer":"JAD","city":"Tiffin","zip":"44883","date":{"end_time":"2008/08/23 02:44:21 -0400","original":"8/23/2008 2:44:20 AM","granularity":"sec","time":"2008/08/23 02:44:20 -0400"},"geo_score":0.902,"unit":56,"disposition":"100","cfs":14,"call#":8.008928,"id":"a64stu1v4yj4","geo_precision":"range","address":"129 S Washington St","state":"OH","juris":"PD"},"type":"Feature","geometry":{"type":"Point","coordinates":[-83.176496,41.113983]}},{"properties":{"officer":"JSC","city":"Tiffin","zip":"44883","date":{"end_time":"2008/08/17 02:59:29 -0400","original":"8/17/2008 2:59:28 AM","granularity":"sec","time":"2008/08/17 02:59:28 -0400"},"geo_score":0.902,"unit":57,"disposition":"100","cfs":14,"call#":8.008674,"id":"a64sttnd092d","geo_precision":"range","address":"129 S Washington St","state":"OH","juris":"PD"},"type":"Feature","geometry":{"type":"Point","coordinates":[-83.176496,41.113983]}},{"properties":{"officer":"MAM","city":"Tiffin","zip":"44883","date":{"end_time":"2008/07/26 01:32:12 -0400","original":"7/26/2008 1:32:11 AM","granularity":"sec","time":"2008/07/26 01:32:11 -0400"},"geo_score":0.902,"unit":58,"disposition":"230","cfs":14,"call#":8.007778,"id":"a64sttocdfeg","geo_precision":"range","address":"129 S Washington St","state":"OH","juris":"PD"},"type":"Feature","geometry":{"type":"Point","coordinates":[-83.176496,41.113983]}},{"properties":{"officer":"JAD","city":"Tiffin","zip":"44883","date":{"end_time":"2008/07/18 02:03:20 -0400","original":"7/18/2008 2:03:19 AM","granularity":"sec","time":"2008/07/18 02:03:19 -0400"},"geo_score":0.902,"unit":56,"disposition":"100","cfs":14,"call#":8.007462,"id":"a64sttwa7oxl","geo_precision":"range","address":"129 S Washington St","state":"OH","juris":"PD"},"type":"Feature","geometry":{"type":"Point","coordinates":[-83.176496,41.113983]}},{"properties":{"officer":"JAD","city":"Tiffin","zip":"44883","date":{"end_time":"2008/07/13 02:09:43 -0400","original":"7/13/2008 2:09:42 AM","granularity":"sec","time":"2008/07/13 02:09:42 -0400"},"geo_score":0.902,"unit":56,"disposition":"230","cfs":14,"call#":8.007266,"id":"a64sttnkkc29","geo_precision":"range","address":"129 S Washington St","state":"OH","juris":"PD"},"type":"Feature","geometry":{"type":"Point","coordinates":[-83.176496,41.113983]}},{"properties":{"officer":"JAD","city":"Tiffin","zip":"44883","date":{"end_time":"2008/07/05 01:41:25 -0400","original":"7/5/2008 1:41:24 AM","granularity":"sec","time":"2008/07/05 01:41:24 -0400"},"geo_score":0.902,"unit":56,"disposition":"200","cfs":14,"call#":8.006926,"id":"a64sttriimhq","geo_precision":"range","address":"129 S Washington St","state":"OH","juris":"PD"},"type":"Feature","geometry":{"type":"Point","coordinates":[-83.176496,41.113983]}},{"properties":{"officer":"BAR","city":"Tiffin","zip":"44883","date":{"end_time":"2008/05/11 01:55:59 -0400","original":"5/11/2008 1:55:58 AM","granularity":"sec","time":"2008/05/11 01:55:58 -0400"},"geo_score":0.902,"unit":58,"disposition":"400","cfs":14,"call#":8.00483,"id":"a64sttmw3rli","geo_precision":"range","address":"129 S Washington St","state":"OH","juris":"PD"},"type":"Feature","geometry":{"type":"Point","coordinates":[-83.176496,41.113983]}},{"properties":{"officer":"LMK","city":"Tiffin","zip":"44883","date":{"end_time":"2008/04/05 23:58:35 -0400","original":"4/5/2008 11:58:34 PM","granularity":"sec","time":"2008/04/05 23:58:34 -0400"},"geo_score":0.902,"unit":61,"disposition":"100","cfs":14,"call#":8.003436,"id":"a64sttspoqcy","geo_precision":"range","address":"129 S Washington St","state":"OH","juris":"PD"},"type":"Feature","geometry":{"type":"Point","coordinates":[-83.176496,41.113983]}},{"properties":{"officer":"MEM","city":"Tiffin","zip":"44883","date":{"end_time":"2008/03/21 01:22:43 -0400","original":"3/21/2008 1:22:42 AM","granularity":"sec","time":"2008/03/21 01:22:42 -0400"},"geo_score":0.902,"unit":59,"disposition":"100","cfs":14,"call#":8.002781,"id":"a64sttrxrgsq","geo_precision":"range","address":"129 S Washington St","state":"OH","juris":"PD"},"type":"Feature","geometry":{"type":"Point","coordinates":[-83.176496,41.113983]}},{"properties":{"officer":"JSC","city":"Tiffin","zip":"44883","date":{"end_time":"2008/03/16 02:13:15 -0400","original":"3/16/2008 2:13:14 AM","granularity":"sec","time":"2008/03/16 02:13:14 -0400"},"geo_score":0.902,"unit":62,"disposition":"100","cfs":14,"call#":8.00265,"id":"a64sttzo0aok","geo_precision":"range","address":"129 S Washington St","state":"OH","juris":"PD"},"type":"Feature","geometry":{"type":"Point","coordinates":[-83.176496,41.113983]}},{"properties":{"officer":"JSC","city":"Tiffin","zip":"44883","date":{"end_time":"2008/06/06 19:38:34 -0400","original":"6/6/2008 7:38:33 PM","granularity":"sec","time":"2008/06/06 19:38:33 -0400"},"geo_score":0.902,"unit":62,"disposition":"200","cfs":14,"call#":8.005795,"id":"a64sttn09y35","geo_precision":"range","address":"13 Miami St","state":"OH","juris":"PD"},"type":"Feature","geometry":{"type":"Point","coordinates":[-83.179788,41.116897]}},{"properties":{"officer":"AMR","city":"Tiffin","zip":"44883","date":{"end_time":"2008/01/01 02:15:44 -0500","original":"1/1/2008 2:15:43 AM","granularity":"sec","time":"2008/01/01 02:15:43 -0500"},"geo_score":0.902,"unit":63,"disposition":"200","cfs":14,"call#":8.000013,"id":"a64sttmhr5jo","geo_precision":"range","address":"13 Miami St","state":"OH","juris":"PD"},"type":"Feature","geometry":{"type":"Point","coordinates":[-83.179788,41.116897]}},{"properties":{"officer":"JSC","city":"Tiffin","zip":"44883","date":{"end_time":"2008/08/09 17:11:12 -0400","original":"8/9/2008 5:11:11 PM","granularity":"sec","time":"2008/08/09 17:11:11 -0400"},"geo_score":0.902,"unit":62,"disposition":"100","cfs":14,"call#":8.008367,"id":"a64sttskdru7","geo_precision":"range","address":"130 Minerva St","state":"OH","juris":"PD"},"type":"Feature","geometry":{"type":"Point","coordinates":[-83.17642,41.124026]}},{"properties":{"officer":"AMR","city":"Tiffin","zip":"44883","date":{"end_time":"2008/05/05 17:11:45 -0400","original":"5/5/2008 5:11:44 PM","granularity":"sec","time":"2008/05/05 17:11:44 -0400"},"geo_score":0.902,"unit":63,"disposition":"450","cfs":14,"call#":8.004617,"id":"a64sttreyuzf","geo_precision":"range","address":"130 Minerva St","state":"OH","juris":"PD"},"type":"Feature","geometry":{"type":"Point","coordinates":[-83.17642,41.124026]}},{"properties":{"officer":"BRB","city":"Tiffin","zip":"44883","date":{"end_time":"2008/03/31 20:27:52 -0400","original":"3/31/2008 8:27:51 PM","granularity":"sec","time":"2008/03/31 20:27:51 -0400"},"geo_score":0.87,"unit":57,"disposition":"200","cfs":14,"call#":8.003239,"id":"a64stu0s9xbd","geo_precision":"range","address":"133 Warren Av","state":"OH","juris":"PD"},"type":"Feature","geometry":{"type":"Point","coordinates":[-83.180748,41.130979]}},{"properties":{"officer":"GTM","city":"Tiffin","zip":"44883","date":{"end_time":"2008/07/24 09:19:16 -0400","original":"7/24/2008 9:19:15 AM","granularity":"sec","time":"2008/07/24 09:19:15 -0400"},"geo_score":0.844,"unit":61,"disposition":"100","cfs":14,"call#":8.007699,"id":"a64sttvpivd5","geo_precision":"range","address":"1353 Seneca Av","state":"OH","juris":"PD"},"type":"Feature","geometry":{"type":"Point","coordinates":[-83.196934,41.108216]}},{"properties":{"officer":"SWK","city":"Tiffin","zip":"44883","date":{"end_time":"2008/11/10 17:12:58 -0500","original":"11/10/2008 5:12:57 PM","granularity":"sec","time":"2008/11/10 17:12:57 -0500"},"geo_score":0.902,"unit":61,"disposition":"200","cfs":14,"call#":8.012141,"id":"a64sttmhbuq9","geo_precision":"range","address":"136 Miami St","state":"OH","juris":"PD"},"type":"Feature","geometry":{"type":"Point","coordinates":[-83.184002,41.118579]}},{"properties":{"officer":"DGH","city":"Tiffin","zip":"44883","date":{"end_time":"2008/11/06 16:46:24 -0500","original":"11/6/2008 4:46:23 PM","granularity":"sec","time":"2008/11/06 16:46:23 -0500"},"geo_score":0.902,"unit":59,"disposition":"400","cfs":14,"call#":8.011995,"id":"a64sttsd3x8g","geo_precision":"range","address":"139 Coe St","state":"OH","juris":"PD"},"type":"Feature","geometry":{"type":"Point","coordinates":[-83.171334,41.107404]}},{"properties":{"officer":"SGN","city":"Tiffin","zip":"44883","date":{"end_time":"2008/11/26 16:46:38 -0500","original":"11/26/2008 4:46:37 PM","granularity":"sec","time":"2008/11/26 16:46:37 -0500"},"geo_score":0.537,"unit":62,"disposition":"200","cfs":14,"call#":8.012628,"id":"a64sttrexcob","geo_precision":"street","address":"147 Dallas St","state":"OH","juris":"PD"},"type":"Feature","geometry":{"type":"Point","coordinates":[-82.562576,41.384496]}},{"properties":{"officer":"SGN","city":"Tiffin","zip":"44883","date":{"end_time":"2008/02/05 07:52:26 -0500","original":"2/5/2008 7:52:25 AM","granularity":"sec","time":"2008/02/05 07:52:25 -0500"},"geo_score":0.537,"unit":63,"disposition":"100","cfs":14,"call#":8.001244,"id":"a64sttrtgxx0","geo_precision":"street","address":"147 Dallas St","state":"OH","juris":"PD"},"type":"Feature","geometry":{"type":"Point","coordinates":[-82.562576,41.384496]}},{"properties":{"officer":"AMR","city":"Tiffin","zip":"44883","date":{"end_time":"2008/02/04 20:33:46 -0500","original":"2/4/2008 8:33:45 PM","granularity":"sec","time":"2008/02/04 20:33:45 -0500"},"geo_score":0.537,"unit":63,"disposition":"200","cfs":14,"call#":8.001231,"id":"a64sttz5hkmg","geo_precision":"street","address":"147 Dallas St","state":"OH","juris":"PD"},"type":"Feature","geometry":{"type":"Point","coordinates":[-82.562576,41.384496]}},{"properties":{"officer":"SWK","city":"Tiffin","zip":"44883","date":{"end_time":"2008/11/19 16:12:37 -0500","original":"11/19/2008 4:12:36 PM","granularity":"sec","time":"2008/11/19 16:12:36 -0500"},"geo_score":0.902,"unit":61,"disposition":"200","cfs":14,"call#":8.012418,"id":"a64sttmw4fra","geo_precision":"range","address":"147X W Market St","state":"OH","juris":"PD"},"type":"Feature","geometry":{"type":"Point","coordinates":[-83.185231,41.113744]}},{"properties":{"officer":"JAD","city":"Tiffin","zip":"44883","date":{"end_time":"2008/04/13 02:39:33 -0400","original":"4/13/2008 2:39:32 AM","granularity":"sec","time":"2008/04/13 02:39:32 -0400"},"geo_score":0.902,"unit":56,"disposition":"100","cfs":14,"call#":8.0037,"id":"a64sttwxbx84","geo_precision":"range","address":"148 Apple St","state":"OH","juris":"PD"},"type":"Feature","geometry":{"type":"Point","coordinates":[-83.184483,41.12472]}},{"properties":{"officer":"FWS","city":"Tiffin","zip":"44883","date":{"end_time":"2008/11/02 15:53:36 -0500","original":"11/2/2008 3:53:35 PM","granularity":"sec","time":"2008/11/02 15:53:35 -0500"},"geo_score":0.756,"unit":58,"disposition":"400","cfs":14,"call#":8.011862,"id":"a64stu0o1kft","geo_precision":"range","address":"149 First Av","state":"OH","juris":"PD"},"type":"Feature","geometry":{"type":"Point","coordinates":[-83.18264,41.127893]}},{"properties":{"officer":"MAM","city":"Tiffin","zip":"44883","date":{"end_time":"2008/08/09 18:11:42 -0400","original":"8/9/2008 6:11:41 PM","granularity":"sec","time":"2008/08/09 18:11:41 -0400"},"geo_score":0.837,"unit":58,"disposition":"400","cfs":14,"call#":8.008368,"id":"a64stts41kx4","geo_precision":"range","address":"15 Frost Py","state":"OH","juris":"PD"},"type":"Feature","geometry":{"type":"Point","coordinates":[-83.180751,41.114633]}},{"properties":{"officer":"EDA","city":"Tiffin","zip":"44883","date":{"end_time":"2008/05/31 21:52:16 -0400","original":"5/31/2008 9:52:15 PM","granularity":"sec","time":"2008/05/31 21:52:15 -0400"},"geo_score":0.756,"unit":59,"disposition":"400","cfs":14,"call#":8.005576,"id":"a64sttnpv9cf","geo_precision":"range","address":"150 First Av","state":"OH","juris":"PD"},"type":"Feature","geometry":{"type":"Point","coordinates":[-83.182831,41.127891]}},{"properties":{"officer":"SMM","city":"Tiffin","zip":"44883","date":{"end_time":"2008/03/05 17:01:24 -0500","original":"3/5/2008 5:01:23 PM","granularity":"sec","time":"2008/03/05 17:01:23 -0500"},"geo_score":0.902,"unit":60,"disposition":"200","cfs":14,"call#":8.00228,"id":"a64stto0t5xg","geo_precision":"range","address":"150 W Market St","state":"OH","juris":"PD"},"type":"Feature","geometry":{"type":"Point","coordinates":[-83.185325,41.113732]}},{"properties":{"officer":"BAR","city":"Tiffin","zip":"44883","date":{"end_time":"2008/07/06 11:55:02 -0400","original":"7/6/2008 11:55:01 AM","granularity":"sec","time":"2008/07/06 11:55:01 -0400"},"geo_score":0.902,"unit":62,"disposition":"200","cfs":14,"call#":8.006982,"id":"a64sttzd74eo","geo_precision":"range","address":"151 Minerva St","state":"OH","juris":"PD"},"type":"Feature","geometry":{"type":"Point","coordinates":[-83.176527,41.124689]}},{"properties":{"officer":"JAD","city":"Tiffin","zip":"44883","date":{"end_time":"2008/10/31 22:33:21 -0400","original":"10/31/2008 10:33:20 PM","granularity":"sec","time":"2008/10/31 22:33:20 -0400"},"geo_score":0.902,"unit":56,"disposition":"100","cfs":14,"call#":8.011774,"id":"a64sttqr92k9","geo_precision":"range","address":"152 Madison St","state":"OH","juris":"PD"},"type":"Feature","geometry":{"type":"Point","coordinates":[-83.174582,41.113535]}},{"properties":{"officer":"RJO","city":"Tiffin","zip":"44883","date":{"end_time":"2008/10/29 12:47:21 -0400","original":"10/29/2008 12:47:20 PM","granularity":"sec","time":"2008/10/29 12:47:20 -0400"},"geo_score":0.902,"unit":57,"disposition":"200","cfs":14,"call#":8.011694,"id":"a64sttpnqpj8","geo_precision":"range","address":"152 Madison St","state":"OH","juris":"PD"},"type":"Feature","geometry":{"type":"Point","coordinates":[-83.174582,41.113535]}},{"properties":{"officer":"BAR","city":"Tiffin","zip":"44883","date":{"end_time":"2008/05/22 17:54:16 -0400","original":"5/22/2008 5:54:15 PM","granularity":"sec","time":"2008/05/22 17:54:15 -0400"},"geo_score":0.902,"unit":58,"disposition":"100","cfs":14,"call#":8.005223,"id":"a64sttwgnjq4","geo_precision":"range","address":"152 Madison St","state":"OH","juris":"PD"},"type":"Feature","geometry":{"type":"Point","coordinates":[-83.174582,41.113535]}},{"properties":{"officer":"LMK","city":"Tiffin","zip":"44883","date":{"end_time":"2008/01/27 04:25:28 -0500","original":"1/27/2008 4:25:27 AM","granularity":"sec","time":"2008/01/27 04:25:27 -0500"},"geo_score":0.902,"unit":59,"disposition":"400","cfs":14,"call#":8.00093,"id":"a64stu1pe8go","geo_precision":"range","address":"154 S Washington St","state":"OH","juris":"PD"},"type":"Feature","geometry":{"type":"Point","coordinates":[-83.176365,41.11326]}},{"properties":{"officer":"JPF","city":"Tiffin","zip":"44883","date":{"end_time":"2008/02/24 00:33:05 -0500","original":"2/24/2008 12:33:04 AM","granularity":"sec","time":"2008/02/24 00:33:04 -0500"},"geo_score":0.902,"unit":62,"disposition":"200","cfs":14,"call#":8.001949,"id":"a64sttpc54wp","geo_precision":"range","address":"154 S Washington St,102","state":"OH","juris":"PD"},"type":"Feature","geometry":{"type":"Point","coordinates":[-83.176602,41.114684]}},{"properties":{"officer":"SMM","city":"Tiffin","zip":"44883","date":{"end_time":"2008/02/23 14:32:04 -0500","original":"2/23/2008 2:32:03 PM","granularity":"sec","time":"2008/02/23 14:32:03 -0500"},"geo_score":0.902,"unit":58,"disposition":"100","cfs":14,"call#":8.001914,"id":"a64sttyn328f","geo_precision":"range","address":"154 S Washington St,104","state":"OH","juris":"PD"},"type":"Feature","geometry":{"type":"Point","coordinates":[-83.176596,41.114635]}},{"properties":{"officer":"SGN","city":"Tiffin","zip":"44883","date":{"end_time":"2008/10/02 11:16:41 -0400","original":"10/2/2008 11:16:40 AM","granularity":"sec","time":"2008/10/02 11:16:40 -0400"},"geo_score":0.902,"unit":62,"disposition":"200","cfs":14,"call#":8.010719,"id":"a64sttv1u57c","geo_precision":"range","address":"154 S Washington St,210","state":"OH","juris":"PD"},"type":"Feature","geometry":{"type":"Point","coordinates":[-83.176151,41.111561]}},{"properties":{"officer":"GTM","city":"Tiffin","zip":"44883","date":{"end_time":"2008/06/26 23:19:00 -0400","original":"6/26/2008 11:18:59 PM","granularity":"sec","time":"2008/06/26 23:18:59 -0400"},"geo_score":0.902,"unit":61,"disposition":"200","cfs":14,"call#":8.006563,"id":"a64stu11x2y4","geo_precision":"range","address":"156 E Perry St","state":"OH","juris":"PD"},"type":"Feature","geometry":{"type":"Point","coordinates":[-83.174254,41.116084]}},{"properties":{"officer":"MAM","city":"Tiffin","zip":"44883","date":{"end_time":"2008/02/08 19:53:15 -0500","original":"2/8/2008 7:53:14 PM","granularity":"sec","time":"2008/02/08 19:53:14 -0500"},"geo_score":0.873,"unit":58,"disposition":"200","cfs":14,"call#":8.001371,"id":"a64sttq4ws4n","geo_precision":"range","address":"156 Lindsay Av","state":"OH","juris":"PD"},"type":"Feature","geometry":{"type":"Point","coordinates":[-83.196024,41.11107]}},{"properties":{"officer":"REB","city":"Tiffin","zip":"44883","date":{"end_time":"2008/07/05 14:56:07 -0400","original":"7/5/2008 2:56:06 PM","granularity":"sec","time":"2008/07/05 14:56:06 -0400"},"geo_score":0.902,"unit":63,"disposition":"200","cfs":14,"call#":8.006946,"id":"a64sttrpwf7z","geo_precision":"range","address":"15X S Monroe St","state":"OH","juris":"PD"},"type":"Feature","geometry":{"type":"Point","coordinates":[-83.178422,41.115963]}},{"properties":{"officer":"SGN","city":"Tiffin","zip":"44883","date":{"end_time":"2008/02/08 13:47:38 -0500","original":"2/8/2008 1:47:37 PM","granularity":"sec","time":"2008/02/08 13:47:37 -0500"},"geo_score":0.902,"unit":63,"disposition":"200","cfs":14,"call#":8.001361,"id":"a64sttu1j1ds","geo_precision":"range","address":"16 E Market St","state":"OH","juris":"PD"},"type":"Feature","geometry":{"type":"Point","coordinates":[-83.179228,41.114348]}},{"properties":{"officer":"SMM","city":"Tiffin","zip":"44883","date":{"end_time":"2008/06/20 13:47:50 -0400","original":"6/20/2008 1:47:49 PM","granularity":"sec","time":"2008/06/20 13:47:49 -0400"},"geo_score":0.902,"unit":58,"disposition":"200","cfs":14,"call#":8.006342,"id":"a64sttnjw1bd","geo_precision":"range","address":"16 Madison St","state":"OH","juris":"PD"},"type":"Feature","geometry":{"type":"Point","coordinates":[-83.178545,41.113179]}},{"properties":{"officer":"JSC","city":"Tiffin","zip":"44883","date":{"end_time":"2008/10/14 20:49:14 -0400","original":"10/14/2008 8:49:13 PM","granularity":"sec","time":"2008/10/14 20:49:13 -0400"},"geo_score":0.902,"unit":59,"disposition":"200","cfs":14,"call#":8.01117,"id":"a64sttw87oce","geo_precision":"range","address":"161 Maule Rd","state":"OH","juris":"PD"},"type":"Feature","geometry":{"type":"Point","coordinates":[-83.189868,41.1298]}},{"properties":{"officer":"JPF","city":"Tiffin","zip":"44883","date":{"end_time":"2008/12/11 18:24:31 -0500","original":"12/11/2008 6:24:30 PM","granularity":"sec","time":"2008/12/11 18:24:30 -0500"},"geo_score":0.902,"unit":59,"disposition":"200","cfs":14,"call#":8.013096,"id":"a64sttpvphwo","geo_precision":"range","address":"162 E Perry St","state":"OH","juris":"PD"},"type":"Feature","geometry":{"type":"Point","coordinates":[-83.174033,41.116111]}},{"properties":{"officer":"DES","city":"Tiffin","zip":"44883","date":{"end_time":"2008/06/24 15:41:05 -0400","original":"6/24/2008 3:41:04 PM","granularity":"sec","time":"2008/06/24 15:41:04 -0400"},"geo_score":0.902,"unit":62,"disposition":"200","cfs":14,"call#":8.006486,"id":"a64sttsdq6tp","geo_precision":"range","address":"162 Rosa St","state":"OH","juris":"PD"},"type":"Feature","geometry":{"type":"Point","coordinates":[-83.166043,41.106439]}},{"properties":{"officer":null,"city":"Tiffin","zip":"44883","date":{"end_time":"2008/06/10 16:14:59 -0400","original":"6/10/2008 4:14:58 PM","granularity":"sec","time":"2008/06/10 16:14:58 -0400"},"geo_score":0.902,"unit":null,"disposition":"CAN","cfs":14,"call#":8.005976,"id":"a64sttuiuh2w","geo_precision":"range","address":"162 Rosa St","state":"OH","juris":"PD"},"type":"Feature","geometry":{"type":"Point","coordinates":[-83.166043,41.106439]}},{"properties":{"officer":"REB","city":"Tiffin","zip":"44883","date":{"end_time":"2008/06/21 10:00:36 -0400","original":"6/21/2008 10:00:35 AM","granularity":"sec","time":"2008/06/21 10:00:35 -0400"},"geo_score":0.854,"unit":63,"disposition":"200","cfs":14,"call#":8.00638,"id":"a64sttpncjp8","geo_precision":"range","address":"163 Elm Av","state":"OH","juris":"PD"},"type":"Feature","geometry":{"type":"Point","coordinates":[-83.163989,41.122844]}},{"properties":{"officer":"SGN","city":"Tiffin","zip":"44883","date":{"end_time":"2008/09/23 13:42:22 -0400","original":"9/23/2008 1:42:21 PM","granularity":"sec","time":"2008/09/23 13:42:21 -0400"},"geo_score":0.902,"unit":62,"disposition":"100","cfs":14,"call#":8.010352,"id":"a64sttub23p9","geo_precision":"range","address":"169 S Sandusky St","state":"OH","juris":"PD"},"type":"Feature","geometry":{"type":"Point","coordinates":[-83.185345,41.115453]}},{"properties":{"officer":"SWK","city":"Tiffin","zip":"44883","date":{"end_time":"2008/03/27 16:17:17 -0400","original":"3/27/2008 4:17:16 PM","granularity":"sec","time":"2008/03/27 16:17:16 -0400"},"geo_score":0.902,"unit":61,"disposition":"400","cfs":14,"call#":8.003041,"id":"a64sttwch1so","geo_precision":"range","address":"169 S Sandusky St","state":"OH","juris":"PD"},"type":"Feature","geometry":{"type":"Point","coordinates":[-83.185345,41.115453]}},{"properties":{"officer":"DES","city":"Tiffin","zip":"44883","date":{"end_time":"2008/03/06 17:44:17 -0500","original":"3/6/2008 5:44:16 PM","granularity":"sec","time":"2008/03/06 17:44:16 -0500"},"geo_score":0.902,"unit":63,"disposition":"400","cfs":14,"call#":8.002331,"id":"a64sttq5zmny","geo_precision":"range","address":"169 S Sandusky St","state":"OH","juris":"PD"},"type":"Feature","geometry":{"type":"Point","coordinates":[-83.185345,41.115453]}},{"properties":{"officer":"SWK","city":"Tiffin","zip":"44883","date":{"end_time":"2008/09/18 19:34:09 -0400","original":"9/18/2008 7:34:08 PM","granularity":"sec","time":"2008/09/18 19:34:08 -0400"},"geo_score":0.902,"unit":61,"disposition":"200","cfs":14,"call#":8.010141,"id":"a64sttsga1pt","geo_precision":"range","address":"1692 W Market St,58","state":"OH","juris":"PD"},"type":"Feature","geometry":{"type":"Point","coordinates":[-83.182233,41.114027]}},{"properties":{"officer":"AMR","city":"Tiffin","zip":"44883","date":{"end_time":"2008/04/08 20:59:19 -0400","original":"4/8/2008 8:59:18 PM","granularity":"sec","time":"2008/04/08 20:59:18 -0400"},"geo_score":0.902,"unit":63,"disposition":"400","cfs":14,"call#":8.003519,"id":"a64sttmc14tw","geo_precision":"range","address":"170 S Washington St","state":"OH","juris":"PD"},"type":"Feature","geometry":{"type":"Point","coordinates":[-83.176304,41.112774]}},{"properties":{"officer":"LMK","city":"Tiffin","zip":"44883","date":{"end_time":"2008/02/17 03:19:59 -0500","original":"2/17/2008 3:19:58 AM","granularity":"sec","time":"2008/02/17 03:19:58 -0500"},"geo_score":0.902,"unit":63,"disposition":"400","cfs":14,"call#":8.001693,"id":"a64sttrrtvkb","geo_precision":"range","address":"1714 W Market St","state":"OH","juris":"PD"},"type":"Feature","geometry":{"type":"Point","coordinates":[-83.204289,41.11169]}},{"properties":{"officer":"RLT","city":"Tiffin","zip":"44883","date":{"end_time":"2008/11/23 14:48:57 -0500","original":"11/23/2008 2:48:56 PM","granularity":"sec","time":"2008/11/23 14:48:56 -0500"},"geo_score":0.902,"unit":62,"disposition":"200","cfs":14,"call#":8.012551,"id":"a64sttojjwdt","geo_precision":"range","address":"173 Thomas St","state":"OH","juris":"PD"},"type":"Feature","geometry":{"type":"Point","coordinates":[-83.168698,41.12993]}},{"properties":{"officer":"JMW","city":"Tiffin","zip":"44883","date":{"end_time":"2008/07/05 14:39:54 -0400","original":"7/5/2008 2:39:53 PM","granularity":"sec","time":"2008/07/05 14:39:53 -0400"},"geo_score":0.756,"unit":60,"disposition":"200","cfs":14,"call#":8.006945,"id":"a64sttzp1klp","geo_precision":"range","address":"176 First Av","state":"OH","juris":"PD"},"type":"Feature","geometry":{"type":"Point","coordinates":[-83.183453,41.127883]}},{"properties":{"officer":"JMW","city":"Tiffin","zip":"44883","date":{"end_time":"2008/09/20 15:35:50 -0400","original":"9/20/2008 3:35:49 PM","granularity":"sec","time":"2008/09/20 15:35:49 -0400"},"geo_score":0.756,"unit":60,"disposition":"230","cfs":14,"call#":8.010236,"id":"a64sttr34r0j","geo_precision":"range","address":"177X Second Av","state":"OH","juris":"PD"},"type":"Feature","geometry":{"type":"Point","coordinates":[-83.182826,41.128745]}},{"properties":{"officer":"JPF","city":"Tiffin","zip":"44883","date":{"end_time":"2008/09/27 18:22:56 -0400","original":"9/27/2008 6:22:55 PM","granularity":"sec","time":"2008/09/27 18:22:55 -0400"},"geo_score":0.902,"unit":57,"disposition":"200","cfs":14,"call#":8.01055,"id":"a64sttu2z5p2","geo_precision":"range","address":"179 Minerva St","state":"OH","juris":"PD"},"type":"Feature","geometry":{"type":"Point","coordinates":[-83.176644,41.125631]}},{"properties":{"officer":"JPF","city":"Tiffin","zip":"44883","date":{"end_time":"2008/04/28 18:22:17 -0400","original":"4/28/2008 6:22:16 PM","granularity":"sec","time":"2008/04/28 18:22:16 -0400"},"geo_score":0.902,"unit":57,"disposition":"400","cfs":14,"call#":8.004338,"id":"a64stu2on1im","geo_precision":"range","address":"18 Tiffin St","state":"OH","juris":"PD"},"type":"Feature","geometry":{"type":"Point","coordinates":[-83.173616,41.112966]}},{"properties":{"officer":"EDA","city":"Tiffin","zip":"44883","date":{"end_time":"2008/07/13 18:33:25 -0400","original":"7/13/2008 6:33:24 PM","granularity":"sec","time":"2008/07/13 18:33:24 -0400"},"geo_score":0.429,"unit":60,"disposition":"200","cfs":14,"call#":8.007288,"id":"a64stu2ntcg9","geo_precision":"street","address":"184 E Market St, O","state":"OH","juris":"PD"},"type":"Feature","geometry":{"type":"Point","coordinates":[-83.181592,41.114111]}},{"properties":{"officer":"MEM","city":"Tiffin","zip":"44883","date":{"end_time":"2008/01/12 05:17:06 -0500","original":"1/12/2008 5:17:05 AM","granularity":"sec","time":"2008/01/12 05:17:05 -0500"},"geo_score":0.429,"unit":59,"disposition":"400","cfs":14,"call#":8.000418,"id":"a64sttrt6vsx","geo_precision":"street","address":"184 E Market St, O","state":"OH","juris":"PD"},"type":"Feature","geometry":{"type":"Point","coordinates":[-83.181592,41.114111]}},{"properties":{"officer":"DGH","city":"Tiffin","zip":"44883","date":{"end_time":"2008/02/13 13:36:27 -0500","original":"2/13/2008 1:36:26 PM","granularity":"sec","time":"2008/02/13 13:36:26 -0500"},"geo_score":0.902,"unit":59,"disposition":"200","cfs":14,"call#":8.001545,"id":"a64stttemo0d","geo_precision":"range","address":"184 E Market St,221","state":"OH","juris":"PD"},"type":"Feature","geometry":{"type":"Point","coordinates":[-83.171738,41.115036]}},{"properties":{"officer":"EDA","city":"Tiffin","zip":"44883","date":{"end_time":"2008/06/14 22:03:06 -0400","original":"6/14/2008 10:03:05 PM","granularity":"sec","time":"2008/06/14 22:03:05 -0400"},"geo_score":0.902,"unit":60,"disposition":"200","cfs":14,"call#":8.006149,"id":"a64sttnk009f","geo_precision":"range","address":"184 Melmore St","state":"OH","juris":"PD"},"type":"Feature","geometry":{"type":"Point","coordinates":[-83.171628,41.10535]}},{"properties":{"officer":"JAD","city":"Tiffin","zip":"44883","date":{"end_time":"2008/02/21 21:11:59 -0500","original":"2/21/2008 9:11:58 PM","granularity":"sec","time":"2008/02/21 21:11:58 -0500"},"geo_score":0.902,"unit":56,"disposition":"200","cfs":14,"call#":8.001842,"id":"a64sttuks99n","geo_precision":"range","address":"184 Melmore St","state":"OH","juris":"PD"},"type":"Feature","geometry":{"type":"Point","coordinates":[-83.171628,41.10535]}},{"properties":{"officer":"JPF","city":"Tiffin","zip":"44883","date":{"end_time":"2008/12/12 20:38:37 -0500","original":"12/12/2008 8:38:36 PM","granularity":"sec","time":"2008/12/12 20:38:36 -0500"},"geo_score":0.902,"unit":59,"disposition":"400","cfs":14,"call#":8.013136,"id":"a64sttuov926","geo_precision":"range","address":"184X S Washington St","state":"OH","juris":"PD"},"type":"Feature","geometry":{"type":"Point","coordinates":[-83.17625,41.112349]}},{"properties":{"officer":"SMM","city":"Tiffin","zip":"44883","date":{"end_time":"2008/11/27 01:09:00 -0500","original":"11/27/2008 1:08:00 AM","granularity":"min","time":"2008/11/27 01:08:00 -0500"},"geo_score":0.756,"unit":59,"disposition":"200","cfs":14,"call#":8.012641,"id":"a64sttpn2u3r","geo_precision":"range","address":"185 First Av","state":"OH","juris":"PD"},"type":"Feature","geometry":{"type":"Point","coordinates":[-83.183361,41.127884]}},{"properties":{"officer":"JPF","city":"Tiffin","zip":"44883","date":{"end_time":"2008/09/07 20:26:44 -0400","original":"9/7/2008 8:26:43 PM","granularity":"sec","time":"2008/09/07 20:26:43 -0400"},"geo_score":0.902,"unit":57,"disposition":"200","cfs":14,"call#":8.009625,"id":"a64sttycll23","geo_precision":"range","address":"186 E Market St,132","state":"OH","juris":"PD"},"type":"Feature","geometry":{"type":"Point","coordinates":[-83.174889,41.11474]}},{"properties":{"officer":"FWS","city":"Tiffin","zip":"44883","date":{"end_time":"2008/06/15 06:02:55 -0400","original":"6/15/2008 6:02:54 AM","granularity":"sec","time":"2008/06/15 06:02:54 -0400"},"geo_score":0.902,"unit":57,"disposition":"400","cfs":14,"call#":8.006168,"id":"a64sttplss6j","geo_precision":"range","address":"186 S Washington St","state":"OH","juris":"PD"},"type":"Feature","geometry":{"type":"Point","coordinates":[-83.176242,41.112289]}},{"properties":{"officer":"RJO","city":"Tiffin","zip":"44883","date":{"end_time":"2008/06/09 09:10:41 -0400","original":"6/9/2008 9:10:40 AM","granularity":"sec","time":"2008/06/09 09:10:40 -0400"},"geo_score":0.902,"unit":57,"disposition":"200","cfs":14,"call#":8.005914,"id":"a64stu0xipoc","geo_precision":"range","address":"186 S Washington St","state":"OH","juris":"PD"},"type":"Feature","geometry":{"type":"Point","coordinates":[-83.176242,41.112289]}},{"properties":{"officer":"SWK","city":"Tiffin","zip":"44883","date":{"end_time":"2008/10/09 18:17:33 -0400","original":"10/9/2008 6:17:32 PM","granularity":"sec","time":"2008/10/09 18:17:32 -0400"},"geo_score":0.902,"unit":61,"disposition":"200","cfs":14,"call#":8.010972,"id":"a64sttrfj9lk","geo_precision":"range","address":"18X Olive St","state":"OH","juris":"PD"},"type":"Feature","geometry":{"type":"Point","coordinates":[-83.178081,41.124266]}},{"properties":{"officer":"JPF","city":"Tiffin","zip":"44883","date":{"end_time":"2008/06/28 20:10:43 -0400","original":"6/28/2008 8:10:42 PM","granularity":"sec","time":"2008/06/28 20:10:42 -0400"},"geo_score":0.902,"unit":57,"disposition":"200","cfs":14,"call#":8.006663,"id":"a64stu1b9tid","geo_precision":"range","address":"192 E Perry St","state":"OH","juris":"PD"},"type":"Feature","geometry":{"type":"Point","coordinates":[-83.172463,41.116218]}},{"properties":{"officer":"JPF","city":"Tiffin","zip":"44883","date":{"end_time":"2008/07/08 03:22:30 -0400","original":"7/8/2008 3:22:29 AM","granularity":"sec","time":"2008/07/08 03:22:29 -0400"},"geo_score":0.902,"unit":58,"disposition":"400","cfs":14,"call#":8.007054,"id":"a64sttujy128","geo_precision":"range","address":"20 Sycamore St","state":"OH","juris":"PD"},"type":"Feature","geometry":{"type":"Point","coordinates":[-83.176099,41.109122]}},{"properties":{"officer":"RJO","city":"Tiffin","zip":"44883","date":{"end_time":"2008/03/19 12:54:16 -0400","original":"3/19/2008 12:54:15 PM","granularity":"sec","time":"2008/03/19 12:54:15 -0400"},"geo_score":0.571,"unit":57,"disposition":"200","cfs":14,"call#":8.00273,"id":"a64sttzjw6gs","geo_precision":"street","address":"20 Towne &amp; Country Dr","state":"OH","juris":"PD"},"type":"Feature","geometry":{"type":"Point","coordinates":[-82.848818,40.961585]}},{"properties":{"officer":"JPF","city":"Tiffin","zip":"44883","date":{"end_time":"2008/09/20 20:54:50 -0400","original":"9/20/2008 8:54:49 PM","granularity":"sec","time":"2008/09/20 20:54:49 -0400"},"geo_score":0.735,"unit":57,"disposition":"100","cfs":14,"call#":8.010247,"id":"a64stto17grs","geo_precision":"street","address":"201 Jefferson St, FRONT","state":"OH","juris":"PD"},"type":"Feature","geometry":{"type":"Point","coordinates":[-83.178754,41.112556]}},{"properties":{"officer":"JAD","city":"Tiffin","zip":"44883","date":{"end_time":"2008/09/04 23:40:28 -0400","original":"9/4/2008 11:40:27 PM","granularity":"sec","time":"2008/09/04 23:40:27 -0400"},"geo_score":0.756,"unit":56,"disposition":"200","cfs":14,"call#":8.009487,"id":"a64sttqjus2l","geo_precision":"range","address":"201 Third Av","state":"OH","juris":"PD"},"type":"Feature","geometry":{"type":"Point","coordinates":[-83.183013,41.129595]}},{"properties":{"officer":"MAM","city":"Tiffin","zip":"44883","date":{"end_time":"2008/04/02 19:50:26 -0400","original":"4/2/2008 7:50:25 PM","granularity":"sec","time":"2008/04/02 19:50:25 -0400"},"geo_score":0.756,"unit":58,"disposition":"200","cfs":14,"call#":8.003291,"id":"a64stu1iyr39","geo_precision":"range","address":"202 Second Av","state":"OH","juris":"PD"},"type":"Feature","geometry":{"type":"Point","coordinates":[-83.183494,41.128735]}},{"properties":{"officer":"AMR","city":"Tiffin","zip":"44883","date":{"end_time":"2008/05/19 18:10:27 -0400","original":"5/19/2008 6:10:26 PM","granularity":"sec","time":"2008/05/19 18:10:26 -0400"},"geo_score":0.902,"unit":63,"disposition":"200","cfs":14,"call#":8.005136,"id":"a64sttn7y48f","geo_precision":"range","address":"204 E Market St,142","state":"OH","juris":"PD"},"type":"Feature","geometry":{"type":"Point","coordinates":[-83.174583,41.114776]}},{"properties":{"officer":"JAD","city":"Tiffin","zip":"44883","date":{"end_time":"2008/06/08 21:56:13 -0400","original":"6/8/2008 9:56:12 PM","granularity":"sec","time":"2008/06/08 21:56:12 -0400"},"geo_score":0.902,"unit":56,"disposition":"400","cfs":14,"call#":8.005901,"id":"a64sttt3y3zj","geo_precision":"range","address":"204 E Market St,344","state":"OH","juris":"PD"},"type":"Feature","geometry":{"type":"Point","coordinates":[-83.16815,41.117077]}},{"properties":{"officer":"RLT","city":"Tiffin","zip":"44883","date":{"end_time":"2008/09/23 12:59:09 -0400","original":"9/23/2008 12:59:08 PM","granularity":"sec","time":"2008/09/23 12:59:08 -0400"},"geo_score":0.756,"unit":58,"disposition":"100","cfs":14,"call#":8.010351,"id":"a64sttsydj8z","geo_precision":"range","address":"204 First Av","state":"OH","juris":"PD"},"type":"Feature","geometry":{"type":"Point","coordinates":[-83.184608,41.127874]}},{"properties":{"officer":"REB","city":"Tiffin","zip":"44883","date":{"end_time":"2008/04/22 15:22:11 -0400","original":"4/22/2008 3:22:10 PM","granularity":"sec","time":"2008/04/22 15:22:10 -0400"},"geo_score":0.756,"unit":63,"disposition":"200","cfs":14,"call#":8.00406,"id":"a64sttxmuzcu","geo_precision":"range","address":"204 First Av","state":"OH","juris":"PD"},"type":"Feature","geometry":{"type":"Point","coordinates":[-83.184608,41.127874]}},{"properties":{"officer":"MEM","city":"Tiffin","zip":"44883","date":{"end_time":"2008/02/02 02:54:40 -0500","original":"2/2/2008 2:54:39 AM","granularity":"sec","time":"2008/02/02 02:54:39 -0500"},"geo_score":0.902,"unit":59,"disposition":"200","cfs":14,"call#":8.001129,"id":"a64stu1gsp7b","geo_precision":"range","address":"205 E Market St","state":"OH","juris":"PD"},"type":"Feature","geometry":{"type":"Point","coordinates":[-83.172198,41.114978]}},{"properties":{"officer":"EDA","city":"Tiffin","zip":"44883","date":{"end_time":"2008/11/22 17:59:56 -0500","original":"11/22/2008 5:59:55 PM","granularity":"sec","time":"2008/11/22 17:59:55 -0500"},"geo_score":0.902,"unit":60,"disposition":"100","cfs":14,"call#":8.012518,"id":"a64sttzc36sj","geo_precision":"range","address":"209 W Perry St","state":"OH","juris":"PD"},"type":"Feature","geometry":{"type":"Point","coordinates":[-83.187696,41.115119]}},{"properties":{"officer":"BAR","city":"Tiffin","zip":"44883","date":{"end_time":"2008/07/29 00:30:38 -0400","original":"7/29/2008 12:30:37 AM","granularity":"sec","time":"2008/07/29 00:30:37 -0400"},"geo_score":0.902,"unit":62,"disposition":"200","cfs":14,"call#":8.007892,"id":"a64sttvdqw3h","geo_precision":"range","address":"21 Ash St","state":"OH","juris":"PD"},"type":"Feature","geometry":{"type":"Point","coordinates":[-83.186046,41.12271]}},{"properties":{"officer":"JMW","city":"Tiffin","zip":"44883","date":{"end_time":"2008/06/02 14:03:29 -0400","original":"6/2/2008 2:03:28 PM","granularity":"sec","time":"2008/06/02 14:03:28 -0400"},"geo_score":0.902,"unit":58,"disposition":"400","cfs":14,"call#":8.00564,"id":"a64sttniyyk3","geo_precision":"range","address":"21 Rosewood Dr","state":"OH","juris":"PD"},"type":"Feature","geometry":{"type":"Point","coordinates":[-83.203181,41.115843]}},{"properties":{"officer":"JSC","city":"Tiffin","zip":"44883","date":{"end_time":"2008/07/29 17:12:38 -0400","original":"7/29/2008 5:12:37 PM","granularity":"sec","time":"2008/07/29 17:12:37 -0400"},"geo_score":0.902,"unit":59,"disposition":"200","cfs":14,"call#":8.007915,"id":"a64sttqt92k7","geo_precision":"range","address":"210 N Washington St","state":"OH","juris":"PD"},"type":"Feature","geometry":{"type":"Point","coordinates":[-83.177997,41.123731]}},{"properties":{"officer":"JAD","city":"Tiffin","zip":"44883","date":{"end_time":"2008/08/01 00:15:28 -0400","original":"8/1/2008 12:15:27 AM","granularity":"sec","time":"2008/08/01 00:15:27 -0400"},"geo_score":0.902,"unit":56,"disposition":"200","cfs":14,"call#":8.00801,"id":"a64stu0gyet4","geo_precision":"range","address":"210X S Washington St","state":"OH","juris":"PD"},"type":"Feature","geometry":{"type":"Point","coordinates":[-83.176151,41.111561]}},{"properties":{"officer":"RJO","city":"Tiffin","zip":"44883","date":{"end_time":"2008/07/09 15:24:24 -0400","original":"7/9/2008 3:24:23 PM","granularity":"sec","time":"2008/07/09 15:24:23 -0400"},"geo_score":0.902,"unit":57,"disposition":"200","cfs":14,"call#":8.007115,"id":"a64sttxj3hae","geo_precision":"range","address":"212 E Perry St","state":"OH","juris":"PD"},"type":"Feature","geometry":{"type":"Point","coordinates":[-83.17211,41.11626]}},{"properties":{"officer":"DES","city":"Tiffin","zip":"44883","date":{"end_time":"2008/06/20 19:41:13 -0400","original":"6/20/2008 7:41:12 PM","granularity":"sec","time":"2008/06/20 19:41:12 -0400"},"geo_score":0.902,"unit":62,"disposition":"200","cfs":14,"call#":8.006357,"id":"a64stu0bh8hb","geo_precision":"range","address":"212 E Perry St","state":"OH","juris":"PD"},"type":"Feature","geometry":{"type":"Point","coordinates":[-83.17211,41.11626]}},{"properties":{"officer":"JSC","city":"Tiffin","zip":"44883","date":{"end_time":"2008/04/11 18:09:46 -0400","original":"4/11/2008 6:09:45 PM","granularity":"sec","time":"2008/04/11 18:09:45 -0400"},"geo_score":0.902,"unit":62,"disposition":"200","cfs":14,"call#":8.003605,"id":"a64stty84mvv","geo_precision":"range","address":"212 E Perry St","state":"OH","juris":"PD"},"type":"Feature","geometry":{"type":"Point","coordinates":[-83.17211,41.11626]}},{"properties":{"officer":"JPF","city":"Tiffin","zip":"44883","date":{"end_time":"2008/01/14 20:40:56 -0500","original":"1/14/2008 8:40:55 PM","granularity":"sec","time":"2008/01/14 20:40:55 -0500"},"geo_score":0.902,"unit":62,"disposition":"200","cfs":14,"call#":8.000524,"id":"a64stu2dziyh","geo_precision":"range","address":"216 S Washington St","state":"OH","juris":"PD"},"type":"Feature","geometry":{"type":"Point","coordinates":[-83.176128,41.111379]}},{"properties":{"officer":"DGH","city":"Tiffin","zip":"44883","date":{"end_time":"2008/11/12 12:18:12 -0500","original":"11/12/2008 12:18:11 PM","granularity":"sec","time":"2008/11/12 12:18:11 -0500"},"geo_score":0.756,"unit":59,"disposition":"200","cfs":14,"call#":8.012188,"id":"a64sttyih47h","geo_precision":"range","address":"217 Fourth Av","state":"OH","juris":"PD"},"type":"Feature","geometry":{"type":"Point","coordinates":[-83.182988,41.130462]}},{"properties":{"officer":"RLT","city":"Tiffin","zip":"44883","date":{"end_time":"2008/11/11 15:38:51 -0500","original":"11/11/2008 3:38:50 PM","granularity":"sec","time":"2008/11/11 15:38:50 -0500"},"geo_score":0.756,"unit":58,"disposition":"200","cfs":14,"call#":8.012167,"id":"a64sttmwkz6v","geo_precision":"range","address":"217 Fourth Av","state":"OH","juris":"PD"},"type":"Feature","geometry":{"type":"Point","coordinates":[-83.182988,41.130462]}},{"properties":{"officer":"JSC","city":"Tiffin","zip":"44883","date":{"end_time":"2008/11/09 15:16:42 -0500","original":"11/9/2008 3:16:41 PM","granularity":"sec","time":"2008/11/09 15:16:41 -0500"},"geo_score":0.756,"unit":59,"disposition":"400","cfs":14,"call#":8.012106,"id":"a64sttmrfxin","geo_precision":"range","address":"217 Fourth Av","state":"OH","juris":"PD"},"type":"Feature","geometry":{"type":"Point","coordinates":[-83.182988,41.130462]}},{"properties":{"officer":"AMR","city":"Tiffin","zip":"44883","date":{"end_time":"2008/09/08 17:34:04 -0400","original":"9/8/2008 5:34:03 PM","granularity":"sec","time":"2008/09/08 17:34:03 -0400"},"geo_score":0.756,"unit":63,"disposition":"200","cfs":14,"call#":8.009659,"id":"a64sttnhjovo","geo_precision":"range","address":"217 Fourth Av","state":"OH","juris":"PD"},"type":"Feature","geometry":{"type":"Point","coordinates":[-83.182988,41.130462]}},{"properties":{"officer":"LMK","city":"Tiffin","zip":"44883","date":{"end_time":"2008/07/06 01:03:09 -0400","original":"7/6/2008 1:03:08 AM","granularity":"sec","time":"2008/07/06 01:03:08 -0400"},"geo_score":0.902,"unit":58,"disposition":"100","cfs":14,"call#":8.006974,"id":"a64stttxzug5","geo_precision":"range","address":"217 N Sandusky St","state":"OH","juris":"PD"},"type":"Feature","geometry":{"type":"Point","coordinates":[-83.178921,41.125141]}},{"properties":{"officer":"JMW","city":"Tiffin","zip":"44883","date":{"end_time":"2008/05/18 16:04:28 -0400","original":"5/18/2008 4:04:27 PM","granularity":"sec","time":"2008/05/18 16:04:27 -0400"},"geo_score":0.902,"unit":60,"disposition":"400","cfs":14,"call#":8.005102,"id":"a64sttrh9pkq","geo_precision":"range","address":"217 N Sandusky St","state":"OH","juris":"PD"},"type":"Feature","geometry":{"type":"Point","coordinates":[-83.178921,41.125141]}},{"properties":{"officer":"MEM","city":"Tiffin","zip":"44883","date":{"end_time":"2008/10/29 21:37:03 -0400","original":"10/29/2008 9:37:02 PM","granularity":"sec","time":"2008/10/29 21:37:02 -0400"},"geo_score":0.815,"unit":57,"disposition":"100","cfs":14,"call#":8.011702,"id":"a64stu1ofw25","geo_precision":"range","address":"22 Melissa St","state":"OH","juris":"PD"},"type":"Feature","geometry":{"type":"Point","coordinates":[-83.191777,41.113283]}},{"properties":{"officer":"JAD","city":"Tiffin","zip":"44883","date":{"end_time":"2008/06/12 21:43:50 -0400","original":"6/12/2008 9:43:49 PM","granularity":"sec","time":"2008/06/12 21:43:49 -0400"},"geo_score":0.902,"unit":56,"disposition":"400","cfs":14,"call#":8.006067,"id":"a64sttwsdefm","geo_precision":"range","address":"22 Rebecca St","state":"OH","juris":"PD"},"type":"Feature","geometry":{"type":"Point","coordinates":[-83.170488,41.11302]}},{"properties":{"officer":"BRB","city":"Tiffin","zip":"44883","date":{"end_time":"2008/02/06 21:04:31 -0500","original":"2/6/2008 9:04:30 PM","granularity":"sec","time":"2008/02/06 21:04:30 -0500"},"geo_score":0.756,"unit":60,"disposition":"200","cfs":14,"call#":8.001306,"id":"a64sttoj4afj","geo_precision":"range","address":"222 Second Av","state":"OH","juris":"PD"},"type":"Feature","geometry":{"type":"Point","coordinates":[-83.184046,41.128726]}},{"properties":{"officer":"JPF","city":"Tiffin","zip":"44883","date":{"end_time":"2008/01/04 20:49:29 -0500","original":"1/4/2008 8:49:28 PM","granularity":"sec","time":"2008/01/04 20:49:28 -0500"},"geo_score":0.756,"unit":62,"disposition":"200","cfs":14,"call#":8.000133,"id":"a64sttqufscr","geo_precision":"range","address":"222 Second Av","state":"OH","juris":"PD"},"type":"Feature","geometry":{"type":"Point","coordinates":[-83.184046,41.128726]}},{"properties":{"officer":"RJO","city":"Tiffin","zip":"44883","date":{"end_time":"2008/06/18 16:07:17 -0400","original":"6/18/2008 4:07:16 PM","granularity":"sec","time":"2008/06/18 16:07:16 -0400"},"geo_score":0.902,"unit":57,"disposition":"200","cfs":14,"call#":8.006275,"id":"a64sttwz3ec3","geo_precision":"range","address":"226 Tomb St","state":"OH","juris":"PD"},"type":"Feature","geometry":{"type":"Point","coordinates":[-83.167844,41.128809]}},{"properties":{"officer":"BAR","city":"Tiffin","zip":"44883","date":{"end_time":"2008/09/02 01:08:19 -0400","original":"9/2/2008 1:08:18 AM","granularity":"sec","time":"2008/09/02 01:08:18 -0400"},"geo_score":0.902,"unit":1028,"disposition":"230","cfs":14,"call#":8.009374,"id":"a64sttymnynz","geo_precision":"range","address":"228 W Perry St","state":"OH","juris":"PD"},"type":"Feature","geometry":{"type":"Point","coordinates":[-83.188747,41.115204]}},{"properties":{"officer":"JAD","city":"Tiffin","zip":"44883","date":{"end_time":"2008/04/12 22:31:04 -0400","original":"4/12/2008 10:31:03 PM","granularity":"sec","time":"2008/04/12 22:31:03 -0400"},"geo_score":0.902,"unit":56,"disposition":"100","cfs":14,"call#":8.003679,"id":"a64sttzxz8ue","geo_precision":"range","address":"228 W Perry St","state":"OH","juris":"PD"},"type":"Feature","geometry":{"type":"Point","coordinates":[-83.188747,41.115204]}},{"properties":{"officer":"DES","city":"Tiffin","zip":"44883","date":{"end_time":"2008/09/11 00:47:30 -0400","original":"9/11/2008 12:47:29 AM","granularity":"sec","time":"2008/09/11 00:47:29 -0400"},"geo_score":0.873,"unit":62,"disposition":"100","cfs":14,"call#":8.009762,"id":"a64sttnsckgw","geo_precision":"range","address":"229 Clinton Av","state":"OH","juris":"PD"},"type":"Feature","geometry":{"type":"Point","coordinates":[-83.168359,41.122579]}},{"properties":{"officer":"REB","city":"Tiffin","zip":"44883","date":{"end_time":"2008/05/12 12:31:48 -0400","original":"5/12/2008 12:31:47 PM","granularity":"sec","time":"2008/05/12 12:31:47 -0400"},"geo_score":0.902,"unit":63,"disposition":"200","cfs":14,"call#":8.004869,"id":"a64sttxtb03l","geo_precision":"range","address":"23 Avery St","state":"OH","juris":"PD"},"type":"Feature","geometry":{"type":"Point","coordinates":[-83.178598,41.112233]}},{"properties":{"officer":"EDA","city":"Tiffin","zip":"44883","date":{"end_time":"2008/12/22 18:32:51 -0500","original":"12/22/2008 6:32:50 PM","granularity":"sec","time":"2008/12/22 18:32:50 -0500"},"geo_score":0.902,"unit":58,"disposition":"200","cfs":14,"call#":8.013435,"id":"a64stts1pfcp","geo_precision":"range","address":"23 Elwood St","state":"OH","juris":"PD"},"type":"Feature","geometry":{"type":"Point","coordinates":[-83.172248,41.125284]}},{"properties":{"officer":"SGN","city":"Tiffin","zip":"44883","date":{"end_time":"2008/10/08 16:50:06 -0400","original":"10/8/2008 4:50:05 PM","granularity":"sec","time":"2008/10/08 16:50:05 -0400"},"geo_score":0.854,"unit":62,"disposition":"200","cfs":14,"call#":8.010938,"id":"a64sttwnkghk","geo_precision":"range","address":"236 Elm Av","state":"OH","juris":"PD"},"type":"Feature","geometry":{"type":"Point","coordinates":[-83.162177,41.123999]}},{"properties":{"officer":"MAM","city":"Tiffin","zip":"44883","date":{"end_time":"2008/09/26 17:56:36 -0400","original":"9/26/2008 5:56:35 PM","granularity":"sec","time":"2008/09/26 17:56:35 -0400"},"geo_score":0.902,"unit":58,"disposition":"400","cfs":14,"call#":8.010485,"id":"a64sttme0zax","geo_precision":"range","address":"236 Hall St","state":"OH","juris":"PD"},"type":"Feature","geometry":{"type":"Point","coordinates":[-83.185617,41.123538]}},{"properties":{"officer":"RLT","city":"Tiffin","zip":"44883","date":{"end_time":"2008/09/22 15:50:58 -0400","original":"9/22/2008 3:50:57 PM","granularity":"sec","time":"2008/09/22 15:50:57 -0400"},"geo_score":0.902,"unit":58,"disposition":"200","cfs":14,"call#":8.010319,"id":"a64stu0ui4iz","geo_precision":"range","address":"236 Jefferson St","state":"OH","juris":"PD"},"type":"Feature","geometry":{"type":"Point","coordinates":[-83.174386,41.111094]}},{"properties":{"officer":"FWS","city":"Tiffin","zip":"44883","date":{"end_time":"2008/03/08 09:47:54 -0500","original":"3/8/2008 9:47:53 AM","granularity":"sec","time":"2008/03/08 09:47:53 -0500"},"geo_score":0.902,"unit":59,"disposition":"450","cfs":14,"call#":8.002385,"id":"a64sttybar91","geo_precision":"range","address":"24 Apple St","state":"OH","juris":"PD"},"type":"Feature","geometry":{"type":"Point","coordinates":[-83.179644,41.124662]}},{"properties":{"officer":"FWS","city":"Tiffin","zip":"44883","date":{"end_time":"2008/10/04 15:10:02 -0400","original":"10/4/2008 3:10:01 PM","granularity":"sec","time":"2008/10/04 15:10:01 -0400"},"geo_score":0.902,"unit":57,"disposition":"200","cfs":14,"call#":8.010803,"id":"a64sttnikxho","geo_precision":"range","address":"24 Minerva St","state":"OH","juris":"PD"},"type":"Feature","geometry":{"type":"Point","coordinates":[-83.175974,41.121147]}},{"properties":{"officer":"PJD","city":"Tiffin","zip":"44883","date":{"end_time":"2008/10/27 21:46:39 -0400","original":"10/27/2008 9:46:38 PM","granularity":"sec","time":"2008/10/27 21:46:38 -0400"},"geo_score":0.902,"unit":62,"disposition":"200","cfs":14,"call#":8.011637,"id":"a64sttowi9n1","geo_precision":"range","address":"24 Penn St","state":"OH","juris":"PD"},"type":"Feature","geometry":{"type":"Point","coordinates":[-83.164689,41.117395]}},{"properties":{"officer":"AMR","city":"Tiffin","zip":"44883","date":{"end_time":"2008/11/19 19:31:35 -0500","original":"11/19/2008 7:31:34 PM","granularity":"sec","time":"2008/11/19 19:31:34 -0500"},"geo_score":0.902,"unit":63,"disposition":"200","cfs":14,"call#":8.012424,"id":"a64sttn7ubn6","geo_precision":"range","address":"240 Circular St","state":"OH","juris":"PD"},"type":"Feature","geometry":{"type":"Point","coordinates":[-83.169382,41.109145]}},{"properties":{"officer":"DGH","city":"Tiffin","zip":"44883","date":{"end_time":"2008/02/12 15:37:54 -0500","original":"2/12/2008 3:37:53 PM","granularity":"sec","time":"2008/02/12 15:37:53 -0500"},"geo_score":0.902,"unit":59,"disposition":"200","cfs":14,"call#":8.001513,"id":"a64stu1iz99t","geo_precision":"range","address":"2400 W Market St","state":"OH","juris":"PD"},"type":"Feature","geometry":{"type":"Point","coordinates":[-83.216626,41.109556]}},{"properties":{"officer":"SMM","city":"Tiffin","zip":"44883","date":{"end_time":"2008/01/26 09:18:48 -0500","original":"1/26/2008 9:18:47 AM","granularity":"sec","time":"2008/01/26 09:18:47 -0500"},"geo_score":0.902,"unit":59,"disposition":"200","cfs":14,"call#":8.000896,"id":"a64stty4qp20","geo_precision":"range","address":"2400 W Market St","state":"OH","juris":"PD"},"type":"Feature","geometry":{"type":"Point","coordinates":[-83.216626,41.109556]}},{"properties":{"officer":"EDA","city":"Tiffin","zip":"44883","date":{"end_time":"2008/08/01 19:23:00 -0400","original":"8/1/2008 7:22:00 PM","granularity":"min","time":"2008/08/01 19:22:00 -0400"},"geo_score":0.585,"unit":60,"disposition":"200","cfs":14,"call#":8.008041,"id":"a64sttvvn0j9","geo_precision":"zip","address":"241 7 Av","state":"OH","juris":"PD"},"type":"Feature","geometry":{"type":"Point","coordinates":[-83.225755,41.214776]}},{"properties":{"officer":"SWK","city":"Tiffin","zip":"44883","date":{"end_time":"2008/04/17 19:58:48 -0400","original":"4/17/2008 7:58:47 PM","granularity":"sec","time":"2008/04/17 19:58:47 -0400"},"geo_score":0.902,"unit":61,"disposition":"200","cfs":14,"call#":8.003859,"id":"a64sttn9yne7","geo_precision":"range","address":"241 Hedges St","state":"OH","juris":"PD"},"type":"Feature","geometry":{"type":"Point","coordinates":[-83.167767,41.110354]}},{"properties":{"officer":"FWS","city":"Tiffin","zip":"44883","date":{"end_time":"2008/03/08 15:54:15 -0500","original":"3/8/2008 3:54:14 PM","granularity":"sec","time":"2008/03/08 15:54:14 -0500"},"geo_score":0.902,"unit":59,"disposition":"400","cfs":14,"call#":8.00239,"id":"a64sttq9igh4","geo_precision":"range","address":"243 N Sandusky St","state":"OH","juris":"PD"},"type":"Feature","geometry":{"type":"Point","coordinates":[-83.178497,41.125732]}},{"properties":{"officer":"SMM","city":"Tiffin","zip":"44883","date":{"end_time":"2008/04/24 16:24:47 -0400","original":"4/24/2008 4:24:46 PM","granularity":"sec","time":"2008/04/24 16:24:46 -0400"},"geo_score":0.902,"unit":58,"disposition":"200","cfs":14,"call#":8.004131,"id":"a64sttqdvsm0","geo_precision":"range","address":"244 N Washington St","state":"OH","juris":"PD"},"type":"Feature","geometry":{"type":"Point","coordinates":[-83.178142,41.12462]}},{"properties":{"officer":"LMK","city":"Tiffin","zip":"44883","date":{"end_time":"2008/07/01 21:32:37 -0400","original":"7/1/2008 9:32:36 PM","granularity":"sec","time":"2008/07/01 21:32:36 -0400"},"geo_score":0.902,"unit":59,"disposition":"200","cfs":14,"call#":8.006797,"id":"a64sttyeq5l4","geo_precision":"range","address":"245 Ella St","state":"OH","juris":"PD"},"type":"Feature","geometry":{"type":"Point","coordinates":[-83.190564,41.103806]}},{"properties":{"officer":"BAR","city":"Tiffin","zip":"44883","date":{"end_time":"2008/09/09 05:52:59 -0400","original":"9/9/2008 5:52:58 AM","granularity":"sec","time":"2008/09/09 05:52:58 -0400"},"geo_score":0.902,"unit":59,"disposition":"200","cfs":14,"call#":8.009678,"id":"a64sttsbcwec","geo_precision":"range","address":"247 S Sandusky St","state":"OH","juris":"PD"},"type":"Feature","geometry":{"type":"Point","coordinates":[-83.186688,41.113627]}},{"properties":{"officer":"JSC","city":"Tiffin","zip":"44883","date":{"end_time":"2008/10/07 18:13:09 -0400","original":"10/7/2008 6:13:08 PM","granularity":"sec","time":"2008/10/07 18:13:08 -0400"},"geo_score":0.902,"unit":59,"disposition":"200","cfs":14,"call#":8.010909,"id":"a64sttucooub","geo_precision":"range","address":"249 N Washington St","state":"OH","juris":"PD"},"type":"Feature","geometry":{"type":"Point","coordinates":[-83.17814,41.124605]}},{"properties":{"officer":"EDA","city":"Tiffin","zip":"44883","date":{"end_time":"2008/08/11 20:41:15 -0400","original":"8/11/2008 8:41:14 PM","granularity":"sec","time":"2008/08/11 20:41:14 -0400"},"geo_score":0.902,"unit":60,"disposition":"200","cfs":14,"call#":8.00845,"id":"a64sttool8t6","geo_precision":"range","address":"24X Miami St","state":"OH","juris":"PD"},"type":"Feature","geometry":{"type":"Point","coordinates":[-83.180098,41.117058]}},{"properties":{"officer":"RLT","city":"Tiffin","zip":"44883","date":{"end_time":"2008/05/24 02:17:52 -0400","original":"5/24/2008 2:17:51 AM","granularity":"sec","time":"2008/05/24 02:17:51 -0400"},"geo_score":0.902,"unit":61,"disposition":"400","cfs":14,"call#":8.005292,"id":"a64sttqfdx2w","geo_precision":"range","address":"24X Sycamore St","state":"OH","juris":"PD"},"type":"Feature","geometry":{"type":"Point","coordinates":[-83.176169,41.109015]}},{"properties":{"officer":"SMM","city":"Tiffin","zip":"44883","date":{"end_time":"2008/11/20 22:23:07 -0500","original":"11/20/2008 10:23:06 PM","granularity":"sec","time":"2008/11/20 22:23:06 -0500"},"geo_score":0.902,"unit":58,"disposition":"230","cfs":14,"call#":8.012453,"id":"a64sttnolr5k","geo_precision":"range","address":"25 E Market St","state":"OH","juris":"PD"},"type":"Feature","geometry":{"type":"Point","coordinates":[-83.179017,41.114372]}},{"properties":{"officer":"MEM","city":"Tiffin","zip":"44883","date":{"end_time":"2008/08/24 02:14:49 -0400","original":"8/24/2008 2:14:48 AM","granularity":"sec","time":"2008/08/24 02:14:48 -0400"},"geo_score":0.902,"unit":57,"disposition":"200","cfs":14,"call#":8.008973,"id":"a64stu18roys","geo_precision":"range","address":"25 E Market St","state":"OH","juris":"PD"},"type":"Feature","geometry":{"type":"Point","coordinates":[-83.179017,41.114372]}},{"properties":{"officer":"DES","city":"Tiffin","zip":"44883","date":{"end_time":"2008/04/18 19:46:45 -0400","original":"4/18/2008 7:46:44 PM","granularity":"sec","time":"2008/04/18 19:46:44 -0400"},"geo_score":0.902,"unit":63,"disposition":"200","cfs":14,"call#":8.003912,"id":"a64sttwgg1aq","geo_precision":"range","address":"25 E Market St","state":"OH","juris":"PD"},"type":"Feature","geometry":{"type":"Point","coordinates":[-83.179017,41.114372]}},{"properties":{"officer":"JAD","city":"Tiffin","zip":"44883","date":{"end_time":"2008/02/23 00:07:06 -0500","original":"2/23/2008 12:07:05 AM","granularity":"sec","time":"2008/02/23 00:07:05 -0500"},"geo_score":0.902,"unit":56,"disposition":"200","cfs":14,"call#":8.001883,"id":"a64sttx1y25x","geo_precision":"range","address":"25 E Market St","state":"OH","juris":"PD"},"type":"Feature","geometry":{"type":"Point","coordinates":[-83.179017,41.114372]}},{"properties":{"officer":"SWK","city":"Tiffin","zip":"44883","date":{"end_time":"2008/02/13 20:09:12 -0500","original":"2/13/2008 8:09:11 PM","granularity":"sec","time":"2008/02/13 20:09:11 -0500"},"geo_score":0.902,"unit":61,"disposition":"200","cfs":14,"call#":8.00156,"id":"a64sttr3kk0a","geo_precision":"range","address":"25 E Market St","state":"OH","juris":"PD"},"type":"Feature","geometry":{"type":"Point","coordinates":[-83.179017,41.114372]}},{"properties":{"officer":"GTM","city":"Tiffin","zip":"44883","date":{"end_time":"2008/04/05 05:43:20 -0400","original":"4/5/2008 5:43:19 AM","granularity":"sec","time":"2008/04/05 05:43:19 -0400"},"geo_score":0.902,"unit":57,"disposition":"200","cfs":14,"call#":8.003383,"id":"a64stts75icy","geo_precision":"range","address":"25 E Market St,9","state":"OH","juris":"PD"},"type":"Feature","geometry":{"type":"Point","coordinates":[-83.179378,41.11433]}},{"properties":{"officer":"GTM","city":"Tiffin","zip":"44883","date":{"end_time":"2008/04/05 04:57:34 -0400","original":"4/5/2008 4:57:33 AM","granularity":"sec","time":"2008/04/05 04:57:33 -0400"},"geo_score":0.902,"unit":57,"disposition":"200","cfs":14,"call#":8.003382,"id":"a64stu0psd1f","geo_precision":"range","address":"25 E Market St,9","state":"OH","juris":"PD"},"type":"Feature","geometry":{"type":"Point","coordinates":[-83.179378,41.11433]}},{"properties":{"officer":"REB","city":"Tiffin","zip":"44883","date":{"end_time":"2008/01/08 16:50:17 -0500","original":"1/8/2008 4:50:16 PM","granularity":"sec","time":"2008/01/08 16:50:16 -0500"},"geo_score":0.873,"unit":63,"disposition":"400","cfs":14,"call#":8.00028,"id":"a64sttwz21u7","geo_precision":"range","address":"25 Lindsay Av","state":"OH","juris":"PD"},"type":"Feature","geometry":{"type":"Point","coordinates":[-83.193383,41.112795]}},{"properties":{"officer":"DES","city":"Tiffin","zip":"44883","date":{"end_time":"2008/06/24 19:26:07 -0400","original":"6/24/2008 7:26:06 PM","granularity":"sec","time":"2008/06/24 19:26:06 -0400"},"geo_score":0.902,"unit":62,"disposition":"200","cfs":14,"call#":8.006494,"id":"a64sttmz2bwz","geo_precision":"range","address":"25 St Clair St","state":"OH","juris":"PD"},"type":"Feature","geometry":{"type":"Point","coordinates":[-83.18157,41.113939]}},{"properties":{"officer":"BAR","city":"Tiffin","zip":"44883","date":{"end_time":"2008/06/12 11:43:09 -0400","original":"6/12/2008 11:43:08 AM","granularity":"sec","time":"2008/06/12 11:43:08 -0400"},"geo_score":0.902,"unit":60,"disposition":"200","cfs":14,"call#":8.00604,"id":"a64stu273hhc","geo_precision":"range","address":"25 W Davis St","state":"OH","juris":"PD"},"type":"Feature","geometry":{"type":"Point","coordinates":[-83.178607,41.126084]}},{"properties":{"officer":"JMW","city":"Tiffin","zip":"44883","date":{"end_time":"2008/11/09 15:45:48 -0500","original":"11/9/2008 3:45:47 PM","granularity":"sec","time":"2008/11/09 15:45:47 -0500"},"geo_score":0.756,"unit":62,"disposition":"200","cfs":14,"call#":8.012107,"id":"a64sttyomoz7","geo_precision":"range","address":"253 Fourth Av","state":"OH","juris":"PD"},"type":"Feature","geometry":{"type":"Point","coordinates":[-83.183979,41.130447]}},{"properties":{"officer":"GTM","city":"Tiffin","zip":"44883","date":{"end_time":"2008/08/16 15:19:14 -0400","original":"8/16/2008 3:19:13 PM","granularity":"sec","time":"2008/08/16 15:19:13 -0400"},"geo_score":0.756,"unit":60,"disposition":"400","cfs":14,"call#":8.008641,"id":"a64sttr45s3e","geo_precision":"range","address":"253 Fourth Av","state":"OH","juris":"PD"},"type":"Feature","geometry":{"type":"Point","coordinates":[-83.183979,41.130447]}},{"properties":{"officer":"MAM","city":"Tiffin","zip":"44883","date":{"end_time":"2008/09/24 17:32:46 -0400","original":"9/24/2008 5:32:45 PM","granularity":"sec","time":"2008/09/24 17:32:45 -0400"},"geo_score":0.902,"unit":58,"disposition":"100","cfs":14,"call#":8.010413,"id":"a64stu1xrvbk","geo_precision":"range","address":"255 Riverside Dr","state":"OH","juris":"PD"},"type":"Feature","geometry":{"type":"Point","coordinates":[-83.171562,41.122593]}},{"properties":{"officer":"JPF","city":"Tiffin","zip":"44883","date":{"end_time":"2008/07/18 23:58:21 -0400","original":"7/18/2008 11:58:20 PM","granularity":"sec","time":"2008/07/18 23:58:20 -0400"},"geo_score":0.756,"unit":57,"disposition":"200","cfs":14,"call#":8.007504,"id":"a64stu2a77ax","geo_precision":"range","address":"255 Second Av","state":"OH","juris":"PD"},"type":"Feature","geometry":{"type":"Point","coordinates":[-83.185276,41.128714]}},{"properties":{"officer":"MAM","city":"Tiffin","zip":"44883","date":{"end_time":"2008/07/18 18:33:13 -0400","original":"7/18/2008 6:33:12 PM","granularity":"sec","time":"2008/07/18 18:33:12 -0400"},"geo_score":0.756,"unit":58,"disposition":"400","cfs":14,"call#":8.007494,"id":"a64sttw4ezpp","geo_precision":"range","address":"255 Second Av","state":"OH","juris":"PD"},"type":"Feature","geometry":{"type":"Point","coordinates":[-83.185276,41.128714]}},{"properties":{"officer":"JPF","city":"Tiffin","zip":"44883","date":{"end_time":"2008/11/13 20:55:32 -0500","original":"11/13/2008 8:55:31 PM","granularity":"sec","time":"2008/11/13 20:55:31 -0500"},"geo_score":0.902,"unit":57,"disposition":"400","cfs":14,"call#":8.012229,"id":"a64sttyoa9sn","geo_precision":"range","address":"26 Tomb St","state":"OH","juris":"PD"},"type":"Feature","geometry":{"type":"Point","coordinates":[-83.1752,41.128735]}},{"properties":{"officer":"BAR","city":"Tiffin","zip":"44883","date":{"end_time":"2008/07/14 21:45:33 -0400","original":"7/14/2008 9:45:32 PM","granularity":"sec","time":"2008/07/14 21:45:32 -0400"},"geo_score":0.902,"unit":57,"disposition":"200","cfs":14,"call#":8.007327,"id":"a64sttn79rgt","geo_precision":"range","address":"261 W Perry St","state":"OH","juris":"PD"},"type":"Feature","geometry":{"type":"Point","coordinates":[-83.189662,41.115055]}},{"properties":{"officer":"LMK","city":"Tiffin","zip":"44883","date":{"end_time":"2008/07/01 01:59:49 -0400","original":"7/1/2008 1:59:48 AM","granularity":"sec","time":"2008/07/01 01:59:48 -0400"},"geo_score":0.902,"unit":59,"disposition":"200","cfs":14,"call#":8.006765,"id":"a64sttx0lzaw","geo_precision":"range","address":"265 N Washington St","state":"OH","juris":"PD"},"type":"Feature","geometry":{"type":"Point","coordinates":[-83.178186,41.124992]}},{"properties":{"officer":"PJD","city":"Tiffin","zip":"44883","date":{"end_time":"2008/05/22 00:26:20 -0400","original":"5/22/2008 12:26:19 AM","granularity":"sec","time":"2008/05/22 00:26:19 -0400"},"geo_score":0.902,"unit":61,"disposition":"100","cfs":14,"call#":8.005192,"id":"a64stu1h5k0w","geo_precision":"range","address":"266 S Washington St","state":"OH","juris":"PD"},"type":"Feature","geometry":{"type":"Point","coordinates":[-83.175874,41.11022]}},{"properties":{"officer":"JMW","city":"Tiffin","zip":"44883","date":{"end_time":"2008/09/08 10:20:52 -0400","original":"9/8/2008 10:20:51 AM","granularity":"sec","time":"2008/09/08 10:20:51 -0400"},"geo_score":0.902,"unit":59,"disposition":"200","cfs":14,"call#":8.009642,"id":"a64sttpsmsak","geo_precision":"range","address":"269 W Market St","state":"OH","juris":"PD"},"type":"Feature","geometry":{"type":"Point","coordinates":[-83.189762,41.113302]}},{"properties":{"officer":"GTM","city":"Tiffin","zip":"44883","date":{"end_time":"2008/03/15 04:25:40 -0400","original":"3/15/2008 4:25:39 AM","granularity":"sec","time":"2008/03/15 04:25:39 -0400"},"geo_score":0.902,"unit":61,"disposition":"400","cfs":14,"call#":8.002607,"id":"a64sttq86cc2","geo_precision":"range","address":"27 Harrison St","state":"OH","juris":"PD"},"type":"Feature","geometry":{"type":"Point","coordinates":[-83.176761,41.120429]}},{"properties":{"officer":"JAD","city":"Tiffin","zip":"44883","date":{"end_time":"2008/11/01 00:16:08 -0400","original":"11/1/2008 12:16:07 AM","granularity":"sec","time":"2008/11/01 00:16:07 -0400"},"geo_score":0.902,"unit":56,"disposition":"200","cfs":14,"call#":8.011783,"id":"a64stto7i073","geo_precision":"range","address":"271 S Sandusky St","state":"OH","juris":"PD"},"type":"Feature","geometry":{"type":"Point","coordinates":[-83.18747,41.112579]}},{"properties":{"officer":"GTM","city":"Tiffin","zip":"44883","date":{"end_time":"2008/11/05 11:10:39 -0500","original":"11/5/2008 11:10:38 AM","granularity":"sec","time":"2008/11/05 11:10:38 -0500"},"geo_score":0.902,"unit":58,"disposition":"200","cfs":14,"call#":8.011948,"id":"a64stu1oyu7a","geo_precision":"range","address":"277 Wall St","state":"OH","juris":"PD"},"type":"Feature","geometry":{"type":"Point","coordinates":[-83.186726,41.122545]}},{"properties":{"officer":"LMK","city":"Tiffin","zip":"44883","date":{"end_time":"2008/09/21 05:31:45 -0400","original":"9/21/2008 5:31:44 AM","granularity":"sec","time":"2008/09/21 05:31:44 -0400"},"geo_score":0.902,"unit":61,"disposition":"450","cfs":14,"call#":8.010284,"id":"a64stu0e9s4x","geo_precision":"range","address":"27X Jackson St","state":"OH","juris":"PD"},"type":"Feature","geometry":{"type":"Point","coordinates":[-83.188022,41.114282]}},{"properties":{"officer":"MEM","city":"Tiffin","zip":"44883","date":{"end_time":"2008/09/24 20:00:04 -0400","original":"9/24/2008 8:00:03 PM","granularity":"sec","time":"2008/09/24 20:00:03 -0400"},"geo_score":0.902,"unit":57,"disposition":"200","cfs":14,"call#":8.010422,"id":"a64sttzky88s","geo_precision":"range","address":"28 Grandview Ct","state":"OH","juris":"PD"},"type":"Feature","geometry":{"type":"Point","coordinates":[-83.165651,41.101724]}},{"properties":{"officer":"MAM","city":"Tiffin","zip":"44883","date":{"end_time":"2008/09/25 20:14:00 -0400","original":"9/25/2008 8:13:59 PM","granularity":"sec","time":"2008/09/25 20:13:59 -0400"},"geo_score":0.582,"unit":58,"disposition":"400","cfs":14,"call#":8.010451,"id":"a64sttz6wkn3","geo_precision":"street","address":"2801 W Sr 18","state":"OH","juris":"PD"},"type":"Feature","geometry":{"type":"Point","coordinates":[-83.278292,41.108823]}},{"properties":{"officer":"DES","city":"Tiffin","zip":"44883","date":{"end_time":"2008/04/16 18:28:29 -0400","original":"4/16/2008 6:28:28 PM","granularity":"sec","time":"2008/04/16 18:28:28 -0400"},"geo_score":0.582,"unit":63,"disposition":"200","cfs":14,"call#":8.003818,"id":"a64sttyrm72g","geo_precision":"street","address":"2801 W Sr 18","state":"OH","juris":"PD"},"type":"Feature","geometry":{"type":"Point","coordinates":[-83.278292,41.108823]}},{"properties":{"officer":"JSC","city":"Tiffin","zip":"44883","date":{"end_time":"2008/09/29 17:34:46 -0400","original":"9/29/2008 5:34:45 PM","granularity":"sec","time":"2008/09/29 17:34:45 -0400"},"geo_score":0.902,"unit":59,"disposition":"200","cfs":14,"call#":8.010622,"id":"a64stty14y4l","geo_precision":"range","address":"284 N Washington St","state":"OH","juris":"PD"},"type":"Feature","geometry":{"type":"Point","coordinates":[-83.178246,41.125507]}},{"properties":{"officer":"SWK","city":"Tiffin","zip":"44883","date":{"end_time":"2008/02/06 18:12:17 -0500","original":"2/6/2008 6:12:16 PM","granularity":"sec","time":"2008/02/06 18:12:16 -0500"},"geo_score":0.756,"unit":61,"disposition":"200","cfs":14,"call#":8.001303,"id":"a64stty5q6sx","geo_precision":"range","address":"285 Second Av","state":"OH","juris":"PD"},"type":"Feature","geometry":{"type":"Point","coordinates":[-83.186003,41.128702]}},{"properties":{"officer":"JPF","city":"Tiffin","zip":"44883","date":{"end_time":"2008/10/19 18:29:26 -0400","original":"10/19/2008 6:29:25 PM","granularity":"sec","time":"2008/10/19 18:29:25 -0400"},"geo_score":0.902,"unit":57,"disposition":"200","cfs":14,"call#":8.011363,"id":"a64stu08l8de","geo_precision":"range","address":"28X Sycamore St","state":"OH","juris":"PD"},"type":"Feature","geometry":{"type":"Point","coordinates":[-83.17624,41.108908]}},{"properties":{"officer":"MAM","city":"Tiffin","zip":"44883","date":{"end_time":"2008/08/28 19:44:23 -0400","original":"8/28/2008 7:44:22 PM","granularity":"sec","time":"2008/08/28 19:44:22 -0400"},"geo_score":0.902,"unit":58,"disposition":"200","cfs":14,"call#":8.009145,"id":"a64sttr8xoou","geo_precision":"range","address":"28X Sycamore St","state":"OH","juris":"PD"},"type":"Feature","geometry":{"type":"Point","coordinates":[-83.17624,41.108908]}},{"properties":{"officer":"RJO","city":"Tiffin","zip":"44883","date":{"end_time":"2008/09/30 12:03:32 -0400","original":"9/30/2008 12:03:31 PM","granularity":"sec","time":"2008/09/30 12:03:31 -0400"},"geo_score":0.902,"unit":57,"disposition":"200","cfs":14,"call#":8.010648,"id":"a64sttxkzg4h","geo_precision":"range","address":"29 E Perry St","state":"OH","juris":"PD"},"type":"Feature","geometry":{"type":"Point","coordinates":[-83.178773,41.115658]}},{"properties":{"officer":"MEM","city":"Tiffin","zip":"44883","date":{"end_time":"2008/04/13 03:13:22 -0400","original":"4/13/2008 3:13:21 AM","granularity":"sec","time":"2008/04/13 03:13:21 -0400"},"geo_score":0.902,"unit":59,"disposition":"200","cfs":14,"call#":8.003702,"id":"a64sttvj5tob","geo_precision":"range","address":"29 E Perry St","state":"OH","juris":"PD"},"type":"Feature","geometry":{"type":"Point","coordinates":[-83.178773,41.115658]}},{"properties":{"officer":"JPF","city":"Tiffin","zip":"44883","date":{"end_time":"2008/08/28 17:46:45 -0400","original":"8/28/2008 5:46:44 PM","granularity":"sec","time":"2008/08/28 17:46:44 -0400"},"geo_score":0.902,"unit":57,"disposition":"200","cfs":14,"call#":8.00914,"id":"a64stu0nvg4m","geo_precision":"range","address":"290 Hall St","state":"OH","juris":"PD"},"type":"Feature","geometry":{"type":"Point","coordinates":[-83.187334,41.123663]}},{"properties":{"officer":"MAM","city":"Tiffin","zip":"44883","date":{"end_time":"2008/11/13 18:38:21 -0500","original":"11/13/2008 6:38:20 PM","granularity":"sec","time":"2008/11/13 18:38:20 -0500"},"geo_score":0.873,"unit":58,"disposition":"400","cfs":14,"call#":8.012227,"id":"a64sttnzhqab","geo_precision":"range","address":"292 Clinton Av","state":"OH","juris":"PD"},"type":"Feature","geometry":{"type":"Point","coordinates":[-83.166472,41.12385]}},{"properties":{"officer":"LMK","city":"Tiffin","zip":"44883","date":{"end_time":"2008/05/31 22:16:18 -0400","original":"5/31/2008 10:16:17 PM","granularity":"sec","time":"2008/05/31 22:16:17 -0400"},"geo_score":0.902,"unit":57,"disposition":"200","cfs":14,"call#":8.005577,"id":"a64sttve80u2","geo_precision":"range","address":"295 Vine St","state":"OH","juris":"PD"},"type":"Feature","geometry":{"type":"Point","coordinates":[-83.182752,41.132866]}},{"properties":{"officer":"MEM","city":"Tiffin","zip":"44883","date":{"end_time":"2008/12/19 21:09:57 -0500","original":"12/19/2008 9:09:56 PM","granularity":"sec","time":"2008/12/19 21:09:56 -0500"},"geo_score":0.861,"unit":57,"disposition":"400","cfs":14,"call#":8.013357,"id":"a64stu0d04tg","geo_precision":"range","address":"296X Ohio Av","state":"OH","juris":"PD"},"type":"Feature","geometry":{"type":"Point","coordinates":[-83.163388,41.126433]}},{"properties":{"officer":"FWS","city":"Tiffin","zip":"44883","date":{"end_time":"2008/04/20 14:46:33 -0400","original":"4/20/2008 2:46:32 PM","granularity":"sec","time":"2008/04/20 14:46:32 -0400"},"geo_score":0.87,"unit":59,"disposition":"200","cfs":14,"call#":8.003996,"id":"a64stu2qc4w2","geo_precision":"range","address":"3 Colony Av","state":"OH","juris":"PD"},"type":"Feature","geometry":{"type":"Point","coordinates":[-83.188162,41.114672]}},{"properties":{"officer":"GTM","city":"Tiffin","zip":"44883","date":{"end_time":"2008/03/18 23:31:00 -0400","original":"3/18/2008 11:30:59 PM","granularity":"sec","time":"2008/03/18 23:30:59 -0400"},"geo_score":0.902,"unit":61,"disposition":"200","cfs":14,"call#":8.002717,"id":"a64sttw6kzk0","geo_precision":"range","address":"30 Sycamore St","state":"OH","juris":"PD"},"type":"Feature","geometry":{"type":"Point","coordinates":[-83.176275,41.108854]}},{"properties":{"officer":"SWK","city":"Tiffin","zip":"44883","date":{"end_time":"2008/11/13 17:40:05 -0500","original":"11/13/2008 5:40:04 PM","granularity":"sec","time":"2008/11/13 17:40:04 -0500"},"geo_score":0.902,"unit":61,"disposition":"200","cfs":14,"call#":8.012223,"id":"a64sttxul3r8","geo_precision":"range","address":"300 S Monroe St","state":"OH","juris":"PD"},"type":"Feature","geometry":{"type":"Point","coordinates":[-83.177173,41.107991]}},{"properties":{"officer":"DES","city":"Tiffin","zip":"44883","date":{"end_time":"2008/10/29 21:47:38 -0400","original":"10/29/2008 9:47:37 PM","granularity":"sec","time":"2008/10/29 21:47:37 -0400"},"geo_score":0.902,"unit":58,"disposition":"200","cfs":14,"call#":8.011703,"id":"a64stu09gndt","geo_precision":"range","address":"300 S Monroe St","state":"OH","juris":"PD"},"type":"Feature","geometry":{"type":"Point","coordinates":[-83.177173,41.107991]}},{"properties":{"officer":"LMK","city":"Tiffin","zip":"44883","date":{"end_time":"2008/10/14 21:25:15 -0400","original":"10/14/2008 9:25:14 PM","granularity":"sec","time":"2008/10/14 21:25:14 -0400"},"geo_score":0.902,"unit":63,"disposition":"200","cfs":14,"call#":8.011171,"id":"a64stu2ejv45","geo_precision":"range","address":"300 S Monroe St","state":"OH","juris":"PD"},"type":"Feature","geometry":{"type":"Point","coordinates":[-83.177173,41.107991]}},{"properties":{"officer":"RJO","city":"Tiffin","zip":"44883","date":{"end_time":"2008/10/12 09:12:55 -0400","original":"10/12/2008 9:12:54 AM","granularity":"sec","time":"2008/10/12 09:12:54 -0400"},"geo_score":0.902,"unit":57,"disposition":"200","cfs":14,"call#":8.011078,"id":"a64sttxd5sf2","geo_precision":"range","address":"300 S Monroe St","state":"OH","juris":"PD"},"type":"Feature","geometry":{"type":"Point","coordinates":[-83.177173,41.107991]}},{"properties":{"officer":"BAR","city":"Tiffin","zip":"44883","date":{"end_time":"2008/10/10 21:18:58 -0400","original":"10/10/2008 9:18:57 PM","granularity":"sec","time":"2008/10/10 21:18:57 -0400"},"geo_score":0.902,"unit":63,"disposition":"100","cfs":14,"call#":8.011016,"id":"a64sttt7jv32","geo_precision":"range","address":"300 S Monroe St","state":"OH","juris":"PD"},"type":"Feature","geometry":{"type":"Point","coordinates":[-83.177173,41.107991]}},{"properties":{"officer":"RLT","city":"Tiffin","zip":"44883","date":{"end_time":"2008/10/07 07:35:45 -0400","original":"10/7/2008 7:35:44 AM","granularity":"sec","time":"2008/10/07 07:35:44 -0400"},"geo_score":0.902,"unit":58,"disposition":"200","cfs":14,"call#":8.010887,"id":"a64sttqh4op1","geo_precision":"range","address":"300 S Monroe St","state":"OH","juris":"PD"},"type":"Feature","geometry":{"type":"Point","coordinates":[-83.177173,41.107991]}},{"properties":{"officer":"MAM","city":"Tiffin","zip":"44883","date":{"end_time":"2008/05/15 17:50:19 -0400","original":"5/15/2008 5:50:18 PM","granularity":"sec","time":"2008/05/15 17:50:18 -0400"},"geo_score":0.902,"unit":58,"disposition":"450","cfs":14,"call#":8.00496,"id":"a64sttzlfvxi","geo_precision":"range","address":"300 S Monroe St","state":"OH","juris":"PD"},"type":"Feature","geometry":{"type":"Point","coordinates":[-83.177173,41.107991]}},{"properties":{"officer":"BAR","city":"Tiffin","zip":"44883","date":{"end_time":"2008/05/14 17:26:00 -0400","original":"5/14/2008 5:25:00 PM","granularity":"min","time":"2008/05/14 17:25:00 -0400"},"geo_score":0.902,"unit":58,"disposition":"200","cfs":14,"call#":8.004928,"id":"a64stu2m7q3s","geo_precision":"range","address":"300 S Monroe St","state":"OH","juris":"PD"},"type":"Feature","geometry":{"type":"Point","coordinates":[-83.177173,41.107991]}},{"properties":{"officer":"REB","city":"Tiffin","zip":"44883","date":{"end_time":"2008/06/03 09:20:03 -0400","original":"6/3/2008 9:20:02 AM","granularity":"sec","time":"2008/06/03 09:20:02 -0400"},"geo_score":0.861,"unit":63,"disposition":"200","cfs":14,"call#":8.005664,"id":"a64sttzh47nz","geo_precision":"range","address":"310 Ohio Av","state":"OH","juris":"PD"},"type":"Feature","geometry":{"type":"Point","coordinates":[-83.163373,41.126917]}},{"properties":{"officer":"JPF","city":"Tiffin","zip":"44883","date":{"end_time":"2008/12/21 02:46:28 -0500","original":"12/21/2008 2:46:27 AM","granularity":"sec","time":"2008/12/21 02:46:27 -0500"},"geo_score":0.902,"unit":57,"disposition":"200","cfs":14,"call#":8.013398,"id":"a64sttz0217r","geo_precision":"range","address":"315 W Market St","state":"OH","juris":"PD"},"type":"Feature","geometry":{"type":"Point","coordinates":[-83.191142,41.113162]}},{"properties":{"officer":"EDA","city":"Tiffin","zip":"44883","date":{"end_time":"2008/12/01 19:52:03 -0500","original":"12/1/2008 7:52:02 PM","granularity":"sec","time":"2008/12/01 19:52:02 -0500"},"geo_score":0.902,"unit":57,"disposition":"200","cfs":14,"call#":8.012774,"id":"a64sttvquh9k","geo_precision":"range","address":"315 W Market St","state":"OH","juris":"PD"},"type":"Feature","geometry":{"type":"Point","coordinates":[-83.191142,41.113162]}},{"properties":{"officer":"JPF","city":"Tiffin","zip":"44883","date":{"end_time":"2008/10/05 00:04:32 -0400","original":"10/5/2008 12:04:31 AM","granularity":"sec","time":"2008/10/05 00:04:31 -0400"},"geo_score":0.902,"unit":57,"disposition":"400","cfs":14,"call#":8.010816,"id":"a64stu1sauvx","geo_precision":"range","address":"315 W Market St","state":"OH","juris":"PD"},"type":"Feature","geometry":{"type":"Point","coordinates":[-83.191142,41.113162]}},{"properties":{"officer":"FWS","city":"Tiffin","zip":"44883","date":{"end_time":"2008/06/28 13:07:31 -0400","original":"6/28/2008 1:07:30 PM","granularity":"sec","time":"2008/06/28 13:07:30 -0400"},"geo_score":0.902,"unit":59,"disposition":"100","cfs":14,"call#":8.006648,"id":"a64sttxwlwgh","geo_precision":"range","address":"315 W Market St","state":"OH","juris":"PD"},"type":"Feature","geometry":{"type":"Point","coordinates":[-83.191142,41.113162]}},{"properties":{"officer":"LMK","city":"Tiffin","zip":"44883","date":{"end_time":"2008/09/14 03:32:52 -0400","original":"9/14/2008 3:32:51 AM","granularity":"sec","time":"2008/09/14 03:32:51 -0400"},"geo_score":0.902,"unit":61,"disposition":"200","cfs":14,"call#":8.009923,"id":"a64stu1j1f75","geo_precision":"range","address":"318 N Sandusky St","state":"OH","juris":"PD"},"type":"Feature","geometry":{"type":"Point","coordinates":[-83.177539,41.127192]}},{"properties":{"officer":"LMK","city":"Tiffin","zip":"44883","date":{"end_time":"2008/10/26 22:30:59 -0400","original":"10/26/2008 10:30:58 PM","granularity":"sec","time":"2008/10/26 22:30:58 -0400"},"geo_score":0.902,"unit":62,"disposition":"100","cfs":14,"call#":8.011607,"id":"a64sttwdx5xw","geo_precision":"range","address":"321 E Perry St","state":"OH","juris":"PD"},"type":"Feature","geometry":{"type":"Point","coordinates":[-83.167735,41.116985]}},{"properties":{"officer":"EDA","city":"Tiffin","zip":"44883","date":{"end_time":"2008/08/04 20:56:09 -0400","original":"8/4/2008 8:56:08 PM","granularity":"sec","time":"2008/08/04 20:56:08 -0400"},"geo_score":0.902,"unit":60,"disposition":"400","cfs":14,"call#":8.008173,"id":"a64stu07pjfx","geo_precision":"range","address":"321 Jefferson St","state":"OH","juris":"PD"},"type":"Feature","geometry":{"type":"Point","coordinates":[-83.174038,41.108741]}},{"properties":{"officer":"SGN","city":"Tiffin","zip":"44883","date":{"end_time":"2008/08/27 09:02:13 -0400","original":"8/27/2008 9:02:12 AM","granularity":"sec","time":"2008/08/27 09:02:12 -0400"},"geo_score":0.902,"unit":62,"disposition":"200","cfs":14,"call#":8.009091,"id":"a64stu0yxu1u","geo_precision":"range","address":"329 Water St","state":"OH","juris":"PD"},"type":"Feature","geometry":{"type":"Point","coordinates":[-83.173844,41.121731]}},{"properties":{"officer":"BAR","city":"Tiffin","zip":"44883","date":{"end_time":"2008/09/16 02:50:05 -0400","original":"9/16/2008 2:50:04 AM","granularity":"sec","time":"2008/09/16 02:50:04 -0400"},"geo_score":0.902,"unit":64,"disposition":"200","cfs":14,"call#":8.010027,"id":"a64sttqaua3s","geo_precision":"range","address":"33 N Washington St","state":"OH","juris":"PD"},"type":"Feature","geometry":{"type":"Point","coordinates":[-83.177191,41.118567]}},{"properties":{"officer":"JAD","city":"Tiffin","zip":"44883","date":{"end_time":"2008/08/30 21:32:34 -0400","original":"8/30/2008 9:32:33 PM","granularity":"sec","time":"2008/08/30 21:32:33 -0400"},"geo_score":0.902,"unit":56,"disposition":"200","cfs":14,"call#":8.009283,"id":"a64stu0ykz74","geo_precision":"range","address":"33 N Washington St","state":"OH","juris":"PD"},"type":"Feature","geometry":{"type":"Point","coordinates":[-83.177191,41.118567]}},{"properties":{"officer":"SMM","city":"Tiffin","zip":"44883","date":{"end_time":"2008/12/18 04:38:00 -0500","original":"12/18/2008 4:37:00 AM","granularity":"min","time":"2008/12/18 04:37:00 -0500"},"geo_score":0.902,"unit":59,"disposition":"200","cfs":14,"call#":8.013302,"id":"a64sttxumg1w","geo_precision":"range","address":"331 W Market St","state":"OH","juris":"PD"},"type":"Feature","geometry":{"type":"Point","coordinates":[-83.191809,41.113121]}},{"properties":{"officer":"SWK","city":"Tiffin","zip":"44883","date":{"end_time":"2008/10/06 20:15:18 -0400","original":"10/6/2008 8:15:17 PM","granularity":"sec","time":"2008/10/06 20:15:17 -0400"},"geo_score":0.873,"unit":61,"disposition":"200","cfs":14,"call#":8.010877,"id":"a64sttzx8adz","geo_precision":"range","address":"333 Clinton Av","state":"OH","juris":"PD"},"type":"Feature","geometry":{"type":"Point","coordinates":[-83.165723,41.124544]}},{"properties":{"officer":"SMM","city":"Tiffin","zip":"44883","date":{"end_time":"2008/09/27 03:03:44 -0400","original":"9/27/2008 3:03:43 AM","granularity":"sec","time":"2008/09/27 03:03:43 -0400"},"geo_score":0.902,"unit":62,"disposition":"200","cfs":14,"call#":8.010519,"id":"a64sttm9ui3s","geo_precision":"range","address":"333 S Monroe St","state":"OH","juris":"PD"},"type":"Feature","geometry":{"type":"Point","coordinates":[-83.177082,41.107256]}},{"properties":{"officer":"FWS","city":"Tiffin","zip":"44883","date":{"end_time":"2008/09/27 15:55:17 -0400","original":"9/27/2008 3:55:16 PM","granularity":"sec","time":"2008/09/27 15:55:16 -0400"},"geo_score":0.902,"unit":57,"disposition":"200","cfs":14,"call#":8.01054,"id":"a64sttp65jvm","geo_precision":"range","address":"337 Wall St","state":"OH","juris":"PD"},"type":"Feature","geometry":{"type":"Point","coordinates":[-83.186776,41.124216]}},{"properties":{"officer":"DES","city":"Tiffin","zip":"44883","date":{"end_time":"2008/06/18 22:40:34 -0400","original":"6/18/2008 10:40:33 PM","granularity":"sec","time":"2008/06/18 22:40:33 -0400"},"geo_score":0.902,"unit":62,"disposition":"200","cfs":14,"call#":8.006279,"id":"a64stu1y52sq","geo_precision":"range","address":"34 Miami St","state":"OH","juris":"PD"},"type":"Feature","geometry":{"type":"Point","coordinates":[-83.180394,41.117211]}},{"properties":{"officer":"DES","city":"Tiffin","zip":"44883","date":{"end_time":"2008/03/13 18:30:19 -0400","original":"3/13/2008 6:30:18 PM","granularity":"sec","time":"2008/03/13 18:30:18 -0400"},"geo_score":0.902,"unit":63,"disposition":"200","cfs":14,"call#":8.002541,"id":"a64stu13am4w","geo_precision":"range","address":"34 Miami St","state":"OH","juris":"PD"},"type":"Feature","geometry":{"type":"Point","coordinates":[-83.180394,41.117211]}},{"properties":{"officer":"DGH","city":"Tiffin","zip":"44883","date":{"end_time":"2008/02/13 12:08:18 -0500","original":"2/13/2008 12:08:17 PM","granularity":"sec","time":"2008/02/13 12:08:17 -0500"},"geo_score":0.854,"unit":59,"disposition":"200","cfs":14,"call#":8.00154,"id":"a64sttz1ag7j","geo_precision":"range","address":"346 Elm Av","state":"OH","juris":"PD"},"type":"Feature","geometry":{"type":"Point","coordinates":[-83.162028,41.127225]}},{"properties":{"officer":"SGN","city":"Tiffin","zip":"44883","date":{"end_time":"2008/01/15 13:52:02 -0500","original":"1/15/2008 1:52:01 PM","granularity":"sec","time":"2008/01/15 13:52:01 -0500"},"geo_score":0.854,"unit":63,"disposition":"200","cfs":14,"call#":8.000544,"id":"a64sttt1frgv","geo_precision":"range","address":"346 Elm Av","state":"OH","juris":"PD"},"type":"Feature","geometry":{"type":"Point","coordinates":[-83.162028,41.127225]}},{"properties":{"officer":"BRB","city":"Tiffin","zip":"44883","date":{"end_time":"2008/05/07 21:39:40 -0400","original":"5/7/2008 9:39:39 PM","granularity":"sec","time":"2008/05/07 21:39:39 -0400"},"geo_score":0.902,"unit":59,"disposition":"200","cfs":14,"call#":8.004703,"id":"a64sttqjtkgy","geo_precision":"range","address":"35 John St","state":"OH","juris":"PD"},"type":"Feature","geometry":{"type":"Point","coordinates":[-83.165586,41.126283]}},{"properties":{"officer":"RLT","city":"Tiffin","zip":"44883","date":{"end_time":"2008/01/06 01:06:39 -0500","original":"1/6/2008 1:06:38 AM","granularity":"sec","time":"2008/01/06 01:06:38 -0500"},"geo_score":0.902,"unit":63,"disposition":"400","cfs":14,"call#":8.000194,"id":"a64sttz4df7l","geo_precision":"range","address":"35 John St","state":"OH","juris":"PD"},"type":"Feature","geometry":{"type":"Point","coordinates":[-83.165586,41.126283]}},{"properties":{"officer":"PJD","city":"Tiffin","zip":"44883","date":{"end_time":"2008/06/10 21:35:41 -0400","original":"6/10/2008 9:35:40 PM","granularity":"sec","time":"2008/06/10 21:35:40 -0400"},"geo_score":0.873,"unit":60,"disposition":"400","cfs":14,"call#":8.005985,"id":"a64sttpsfwnj","geo_precision":"range","address":"35 Lindsay Av","state":"OH","juris":"PD"},"type":"Feature","geometry":{"type":"Point","coordinates":[-83.193372,41.112499]}},{"properties":{"officer":"REB","city":"Tiffin","zip":"44883","date":{"end_time":"2008/03/31 16:42:12 -0400","original":"3/31/2008 4:42:11 PM","granularity":"sec","time":"2008/03/31 16:42:11 -0400"},"geo_score":0.902,"unit":63,"disposition":"450","cfs":14,"call#":8.003232,"id":"a64sttzp3obj","geo_precision":"range","address":"37 Adams St","state":"OH","juris":"PD"},"type":"Feature","geometry":{"type":"Point","coordinates":[-83.179171,41.118202]}},{"properties":{"officer":"JPF","city":"Tiffin","zip":"44883","date":{"end_time":"2008/03/22 20:22:36 -0400","original":"3/22/2008 8:22:35 PM","granularity":"sec","time":"2008/03/22 20:22:35 -0400"},"geo_score":0.902,"unit":57,"disposition":"100","cfs":14,"call#":8.002851,"id":"a64stu0tkylp","geo_precision":"range","address":"37 Adams St","state":"OH","juris":"PD"},"type":"Feature","geometry":{"type":"Point","coordinates":[-83.179171,41.118202]}},{"properties":{"officer":"JMW","city":"Tiffin","zip":"44883","date":{"end_time":"2008/11/03 12:13:05 -0500","original":"11/3/2008 12:13:04 PM","granularity":"sec","time":"2008/11/03 12:13:04 -0500"},"geo_score":0.902,"unit":62,"disposition":"200","cfs":14,"call#":8.011894,"id":"a64stty267rz","geo_precision":"range","address":"37 Sycamore St","state":"OH","juris":"PD"},"type":"Feature","geometry":{"type":"Point","coordinates":[-83.176323,41.108782]}},{"properties":{"officer":"EDA","city":"Tiffin","zip":"44883","date":{"end_time":"2008/09/26 19:05:33 -0400","original":"9/26/2008 7:05:32 PM","granularity":"sec","time":"2008/09/26 19:05:32 -0400"},"geo_score":0.902,"unit":60,"disposition":"450","cfs":14,"call#":8.010489,"id":"a64stu06pqcp","geo_precision":"range","address":"370 S Monroe St","state":"OH","juris":"PD"},"type":"Feature","geometry":{"type":"Point","coordinates":[-83.176975,41.106384]}},{"properties":{"officer":"JAD","city":"Tiffin","zip":"44883","date":{"end_time":"2008/09/12 21:19:47 -0400","original":"9/12/2008 9:19:46 PM","granularity":"sec","time":"2008/09/12 21:19:46 -0400"},"geo_score":0.902,"unit":56,"disposition":"200","cfs":14,"call#":8.009852,"id":"a64sttu3j6nk","geo_precision":"range","address":"375 E Perry St","state":"OH","juris":"PD"},"type":"Feature","geometry":{"type":"Point","coordinates":[-83.165314,41.117566]}},{"properties":{"officer":"JPF","city":"Tiffin","zip":"44883","date":{"end_time":"2008/08/24 18:38:43 -0400","original":"8/24/2008 6:38:42 PM","granularity":"sec","time":"2008/08/24 18:38:42 -0400"},"geo_score":0.902,"unit":57,"disposition":"200","cfs":14,"call#":8.008994,"id":"a64sttwiehn7","geo_precision":"range","address":"375 E Perry St","state":"OH","juris":"PD"},"type":"Feature","geometry":{"type":"Point","coordinates":[-83.165314,41.117566]}},{"properties":{"officer":"AMR","city":"Tiffin","zip":"44883","date":{"end_time":"2008/02/26 23:58:10 -0500","original":"2/26/2008 11:58:09 PM","granularity":"sec","time":"2008/02/26 23:58:09 -0500"},"geo_score":0.902,"unit":63,"disposition":"400","cfs":14,"call#":8.002029,"id":"a64sttt4rx85","geo_precision":"range","address":"375 E Perry St","state":"OH","juris":"PD"},"type":"Feature","geometry":{"type":"Point","coordinates":[-83.165314,41.117566]}},{"properties":{"officer":"SGN","city":"Tiffin","zip":"44883","date":{"end_time":"2008/07/01 16:42:39 -0400","original":"7/1/2008 4:42:38 PM","granularity":"sec","time":"2008/07/01 16:42:38 -0400"},"geo_score":0.902,"unit":62,"disposition":"200","cfs":14,"call#":8.006786,"id":"a64stty2dy19","geo_precision":"range","address":"385 E Perry St","state":"OH","juris":"PD"},"type":"Feature","geometry":{"type":"Point","coordinates":[-83.165299,41.117572]}},{"properties":{"officer":"RJO","city":"Tiffin","zip":"44883","date":{"end_time":"2008/01/27 15:07:51 -0500","original":"1/27/2008 3:07:50 PM","granularity":"sec","time":"2008/01/27 15:07:50 -0500"},"geo_score":0.902,"unit":60,"disposition":"200","cfs":14,"call#":8.000943,"id":"a64sttz36e2h","geo_precision":"range","address":"385X E Perry St","state":"OH","juris":"PD"},"type":"Feature","geometry":{"type":"Point","coordinates":[-83.165299,41.117572]}},{"properties":{"officer":"GTM","city":"Tiffin","zip":"44883","date":{"end_time":"2008/09/20 09:27:50 -0400","original":"9/20/2008 9:27:49 AM","granularity":"sec","time":"2008/09/20 09:27:49 -0400"},"geo_score":0.902,"unit":61,"disposition":"100","cfs":14,"call#":8.010225,"id":"a64sttyx3f6r","geo_precision":"range","address":"39 W Perry St","state":"OH","juris":"PD"},"type":"Feature","geometry":{"type":"Point","coordinates":[-83.181554,41.115354]}},{"properties":{"officer":"EDA","city":"Tiffin","zip":"44883","date":{"end_time":"2008/08/16 17:13:37 -0400","original":"8/16/2008 5:13:36 PM","granularity":"sec","time":"2008/08/16 17:13:36 -0400"},"geo_score":0.902,"unit":60,"disposition":"400","cfs":14,"call#":8.008642,"id":"a64stto4g9x4","geo_precision":"range","address":"39 W Perry St","state":"OH","juris":"PD"},"type":"Feature","geometry":{"type":"Point","coordinates":[-83.181554,41.115354]}},{"properties":{"officer":"SMM","city":"Tiffin","zip":"44883","date":{"end_time":"2008/10/29 00:15:21 -0400","original":"10/29/2008 12:15:20 AM","granularity":"sec","time":"2008/10/29 00:15:20 -0400"},"geo_score":0.902,"unit":62,"disposition":"400","cfs":14,"call#":8.011674,"id":"a64sttxukk5q","geo_precision":"range","address":"393 Water St","state":"OH","juris":"PD"},"type":"Feature","geometry":{"type":"Point","coordinates":[-83.173087,41.123471]}},{"properties":{"officer":"PJD","city":"Tiffin","zip":"44883","date":{"end_time":"2008/08/13 03:30:37 -0400","original":"8/13/2008 3:30:36 AM","granularity":"sec","time":"2008/08/13 03:30:36 -0400"},"geo_score":0.902,"unit":57,"disposition":"200","cfs":14,"call#":8.008496,"id":"a64sttsxe4ua","geo_precision":"range","address":"39X W Perry St","state":"OH","juris":"PD"},"type":"Feature","geometry":{"type":"Point","coordinates":[-83.181554,41.115354]}},{"properties":{"officer":"LMK","city":"Tiffin","zip":"44883","date":{"end_time":"2008/09/14 04:47:56 -0400","original":"9/14/2008 4:47:55 AM","granularity":"sec","time":"2008/09/14 04:47:55 -0400"},"geo_score":0.902,"unit":61,"disposition":"200","cfs":14,"call#":8.009928,"id":"a64sttys7jh1","geo_precision":"range","address":"400 N Sandusky St","state":"OH","juris":"PD"},"type":"Feature","geometry":{"type":"Point","coordinates":[-83.175902,41.129233]}},{"properties":{"officer":"SWK","city":"Tiffin","zip":"44883","date":{"end_time":"2008/05/15 19:15:32 -0400","original":"5/15/2008 7:15:31 PM","granularity":"sec","time":"2008/05/15 19:15:31 -0400"},"geo_score":0.902,"unit":61,"disposition":"200","cfs":14,"call#":8.004963,"id":"a64sttw5uzl4","geo_precision":"range","address":"410 Sycamore St","state":"OH","juris":"PD"},"type":"Feature","geometry":{"type":"Point","coordinates":[-83.180889,41.103761]}},{"properties":{"officer":"JSC","city":"Tiffin","zip":"44883","date":{"end_time":"2008/08/16 17:46:06 -0400","original":"8/16/2008 5:46:05 PM","granularity":"sec","time":"2008/08/16 17:46:05 -0400"},"geo_score":0.902,"unit":57,"disposition":"200","cfs":14,"call#":8.008643,"id":"a64stttgpsxy","geo_precision":"range","address":"410 W Market St","state":"OH","juris":"PD"},"type":"Feature","geometry":{"type":"Point","coordinates":[-83.194347,41.112852]}},{"properties":{"officer":null,"city":"Tiffin","zip":"44883","date":{"end_time":"2008/08/25 09:09:21 -0400","original":"8/25/2008 9:09:20 AM","granularity":"sec","time":"2008/08/25 09:09:20 -0400"},"geo_score":0.669,"unit":null,"disposition":"CAN","cfs":14,"call#":8.009013,"id":"a64sttuzawob","geo_precision":"street","address":"422 ohio av","state":"OH","juris":"PD"},"type":"Feature","geometry":{"type":"Point","coordinates":[-83.164115,41.130572]}},{"properties":{"officer":"GTM","city":"Tiffin","zip":"44883","date":{"end_time":"2008/03/26 08:00:25 -0400","original":"3/26/2008 8:00:24 AM","granularity":"sec","time":"2008/03/26 08:00:24 -0400"},"geo_score":0.902,"unit":61,"disposition":"200","cfs":14,"call#":8.002978,"id":"a64sttpi8f12","geo_precision":"range","address":"43 Beechwood Dr","state":"OH","juris":"PD"},"type":"Feature","geometry":{"type":"Point","coordinates":[-83.203049,41.114998]}},{"properties":{"officer":"EDA","city":"Tiffin","zip":"44883","date":{"end_time":"2008/11/10 16:59:24 -0500","original":"11/10/2008 4:59:23 PM","granularity":"sec","time":"2008/11/10 16:59:23 -0500"},"geo_score":0.902,"unit":58,"disposition":"450","cfs":14,"call#":8.01214,"id":"a64stttp56jz","geo_precision":"range","address":"43 W Market St","state":"OH","juris":"PD"},"type":"Feature","geometry":{"type":"Point","coordinates":[-83.181879,41.114073]}},{"properties":{"officer":"JAD","city":"Tiffin","zip":"44883","date":{"end_time":"2008/02/23 23:40:53 -0500","original":"2/23/2008 11:40:52 PM","granularity":"sec","time":"2008/02/23 23:40:52 -0500"},"geo_score":0.902,"unit":56,"disposition":"200","cfs":14,"call#":8.001945,"id":"a64sttyviku8","geo_precision":"range","address":"445 W Perry St","state":"OH","juris":"PD"},"type":"Feature","geometry":{"type":"Point","coordinates":[-83.195646,41.114039]}},{"properties":{"officer":"SGN","city":"Tiffin","zip":"44883","date":{"end_time":"2008/04/11 11:45:25 -0400","original":"4/11/2008 11:45:24 AM","granularity":"sec","time":"2008/04/11 11:45:24 -0400"},"geo_score":0.902,"unit":62,"disposition":"200","cfs":14,"call#":8.003594,"id":"a64sttwlm6ki","geo_precision":"range","address":"449 S Jefferson St","state":"OH","juris":"PD"},"type":"Feature","geometry":{"type":"Point","coordinates":[-83.173407,41.104792]}},{"properties":{"officer":"REB","city":"Tiffin","zip":"44883","date":{"end_time":"2008/02/09 10:46:32 -0500","original":"2/9/2008 10:46:31 AM","granularity":"sec","time":"2008/02/09 10:46:31 -0500"},"geo_score":0.429,"unit":63,"disposition":"200","cfs":14,"call#":8.001395,"id":"a64sttoucqnx","geo_precision":"street","address":"45 N Monroe St,B","state":"OH","juris":"PD"},"type":"Feature","geometry":{"type":"Point","coordinates":[-83.178368,41.11568]}},{"properties":{"officer":"JPF","city":"Tiffin","zip":"44883","date":{"end_time":"2008/08/09 00:21:58 -0400","original":"8/9/2008 12:21:57 AM","granularity":"sec","time":"2008/08/09 00:21:57 -0400"},"geo_score":0.516,"unit":57,"disposition":"400","cfs":14,"call#":8.008336,"id":"a64sttug1ja9","geo_precision":"street","address":"45 St Lawrence Dr","state":"OH","juris":"PD"},"type":"Feature","geometry":{"type":"Point","coordinates":[-82.718729,41.455282]}},{"properties":{"officer":"JSC","city":"Tiffin","zip":"44883","date":{"end_time":"2008/06/21 04:12:53 -0400","original":"6/21/2008 4:12:52 AM","granularity":"sec","time":"2008/06/21 04:12:52 -0400"},"geo_score":0.902,"unit":57,"disposition":"200","cfs":14,"call#":8.006376,"id":"a64sttufs4qj","geo_precision":"range","address":"463 S Sandusky St","state":"OH","juris":"PD"},"type":"Feature","geometry":{"type":"Point","coordinates":[-83.191252,41.108221]}},{"properties":{"officer":"LMK","city":"Tiffin","zip":"44883","date":{"end_time":"2008/09/27 23:39:21 -0400","original":"9/27/2008 11:39:20 PM","granularity":"sec","time":"2008/09/27 23:39:20 -0400"},"geo_score":0.717,"unit":62,"disposition":"400","cfs":14,"call#":8.010555,"id":"a64stu04dzm2","geo_precision":"street","address":"47 S Washington St,1","state":"OH","juris":"PD"},"type":"Feature","geometry":{"type":"Point","coordinates":[-83.176943,41.117025]}},{"properties":{"officer":"JAD","city":"Tiffin","zip":"44883","date":{"end_time":"2008/11/30 03:21:38 -0500","original":"11/30/2008 3:21:37 AM","granularity":"sec","time":"2008/11/30 03:21:37 -0500"},"geo_score":0.902,"unit":56,"disposition":"200","cfs":14,"call#":8.012733,"id":"a64sttxg52xs","geo_precision":"range","address":"48 Douglas St","state":"OH","juris":"PD"},"type":"Feature","geometry":{"type":"Point","coordinates":[-83.17516,41.127662]}},{"properties":{"officer":"EDA","city":"Tiffin","zip":"44883","date":{"end_time":"2008/08/23 17:58:31 -0400","original":"8/23/2008 5:58:30 PM","granularity":"sec","time":"2008/08/23 17:58:30 -0400"},"geo_score":0.902,"unit":60,"disposition":"200","cfs":14,"call#":8.008947,"id":"a64sttqfbu2d","geo_precision":"range","address":"48 Douglas St","state":"OH","juris":"PD"},"type":"Feature","geometry":{"type":"Point","coordinates":[-83.17516,41.127662]}},{"properties":{"officer":"RJO","city":"Tiffin","zip":"44883","date":{"end_time":"2008/05/25 12:35:22 -0400","original":"5/25/2008 12:35:21 PM","granularity":"sec","time":"2008/05/25 12:35:21 -0400"},"geo_score":0.902,"unit":57,"disposition":"200","cfs":14,"call#":8.00534,"id":"a64sttol0w2n","geo_precision":"range","address":"48 N Sandusky St","state":"OH","juris":"PD"},"type":"Feature","geometry":{"type":"Point","coordinates":[-83.181692,41.121254]}},{"properties":{"officer":"JAD","city":"Tiffin","zip":"44883","date":{"end_time":"2008/10/20 02:01:50 -0400","original":"10/20/2008 2:01:49 AM","granularity":"sec","time":"2008/10/20 02:01:49 -0400"},"geo_score":0.902,"unit":56,"disposition":"200","cfs":14,"call#":8.011377,"id":"a64sttnkjv9c","geo_precision":"range","address":"48 N Washington St","state":"OH","juris":"PD"},"type":"Feature","geometry":{"type":"Point","coordinates":[-83.177237,41.118927]}},{"properties":{"officer":"JMW","city":"Tiffin","zip":"44883","date":{"end_time":"2008/07/14 12:08:05 -0400","original":"7/14/2008 12:08:04 PM","granularity":"sec","time":"2008/07/14 12:08:04 -0400"},"geo_score":0.902,"unit":60,"disposition":"200","cfs":14,"call#":8.007313,"id":"a64sttto1b1i","geo_precision":"range","address":"485 W Market St","state":"OH","juris":"PD"},"type":"Feature","geometry":{"type":"Point","coordinates":[-83.197064,41.112593]}},{"properties":{"officer":"DGH","city":"Tiffin","zip":"44883","date":{"end_time":"2008/07/08 13:51:32 -0400","original":"7/8/2008 1:51:31 PM","granularity":"sec","time":"2008/07/08 13:51:31 -0400"},"geo_score":0.902,"unit":58,"disposition":"200","cfs":14,"call#":8.00707,"id":"a64sttp0tf38","geo_precision":"range","address":"485 W Market St","state":"OH","juris":"PD"},"type":"Feature","geometry":{"type":"Point","coordinates":[-83.197064,41.112593]}},{"properties":{"officer":"MAM","city":"Tiffin","zip":"44883","date":{"end_time":"2008/06/27 17:47:04 -0400","original":"6/27/2008 5:47:03 PM","granularity":"sec","time":"2008/06/27 17:47:03 -0400"},"geo_score":0.902,"unit":58,"disposition":"100","cfs":14,"call#":8.006597,"id":"a64sttx5bl7m","geo_precision":"range","address":"485 W Market St","state":"OH","juris":"PD"},"type":"Feature","geometry":{"type":"Point","coordinates":[-83.197064,41.112593]}},{"properties":{"officer":"JMW","city":"Tiffin","zip":"44883","date":{"end_time":"2008/05/03 13:19:22 -0400","original":"5/3/2008 1:19:21 PM","granularity":"sec","time":"2008/05/03 13:19:21 -0400"},"geo_score":0.805,"unit":58,"disposition":"200","cfs":14,"call#":8.004522,"id":"a64sttnn2cw1","geo_precision":"street","address":"487 Miami St","state":"OH","juris":"PD"},"type":"Feature","geometry":{"type":"Point","coordinates":[-83.199962,41.117374]}},{"properties":{"officer":"JSC","city":"Tiffin","zip":"44883","date":{"end_time":"2008/10/05 17:28:33 -0400","original":"10/5/2008 5:28:32 PM","granularity":"sec","time":"2008/10/05 17:28:32 -0400"},"geo_score":0.902,"unit":59,"disposition":"400","cfs":14,"call#":8.010843,"id":"a64sttq9782n","geo_precision":"range","address":"491 Coe St","state":"OH","juris":"PD"},"type":"Feature","geometry":{"type":"Point","coordinates":[-83.160385,41.102667]}},{"properties":{"officer":"JAD","city":"Tiffin","zip":"44883","date":{"end_time":"2008/06/07 21:22:06 -0400","original":"6/7/2008 9:22:05 PM","granularity":"sec","time":"2008/06/07 21:22:05 -0400"},"geo_score":0.902,"unit":56,"disposition":"100","cfs":14,"call#":8.005843,"id":"a64sttxb02uc","geo_precision":"range","address":"491 Coe St","state":"OH","juris":"PD"},"type":"Feature","geometry":{"type":"Point","coordinates":[-83.160385,41.102667]}},{"properties":{"officer":"JAD","city":"Tiffin","zip":"44883","date":{"end_time":"2008/01/29 11:17:40 -0500","original":"1/29/2008 11:17:39 AM","granularity":"sec","time":"2008/01/29 11:17:39 -0500"},"geo_score":0.902,"unit":56,"disposition":"100","cfs":14,"call#":8.001004,"id":"a64sttn24jnl","geo_precision":"range","address":"500 Riverside Dr","state":"OH","juris":"PD"},"type":"Feature","geometry":{"type":"Point","coordinates":[-83.166156,41.127615]}},{"properties":{"officer":"JSC","city":"Tiffin","zip":"44883","date":{"end_time":"2008/06/27 17:45:34 -0400","original":"6/27/2008 5:45:33 PM","granularity":"sec","time":"2008/06/27 17:45:33 -0400"},"geo_score":0.902,"unit":59,"disposition":"200","cfs":14,"call#":8.006596,"id":"a64sttoaxdd3","geo_precision":"range","address":"51 Sycamore St","state":"OH","juris":"PD"},"type":"Feature","geometry":{"type":"Point","coordinates":[-83.176533,41.108463]}},{"properties":{"officer":"DES","city":"Tiffin","zip":"44883","date":{"end_time":"2008/08/26 18:14:54 -0400","original":"8/26/2008 6:14:53 PM","granularity":"sec","time":"2008/08/26 18:14:53 -0400"},"geo_score":0.902,"unit":57,"disposition":"100","cfs":14,"call#":8.009074,"id":"a64sttrkzt1m","geo_precision":"range","address":"51 W Perry St","state":"OH","juris":"PD"},"type":"Feature","geometry":{"type":"Point","coordinates":[-83.18199,41.115297]}},{"properties":{"officer":"DGH","city":"Tiffin","zip":"44883","date":{"end_time":"2008/05/15 13:09:23 -0400","original":"5/15/2008 1:09:22 PM","granularity":"sec","time":"2008/05/15 13:09:22 -0400"},"geo_score":0.902,"unit":59,"disposition":"200","cfs":14,"call#":8.00495,"id":"a64sttoe2xuh","geo_precision":"range","address":"51 W Perry St","state":"OH","juris":"PD"},"type":"Feature","geometry":{"type":"Point","coordinates":[-83.18199,41.115297]}},{"properties":{"officer":null,"city":"Tiffin","zip":"44883","date":{"end_time":"2008/06/13 12:36:23 -0400","original":"6/13/2008 12:36:22 PM","granularity":"sec","time":"2008/06/13 12:36:22 -0400"},"geo_score":0.902,"unit":648,"disposition":"700","cfs":14,"call#":8.006089,"id":"a64stu0azk8j","geo_precision":"range","address":"53 Maple St","state":"OH","juris":"PD"},"type":"Feature","geometry":{"type":"Point","coordinates":[-83.184224,41.112569]}},{"properties":{"officer":"SMM","city":"Tiffin","zip":"44883","date":{"end_time":"2008/11/07 19:12:28 -0500","original":"11/7/2008 7:12:27 PM","granularity":"sec","time":"2008/11/07 19:12:27 -0500"},"geo_score":0.902,"unit":57,"disposition":"200","cfs":14,"call#":8.012033,"id":"a64stu1x5e7u","geo_precision":"range","address":"55 Madison St","state":"OH","juris":"PD"},"type":"Feature","geometry":{"type":"Point","coordinates":[-83.177509,41.113285]}},{"properties":{"officer":"SWK","city":"Tiffin","zip":"44883","date":{"end_time":"2008/05/07 18:39:02 -0400","original":"5/7/2008 6:39:01 PM","granularity":"sec","time":"2008/05/07 18:39:01 -0400"},"geo_score":0.902,"unit":61,"disposition":"200","cfs":14,"call#":8.0047,"id":"a64sttv2o2yo","geo_precision":"range","address":"57 St Clair St","state":"OH","juris":"PD"},"type":"Feature","geometry":{"type":"Point","coordinates":[-83.181342,41.112637]}},{"properties":{"officer":"LMK","city":"Tiffin","zip":"44883","date":{"end_time":"2008/08/24 02:44:34 -0400","original":"8/24/2008 2:44:33 AM","granularity":"sec","time":"2008/08/24 02:44:33 -0400"},"geo_score":0.902,"unit":61,"disposition":"100","cfs":14,"call#":8.008977,"id":"a64stto2w2c7","geo_precision":"range","address":"575 E Perry St","state":"OH","juris":"PD"},"type":"Feature","geometry":{"type":"Point","coordinates":[-83.158917,41.119267]}},{"properties":{"officer":"BAR","city":"Tiffin","zip":"44883","date":{"end_time":"2008/07/27 01:19:53 -0400","original":"7/27/2008 1:19:52 AM","granularity":"sec","time":"2008/07/27 01:19:52 -0400"},"geo_score":0.902,"unit":62,"disposition":"100","cfs":14,"call#":8.007817,"id":"a64sttmoxp4v","geo_precision":"range","address":"575 E Perry St","state":"OH","juris":"PD"},"type":"Feature","geometry":{"type":"Point","coordinates":[-83.158917,41.119267]}},{"properties":{"officer":"REB","city":"Tiffin","zip":"44883","date":{"end_time":"2008/03/03 15:30:56 -0500","original":"3/3/2008 3:30:55 PM","granularity":"sec","time":"2008/03/03 15:30:55 -0500"},"geo_score":0.873,"unit":63,"disposition":"200","cfs":14,"call#":8.002228,"id":"a64sttp4k0fv","geo_precision":"range","address":"58 Cottage Av","state":"OH","juris":"PD"},"type":"Feature","geometry":{"type":"Point","coordinates":[-83.193349,41.107339]}},{"properties":{"officer":"RLT","city":"Tiffin","zip":"44883","date":{"end_time":"2008/02/24 22:46:00 -0500","original":"2/24/2008 10:45:00 PM","granularity":"min","time":"2008/02/24 22:45:00 -0500"},"geo_score":0.429,"unit":58,"disposition":"200","cfs":14,"call#":8.001975,"id":"a64sttp1mbih","geo_precision":"street","address":"590 S Sandusky St,H","state":"OH","juris":"PD"},"type":"Feature","geometry":{"type":"Point","coordinates":[-83.183613,41.118373]}},{"properties":{"officer":"JSC","city":"Tiffin","zip":"44883","date":{"end_time":"2008/05/04 18:10:38 -0400","original":"5/4/2008 6:10:37 PM","granularity":"sec","time":"2008/05/04 18:10:37 -0400"},"geo_score":0.902,"unit":62,"disposition":"200","cfs":14,"call#":8.004584,"id":"a64sttvvhebj","geo_precision":"range","address":"61 Blair St","state":"OH","juris":"PD"},"type":"Feature","geometry":{"type":"Point","coordinates":[-83.168553,41.128606]}},{"properties":{"officer":"BAR","city":"Tiffin","zip":"44883","date":{"end_time":"2008/07/28 22:43:13 -0400","original":"7/28/2008 10:43:12 PM","granularity":"sec","time":"2008/07/28 22:43:12 -0400"},"geo_score":0.902,"unit":62,"disposition":"200","cfs":14,"call#":8.007889,"id":"a64sttnoowwa","geo_precision":"range","address":"61 Gail Ln","state":"OH","juris":"PD"},"type":"Feature","geometry":{"type":"Point","coordinates":[-83.195128,41.10211]}},{"properties":{"officer":"JMW","city":"Tiffin","zip":"44883","date":{"end_time":"2008/07/04 10:35:07 -0400","original":"7/4/2008 10:35:06 AM","granularity":"sec","time":"2008/07/04 10:35:06 -0400"},"geo_score":0.902,"unit":60,"disposition":"200","cfs":14,"call#":8.006888,"id":"a64sttxl3e0m","geo_precision":"range","address":"619 S Sandusky St","state":"OH","juris":"PD"},"type":"Feature","geometry":{"type":"Point","coordinates":[-83.193969,41.104999]}},{"properties":{"officer":"JAD","city":"Tiffin","zip":"44883","date":{"end_time":"2008/12/28 01:38:20 -0500","original":"12/28/2008 1:38:19 AM","granularity":"sec","time":"2008/12/28 01:38:19 -0500"},"geo_score":0.902,"unit":56,"disposition":"200","cfs":14,"call#":8.013588,"id":"a64sttqqk2d8","geo_precision":"range","address":"62 Gross St","state":"OH","juris":"PD"},"type":"Feature","geometry":{"type":"Point","coordinates":[-83.168144,41.104638]}},{"properties":{"officer":"RJO","city":"Tiffin","zip":"44883","date":{"end_time":"2008/01/28 16:26:00 -0500","original":"1/28/2008 4:25:59 PM","granularity":"sec","time":"2008/01/28 16:25:59 -0500"},"geo_score":0.849,"unit":60,"disposition":"200","cfs":14,"call#":8.000974,"id":"a64sttr7lnxv","geo_precision":"range","address":"62 Hampden Pk","state":"OH","juris":"PD"},"type":"Feature","geometry":{"type":"Point","coordinates":[-83.182655,41.100428]}},{"properties":{"officer":"FWS","city":"Tiffin","zip":"44883","date":{"end_time":"2008/01/17 15:25:00 -0500","original":"1/17/2008 3:24:59 PM","granularity":"sec","time":"2008/01/17 15:24:59 -0500"},"geo_score":0.902,"unit":58,"disposition":"200","cfs":14,"call#":8.000605,"id":"a64sttxqngpy","geo_precision":"range","address":"62 N Sandusky St","state":"OH","juris":"PD"},"type":"Feature","geometry":{"type":"Point","coordinates":[-83.181444,41.121485]}},{"properties":{"officer":"EDA","city":"Tiffin","zip":"44883","date":{"end_time":"2008/07/06 19:59:25 -0400","original":"7/6/2008 7:59:24 PM","granularity":"sec","time":"2008/07/06 19:59:24 -0400"},"geo_score":0.902,"unit":60,"disposition":"200","cfs":14,"call#":8.006997,"id":"a64sttx5tu7c","geo_precision":"range","address":"62 W Market St","state":"OH","juris":"PD"},"type":"Feature","geometry":{"type":"Point","coordinates":[-83.182324,41.114015]}},{"properties":{"officer":"JMW","city":"Tiffin","zip":"44883","date":{"end_time":"2008/02/01 07:17:52 -0500","original":"2/1/2008 7:17:51 AM","granularity":"sec","time":"2008/02/01 07:17:51 -0500"},"geo_score":0.902,"unit":62,"disposition":"200","cfs":14,"call#":8.001094,"id":"a64sttnluu52","geo_precision":"range","address":"62 W Market St","state":"OH","juris":"PD"},"type":"Feature","geometry":{"type":"Point","coordinates":[-83.182324,41.114015]}},{"properties":{"officer":"DGH","city":"Tiffin","zip":"44883","date":{"end_time":"2008/11/06 14:14:33 -0500","original":"11/6/2008 2:14:32 PM","granularity":"sec","time":"2008/11/06 14:14:32 -0500"},"geo_score":0.902,"unit":59,"disposition":"200","cfs":14,"call#":8.011988,"id":"a64sttuqxbt6","geo_precision":"range","address":"64 W Market St","state":"OH","juris":"PD"},"type":"Feature","geometry":{"type":"Point","coordinates":[-83.18237,41.114009]}},{"properties":{"officer":"REB","city":"Tiffin","zip":"44883","date":{"end_time":"2008/07/05 13:04:58 -0400","original":"7/5/2008 1:04:57 PM","granularity":"sec","time":"2008/07/05 13:04:57 -0400"},"geo_score":0.902,"unit":63,"disposition":"200","cfs":14,"call#":8.006942,"id":"a64sttt9pqsa","geo_precision":"range","address":"64 W Market St","state":"OH","juris":"PD"},"type":"Feature","geometry":{"type":"Point","coordinates":[-83.18237,41.114009]}},{"properties":{"officer":"RLT","city":"Tiffin","zip":"44883","date":{"end_time":"2008/05/26 21:52:12 -0400","original":"5/26/2008 9:52:11 PM","granularity":"sec","time":"2008/05/26 21:52:11 -0400"},"geo_score":0.902,"unit":1000,"disposition":"200","cfs":14,"call#":8.005388,"id":"a64sttr5dtnk","geo_precision":"range","address":"64 W Market St","state":"OH","juris":"PD"},"type":"Feature","geometry":{"type":"Point","coordinates":[-83.18237,41.114009]}},{"properties":{"officer":"GTM","city":"Tiffin","zip":"44883","date":{"end_time":"2008/07/04 23:54:39 -0400","original":"7/4/2008 11:54:38 PM","granularity":"sec","time":"2008/07/04 23:54:38 -0400"},"geo_score":0.902,"unit":61,"disposition":"400","cfs":14,"call#":8.006916,"id":"a64stu1nopv7","geo_precision":"range","address":"68 Jackson St","state":"OH","juris":"PD"},"type":"Feature","geometry":{"type":"Point","coordinates":[-83.187269,41.115191]}},{"properties":{"officer":"BAR","city":"Tiffin","zip":"44883","date":{"end_time":"2008/10/18 21:30:13 -0400","original":"10/18/2008 9:30:12 PM","granularity":"sec","time":"2008/10/18 21:30:12 -0400"},"geo_score":0.902,"unit":63,"disposition":"200","cfs":14,"call#":8.011325,"id":"a64sttxcx11z","geo_precision":"range","address":"68 Riverside Dr","state":"OH","juris":"PD"},"type":"Feature","geometry":{"type":"Point","coordinates":[-83.175127,41.11816]}},{"properties":{"officer":"SWK","city":"Tiffin","zip":"44883","date":{"end_time":"2008/06/04 17:28:28 -0400","original":"6/4/2008 5:28:27 PM","granularity":"sec","time":"2008/06/04 17:28:27 -0400"},"geo_score":0.902,"unit":61,"disposition":"200","cfs":14,"call#":8.005711,"id":"a64sttrrijy8","geo_precision":"range","address":"686 S Sandusky St","state":"OH","juris":"PD"},"type":"Feature","geometry":{"type":"Point","coordinates":[-83.195347,41.103548]}},{"properties":{"officer":"DES","city":"Tiffin","zip":"44883","date":{"end_time":"2008/04/24 19:42:06 -0400","original":"4/24/2008 7:42:05 PM","granularity":"sec","time":"2008/04/24 19:42:05 -0400"},"geo_score":0.902,"unit":63,"disposition":"100","cfs":14,"call#":8.004138,"id":"a64sttnozjmb","geo_precision":"range","address":"686 S Sandusky St","state":"OH","juris":"PD"},"type":"Feature","geometry":{"type":"Point","coordinates":[-83.195347,41.103548]}},{"properties":{"officer":"JSC","city":"Tiffin","zip":"44883","date":{"end_time":"2008/04/18 19:03:22 -0400","original":"4/18/2008 7:03:21 PM","granularity":"sec","time":"2008/04/18 19:03:21 -0400"},"geo_score":0.902,"unit":62,"disposition":"200","cfs":14,"call#":8.003907,"id":"a64stu1p2ohu","geo_precision":"range","address":"686 S Sandusky St","state":"OH","juris":"PD"},"type":"Feature","geometry":{"type":"Point","coordinates":[-83.195347,41.103548]}},{"properties":{"officer":"JPF","city":"Tiffin","zip":"44883","date":{"end_time":"2008/10/16 17:04:33 -0400","original":"10/16/2008 5:04:32 PM","granularity":"sec","time":"2008/10/16 17:04:32 -0400"},"geo_score":0.902,"unit":58,"disposition":"200","cfs":14,"call#":8.011235,"id":"a64sttzi50lk","geo_precision":"range","address":"686 S Sandusky St,25","state":"OH","juris":"PD"},"type":"Feature","geometry":{"type":"Point","coordinates":[-83.182903,41.11933]}},{"properties":{"officer":null,"city":"Tiffin","zip":"44883","date":{"end_time":"2008/06/04 17:26:54 -0400","original":"6/4/2008 5:26:53 PM","granularity":"sec","time":"2008/06/04 17:26:53 -0400"},"geo_score":0.721,"unit":61,"disposition":"100","cfs":14,"call#":8.00571,"id":"a64sttuf78gi","geo_precision":"street","address":"686 S Sandusky St,4","state":"OH","juris":"PD"},"type":"Feature","geometry":{"type":"Point","coordinates":[-83.182777,41.119569]}},{"properties":{"officer":"RLT","city":"Tiffin","zip":"44883","date":{"end_time":"2008/10/19 11:30:59 -0400","original":"10/19/2008 11:30:58 AM","granularity":"sec","time":"2008/10/19 11:30:58 -0400"},"geo_score":0.902,"unit":58,"disposition":"200","cfs":14,"call#":8.01135,"id":"a64stu0x66y0","geo_precision":"range","address":"686 S Sandusky St,47","state":"OH","juris":"PD"},"type":"Feature","geometry":{"type":"Point","coordinates":[-83.183365,41.118453]}},{"properties":{"officer":"DGH","city":"Tiffin","zip":"44883","date":{"end_time":"2008/04/03 12:59:47 -0400","original":"4/3/2008 12:59:46 PM","granularity":"sec","time":"2008/04/03 12:59:46 -0400"},"geo_score":0.902,"unit":59,"disposition":"200","cfs":14,"call#":8.003311,"id":"a64stu1lv5mh","geo_precision":"range","address":"686 S Sandusky St,54","state":"OH","juris":"PD"},"type":"Feature","geometry":{"type":"Point","coordinates":[-83.18364,41.118321]}},{"properties":{"officer":"JPF","city":"Tiffin","zip":"44883","date":{"end_time":"2008/06/08 18:32:34 -0400","original":"6/8/2008 6:32:33 PM","granularity":"sec","time":"2008/06/08 18:32:33 -0400"},"geo_score":0.902,"unit":57,"disposition":"200","cfs":14,"call#":8.005891,"id":"a64sttzsvh7w","geo_precision":"range","address":"686 S Sandusky St,68","state":"OH","juris":"PD"},"type":"Feature","geometry":{"type":"Point","coordinates":[-83.18383,41.11796]}},{"properties":{"officer":"BRB","city":"Tiffin","zip":"44883","date":{"end_time":"2008/07/15 02:49:21 -0400","original":"7/15/2008 2:49:20 AM","granularity":"sec","time":"2008/07/15 02:49:20 -0400"},"geo_score":0.727,"unit":58,"disposition":"400","cfs":14,"call#":8.007336,"id":"a64sttrp17ts","geo_precision":"street","address":"686 S Sandusky St,9","state":"OH","juris":"PD"},"type":"Feature","geometry":{"type":"Point","coordinates":[-83.182777,41.119569]}},{"properties":{"officer":"EDA","city":"Tiffin","zip":"44883","date":{"end_time":"2008/04/26 17:07:46 -0400","original":"4/26/2008 5:07:45 PM","granularity":"sec","time":"2008/04/26 17:07:45 -0400"},"geo_score":0.902,"unit":59,"disposition":"200","cfs":14,"call#":8.004237,"id":"a64stu0vw2a8","geo_precision":"range","address":"692 W Market St","state":"OH","juris":"PD"},"type":"Feature","geometry":{"type":"Point","coordinates":[-83.203734,41.111811]}},{"properties":{"officer":"JPF","city":"Tiffin","zip":"44883","date":{"end_time":"2008/11/07 22:45:08 -0500","original":"11/7/2008 10:45:07 PM","granularity":"sec","time":"2008/11/07 22:45:07 -0500"},"geo_score":0.902,"unit":58,"disposition":"400","cfs":14,"call#":8.012038,"id":"a64sttstn3lk","geo_precision":"range","address":"71 E Market St","state":"OH","juris":"PD"},"type":"Feature","geometry":{"type":"Point","coordinates":[-83.177644,41.114498]}},{"properties":{"officer":"JAD","city":"Tiffin","zip":"44883","date":{"end_time":"2008/09/20 00:57:51 -0400","original":"9/20/2008 12:57:50 AM","granularity":"sec","time":"2008/09/20 00:57:50 -0400"},"geo_score":0.902,"unit":56,"disposition":"230","cfs":14,"call#":8.010209,"id":"a64sttwlzhwp","geo_precision":"range","address":"71 E Market St","state":"OH","juris":"PD"},"type":"Feature","geometry":{"type":"Point","coordinates":[-83.177644,41.114498]}},{"properties":{"officer":"MAM","city":"Tiffin","zip":"44883","date":{"end_time":"2008/08/16 01:39:29 -0400","original":"8/16/2008 1:39:28 AM","granularity":"sec","time":"2008/08/16 01:39:28 -0400"},"geo_score":0.902,"unit":64,"disposition":"230","cfs":14,"call#":8.008617,"id":"a64sttyc97jp","geo_precision":"range","address":"71 E Market St","state":"OH","juris":"PD"},"type":"Feature","geometry":{"type":"Point","coordinates":[-83.177644,41.114498]}},{"properties":{"officer":"JPF","city":"Tiffin","zip":"44883","date":{"end_time":"2008/07/13 02:38:32 -0400","original":"7/13/2008 2:38:31 AM","granularity":"sec","time":"2008/07/13 02:38:31 -0400"},"geo_score":0.902,"unit":57,"disposition":"100","cfs":14,"call#":8.007268,"id":"a64sttwjzb5u","geo_precision":"range","address":"71 E Market St","state":"OH","juris":"PD"},"type":"Feature","geometry":{"type":"Point","coordinates":[-83.177644,41.114498]}},{"properties":{"officer":"JSC","city":"Tiffin","zip":"44883","date":{"end_time":"2008/04/06 02:23:36 -0400","original":"4/6/2008 2:23:35 AM","granularity":"sec","time":"2008/04/06 02:23:35 -0400"},"geo_score":0.902,"unit":63,"disposition":"200","cfs":14,"call#":8.003442,"id":"a64sttv8clwk","geo_precision":"range","address":"71 E Market St","state":"OH","juris":"PD"},"type":"Feature","geometry":{"type":"Point","coordinates":[-83.177644,41.114498]}},{"properties":{"officer":"SWK","city":"Tiffin","zip":"44883","date":{"end_time":"2008/03/31 19:53:56 -0400","original":"3/31/2008 7:53:55 PM","granularity":"sec","time":"2008/03/31 19:53:55 -0400"},"geo_score":0.902,"unit":61,"disposition":"200","cfs":14,"call#":8.003238,"id":"a64stu1w5oe1","geo_precision":"range","address":"71 E Market St","state":"OH","juris":"PD"},"type":"Feature","geometry":{"type":"Point","coordinates":[-83.177644,41.114498]}},{"properties":{"officer":"JSC","city":"Tiffin","zip":"44883","date":{"end_time":"2008/03/22 02:26:22 -0400","original":"3/22/2008 2:26:21 AM","granularity":"sec","time":"2008/03/22 02:26:21 -0400"},"geo_score":0.902,"unit":62,"disposition":"100","cfs":14,"call#":8.002824,"id":"a64stu17aibu","geo_precision":"range","address":"71 E Market St","state":"OH","juris":"PD"},"type":"Feature","geometry":{"type":"Point","coordinates":[-83.177644,41.114498]}},{"properties":{"officer":"JAD","city":"Tiffin","zip":"44883","date":{"end_time":"2008/02/17 02:27:50 -0500","original":"2/17/2008 2:27:49 AM","granularity":"sec","time":"2008/02/17 02:27:49 -0500"},"geo_score":0.902,"unit":56,"disposition":"400","cfs":14,"call#":8.00169,"id":"a64sttzj1hlc","geo_precision":"range","address":"71 E Market St","state":"OH","juris":"PD"},"type":"Feature","geometry":{"type":"Point","coordinates":[-83.177644,41.114498]}},{"properties":{"officer":"AMR","city":"Tiffin","zip":"44883","date":{"end_time":"2008/01/01 02:44:17 -0500","original":"1/1/2008 2:44:16 AM","granularity":"sec","time":"2008/01/01 02:44:16 -0500"},"geo_score":0.902,"unit":63,"disposition":"200","cfs":14,"call#":8.000015,"id":"a64sttqikoej","geo_precision":"range","address":"71 E Market St","state":"OH","juris":"PD"},"type":"Feature","geometry":{"type":"Point","coordinates":[-83.177644,41.114498]}},{"properties":{"officer":"MEM","city":"Tiffin","zip":"44883","date":{"end_time":"2008/07/11 23:20:19 -0400","original":"7/11/2008 11:20:18 PM","granularity":"sec","time":"2008/07/11 23:20:18 -0400"},"geo_score":0.902,"unit":62,"disposition":"200","cfs":14,"call#":8.007213,"id":"a64stu1yv37k","geo_precision":"range","address":"72 N Monroe St","state":"OH","juris":"PD"},"type":"Feature","geometry":{"type":"Point","coordinates":[-83.178831,41.118697]}},{"properties":{"officer":"JPF","city":"Tiffin","zip":"44883","date":{"end_time":"2008/08/10 19:14:00 -0400","original":"8/10/2008 7:13:59 PM","granularity":"sec","time":"2008/08/10 19:13:59 -0400"},"geo_score":0.902,"unit":57,"disposition":"200","cfs":14,"call#":8.008403,"id":"a64stu1wz1gh","geo_precision":"range","address":"73 Melmore St","state":"OH","juris":"PD"},"type":"Feature","geometry":{"type":"Point","coordinates":[-83.173839,41.107724]}},{"properties":{"officer":"SGN","city":"Tiffin","zip":"44883","date":{"end_time":"2008/12/10 17:04:03 -0500","original":"12/10/2008 5:04:02 PM","granularity":"sec","time":"2008/12/10 17:04:02 -0500"},"geo_score":0.902,"unit":62,"disposition":"200","cfs":14,"call#":8.013063,"id":"a64sttrclsg1","geo_precision":"range","address":"73 St Clair St","state":"OH","juris":"PD"},"type":"Feature","geometry":{"type":"Point","coordinates":[-83.181212,41.111841]}},{"properties":{"officer":"RJO","city":"Tiffin","zip":"44883","date":{"end_time":"2008/07/15 13:16:53 -0400","original":"7/15/2008 1:16:52 PM","granularity":"sec","time":"2008/07/15 13:16:52 -0400"},"geo_score":0.902,"unit":57,"disposition":"200","cfs":14,"call#":8.00735,"id":"a64sttrcelr1","geo_precision":"range","address":"74 Bobb St","state":"OH","juris":"PD"},"type":"Feature","geometry":{"type":"Point","coordinates":[-83.16072,41.125714]}},{"properties":{"officer":"SGN","city":"Tiffin","zip":"44883","date":{"end_time":"2008/01/23 16:49:28 -0500","original":"1/23/2008 4:49:27 PM","granularity":"sec","time":"2008/01/23 16:49:27 -0500"},"geo_score":0.902,"unit":63,"disposition":"200","cfs":14,"call#":8.000796,"id":"a64stu0w0vui","geo_precision":"range","address":"747 W Market St","state":"OH","juris":"PD"},"type":"Feature","geometry":{"type":"Point","coordinates":[-83.206231,41.111378]}},{"properties":{"officer":"REB","city":"Tiffin","zip":"44883","date":{"end_time":"2008/03/23 15:56:00 -0400","original":"3/23/2008 3:55:00 PM","granularity":"min","time":"2008/03/23 15:55:00 -0400"},"geo_score":0.902,"unit":58,"disposition":"200","cfs":14,"call#":8.002884,"id":"a64stto6rg8d","geo_precision":"range","address":"75 Webster St","state":"OH","juris":"PD"},"type":"Feature","geometry":{"type":"Point","coordinates":[-83.175391,41.123689]}},{"properties":{"officer":"REB","city":"Tiffin","zip":"44883","date":{"end_time":"2008/04/28 09:07:11 -0400","original":"4/28/2008 9:07:10 AM","granularity":"sec","time":"2008/04/28 09:07:10 -0400"},"geo_score":0.902,"unit":58,"disposition":"200","cfs":14,"call#":8.004314,"id":"a64sttqvgsg5","geo_precision":"range","address":"76 Ashwood Rd","state":"OH","juris":"PD"},"type":"Feature","geometry":{"type":"Point","coordinates":[-83.201448,41.114835]}},{"properties":{"officer":"SMM","city":"Tiffin","zip":"44883","date":{"end_time":"2008/11/19 19:19:18 -0500","original":"11/19/2008 7:19:17 PM","granularity":"sec","time":"2008/11/19 19:19:17 -0500"},"geo_score":0.902,"unit":57,"disposition":"230","cfs":14,"call#":8.012423,"id":"a64stu1uox11","geo_precision":"range","address":"77 Douglas St","state":"OH","juris":"PD"},"type":"Feature","geometry":{"type":"Point","coordinates":[-83.173754,41.127695]}},{"properties":{"officer":"SMM","city":"Tiffin","zip":"44883","date":{"end_time":"2008/03/27 14:33:11 -0400","original":"3/27/2008 2:33:10 PM","granularity":"sec","time":"2008/03/27 14:33:10 -0400"},"geo_score":0.902,"unit":57,"disposition":"100","cfs":14,"call#":8.003034,"id":"a64sttrmyzeu","geo_precision":"range","address":"77 Douglas St","state":"OH","juris":"PD"},"type":"Feature","geometry":{"type":"Point","coordinates":[-83.173754,41.127695]}},{"properties":{"officer":"JPF","city":"Tiffin","zip":"44883","date":{"end_time":"2008/04/15 20:31:59 -0400","original":"4/15/2008 8:31:58 PM","granularity":"sec","time":"2008/04/15 20:31:58 -0400"},"geo_score":0.902,"unit":62,"disposition":"200","cfs":14,"call#":8.003789,"id":"a64stu1afez5","geo_precision":"range","address":"77 Jefferson St","state":"OH","juris":"PD"},"type":"Feature","geometry":{"type":"Point","coordinates":[-83.17514,41.115976]}},{"properties":{"officer":"JSC","city":"Tiffin","zip":"44883","date":{"end_time":"2008/09/29 19:23:18 -0400","original":"9/29/2008 7:23:17 PM","granularity":"sec","time":"2008/09/29 19:23:17 -0400"},"geo_score":0.902,"unit":59,"disposition":"200","cfs":14,"call#":8.010627,"id":"a64stu1b9cxj","geo_precision":"range","address":"78 Grace St","state":"OH","juris":"PD"},"type":"Feature","geometry":{"type":"Point","coordinates":[-83.186038,41.121415]}},{"properties":{"officer":"MEM","city":"Tiffin","zip":"44883","date":{"end_time":"2008/12/21 00:43:25 -0500","original":"12/21/2008 12:43:24 AM","granularity":"sec","time":"2008/12/21 00:43:24 -0500"},"geo_score":0.514,"unit":58,"disposition":"200","cfs":14,"call#":8.013393,"id":"a64sttvfr7me","geo_precision":"street","address":"78 Jackson St,C","state":"OH","juris":"PD"},"type":"Feature","geometry":{"type":"Point","coordinates":[-83.174672,41.108987]}},{"properties":{"officer":"RAG","city":"Tiffin","zip":"44883","date":{"end_time":"2008/01/21 12:49:44 -0500","original":"1/21/2008 12:49:43 PM","granularity":"sec","time":"2008/01/21 12:49:43 -0500"},"geo_score":0.78,"unit":57,"disposition":"200","cfs":14,"call#":8.000736,"id":"a64sttreiirm","geo_precision":"range","address":"790 W Market St","state":"OH","juris":"PD"},"type":"Feature","geometry":{"type":"Point","coordinates":[-83.207496,41.111156]}},{"properties":{"officer":"BAR","city":"Tiffin","zip":"44883","date":{"end_time":"2008/06/15 10:50:17 -0400","original":"6/15/2008 10:50:16 AM","granularity":"sec","time":"2008/06/15 10:50:16 -0400"},"geo_score":0.78,"unit":62,"disposition":"100","cfs":14,"call#":8.006175,"id":"a64sttxj7bkc","geo_precision":"range","address":"806 W Market St","state":"OH","juris":"PD"},"type":"Feature","geometry":{"type":"Point","coordinates":[-83.207509,41.111153]}},{"properties":{"officer":"MEM","city":"Tiffin","zip":"44883","date":{"end_time":"2008/12/31 22:02:58 -0500","original":"12/31/2008 10:02:57 PM","granularity":"sec","time":"2008/12/31 22:02:57 -0500"},"geo_score":0.902,"unit":57,"disposition":"400","cfs":14,"call#":8.013685,"id":"a64sttnjak5a","geo_precision":"range","address":"81 Minerva St","state":"OH","juris":"PD"},"type":"Feature","geometry":{"type":"Point","coordinates":[-83.176206,41.122592]}},{"properties":{"officer":"EDA","city":"Tiffin","zip":"44883","date":{"end_time":"2008/03/24 23:43:59 -0400","original":"3/24/2008 11:43:58 PM","granularity":"sec","time":"2008/03/24 23:43:58 -0400"},"geo_score":0.876,"unit":60,"disposition":"200","cfs":14,"call#":8.002936,"id":"a64stttg2qzr","geo_precision":"range","address":"81 Virginia Av","state":"OH","juris":"PD"},"type":"Feature","geometry":{"type":"Point","coordinates":[-83.19008,41.116076]}},{"properties":{"officer":"SMM","city":"Tiffin","zip":"44883","date":{"end_time":"2008/09/27 02:41:44 -0400","original":"9/27/2008 2:41:43 AM","granularity":"sec","time":"2008/09/27 02:41:43 -0400"},"geo_score":0.902,"unit":62,"disposition":"230","cfs":14,"call#":8.010517,"id":"a64sttwlhetl","geo_precision":"range","address":"84 N Washington St","state":"OH","juris":"PD"},"type":"Feature","geometry":{"type":"Point","coordinates":[-83.177423,41.120102]}},{"properties":{"officer":"MAM","city":"Tiffin","zip":"44883","date":{"end_time":"2008/06/27 01:37:32 -0400","original":"6/27/2008 1:37:31 AM","granularity":"sec","time":"2008/06/27 01:37:31 -0400"},"geo_score":0.902,"unit":58,"disposition":"100","cfs":14,"call#":8.006572,"id":"a64sttv2c2pf","geo_precision":"range","address":"84 N Washington St","state":"OH","juris":"PD"},"type":"Feature","geometry":{"type":"Point","coordinates":[-83.177423,41.120102]}},{"properties":{"officer":"RJO","city":"Tiffin","zip":"44883","date":{"end_time":"2008/05/18 15:32:23 -0400","original":"5/18/2008 3:32:22 PM","granularity":"sec","time":"2008/05/18 15:32:22 -0400"},"geo_score":0.902,"unit":57,"disposition":"450","cfs":14,"call#":8.0051,"id":"a64sttu8srv4","geo_precision":"range","address":"849 N Water St","state":"OH","juris":"PD"},"type":"Feature","geometry":{"type":"Point","coordinates":[-83.163989,41.135241]}},{"properties":{"officer":"JSC","city":"Tiffin","zip":"44883","date":{"end_time":"2008/01/18 19:46:39 -0500","original":"1/18/2008 7:46:38 PM","granularity":"sec","time":"2008/01/18 19:46:38 -0500"},"geo_score":0.902,"unit":62,"disposition":"200","cfs":14,"call#":8.000653,"id":"a64sttpsw190","geo_precision":"range","address":"85 Minerva St","state":"OH","juris":"PD"},"type":"Feature","geometry":{"type":"Point","coordinates":[-83.176219,41.122696]}},{"properties":{"officer":"EDA","city":"Tiffin","zip":"44883","date":{"end_time":"2008/06/07 19:04:51 -0400","original":"6/7/2008 7:04:50 PM","granularity":"sec","time":"2008/06/07 19:04:50 -0400"},"geo_score":0.902,"unit":60,"disposition":"200","cfs":14,"call#":8.005842,"id":"a64sttornpvt","geo_precision":"range","address":"85 S Sandusky St","state":"OH","juris":"PD"},"type":"Feature","geometry":{"type":"Point","coordinates":[-83.184054,41.117531]}},{"properties":{"officer":"GTM","city":"Tiffin","zip":"44883","date":{"end_time":"2008/09/06 12:46:48 -0400","original":"9/6/2008 12:46:47 PM","granularity":"sec","time":"2008/09/06 12:46:47 -0400"},"geo_score":0.78,"unit":58,"disposition":"200","cfs":14,"call#":8.009563,"id":"a64sttqp7uwl","geo_precision":"range","address":"870 W Market St","state":"OH","juris":"PD"},"type":"Feature","geometry":{"type":"Point","coordinates":[-83.207559,41.111141]}},{"properties":{"officer":"MEM","city":"Tiffin","zip":"44883","date":{"end_time":"2008/04/18 22:04:16 -0400","original":"4/18/2008 10:04:15 PM","granularity":"sec","time":"2008/04/18 22:04:15 -0400"},"geo_score":0.476,"unit":57,"disposition":"200","cfs":14,"call#":8.003918,"id":"a64stu004hy4","geo_precision":"street","address":"870 W Market St,R","state":"OH","juris":"PD"},"type":"Feature","geometry":{"type":"Point","coordinates":[-83.181592,41.114111]}},{"properties":{"officer":"SGN","city":"Tiffin","zip":"44883","date":{"end_time":"2008/04/04 14:04:56 -0400","original":"4/4/2008 2:04:55 PM","granularity":"sec","time":"2008/04/04 14:04:55 -0400"},"geo_score":0.902,"unit":63,"disposition":"200","cfs":14,"call#":8.003352,"id":"a64sttw1llcw","geo_precision":"range","address":"9 Cottonwood Dr","state":"OH","juris":"PD"},"type":"Feature","geometry":{"type":"Point","coordinates":[-83.211388,41.113941]}},{"properties":{"officer":"MAM","city":"Tiffin","zip":"44883","date":{"end_time":"2008/07/02 20:46:53 -0400","original":"7/2/2008 8:46:52 PM","granularity":"sec","time":"2008/07/02 20:46:52 -0400"},"geo_score":0.902,"unit":58,"disposition":"200","cfs":14,"call#":8.006826,"id":"a64sttu6dolf","geo_precision":"range","address":"9 Miami St","state":"OH","juris":"PD"},"type":"Feature","geometry":{"type":"Point","coordinates":[-83.179675,41.116839]}},{"properties":{"officer":"REB","city":"Tiffin","zip":"44883","date":{"end_time":"2008/06/23 08:00:41 -0400","original":"6/23/2008 8:00:40 AM","granularity":"sec","time":"2008/06/23 08:00:40 -0400"},"geo_score":0.902,"unit":63,"disposition":"200","cfs":14,"call#":8.006442,"id":"a64sttml4uci","geo_precision":"range","address":"91 Beechwood Dr","state":"OH","juris":"PD"},"type":"Feature","geometry":{"type":"Point","coordinates":[-83.204688,41.114708]}},{"properties":{"officer":"JMW","city":"Tiffin","zip":"44883","date":{"end_time":"2008/03/02 09:48:21 -0500","original":"3/2/2008 9:48:20 AM","granularity":"sec","time":"2008/03/02 09:48:20 -0500"},"geo_score":0.902,"unit":58,"disposition":"200","cfs":14,"call#":8.002188,"id":"a64stu2nftzz","geo_precision":"range","address":"91 Hedges St","state":"OH","juris":"PD"},"type":"Feature","geometry":{"type":"Point","coordinates":[-83.16653,41.114892]}},{"properties":{"officer":"FWS","city":"Tiffin","zip":"44883","date":{"end_time":"2008/04/06 15:00:16 -0400","original":"4/6/2008 3:00:15 PM","granularity":"sec","time":"2008/04/06 15:00:15 -0400"},"geo_score":0.902,"unit":59,"disposition":"200","cfs":14,"call#":8.003457,"id":"a64stu0mc2wj","geo_precision":"range","address":"91 Melmore St","state":"OH","juris":"PD"},"type":"Feature","geometry":{"type":"Point","coordinates":[-83.173569,41.107373]}},{"properties":{"officer":"SWK","city":"Tiffin","zip":"44883","date":{"end_time":"2008/11/21 12:15:34 -0500","original":"11/21/2008 12:15:33 PM","granularity":"sec","time":"2008/11/21 12:15:33 -0500"},"geo_score":0.902,"unit":61,"disposition":"200","cfs":14,"call#":8.012471,"id":"a64sttvduc0i","geo_precision":"range","address":"92 Madison St","state":"OH","juris":"PD"},"type":"Feature","geometry":{"type":"Point","coordinates":[-83.176333,41.113386]}},{"properties":{"officer":"JPF","city":"Tiffin","zip":"44883","date":{"end_time":"2008/11/14 02:40:30 -0500","original":"11/14/2008 2:40:29 AM","granularity":"sec","time":"2008/11/14 02:40:29 -0500"},"geo_score":0.902,"unit":57,"disposition":"100","cfs":14,"call#":8.012242,"id":"a64sttzupso7","geo_precision":"range","address":"92 Madison St","state":"OH","juris":"PD"},"type":"Feature","geometry":{"type":"Point","coordinates":[-83.176333,41.113386]}},{"properties":{"officer":"BRB","city":"Tiffin","zip":"44883","date":{"end_time":"2008/04/10 23:45:46 -0400","original":"4/10/2008 11:45:45 PM","granularity":"sec","time":"2008/04/10 23:45:45 -0400"},"geo_score":0.902,"unit":59,"disposition":"200","cfs":14,"call#":8.003582,"id":"a64sttw9l2lk","geo_precision":"range","address":"92 Madison St","state":"OH","juris":"PD"},"type":"Feature","geometry":{"type":"Point","coordinates":[-83.176333,41.113386]}},{"properties":{"officer":"LMK","city":"Tiffin","zip":"44883","date":{"end_time":"2008/01/01 02:03:07 -0500","original":"1/1/2008 2:03:06 AM","granularity":"sec","time":"2008/01/01 02:03:06 -0500"},"geo_score":0.902,"unit":59,"disposition":"400","cfs":14,"call#":8.000011,"id":"a64sttmjvetu","geo_precision":"range","address":"92 Madison St","state":"OH","juris":"PD"},"type":"Feature","geometry":{"type":"Point","coordinates":[-83.176333,41.113386]}},{"properties":{"officer":"GTM","city":"Tiffin","zip":"44883","date":{"end_time":"2008/08/01 13:38:34 -0400","original":"8/1/2008 1:38:33 PM","granularity":"sec","time":"2008/08/01 13:38:33 -0400"},"geo_score":0.902,"unit":58,"disposition":"200","cfs":14,"call#":8.00803,"id":"a64sttysb57n","geo_precision":"range","address":"94 Minerva St","state":"OH","juris":"PD"},"type":"Feature","geometry":{"type":"Point","coordinates":[-83.176251,41.122955]}},{"properties":{"officer":"RLT","city":"Tiffin","zip":"44883","date":{"end_time":"2008/08/19 08:16:50 -0400","original":"8/19/2008 8:16:49 AM","granularity":"sec","time":"2008/08/19 08:16:49 -0400"},"geo_score":0.902,"unit":58,"disposition":"200","cfs":14,"call#":8.008751,"id":"a64stu2d6v4m","geo_precision":"range","address":"95 W Market St","state":"OH","juris":"PD"},"type":"Feature","geometry":{"type":"Point","coordinates":[-83.183702,41.113904]}},{"properties":{"officer":"EDA","city":"Tiffin","zip":"44883","date":{"end_time":"2008/06/20 19:32:58 -0400","original":"6/20/2008 7:32:57 PM","granularity":"sec","time":"2008/06/20 19:32:57 -0400"},"geo_score":0.902,"unit":60,"disposition":"200","cfs":14,"call#":8.006355,"id":"a64stu1movd3","geo_precision":"range","address":"98 E Davis St","state":"OH","juris":"PD"},"type":"Feature","geometry":{"type":"Point","coordinates":[-83.174617,41.126016]}},{"properties":{"officer":"MEM","city":"Tiffin","zip":"44883","date":{"end_time":"2008/05/14 21:48:33 -0400","original":"5/14/2008 9:48:32 PM","granularity":"sec","time":"2008/05/14 21:48:32 -0400"},"geo_score":0.902,"unit":57,"disposition":"200","cfs":14,"call#":8.004933,"id":"a64sttyrcrpu","geo_precision":"range","address":"98 S Washington St","state":"OH","juris":"PD"},"type":"Feature","geometry":{"type":"Point","coordinates":[-83.176613,41.114784]}},{"properties":{"officer":"JAD","city":"Tiffin","zip":"44883","date":{"end_time":"2008/08/03 05:40:05 -0400","original":"8/3/2008 5:40:04 AM","granularity":"sec","time":"2008/08/03 05:40:04 -0400"},"geo_score":0.902,"unit":56,"disposition":"200","cfs":14,"call#":8.008112,"id":"a64sttnmesqf","geo_precision":"range","address":"98X S Washington St","state":"OH","juris":"PD"},"type":"Feature","geometry":{"type":"Point","coordinates":[-83.176613,41.114784]}},{"properties":{"officer":"BAR","city":"Tiffin","zip":"44883","date":{"end_time":"2008/06/06 13:12:36 -0400","original":"6/6/2008 1:12:35 PM","granularity":"sec","time":"2008/06/06 13:12:35 -0400"},"geo_score":0.902,"unit":57,"disposition":"200","cfs":14,"call#":8.005779,"id":"a64sttr4kyx6","geo_precision":"range","address":"98X S Washington St","state":"OH","juris":"PD"},"type":"Feature","geometry":{"type":"Point","coordinates":[-83.176613,41.114784]}},{"properties":{"officer":"DGH","city":"Tiffin","zip":"44883","date":{"end_time":"2008/01/28 10:03:12 -0500","original":"1/28/2008 10:03:11 AM","granularity":"sec","time":"2008/01/28 10:03:11 -0500"},"geo_score":0.857,"unit":59,"disposition":"200","cfs":14,"call#":8.000957,"id":"a64sttpi9xb6","geo_precision":"street","address":"Benner St/W Perry St","state":"OH","juris":"PD"},"type":"Feature","geometry":{"type":"Point","coordinates":[-83.178861,41.118824]}},{"properties":{"officer":"MAM","city":"Tiffin","zip":"44883","date":{"end_time":"2008/06/07 21:43:59 -0400","original":"6/7/2008 9:43:58 PM","granularity":"sec","time":"2008/06/07 21:43:58 -0400"},"geo_score":0.857,"unit":58,"disposition":"100","cfs":14,"call#":8.005845,"id":"a64stu0hd5qk","geo_precision":"street","address":"Clay St/Franklin St","state":"OH","juris":"PD"},"type":"Feature","geometry":{"type":"Point","coordinates":[-83.1824,41.116381]}},{"properties":{"officer":"EDA","city":"Tiffin","zip":"44883","date":{"end_time":"2008/06/07 18:24:30 -0400","original":"6/7/2008 6:24:29 PM","granularity":"sec","time":"2008/06/07 18:24:29 -0400"},"geo_score":0.857,"unit":60,"disposition":"100","cfs":14,"call#":8.00584,"id":"a64sttojrlqr","geo_precision":"street","address":"Clay St/S Sandusky St","state":"OH","juris":"PD"},"type":"Feature","geometry":{"type":"Point","coordinates":[-83.1824,41.116381]}},{"properties":{"officer":"FWS","city":"Tiffin","zip":"44883","date":{"end_time":"2008/08/28 23:01:17 -0400","original":"8/28/2008 11:01:16 PM","granularity":"sec","time":"2008/08/28 23:01:16 -0400"},"geo_score":0.857,"unit":58,"disposition":"100","cfs":14,"call#":8.009154,"id":"a64sttq9488v","geo_precision":"street","address":"Clay St/Wentz St","state":"OH","juris":"PD"},"type":"Feature","geometry":{"type":"Point","coordinates":[-83.1824,41.116381]}},{"properties":{"officer":"AMR","city":"Tiffin","zip":"44883","date":{"end_time":"2008/01/30 22:33:54 -0500","original":"1/30/2008 10:33:53 PM","granularity":"sec","time":"2008/01/30 22:33:53 -0500"},"geo_score":0.857,"unit":63,"disposition":"200","cfs":14,"call#":8.001062,"id":"a64stu0yx8iy","geo_precision":"street","address":"E Perry St/S Monroe St","state":"OH","juris":"PD"},"type":"Feature","geometry":{"type":"Point","coordinates":[-83.178368,41.11568]}},{"properties":{"officer":"JAD","city":"Tiffin","zip":"44883","date":{"end_time":"2008/09/20 22:59:46 -0400","original":"9/20/2008 10:59:45 PM","granularity":"sec","time":"2008/09/20 22:59:45 -0400"},"geo_score":0.857,"unit":56,"disposition":"400","cfs":14,"call#":8.010258,"id":"a64stu2blzbm","geo_precision":"street","address":"Ella St/Sycamore St","state":"OH","juris":"PD"},"type":"Feature","geometry":{"type":"Point","coordinates":[-83.184968,41.104152]}},{"properties":{"officer":"SWK","city":"Tiffin","zip":"44883","date":{"end_time":"2008/03/20 16:20:48 -0400","original":"3/20/2008 4:20:47 PM","granularity":"sec","time":"2008/03/20 16:20:47 -0400"},"geo_score":0.814,"unit":61,"disposition":"200","cfs":14,"call#":8.002765,"id":"a64sttok1h6v","geo_precision":"street","address":"Leitner Av/S Sandusky St","state":"OH","juris":"PD"},"type":"Feature","geometry":{"type":"Point","coordinates":[-83.187918,41.112179]}},{"properties":{"officer":"BRB","city":"Tiffin","zip":"44883","date":{"end_time":"2008/07/29 02:24:12 -0400","original":"7/29/2008 2:24:11 AM","granularity":"sec","time":"2008/07/29 02:24:11 -0400"},"geo_score":0.857,"unit":60,"disposition":"200","cfs":14,"call#":8.007895,"id":"a64sttnvx204","geo_precision":"street","address":"Madison St/S Monroe St","state":"OH","juris":"PD"},"type":"Feature","geometry":{"type":"Point","coordinates":[-83.177984,41.113223]}},{"properties":{"officer":"REB","city":"Tiffin","zip":"44883","date":{"end_time":"2008/03/09 08:13:59 -0400","original":"3/9/2008 8:13:58 AM","granularity":"sec","time":"2008/03/09 08:13:58 -0400"},"geo_score":0.857,"unit":63,"disposition":"200","cfs":14,"call#":8.002405,"id":"a64sttvsl1ln","geo_precision":"street","address":"Madison St/S Monroe St","state":"OH","juris":"PD"},"type":"Feature","geometry":{"type":"Point","coordinates":[-83.177984,41.113223]}},{"properties":{"officer":"RLT","city":"Tiffin","zip":"44883","date":{"end_time":"2008/08/04 16:24:44 -0400","original":"8/4/2008 4:24:43 PM","granularity":"sec","time":"2008/08/04 16:24:43 -0400"},"geo_score":0.857,"unit":57,"disposition":"200","cfs":14,"call#":8.008162,"id":"a64sttyxlsih","geo_precision":"street","address":"Martha St/Union St","state":"OH","juris":"PD"},"type":"Feature","geometry":{"type":"Point","coordinates":[-83.181503,41.107685]}},{"properties":{"officer":"JAD","city":"Tiffin","zip":"44883","date":{"end_time":"2008/08/31 20:34:07 -0400","original":"8/31/2008 8:34:06 PM","granularity":"sec","time":"2008/08/31 20:34:06 -0400"},"geo_score":0.643,"unit":56,"disposition":"230","cfs":14,"call#":8.009331,"id":"a64sttvxno0h","geo_precision":"street","address":"N Washington St/Third Av","state":"OH","juris":"PD"},"type":"Feature","geometry":{"type":"Point","coordinates":[-83.178657,41.129656]}},{"properties":{"officer":"JPF","city":"Tiffin","zip":"44883","date":{"end_time":"2008/10/11 19:46:41 -0400","original":"10/11/2008 7:46:40 PM","granularity":"sec","time":"2008/10/11 19:46:40 -0400"},"geo_score":0.857,"unit":57,"disposition":"100","cfs":14,"call#":8.011059,"id":"a64sttsmj4d5","geo_precision":"street","address":"Nelson St/Cherry St","state":"OH","juris":"PD"},"type":"Feature","geometry":{"type":"Point","coordinates":[-83.19626,41.112696]}},{"properties":{"officer":"JAD","city":"Tiffin","zip":"44883","date":{"end_time":"2008/08/16 02:47:00 -0400","original":"8/16/2008 2:46:59 AM","granularity":"sec","time":"2008/08/16 02:46:59 -0400"},"geo_score":0.857,"unit":56,"disposition":"230","cfs":14,"call#":8.008623,"id":"a64stu0t8rat","geo_precision":"street","address":"S Washington St/Madison St","state":"OH","juris":"PD"},"type":"Feature","geometry":{"type":"Point","coordinates":[-83.177984,41.113223]}},{"properties":{"officer":"RLT","city":"Tiffin","zip":"44883","date":{"end_time":"2008/05/25 00:24:21 -0400","original":"5/25/2008 12:24:20 AM","granularity":"sec","time":"2008/05/25 00:24:20 -0400"},"geo_score":0.643,"unit":61,"disposition":"100","cfs":14,"call#":8.00532,"id":"a64sttvbz0zf","geo_precision":"street","address":"Shawhan Av/Second Av","state":"OH","juris":"PD"},"type":"Feature","geometry":{"type":"Point","coordinates":[-83.176527,41.128367]}},{"properties":{"officer":"JPF","city":"Tiffin","zip":"44883","date":{"end_time":"2008/12/11 20:46:32 -0500","original":"12/11/2008 8:46:31 PM","granularity":"sec","time":"2008/12/11 20:46:31 -0500"},"geo_score":0.686,"unit":59,"disposition":"200","cfs":14,"call#":8.013103,"id":"a64stu0rhqa1","geo_precision":"street","address":"Union St/Second St","state":"OH","juris":"PD"},"type":"Feature","geometry":{"type":"Point","coordinates":[-83.18164,41.108319]}},{"properties":{"officer":"DES","city":"Tiffin","zip":"44883","date":{"end_time":"2008/07/18 17:16:38 -0400","original":"7/18/2008 5:16:37 PM","granularity":"sec","time":"2008/07/18 17:16:37 -0400"},"geo_score":0.857,"unit":62,"disposition":"200","cfs":14,"call#":8.007493,"id":"a64stu1grdf8","geo_precision":"street","address":"W Market St/City Limits","state":"OH","juris":"PD"},"type":"Feature","geometry":{"type":"Point","coordinates":[-83.181592,41.114111]}},{"properties":{"officer":"JSC","city":"Tiffin","zip":"44883","date":{"end_time":"2008/08/16 21:39:29 -0400","original":"8/16/2008 9:39:28 PM","granularity":"sec","time":"2008/08/16 21:39:28 -0400"},"geo_score":0.857,"unit":57,"disposition":"200","cfs":14,"call#":8.008658,"id":"a64sttvzj4ne","geo_precision":"street","address":"W Market St/Jackson St","state":"OH","juris":"PD"},"type":"Feature","geometry":{"type":"Point","coordinates":[-83.188463,41.113439]}}],"is_temporal":true,"author":{"url":"","metadata":"","contact_name":"","contact_address":"","source":"","contact_phone":""},"source":"","pagination":{"sort":null,"start":0,"total":353,"limit":1000000},"state":"complete","tags":"","published":"2014-08-14T15:39:33-04:00","id":220692}