{"type":"FeatureCollection","data_type":"Dataset","url_type":null,"permissions":[{"permissions":{"download":true,"view":true},"group_id":"everyone"}],"classification":null,"title":"James_-_Western_Resources_-_ran_March_27th","count":28,"stream_id":220676,"contributor":{"url":"http://geocommons.com/users/39447","name":"sam.felipe"},"data_attributes":null,"calculation_params":null,"icon_link":null,"link":"http://geocommons.com/overlays/220676.json","extent":[-117.889,33.7793,-117.889,33.7793],"geometry_types":["point"],"unique_name":null,"name":"James_-_Western_Resources_-_ran_March_27th","feature_count":28,"description":"","next_feature":null,"is_raster":false,"short_classification":"Y","stats":{"mode":{"max":28,"mean":28.0,"variance":0.0,"stdev":0.0,"min":28,"median":28}},"features":[{"properties":{"city":"Orange","name of competitor":"Western Resources Title","zip":"92868","mode":28,"geo_score":0.873,"street address":"625 The City Drive","id":"a73ymp5lds7s","geo_precision":"range"},"type":"Feature","geometry":{"type":"Point","coordinates":[-117.888827,33.779336]}},{"properties":{"city":"Orange","name of competitor":"Western Resources Title","zip":"92868","mode":28,"geo_score":0.873,"street address":"625 The City Drive","id":"a73ymp3se5mi","geo_precision":"range"},"type":"Feature","geometry":{"type":"Point","coordinates":[-117.888827,33.779336]}},{"properties":{"city":"Orange","name of competitor":"Western Resources Title","zip":"92868","mode":28,"geo_score":0.873,"street address":"625 The City Drive","id":"a73ymp4xxw6f","geo_precision":"range"},"type":"Feature","geometry":{"type":"Point","coordinates":[-117.888827,33.779336]}},{"properties":{"city":"Orange","name of competitor":"Western Resources Title","zip":"92868","mode":28,"geo_score":0.873,"street address":"625 The City Drive","id":"a73ymp4bvd9t","geo_precision":"range"},"type":"Feature","geometry":{"type":"Point","coordinates":[-117.888827,33.779336]}},{"properties":{"city":"Orange","name of competitor":"Western Resources Title","zip":"92868","mode":28,"geo_score":0.873,"street address":"625 The City Drive","id":"a73ymp6u772o","geo_precision":"range"},"type":"Feature","geometry":{"type":"Point","coordinates":[-117.888827,33.779336]}},{"properties":{"city":"Orange","name of competitor":"Western Resources Title","zip":"92868","mode":28,"geo_score":0.873,"street address":"625 The City Drive","id":"a73ymouizfen","geo_precision":"range"},"type":"Feature","geometry":{"type":"Point","coordinates":[-117.888827,33.779336]}},{"properties":{"city":"Orange","name of competitor":"Western Resources Title","zip":"92868","mode":28,"geo_score":0.873,"street address":"625 The City Drive","id":"a73ymp4roptf","geo_precision":"range"},"type":"Feature","geometry":{"type":"Point","coordinates":[-117.888827,33.779336]}},{"properties":{"city":"Orange","name of competitor":"Western Resources Title","zip":"92868","mode":28,"geo_score":0.873,"street address":"625 The City Drive","id":"a73ymp6i8vl7","geo_precision":"range"},"type":"Feature","geometry":{"type":"Point","coordinates":[-117.888827,33.779336]}},{"properties":{"city":"Orange","name of competitor":"Western Resources Title","zip":"92868","mode":28,"geo_score":0.873,"street address":"625 The City Drive","id":"a73ymp0f5fin","geo_precision":"range"},"type":"Feature","geometry":{"type":"Point","coordinates":[-117.888827,33.779336]}},{"properties":{"city":"Orange","name of competitor":"Western Resources Title","zip":"92868","mode":28,"geo_score":0.873,"street address":"625 The City Drive","id":"a73ymp0m412d","geo_precision":"range"},"type":"Feature","geometry":{"type":"Point","coordinates":[-117.888827,33.779336]}},{"properties":{"city":"Orange","name of competitor":"Western Resources Title","zip":"92868","mode":28,"geo_score":0.873,"street address":"625 The City Drive","id":"a73ymp0k15wj","geo_precision":"range"},"type":"Feature","geometry":{"type":"Point","coordinates":[-117.888827,33.779336]}},{"properties":{"city":"Orange","name of competitor":"Western Resources Title","zip":"92868","mode":28,"geo_score":0.873,"street address":"625 The City Drive","id":"a73ymoy46kbb","geo_precision":"range"},"type":"Feature","geometry":{"type":"Point","coordinates":[-117.888827,33.779336]}},{"properties":{"city":"Orange","name of competitor":"Western Resources Title","zip":"92868","mode":28,"geo_score":0.873,"street address":"625 The City Drive","id":"a73ymp75z647","geo_precision":"range"},"type":"Feature","geometry":{"type":"Point","coordinates":[-117.888827,33.779336]}},{"properties":{"city":"Orange","name of competitor":"Western Resources Title","zip":"92868","mode":28,"geo_score":0.873,"street address":"625 The City Drive","id":"a73ymp5yco0c","geo_precision":"range"},"type":"Feature","geometry":{"type":"Point","coordinates":[-117.888827,33.779336]}},{"properties":{"city":"Orange","name of competitor":"Western Resources Title","zip":"92868","mode":28,"geo_score":0.873,"street address":"625 The City Drive","id":"a73ymou673q9","geo_precision":"range"},"type":"Feature","geometry":{"type":"Point","coordinates":[-117.888827,33.779336]}},{"properties":{"city":"Orange","name of competitor":"Western Resources Title","zip":"92868","mode":28,"geo_score":0.873,"street address":"625 The City Drive","id":"a73ymowbwa9m","geo_precision":"range"},"type":"Feature","geometry":{"type":"Point","coordinates":[-117.888827,33.779336]}},{"properties":{"city":"Orange","name of competitor":"Western Resources Title","zip":"92868","mode":28,"geo_score":0.873,"street address":"625 The City Drive","id":"a73ymp49b0w5","geo_precision":"range"},"type":"Feature","geometry":{"type":"Point","coordinates":[-117.888827,33.779336]}},{"properties":{"city":"Orange","name of competitor":"Western Resources Title","zip":"92868","mode":28,"geo_score":0.873,"street address":"625 The City Drive","id":"a73ymovhclbh","geo_precision":"range"},"type":"Feature","geometry":{"type":"Point","coordinates":[-117.888827,33.779336]}},{"properties":{"city":"Orange","name of competitor":"Western Resources Title","zip":"92868","mode":28,"geo_score":0.873,"street address":"625 The City Drive","id":"a73ymoyf8yfr","geo_precision":"range"},"type":"Feature","geometry":{"type":"Point","coordinates":[-117.888827,33.779336]}},{"properties":{"city":"Orange","name of competitor":"Western Resources Title","zip":"92868","mode":28,"geo_score":0.873,"street address":"625 The City Drive","id":"a73ymoykf2ze","geo_precision":"range"},"type":"Feature","geometry":{"type":"Point","coordinates":[-117.888827,33.779336]}},{"properties":{"city":"Orange","name of competitor":"Western Resources Title","zip":"92868","mode":28,"geo_score":0.873,"street address":"625 The City Drive","id":"a73ymovz04al","geo_precision":"range"},"type":"Feature","geometry":{"type":"Point","coordinates":[-117.888827,33.779336]}},{"properties":{"city":"Orange","name of competitor":"Western Resources Title","zip":"92868","mode":28,"geo_score":0.873,"street address":"625 The City Drive","id":"a73ymp57zn3d","geo_precision":"range"},"type":"Feature","geometry":{"type":"Point","coordinates":[-117.888827,33.779336]}},{"properties":{"city":"Orange","name of competitor":"Western Resources Title","zip":"92868","mode":28,"geo_score":0.873,"street address":"625 The City Drive","id":"a73ymp0zmiwn","geo_precision":"range"},"type":"Feature","geometry":{"type":"Point","coordinates":[-117.888827,33.779336]}},{"properties":{"city":"Orange","name of competitor":"Western Resources Title","zip":"92868","mode":28,"geo_score":0.873,"street address":"625 The City Drive","id":"a73ymp3e2m4f","geo_precision":"range"},"type":"Feature","geometry":{"type":"Point","coordinates":[-117.888827,33.779336]}},{"properties":{"city":"Orange","name of competitor":"Western Resources Title","zip":"92868","mode":28,"geo_score":0.873,"street address":"625 The City Drive","id":"a73ymowua21i","geo_precision":"range"},"type":"Feature","geometry":{"type":"Point","coordinates":[-117.888827,33.779336]}},{"properties":{"city":"Orange","name of competitor":"Western Resources Title","zip":"92868","mode":28,"geo_score":0.873,"street address":"625 The City Drive","id":"a73ymp3whprs","geo_precision":"range"},"type":"Feature","geometry":{"type":"Point","coordinates":[-117.888827,33.779336]}},{"properties":{"city":"Orange","name of competitor":"Western Resources Title","zip":"92868","mode":28,"geo_score":0.873,"street address":"625 The City Drive","id":"a73ymp5ppqw6","geo_precision":"range"},"type":"Feature","geometry":{"type":"Point","coordinates":[-117.888827,33.779336]}},{"properties":{"city":"Orange","name of competitor":"Western Resources Title","zip":"92868","mode":28,"geo_score":0.873,"street address":"625 The City Drive","id":"a73ymp3yyo8e","geo_precision":"range"},"type":"Feature","geometry":{"type":"Point","coordinates":[-117.888827,33.779336]}}],"is_temporal":false,"author":{"url":"","metadata":null,"contact_name":null,"contact_address":null,"source":null,"contact_phone":null},"source":"","pagination":{"sort":null,"start":0,"total":28,"limit":1000000},"state":"complete","tags":"","published":"2014-08-14T15:39:22-04:00","id":220676}