{"type":"FeatureCollection","data_type":"Dataset","url_type":null,"permissions":[{"permissions":{"download":true,"view":true},"group_id":"everyone"}],"classification":null,"title":"vandalism damage mischeif 2009","count":328,"stream_id":220649,"contributor":{"url":"http://geocommons.com/users/42302","name":"hillproject"},"data_attributes":null,"calculation_params":null,"icon_link":null,"link":"http://geocommons.com/overlays/220649.json","extent":[-83.4356,41.0964,-82.5626,41.4553],"geometry_types":["point"],"unique_name":null,"name":"vandalism damage mischeif 2009","feature_count":328,"description":"","next_feature":null,"is_raster":false,"short_classification":"Y","stats":{"date":{"max":"2009/12/30 12:12:22 -0500","mean":"2009/07/04 21:34:34 -0400","variance":76336534207921.1,"stdev":8737078.12760771,"min":"2009/01/01 11:01:32 -0500","median":"2009/07/07 18:35:12 -0400"},"unit":{"max":635,"mean":63.0644171779141,"variance":1786.97122227466,"stdev":42.2725823942028,"min":56,"median":59},"disposition":{"max":450,"mean":189.664634146341,"variance":1587.96058029387,"stdev":39.8492230826884,"min":100,"median":200},"cfs":{"max":9,"mean":9.0,"variance":0.0,"stdev":0.0,"min":9,"median":9},"call#":{"max":9.012357,"mean":9.0064200152439,"variance":1.25816228468617e-05,"stdev":0.00354705833711001,"min":9.000017,"median":9.006485}},"features":[{"properties":{"officer":"MAM","city":"Tiffin","zip":"44883","date":{"end_time":"2009/12/30 12:12:23 -0500","original":"12/30/2009 12:12:22 PM","granularity":"sec","time":"2009/12/30 12:12:22 -0500"},"geo_score":0.902,"unit":58,"disposition":200,"cfs":9,"call#":9.012357,"id":"a64ruf90xcpw","geo_precision":"range","address":"61 Birchwood Dr","state":"OH","juris":"PD"},"type":"Feature","geometry":{"type":"Point","coordinates":[-83.213785,41.115503]}},{"properties":{"officer":"MAM","city":"Tiffin","zip":"44883","date":{"end_time":"2009/12/30 08:14:44 -0500","original":"12/30/2009 8:14:43 AM","granularity":"sec","time":"2009/12/30 08:14:43 -0500"},"geo_score":0.902,"unit":58,"disposition":200,"cfs":9,"call#":9.012351,"id":"a64ruev27tzd","geo_precision":"range","address":"168 Walker St","state":"OH","juris":"PD"},"type":"Feature","geometry":{"type":"Point","coordinates":[-83.166745,41.111195]}},{"properties":{"officer":"JPF","city":"Tiffin","zip":"44883","date":{"end_time":"2009/12/27 12:35:43 -0500","original":"12/27/2009 12:35:42 PM","granularity":"sec","time":"2009/12/27 12:35:42 -0500"},"geo_score":0.48,"unit":63,"disposition":200,"cfs":9,"call#":9.012295,"id":"a64ruevpguoy","geo_precision":"street","address":"19 Kennat Bl","state":"OH","juris":"PD"},"type":"Feature","geometry":{"type":"Point","coordinates":[-83.422485,41.169523]}},{"properties":{"officer":"DES","city":"Tiffin","zip":"44883","date":{"end_time":"2009/12/27 11:41:09 -0500","original":"12/27/2009 11:41:08 AM","granularity":"sec","time":"2009/12/27 11:41:08 -0500"},"geo_score":0.69,"unit":61,"disposition":200,"cfs":9,"call#":9.012293,"id":"a64ruetfv5w5","geo_precision":"range","address":"60 N Sr 101","state":"OH","juris":"PD"},"type":"Feature","geometry":{"type":"Point","coordinates":[-83.158808,41.123521]}},{"properties":{"officer":"DES","city":"Tiffin","zip":"44883","date":{"end_time":"2009/12/27 11:34:28 -0500","original":"12/27/2009 11:34:27 AM","granularity":"sec","time":"2009/12/27 11:34:27 -0500"},"geo_score":0.69,"unit":61,"disposition":200,"cfs":9,"call#":9.012292,"id":"a64ruf20iuwd","geo_precision":"range","address":"60 N Sr 101","state":"OH","juris":"PD"},"type":"Feature","geometry":{"type":"Point","coordinates":[-83.158808,41.123521]}},{"properties":{"officer":"RJO","city":"Tiffin","zip":"44883","date":{"end_time":"2009/12/27 11:27:34 -0500","original":"12/27/2009 11:27:33 AM","granularity":"sec","time":"2009/12/27 11:27:33 -0500"},"geo_score":0.857,"unit":57,"disposition":200,"cfs":9,"call#":9.01229,"id":"a64ruf6lakae","geo_precision":"street","address":"E Market St/Hunter St","state":"OH","juris":"PD"},"type":"Feature","geometry":{"type":"Point","coordinates":[-83.168179,41.119032]}},{"properties":{"officer":"EDA","city":"Tiffin","zip":"44883","date":{"end_time":"2009/12/20 17:03:51 -0500","original":"12/20/2009 5:03:50 PM","granularity":"sec","time":"2009/12/20 17:03:50 -0500"},"geo_score":0.902,"unit":58,"disposition":200,"cfs":9,"call#":9.012139,"id":"a64ruf8i7lzk","geo_precision":"range","address":"20 Prospect St","state":"OH","juris":"PD"},"type":"Feature","geometry":{"type":"Point","coordinates":[-83.162159,41.113461]}},{"properties":{"officer":"JPF","city":"Tiffin","zip":"44883","date":{"end_time":"2009/12/19 14:12:32 -0500","original":"12/19/2009 2:12:31 PM","granularity":"sec","time":"2009/12/19 14:12:31 -0500"},"geo_score":0.902,"unit":59,"disposition":200,"cfs":9,"call#":9.012117,"id":"a64ruf7axwev","geo_precision":"range","address":"340 Water St","state":"OH","juris":"PD"},"type":"Feature","geometry":{"type":"Point","coordinates":[-83.173748,41.122002]}},{"properties":{"officer":"GTM","city":"Tiffin","zip":"44883","date":{"end_time":"2009/12/19 01:22:18 -0500","original":"12/19/2009 1:22:17 AM","granularity":"sec","time":"2009/12/19 01:22:17 -0500"},"geo_score":0.902,"unit":61,"disposition":100,"cfs":9,"call#":9.012107,"id":"a64rueun8ml9","geo_precision":"range","address":"175 S Monroe St","state":"OH","juris":"PD"},"type":"Feature","geometry":{"type":"Point","coordinates":[-83.177748,41.11164]}},{"properties":{"officer":"DES","city":"Tiffin","zip":"44883","date":{"end_time":"2009/12/17 10:32:37 -0500","original":"12/17/2009 10:32:36 AM","granularity":"sec","time":"2009/12/17 10:32:36 -0500"},"geo_score":0.78,"unit":61,"disposition":200,"cfs":9,"call#":9.012069,"id":"a64ruf55ius8","geo_precision":"range","address":"870 W Market St","state":"OH","juris":"PD"},"type":"Feature","geometry":{"type":"Point","coordinates":[-83.207559,41.111141]}},{"properties":{"officer":"RJO","city":"Tiffin","zip":"44883","date":{"end_time":"2009/12/15 07:50:08 -0500","original":"12/15/2009 7:50:07 AM","granularity":"sec","time":"2009/12/15 07:50:07 -0500"},"geo_score":0.902,"unit":61,"disposition":200,"cfs":9,"call#":9.01201,"id":"a64rueu26axb","geo_precision":"range","address":"94 W Market St","state":"OH","juris":"PD"},"type":"Feature","geometry":{"type":"Point","coordinates":[-83.183702,41.113904]}},{"properties":{"officer":"DGH","city":"Tiffin","zip":"44883","date":{"end_time":"2009/12/14 13:23:40 -0500","original":"12/14/2009 1:23:39 PM","granularity":"sec","time":"2009/12/14 13:23:39 -0500"},"geo_score":0.902,"unit":63,"disposition":200,"cfs":9,"call#":9.011984,"id":"a64ruf5zxoy7","geo_precision":"range","address":"79 Tomb St","state":"OH","juris":"PD"},"type":"Feature","geometry":{"type":"Point","coordinates":[-83.173111,41.128758]}},{"properties":{"officer":"RJO","city":"Tiffin","zip":"44883","date":{"end_time":"2009/12/13 13:41:40 -0500","original":"12/13/2009 1:41:39 PM","granularity":"sec","time":"2009/12/13 13:41:39 -0500"},"geo_score":0.837,"unit":57,"disposition":200,"cfs":9,"call#":9.011965,"id":"a64ruf4eajsa","geo_precision":"range","address":"15 Frost Py","state":"OH","juris":"PD"},"type":"Feature","geometry":{"type":"Point","coordinates":[-83.180751,41.114633]}},{"properties":{"officer":"DES","city":"Tiffin","zip":"44883","date":{"end_time":"2009/12/12 13:57:49 -0500","original":"12/12/2009 1:57:48 PM","granularity":"sec","time":"2009/12/12 13:57:48 -0500"},"geo_score":0.902,"unit":61,"disposition":200,"cfs":9,"call#":9.01193,"id":"a64ruf46c8s1","geo_precision":"range","address":"39 Minerva St","state":"OH","juris":"PD"},"type":"Feature","geometry":{"type":"Point","coordinates":[-83.176048,41.121597]}},{"properties":{"officer":"EDA","city":"Tiffin","zip":"44883","date":{"end_time":"2009/12/10 17:47:48 -0500","original":"12/10/2009 5:47:47 PM","granularity":"sec","time":"2009/12/10 17:47:47 -0500"},"geo_score":0.902,"unit":59,"disposition":200,"cfs":9,"call#":9.011885,"id":"a64ruf1kb5er","geo_precision":"range","address":"116 Huss St","state":"OH","juris":"PD"},"type":"Feature","geometry":{"type":"Point","coordinates":[-83.169103,41.13111]}},{"properties":{"officer":"SGN","city":"Tiffin","zip":"44883","date":{"end_time":"2009/12/10 08:31:14 -0500","original":"12/10/2009 8:31:13 AM","granularity":"sec","time":"2009/12/10 08:31:13 -0500"},"geo_score":0.902,"unit":62,"disposition":200,"cfs":9,"call#":9.011875,"id":"a64ruexr7dkq","geo_precision":"range","address":"491 Coe St","state":"OH","juris":"PD"},"type":"Feature","geometry":{"type":"Point","coordinates":[-83.160385,41.102667]}},{"properties":{"officer":"SMM","city":"Tiffin","zip":"44883","date":{"end_time":"2009/12/09 02:44:44 -0500","original":"12/9/2009 2:44:43 AM","granularity":"sec","time":"2009/12/09 02:44:43 -0500"},"geo_score":0.902,"unit":57,"disposition":200,"cfs":9,"call#":9.011837,"id":"a64ruf6j2gtu","geo_precision":"range","address":"20 Prospect St","state":"OH","juris":"PD"},"type":"Feature","geometry":{"type":"Point","coordinates":[-83.162159,41.113461]}},{"properties":{"officer":"JSC","city":"Tiffin","zip":"44883","date":{"end_time":"2009/12/08 19:40:38 -0500","original":"12/8/2009 7:40:37 PM","granularity":"sec","time":"2009/12/08 19:40:37 -0500"},"geo_score":0.902,"unit":59,"disposition":200,"cfs":9,"call#":9.011832,"id":"a64ruf1vceuj","geo_precision":"range","address":"136 Miami St","state":"OH","juris":"PD"},"type":"Feature","geometry":{"type":"Point","coordinates":[-83.184002,41.118579]}},{"properties":{"officer":"JMW","city":"Tiffin","zip":"44883","date":{"end_time":"2009/12/07 20:39:42 -0500","original":"12/7/2009 8:39:41 PM","granularity":"sec","time":"2009/12/07 20:39:41 -0500"},"geo_score":0.902,"unit":57,"disposition":200,"cfs":9,"call#":9.011809,"id":"a64ruf5u9u73","geo_precision":"range","address":"244 W Perry St","state":"OH","juris":"PD"},"type":"Feature","geometry":{"type":"Point","coordinates":[-83.189069,41.115134]}},{"properties":{"officer":"JMW","city":"Tiffin","zip":"44883","date":{"end_time":"2009/12/06 16:29:21 -0500","original":"12/6/2009 4:29:20 PM","granularity":"sec","time":"2009/12/06 16:29:20 -0500"},"geo_score":0.756,"unit":57,"disposition":200,"cfs":9,"call#":9.011777,"id":"a64ruezmj4ky","geo_precision":"range","address":"96 Second Av","state":"OH","juris":"PD"},"type":"Feature","geometry":{"type":"Point","coordinates":[-83.179596,41.128783]}},{"properties":{"officer":"GTM","city":"Tiffin","zip":"44883","date":{"end_time":"2009/12/06 12:48:00 -0500","original":"12/6/2009 12:47:00 PM","granularity":"min","time":"2009/12/06 12:47:00 -0500"},"geo_score":0.476,"unit":62,"disposition":100,"cfs":9,"call#":9.011772,"id":"a64ruf10ear1","geo_precision":"street","address":"870 W Market St, A","state":"OH","juris":"PD"},"type":"Feature","geometry":{"type":"Point","coordinates":[-83.181592,41.114111]}},{"properties":{"officer":"JPF","city":"Tiffin","zip":"44883","date":{"end_time":"2009/12/06 08:11:47 -0500","original":"12/6/2009 8:11:46 AM","granularity":"sec","time":"2009/12/06 08:11:46 -0500"},"geo_score":0.902,"unit":61,"disposition":200,"cfs":9,"call#":9.011768,"id":"a64ruf7kd80s","geo_precision":"range","address":"44 Miami St","state":"OH","juris":"PD"},"type":"Feature","geometry":{"type":"Point","coordinates":[-83.180689,41.117364]}},{"properties":{"officer":"LMK","city":"Tiffin","zip":"44883","date":{"end_time":"2009/12/05 22:45:17 -0500","original":"12/5/2009 10:45:16 PM","granularity":"sec","time":"2009/12/05 22:45:16 -0500"},"geo_score":0.476,"unit":63,"disposition":200,"cfs":9,"call#":9.011748,"id":"a64rueza38fd","geo_precision":"street","address":"870 W Market St, R","state":"OH","juris":"PD"},"type":"Feature","geometry":{"type":"Point","coordinates":[-83.181592,41.114111]}},{"properties":{"officer":"RLT","city":"Tiffin","zip":"44883","date":{"end_time":"2009/12/05 22:23:00 -0500","original":"12/5/2009 10:22:59 PM","granularity":"sec","time":"2009/12/05 22:22:59 -0500"},"geo_score":0.902,"unit":59,"disposition":200,"cfs":9,"call#":9.011747,"id":"a64ruf0rt3sw","geo_precision":"range","address":"1760 W Market St","state":"OH","juris":"PD"},"type":"Feature","geometry":{"type":"Point","coordinates":[-83.204488,41.111644]}},{"properties":{"officer":"MAM","city":"Tiffin","zip":"44883","date":{"end_time":"2009/12/05 14:43:39 -0500","original":"12/5/2009 2:43:38 PM","granularity":"sec","time":"2009/12/05 14:43:38 -0500"},"geo_score":0.902,"unit":58,"disposition":200,"cfs":9,"call#":9.011735,"id":"a64rueybm822","geo_precision":"range","address":"35 Wentz St","state":"OH","juris":"PD"},"type":"Feature","geometry":{"type":"Point","coordinates":[-83.187104,41.117554]}},{"properties":{"officer":"AMR","city":"Tiffin","zip":"44883","date":{"end_time":"2009/12/05 12:35:48 -0500","original":"12/5/2009 12:35:47 PM","granularity":"sec","time":"2009/12/05 12:35:47 -0500"},"geo_score":0.902,"unit":63,"disposition":200,"cfs":9,"call#":9.011733,"id":"a64ruf7qyjvu","geo_precision":"range","address":"167 Main St","state":"OH","juris":"PD"},"type":"Feature","geometry":{"type":"Point","coordinates":[-83.168532,41.111997]}},{"properties":{"officer":"SMM","city":"Tiffin","zip":"44883","date":{"end_time":"2009/12/05 00:23:00 -0500","original":"12/5/2009 12:22:59 AM","granularity":"sec","time":"2009/12/05 00:22:59 -0500"},"geo_score":0.902,"unit":58,"disposition":100,"cfs":9,"call#":9.011716,"id":"a64ruf4dt93m","geo_precision":"range","address":"37 W Davis St","state":"OH","juris":"PD"},"type":"Feature","geometry":{"type":"Point","coordinates":[-83.179507,41.12606]}},{"properties":{"officer":"DES","city":"Tiffin","zip":"44883","date":{"end_time":"2009/12/03 14:35:37 -0500","original":"12/3/2009 2:35:36 PM","granularity":"sec","time":"2009/12/03 14:35:36 -0500"},"geo_score":0.902,"unit":57,"disposition":200,"cfs":9,"call#":9.011674,"id":"a64ruf7mmlg1","geo_precision":"range","address":"183 Main St","state":"OH","juris":"PD"},"type":"Feature","geometry":{"type":"Point","coordinates":[-83.167226,41.112108]}},{"properties":{"officer":"DES","city":"Tiffin","zip":"44883","date":{"end_time":"2009/12/03 08:48:49 -0500","original":"12/3/2009 8:48:48 AM","granularity":"sec","time":"2009/12/03 08:48:48 -0500"},"geo_score":0.902,"unit":57,"disposition":100,"cfs":9,"call#":9.011662,"id":"a64ruf253sgi","geo_precision":"range","address":"290 E Market St","state":"OH","juris":"PD"},"type":"Feature","geometry":{"type":"Point","coordinates":[-83.169782,41.115981]}},{"properties":{"officer":"SGN","city":"Tiffin","zip":"44883","date":{"end_time":"2009/12/02 14:48:35 -0500","original":"12/2/2009 2:48:34 PM","granularity":"sec","time":"2009/12/02 14:48:34 -0500"},"geo_score":0.902,"unit":62,"disposition":200,"cfs":9,"call#":9.01165,"id":"a64ruf0v0q1g","geo_precision":"range","address":"33 Elmwood St","state":"OH","juris":"PD"},"type":"Feature","geometry":{"type":"Point","coordinates":[-83.160912,41.119599]}},{"properties":{"officer":"SGN","city":"Tiffin","zip":"44883","date":{"end_time":"2009/12/02 08:40:48 -0500","original":"12/2/2009 8:40:47 AM","granularity":"sec","time":"2009/12/02 08:40:47 -0500"},"geo_score":0.902,"unit":62,"disposition":200,"cfs":9,"call#":9.01164,"id":"a64ruf0fbmd4","geo_precision":"range","address":"116 Webster St","state":"OH","juris":"PD"},"type":"Feature","geometry":{"type":"Point","coordinates":[-83.176725,41.123573]}},{"properties":{"officer":"PJD","city":"Tiffin","zip":"44883","date":{"end_time":"2009/12/02 01:36:02 -0500","original":"12/2/2009 1:36:01 AM","granularity":"sec","time":"2009/12/02 01:36:01 -0500"},"geo_score":0.902,"unit":61,"disposition":200,"cfs":9,"call#":9.011633,"id":"a64ruez3t54t","geo_precision":"range","address":"483 Circular St","state":"OH","juris":"PD"},"type":"Feature","geometry":{"type":"Point","coordinates":[-83.175941,41.105424]}},{"properties":{"officer":"EDA","city":"Tiffin","zip":"44883","date":{"end_time":"2009/11/29 02:01:39 -0500","original":"11/29/2009 2:01:38 AM","granularity":"sec","time":"2009/11/29 02:01:38 -0500"},"geo_score":0.902,"unit":58,"disposition":200,"cfs":9,"call#":9.011559,"id":"a64ruf4ljhys","geo_precision":"range","address":"305 S Sandusky St","state":"OH","juris":"PD"},"type":"Feature","geometry":{"type":"Point","coordinates":[-83.188074,41.11194]}},{"properties":{"officer":"JAD","city":"Tiffin","zip":"44883","date":{"end_time":"2009/11/28 22:43:19 -0500","original":"11/28/2009 10:43:18 PM","granularity":"sec","time":"2009/11/28 22:43:18 -0500"},"geo_score":0.902,"unit":56,"disposition":200,"cfs":9,"call#":9.011551,"id":"a64ruf70z5b5","geo_precision":"range","address":"241 Franklin St","state":"OH","juris":"PD"},"type":"Feature","geometry":{"type":"Point","coordinates":[-83.180194,41.121219]}},{"properties":{"officer":"GTM","city":"Tiffin","zip":"44883","date":{"end_time":"2009/11/27 00:28:44 -0500","original":"11/27/2009 12:28:43 AM","granularity":"sec","time":"2009/11/27 00:28:43 -0500"},"geo_score":0.857,"unit":63,"disposition":100,"cfs":9,"call#":9.011495,"id":"a64ruezx3pfv","geo_precision":"street","address":"Clay St/Jackson St","state":"OH","juris":"PD"},"type":"Feature","geometry":{"type":"Point","coordinates":[-83.1824,41.116381]}},{"properties":{"officer":"PJD","city":"Tiffin","zip":"44883","date":{"end_time":"2009/11/24 02:29:40 -0500","original":"11/24/2009 2:29:39 AM","granularity":"sec","time":"2009/11/24 02:29:39 -0500"},"geo_score":0.902,"unit":62,"disposition":200,"cfs":9,"call#":9.011409,"id":"a64ruey9vzrl","geo_precision":"range","address":"83 Rebecca St","state":"OH","juris":"PD"},"type":"Feature","geometry":{"type":"Point","coordinates":[-83.168394,41.113211]}},{"properties":{"officer":"DES","city":"Tiffin","zip":"44883","date":{"end_time":"2009/11/22 13:23:27 -0500","original":"11/22/2009 1:23:26 PM","granularity":"sec","time":"2009/11/22 13:23:26 -0500"},"geo_score":0.902,"unit":61,"disposition":200,"cfs":9,"call#":9.01136,"id":"a64ruf2ccwjf","geo_precision":"range","address":"184 S Washington St","state":"OH","juris":"PD"},"type":"Feature","geometry":{"type":"Point","coordinates":[-83.17625,41.112349]}},{"properties":{"officer":"JPF","city":"Tiffin","zip":"44883","date":{"end_time":"2009/11/22 13:09:31 -0500","original":"11/22/2009 1:09:30 PM","granularity":"sec","time":"2009/11/22 13:09:30 -0500"},"geo_score":0.902,"unit":59,"disposition":200,"cfs":9,"call#":9.011359,"id":"a64ruf46ygsw","geo_precision":"range","address":"432 Water St","state":"OH","juris":"PD"},"type":"Feature","geometry":{"type":"Point","coordinates":[-83.172478,41.124287]}},{"properties":{"officer":"REB","city":"Tiffin","zip":"44883","date":{"end_time":"2009/11/21 10:19:31 -0500","original":"11/21/2009 10:19:30 AM","granularity":"sec","time":"2009/11/21 10:19:30 -0500"},"geo_score":0.902,"unit":63,"disposition":200,"cfs":9,"call#":9.011316,"id":"a64ruevja9ab","geo_precision":"range","address":"71 E Market St","state":"OH","juris":"PD"},"type":"Feature","geometry":{"type":"Point","coordinates":[-83.177644,41.114498]}},{"properties":{"officer":"SMM","city":"Tiffin","zip":"44883","date":{"end_time":"2009/11/18 16:31:43 -0500","original":"11/18/2009 4:31:42 PM","granularity":"sec","time":"2009/11/18 16:31:42 -0500"},"geo_score":0.902,"unit":58,"disposition":200,"cfs":9,"call#":9.011241,"id":"a64ruf5ln28j","geo_precision":"range","address":"120 S Sandusky St","state":"OH","juris":"PD"},"type":"Feature","geometry":{"type":"Point","coordinates":[-83.184679,41.116727]}},{"properties":{"officer":"RJO","city":"Tiffin","zip":"44883","date":{"end_time":"2009/11/18 11:39:56 -0500","original":"11/18/2009 11:39:55 AM","granularity":"sec","time":"2009/11/18 11:39:55 -0500"},"geo_score":0.902,"unit":57,"disposition":200,"cfs":9,"call#":9.011232,"id":"a64ruf3roh42","geo_precision":"range","address":"37 Gibson St","state":"OH","juris":"PD"},"type":"Feature","geometry":{"type":"Point","coordinates":[-83.175078,41.099487]}},{"properties":{"officer":"JAD","city":"Tiffin","zip":"44883","date":{"end_time":"2009/11/13 00:32:18 -0500","original":"11/13/2009 12:32:17 AM","granularity":"sec","time":"2009/11/13 00:32:17 -0500"},"geo_score":0.902,"unit":56,"disposition":400,"cfs":9,"call#":9.01106,"id":"a64ruf2plio0","geo_precision":"range","address":"92 Madison St","state":"OH","juris":"PD"},"type":"Feature","geometry":{"type":"Point","coordinates":[-83.176333,41.113386]}},{"properties":{"officer":"MAM","city":"Tiffin","zip":"44883","date":{"end_time":"2009/11/12 08:03:15 -0500","original":"11/12/2009 8:03:14 AM","granularity":"sec","time":"2009/11/12 08:03:14 -0500"},"geo_score":0.902,"unit":58,"disposition":200,"cfs":9,"call#":9.011036,"id":"a64ruezestnk","geo_precision":"range","address":"45 Melmore St","state":"OH","juris":"PD"},"type":"Feature","geometry":{"type":"Point","coordinates":[-83.174696,41.10835]}},{"properties":{"officer":"RJO","city":"Tiffin","zip":"44883","date":{"end_time":"2009/11/11 15:45:47 -0500","original":"11/11/2009 3:45:46 PM","granularity":"sec","time":"2009/11/11 15:45:46 -0500"},"geo_score":0.902,"unit":57,"disposition":200,"cfs":9,"call#":9.011015,"id":"a64ruevqrlfh","geo_precision":"range","address":"205 E Market St","state":"OH","juris":"PD"},"type":"Feature","geometry":{"type":"Point","coordinates":[-83.172198,41.114978]}},{"properties":{"officer":"JPF","city":"Tiffin","zip":"44883","date":{"end_time":"2009/11/09 07:46:18 -0500","original":"11/9/2009 7:46:17 AM","granularity":"sec","time":"2009/11/09 07:46:17 -0500"},"geo_score":0.902,"unit":58,"disposition":200,"cfs":9,"call#":9.010949,"id":"a64rueyk217g","geo_precision":"range","address":"151 Elmer St","state":"OH","juris":"PD"},"type":"Feature","geometry":{"type":"Point","coordinates":[-83.193722,41.117661]}},{"properties":{"officer":"LMK","city":"Tiffin","zip":"44883","date":{"end_time":"2009/11/08 02:47:00 -0500","original":"11/8/2009 2:46:59 AM","granularity":"sec","time":"2009/11/08 02:46:59 -0500"},"geo_score":0.902,"unit":62,"disposition":100,"cfs":9,"call#":9.01093,"id":"a64ruf4sc8yy","geo_precision":"range","address":"107 Main St","state":"OH","juris":"PD"},"type":"Feature","geometry":{"type":"Point","coordinates":[-83.170508,41.111824]}},{"properties":{"officer":"REB","city":"Tiffin","zip":"44883","date":{"end_time":"2009/11/07 12:13:31 -0500","original":"11/7/2009 12:13:30 PM","granularity":"sec","time":"2009/11/07 12:13:30 -0500"},"geo_score":0.78,"unit":63,"disposition":200,"cfs":9,"call#":9.010897,"id":"a64ruf20zx9u","geo_precision":"range","address":"790 W Market St","state":"OH","juris":"PD"},"type":"Feature","geometry":{"type":"Point","coordinates":[-83.207496,41.111156]}},{"properties":{"officer":"SMM","city":"Tiffin","zip":"44883","date":{"end_time":"2009/11/07 01:28:49 -0500","original":"11/7/2009 1:28:48 AM","granularity":"sec","time":"2009/11/07 01:28:48 -0500"},"geo_score":0.902,"unit":58,"disposition":100,"cfs":9,"call#":9.010888,"id":"a64ruf2sea0u","geo_precision":"range","address":"267 Main St","state":"OH","juris":"PD"},"type":"Feature","geometry":{"type":"Point","coordinates":[-83.163977,41.112375]}},{"properties":{"officer":"EDA","city":"Tiffin","zip":"44883","date":{"end_time":"2009/11/05 21:23:23 -0500","original":"11/5/2009 9:23:22 PM","granularity":"sec","time":"2009/11/05 21:23:22 -0500"},"geo_score":0.902,"unit":57,"disposition":100,"cfs":9,"call#":9.010855,"id":"a64ruf4fcbvo","geo_precision":"range","address":"353 S Monroe St","state":"OH","juris":"PD"},"type":"Feature","geometry":{"type":"Point","coordinates":[-83.177026,41.106797]}},{"properties":{"officer":"AMR","city":"Tiffin","zip":"44883","date":{"end_time":"2009/11/04 21:11:09 -0500","original":"11/4/2009 9:11:08 PM","granularity":"sec","time":"2009/11/04 21:11:08 -0500"},"geo_score":0.756,"unit":63,"disposition":100,"cfs":9,"call#":9.010818,"id":"a64ruf49ob4z","geo_precision":"range","address":"97 First Av","state":"OH","juris":"PD"},"type":"Feature","geometry":{"type":"Point","coordinates":[-83.180681,41.127913]}},{"properties":{"officer":"RJO","city":"Tiffin","zip":"44883","date":{"end_time":"2009/11/04 13:16:52 -0500","original":"11/4/2009 1:16:51 PM","granularity":"sec","time":"2009/11/04 13:16:51 -0500"},"geo_score":0.902,"unit":57,"disposition":200,"cfs":9,"call#":9.010805,"id":"a64ruew1uefx","geo_precision":"range","address":"528 E Market St","state":"OH","juris":"PD"},"type":"Feature","geometry":{"type":"Point","coordinates":[-83.162844,41.120632]}},{"properties":{"officer":"DGH","city":"Tiffin","zip":"44883","date":{"end_time":"2009/11/03 08:22:43 -0500","original":"11/3/2009 8:22:42 AM","granularity":"sec","time":"2009/11/03 08:22:42 -0500"},"geo_score":0.857,"unit":63,"disposition":200,"cfs":9,"call#":9.010764,"id":"a64ruf74y5yq","geo_precision":"street","address":"Miami St/S Sandusky St","state":"OH","juris":"PD"},"type":"Feature","geometry":{"type":"Point","coordinates":[-83.181876,41.117677]}},{"properties":{"officer":"JPF","city":"Tiffin","zip":"44883","date":{"end_time":"2009/11/02 10:51:30 -0500","original":"11/2/2009 10:51:29 AM","granularity":"sec","time":"2009/11/02 10:51:29 -0500"},"geo_score":0.902,"unit":58,"disposition":200,"cfs":9,"call#":9.010736,"id":"a64ruf8694xs","geo_precision":"range","address":"61 Douglas St","state":"OH","juris":"PD"},"type":"Feature","geometry":{"type":"Point","coordinates":[-83.17472,41.12768]}},{"properties":{"officer":"JPF","city":"Tiffin","zip":"44883","date":{"end_time":"2009/10/30 10:40:52 -0400","original":"10/30/2009 10:40:51 AM","granularity":"sec","time":"2009/10/30 10:40:51 -0400"},"geo_score":0.902,"unit":63,"disposition":200,"cfs":9,"call#":9.010637,"id":"a64rueyyvs1n","geo_precision":"range","address":"181 Webster St","state":"OH","juris":"PD"},"type":"Feature","geometry":{"type":"Point","coordinates":[-83.179515,41.12377]}},{"properties":{"officer":"JSC","city":"Tiffin","zip":"44883","date":{"end_time":"2009/10/29 09:50:22 -0400","original":"10/29/2009 9:50:21 AM","granularity":"sec","time":"2009/10/29 09:50:21 -0400"},"geo_score":0.902,"unit":57,"disposition":200,"cfs":9,"call#":9.010604,"id":"a64ruf4cll5n","geo_precision":"range","address":"181 E Perry St","state":"OH","juris":"PD"},"type":"Feature","geometry":{"type":"Point","coordinates":[-83.172997,41.116173]}},{"properties":{"officer":"RJO","city":"Tiffin","zip":"44883","date":{"end_time":"2009/10/21 09:14:53 -0400","original":"10/21/2009 9:14:52 AM","granularity":"sec","time":"2009/10/21 09:14:52 -0400"},"geo_score":0.857,"unit":57,"disposition":200,"cfs":9,"call#":9.01033,"id":"a64ruf1qt8cq","geo_precision":"street","address":"Noble St/Jackson St","state":"OH","juris":"PD"},"type":"Feature","geometry":{"type":"Point","coordinates":[-83.176206,41.122592]}},{"properties":{"officer":"RJO","city":"Tiffin","zip":"44883","date":{"end_time":"2009/10/20 12:25:36 -0400","original":"10/20/2009 12:25:35 PM","granularity":"sec","time":"2009/10/20 12:25:35 -0400"},"geo_score":0.536,"unit":57,"disposition":200,"cfs":9,"call#":9.010296,"id":"a64ruezsw1g4","geo_precision":"street","address":"170 E Perry St,REAR","state":"OH","juris":"PD"},"type":"Feature","geometry":{"type":"Point","coordinates":[-83.178368,41.11568]}},{"properties":{"officer":"JMW","city":"Tiffin","zip":"44883","date":{"end_time":"2009/10/17 19:00:30 -0400","original":"10/17/2009 7:00:29 PM","granularity":"sec","time":"2009/10/17 19:00:29 -0400"},"geo_score":0.756,"unit":57,"disposition":200,"cfs":9,"call#":9.01021,"id":"a64ruf64z5ox","geo_precision":"range","address":"255 Second Av","state":"OH","juris":"PD"},"type":"Feature","geometry":{"type":"Point","coordinates":[-83.185276,41.128714]}},{"properties":{"officer":"LMK","city":"Tiffin","zip":"44883","date":{"end_time":"2009/10/17 07:57:48 -0400","original":"10/17/2009 7:57:47 AM","granularity":"sec","time":"2009/10/17 07:57:47 -0400"},"geo_score":0.902,"unit":63,"disposition":200,"cfs":9,"call#":9.010197,"id":"a64ruex47n5q","geo_precision":"range","address":"2225 W Market St","state":"OH","juris":"PD"},"type":"Feature","geometry":{"type":"Point","coordinates":[-83.213188,41.110055]}},{"properties":{"officer":"LMK","city":"Tiffin","zip":"44883","date":{"end_time":"2009/10/17 07:35:55 -0400","original":"10/17/2009 7:35:54 AM","granularity":"sec","time":"2009/10/17 07:35:54 -0400"},"geo_score":0.902,"unit":63,"disposition":200,"cfs":9,"call#":9.010196,"id":"a64ruf06q577","geo_precision":"range","address":"2233 W Market St","state":"OH","juris":"PD"},"type":"Feature","geometry":{"type":"Point","coordinates":[-83.21327,41.110036]}},{"properties":{"officer":"JAD","city":"Tiffin","zip":"44883","date":{"end_time":"2009/10/15 21:31:25 -0400","original":"10/15/2009 9:31:24 PM","granularity":"sec","time":"2009/10/15 21:31:24 -0400"},"geo_score":0.5,"unit":56,"disposition":200,"cfs":9,"call#":9.010145,"id":"a64ruf2avxw8","geo_precision":"street","address":"Greenfield St/City Limits","state":"OH","juris":"PD"},"type":"Feature","geometry":{"type":"Point","coordinates":[-83.166371,41.115296]}},{"properties":{"officer":"SWK","city":"Tiffin","zip":"44883","date":{"end_time":"2009/10/15 17:49:00 -0400","original":"10/15/2009 5:48:59 PM","granularity":"sec","time":"2009/10/15 17:48:59 -0400"},"geo_score":0.805,"unit":61,"disposition":100,"cfs":9,"call#":9.010137,"id":"a64ruf2b1in2","geo_precision":"street","address":"310 E Market St","state":"OH","juris":"PD"},"type":"Feature","geometry":{"type":"Point","coordinates":[-83.168494,41.116759]}},{"properties":{"officer":"DES","city":"Tiffin","zip":"44883","date":{"end_time":"2009/10/15 15:06:13 -0400","original":"10/15/2009 3:06:12 PM","granularity":"sec","time":"2009/10/15 15:06:12 -0400"},"geo_score":0.902,"unit":61,"disposition":200,"cfs":9,"call#":9.010132,"id":"a64ruf6otzgr","geo_precision":"range","address":"316 Benner St","state":"OH","juris":"PD"},"type":"Feature","geometry":{"type":"Point","coordinates":[-83.185922,41.112896]}},{"properties":{"officer":"SGN","city":"Tiffin","zip":"44883","date":{"end_time":"2009/10/15 12:23:49 -0400","original":"10/15/2009 12:23:48 PM","granularity":"sec","time":"2009/10/15 12:23:48 -0400"},"geo_score":0.902,"unit":62,"disposition":200,"cfs":9,"call#":9.010124,"id":"a64ruf167ice","geo_precision":"range","address":"528 E Market St","state":"OH","juris":"PD"},"type":"Feature","geometry":{"type":"Point","coordinates":[-83.162844,41.120632]}},{"properties":{"officer":"SGN","city":"Tiffin","zip":"44883","date":{"end_time":"2009/10/14 16:24:52 -0400","original":"10/14/2009 4:24:51 PM","granularity":"sec","time":"2009/10/14 16:24:51 -0400"},"geo_score":0.805,"unit":62,"disposition":200,"cfs":9,"call#":9.010106,"id":"a64ruexhyn8y","geo_precision":"street","address":"310 E Market St","state":"OH","juris":"PD"},"type":"Feature","geometry":{"type":"Point","coordinates":[-83.168494,41.116759]}},{"properties":{"officer":"REB","city":"Tiffin","zip":"44883","date":{"end_time":"2009/10/12 13:39:47 -0400","original":"10/12/2009 1:39:46 PM","granularity":"sec","time":"2009/10/12 13:39:46 -0400"},"geo_score":0.902,"unit":61,"disposition":200,"cfs":9,"call#":9.010037,"id":"a64ruf93y4oo","geo_precision":"range","address":"181 E Perry St","state":"OH","juris":"PD"},"type":"Feature","geometry":{"type":"Point","coordinates":[-83.172997,41.116173]}},{"properties":{"officer":"JAD","city":"Tiffin","zip":"44883","date":{"end_time":"2009/10/08 21:23:46 -0400","original":"10/8/2009 9:23:45 PM","granularity":"sec","time":"2009/10/08 21:23:45 -0400"},"geo_score":0.902,"unit":56,"disposition":200,"cfs":9,"call#":9.009909,"id":"a64ruetklqut","geo_precision":"range","address":"50 Linda Ln","state":"OH","juris":"PD"},"type":"Feature","geometry":{"type":"Point","coordinates":[-83.163784,41.101994]}},{"properties":{"officer":"JAD","city":"Tiffin","zip":"44883","date":{"end_time":"2009/10/08 21:05:39 -0400","original":"10/8/2009 9:05:38 PM","granularity":"sec","time":"2009/10/08 21:05:38 -0400"},"geo_score":0.902,"unit":56,"disposition":200,"cfs":9,"call#":9.009908,"id":"a64ruf6rgrir","geo_precision":"range","address":"30 Linda Ln","state":"OH","juris":"PD"},"type":"Feature","geometry":{"type":"Point","coordinates":[-83.164435,41.101974]}},{"properties":{"officer":"RJO","city":"Tiffin","zip":"44883","date":{"end_time":"2009/10/06 12:11:54 -0400","original":"10/6/2009 12:11:53 PM","granularity":"sec","time":"2009/10/06 12:11:53 -0400"},"geo_score":0.902,"unit":57,"disposition":200,"cfs":9,"call#":9.009835,"id":"a64ruev48e5w","geo_precision":"range","address":"528 E Market St","state":"OH","juris":"PD"},"type":"Feature","geometry":{"type":"Point","coordinates":[-83.162844,41.120632]}},{"properties":{"officer":"SWK","city":"Tiffin","zip":"44883","date":{"end_time":"2009/10/05 17:52:29 -0400","original":"10/5/2009 5:52:28 PM","granularity":"sec","time":"2009/10/05 17:52:28 -0400"},"geo_score":0.902,"unit":61,"disposition":200,"cfs":9,"call#":9.009813,"id":"a64ruf86yqci","geo_precision":"range","address":"156 N Sandusky St","state":"OH","juris":"PD"},"type":"Feature","geometry":{"type":"Point","coordinates":[-83.180046,41.123665]}},{"properties":{"officer":"RJO","city":"Tiffin","zip":"44883","date":{"end_time":"2009/10/05 07:31:05 -0400","original":"10/5/2009 7:31:04 AM","granularity":"sec","time":"2009/10/05 07:31:04 -0400"},"geo_score":0.902,"unit":57,"disposition":100,"cfs":9,"call#":9.009788,"id":"a64ruf1f0a7l","geo_precision":"range","address":"117 S Washington St","state":"OH","juris":"PD"},"type":"Feature","geometry":{"type":"Point","coordinates":[-83.176538,41.114344]}},{"properties":{"officer":"REB","city":"Tiffin","zip":"44883","date":{"end_time":"2009/10/04 11:27:31 -0400","original":"10/4/2009 11:27:30 AM","granularity":"sec","time":"2009/10/04 11:27:30 -0400"},"geo_score":0.902,"unit":63,"disposition":200,"cfs":9,"call#":9.009775,"id":"a64ruetef7n0","geo_precision":"range","address":"340 Water St","state":"OH","juris":"PD"},"type":"Feature","geometry":{"type":"Point","coordinates":[-83.173748,41.122002]}},{"properties":{"officer":"JPF","city":"Tiffin","zip":"44883","date":{"end_time":"2009/10/02 06:34:51 -0400","original":"10/2/2009 6:34:50 AM","granularity":"sec","time":"2009/10/02 06:34:50 -0400"},"geo_score":0.408,"unit":59,"disposition":200,"cfs":9,"call#":9.009677,"id":"a64ruf4eembg","geo_precision":"street","address":"182 St Francis Av","state":"OH","juris":"PD"},"type":"Feature","geometry":{"type":"Point","coordinates":[-83.435561,41.152397]}},{"properties":{"officer":"SMM","city":"Tiffin","zip":"44883","date":{"end_time":"2009/10/02 00:37:34 -0400","original":"10/2/2009 12:37:33 AM","granularity":"sec","time":"2009/10/02 00:37:33 -0400"},"geo_score":0.902,"unit":58,"disposition":200,"cfs":9,"call#":9.009669,"id":"a64ruf30renx","geo_precision":"range","address":"479 E Market St","state":"OH","juris":"PD"},"type":"Feature","geometry":{"type":"Point","coordinates":[-83.16444,41.119577]}},{"properties":{"officer":"MAM","city":"Tiffin","zip":"44883","date":{"end_time":"2009/10/01 09:02:44 -0400","original":"10/1/2009 9:02:43 AM","granularity":"sec","time":"2009/10/01 09:02:43 -0400"},"geo_score":0.902,"unit":58,"disposition":200,"cfs":9,"call#":9.009647,"id":"a64ruf2ju2fw","geo_precision":"range","address":"388 E Perry St","state":"OH","juris":"PD"},"type":"Feature","geometry":{"type":"Point","coordinates":[-83.165273,41.117573]}},{"properties":{"officer":"SWK","city":"Tiffin","zip":"44883","date":{"end_time":"2009/09/28 22:26:20 -0400","original":"9/28/2009 10:26:19 PM","granularity":"sec","time":"2009/09/28 22:26:19 -0400"},"geo_score":0.902,"unit":61,"disposition":100,"cfs":9,"call#":9.009578,"id":"a64ruf4f4anw","geo_precision":"range","address":"45 S Monroe St","state":"OH","juris":"PD"},"type":"Feature","geometry":{"type":"Point","coordinates":[-83.17834,41.11543]}},{"properties":{"officer":"AMR","city":"Tiffin","zip":"44883","date":{"end_time":"2009/09/27 16:57:47 -0400","original":"9/27/2009 4:57:46 PM","granularity":"sec","time":"2009/09/27 16:57:46 -0400"},"geo_score":0.902,"unit":635,"disposition":200,"cfs":9,"call#":9.009533,"id":"a64ruf6bqvcq","geo_precision":"range","address":"167 Main St","state":"OH","juris":"PD"},"type":"Feature","geometry":{"type":"Point","coordinates":[-83.168532,41.111997]}},{"properties":{"officer":"JMW","city":"Tiffin","zip":"44883","date":{"end_time":"2009/09/27 03:53:06 -0400","original":"9/27/2009 3:53:05 AM","granularity":"sec","time":"2009/09/27 03:53:05 -0400"},"geo_score":0.902,"unit":57,"disposition":230,"cfs":9,"call#":9.009518,"id":"a64ruf25nm2e","geo_precision":"range","address":"44 Greenfield St","state":"OH","juris":"PD"},"type":"Feature","geometry":{"type":"Point","coordinates":[-83.168209,41.115747]}},{"properties":{"officer":"REB","city":"Tiffin","zip":"44883","date":{"end_time":"2009/09/26 09:59:22 -0400","original":"9/26/2009 9:59:21 AM","granularity":"sec","time":"2009/09/26 09:59:21 -0400"},"geo_score":0.902,"unit":63,"disposition":200,"cfs":9,"call#":9.009481,"id":"a64ruf5w1zyv","geo_precision":"range","address":"130 Huss St","state":"OH","juris":"PD"},"type":"Feature","geometry":{"type":"Point","coordinates":[-83.170132,41.131107]}},{"properties":{"officer":"REB","city":"Tiffin","zip":"44883","date":{"end_time":"2009/09/26 07:48:11 -0400","original":"9/26/2009 7:48:10 AM","granularity":"sec","time":"2009/09/26 07:48:10 -0400"},"geo_score":0.902,"unit":63,"disposition":200,"cfs":9,"call#":9.009476,"id":"a64ruf63dgme","geo_precision":"range","address":"108 Adams St","state":"OH","juris":"PD"},"type":"Feature","geometry":{"type":"Point","coordinates":[-83.181876,41.119259]}},{"properties":{"officer":"MEM","city":"Tiffin","zip":"44883","date":{"end_time":"2009/09/26 02:02:20 -0400","original":"9/26/2009 2:02:19 AM","granularity":"sec","time":"2009/09/26 02:02:19 -0400"},"geo_score":0.857,"unit":61,"disposition":100,"cfs":9,"call#":9.009468,"id":"a64ruf458fk0","geo_precision":"street","address":"E Perry St/City Limits","state":"OH","juris":"PD"},"type":"Feature","geometry":{"type":"Point","coordinates":[-83.178368,41.11568]}},{"properties":{"officer":"RLT","city":"Tiffin","zip":"44883","date":{"end_time":"2009/09/26 01:57:39 -0400","original":"9/26/2009 1:57:38 AM","granularity":"sec","time":"2009/09/26 01:57:38 -0400"},"geo_score":0.902,"unit":58,"disposition":200,"cfs":9,"call#":9.009467,"id":"a64ruf4tpjq8","geo_precision":"range","address":"283 S Washington St","state":"OH","juris":"PD"},"type":"Feature","geometry":{"type":"Point","coordinates":[-83.175825,41.10983]}},{"properties":{"officer":"RLT","city":"Tiffin","zip":"44883","date":{"end_time":"2009/09/25 23:44:33 -0400","original":"9/25/2009 11:44:32 PM","granularity":"sec","time":"2009/09/25 23:44:32 -0400"},"geo_score":0.643,"unit":58,"disposition":200,"cfs":9,"call#":9.009456,"id":"a64ruevr5caj","geo_precision":"street","address":"Charlotte St/First St","state":"OH","juris":"PD"},"type":"Feature","geometry":{"type":"Point","coordinates":[-83.180681,41.127913]}},{"properties":{"officer":"EDA","city":"Tiffin","zip":"44883","date":{"end_time":"2009/09/25 23:23:16 -0400","original":"9/25/2009 11:23:15 PM","granularity":"sec","time":"2009/09/25 23:23:15 -0400"},"geo_score":0.902,"unit":59,"disposition":200,"cfs":9,"call#":9.009455,"id":"a64ruf43e6jw","geo_precision":"range","address":"37X Harrison St","state":"OH","juris":"PD"},"type":"Feature","geometry":{"type":"Point","coordinates":[-83.176487,41.120462]}},{"properties":{"officer":"SGN","city":"Tiffin","zip":"44883","date":{"end_time":"2009/09/24 14:15:27 -0400","original":"9/24/2009 2:15:26 PM","granularity":"sec","time":"2009/09/24 14:15:26 -0400"},"geo_score":0.902,"unit":62,"disposition":200,"cfs":9,"call#":9.009411,"id":"a64ruf49b16s","geo_precision":"range","address":"367 Water St","state":"OH","juris":"PD"},"type":"Feature","geometry":{"type":"Point","coordinates":[-83.173414,41.122781]}},{"properties":{"officer":"DES","city":"Tiffin","zip":"44883","date":{"end_time":"2009/09/24 08:08:22 -0400","original":"9/24/2009 8:08:21 AM","granularity":"sec","time":"2009/09/24 08:08:21 -0400"},"geo_score":0.756,"unit":61,"disposition":200,"cfs":9,"call#":9.009395,"id":"a64ruf52iopl","geo_precision":"range","address":"265 Sixth Av","state":"OH","juris":"PD"},"type":"Feature","geometry":{"type":"Point","coordinates":[-83.183327,41.132178]}},{"properties":{"officer":"JPF","city":"Tiffin","zip":"44883","date":{"end_time":"2009/09/21 07:11:15 -0400","original":"9/21/2009 7:11:14 AM","granularity":"sec","time":"2009/09/21 07:11:14 -0400"},"geo_score":0.902,"unit":59,"disposition":200,"cfs":9,"call#":9.009304,"id":"a64ruewb4u99","geo_precision":"range","address":"631 N Sandusky St","state":"OH","juris":"PD"},"type":"Feature","geometry":{"type":"Point","coordinates":[-83.172113,41.134783]}},{"properties":{"officer":"DES","city":"Tiffin","zip":"44883","date":{"end_time":"2009/09/19 09:43:26 -0400","original":"9/19/2009 9:43:25 AM","granularity":"sec","time":"2009/09/19 09:43:25 -0400"},"geo_score":0.902,"unit":61,"disposition":200,"cfs":9,"call#":9.009229,"id":"a64ruet8eagr","geo_precision":"range","address":"115 N Washington St","state":"OH","juris":"PD"},"type":"Feature","geometry":{"type":"Point","coordinates":[-83.177575,41.121015]}},{"properties":{"officer":"MEM","city":"Tiffin","zip":"44883","date":{"end_time":"2009/09/19 00:39:45 -0400","original":"9/19/2009 12:39:44 AM","granularity":"sec","time":"2009/09/19 00:39:44 -0400"},"geo_score":0.902,"unit":61,"disposition":200,"cfs":9,"call#":9.009216,"id":"a64ruf81vfz9","geo_precision":"range","address":"41 Adams St","state":"OH","juris":"PD"},"type":"Feature","geometry":{"type":"Point","coordinates":[-83.179252,41.118245]}},{"properties":{"officer":"SGN","city":"Tiffin","zip":"44883","date":{"end_time":"2009/09/17 08:13:44 -0400","original":"9/17/2009 8:13:43 AM","granularity":"sec","time":"2009/09/17 08:13:43 -0400"},"geo_score":0.902,"unit":62,"disposition":200,"cfs":9,"call#":9.009123,"id":"a64ruf5isv3u","geo_precision":"range","address":"72 N Monroe St,9","state":"OH","juris":"PD"},"type":"Feature","geometry":{"type":"Point","coordinates":[-83.178678,41.117725]}},{"properties":{"officer":"AMR","city":"Tiffin","zip":"44883","date":{"end_time":"2009/09/16 17:15:15 -0400","original":"9/16/2009 5:15:14 PM","granularity":"sec","time":"2009/09/16 17:15:14 -0400"},"geo_score":0.902,"unit":63,"disposition":200,"cfs":9,"call#":9.009106,"id":"a64ruexykzm8","geo_precision":"range","address":"175 Jefferson St","state":"OH","juris":"PD"},"type":"Feature","geometry":{"type":"Point","coordinates":[-83.174644,41.112704]}},{"properties":{"officer":"SGN","city":"Tiffin","zip":"44883","date":{"end_time":"2009/09/16 12:15:28 -0400","original":"9/16/2009 12:15:27 PM","granularity":"sec","time":"2009/09/16 12:15:27 -0400"},"geo_score":0.78,"unit":62,"disposition":200,"cfs":9,"call#":9.009097,"id":"a64ruf11h2jd","geo_precision":"range","address":"800 W Market St","state":"OH","juris":"PD"},"type":"Feature","geometry":{"type":"Point","coordinates":[-83.207504,41.111154]}},{"properties":{"officer":"RLT","city":"Tiffin","zip":"44883","date":{"end_time":"2009/09/12 19:15:36 -0400","original":"9/12/2009 7:15:35 PM","granularity":"sec","time":"2009/09/12 19:15:35 -0400"},"geo_score":0.902,"unit":58,"disposition":200,"cfs":9,"call#":9.008989,"id":"a64ruf5zpd7s","geo_precision":"range","address":"8 Adams St","state":"OH","juris":"PD"},"type":"Feature","geometry":{"type":"Point","coordinates":[-83.178372,41.117853]}},{"properties":{"officer":"REB","city":"Tiffin","zip":"44883","date":{"end_time":"2009/09/08 07:52:36 -0400","original":"9/8/2009 7:52:35 AM","granularity":"sec","time":"2009/09/08 07:52:35 -0400"},"geo_score":0.902,"unit":61,"disposition":200,"cfs":9,"call#":9.008839,"id":"a64ruf5f9kww","geo_precision":"range","address":"316 Benner St","state":"OH","juris":"PD"},"type":"Feature","geometry":{"type":"Point","coordinates":[-83.185922,41.112896]}},{"properties":{"officer":"JSC","city":"Tiffin","zip":"44883","date":{"end_time":"2009/09/07 17:41:08 -0400","original":"9/7/2009 5:41:07 PM","granularity":"sec","time":"2009/09/07 17:41:07 -0400"},"geo_score":0.902,"unit":59,"disposition":200,"cfs":9,"call#":9.008828,"id":"a64ruf0u7cfm","geo_precision":"range","address":"286 Hedges St","state":"OH","juris":"PD"},"type":"Feature","geometry":{"type":"Point","coordinates":[-83.16756,41.109082]}},{"properties":{"officer":"JMW","city":"Tiffin","zip":"44883","date":{"end_time":"2009/09/06 15:45:51 -0400","original":"9/6/2009 3:45:50 PM","granularity":"sec","time":"2009/09/06 15:45:50 -0400"},"geo_score":0.902,"unit":58,"disposition":200,"cfs":9,"call#":9.008798,"id":"a64ruf80pla9","geo_precision":"range","address":"251 Main St","state":"OH","juris":"PD"},"type":"Feature","geometry":{"type":"Point","coordinates":[-83.164041,41.112368]}},{"properties":{"officer":"GTM","city":"Tiffin","zip":"44883","date":{"end_time":"2009/09/06 10:53:59 -0400","original":"9/6/2009 10:53:58 AM","granularity":"sec","time":"2009/09/06 10:53:58 -0400"},"geo_score":0.902,"unit":58,"disposition":200,"cfs":9,"call#":9.00879,"id":"a64ruf352dsj","geo_precision":"range","address":"14 W Market St","state":"OH","juris":"PD"},"type":"Feature","geometry":{"type":"Point","coordinates":[-83.181159,41.114146]}},{"properties":{"officer":"JSC","city":"Tiffin","zip":"44883","date":{"end_time":"2009/09/05 02:28:54 -0400","original":"9/5/2009 2:28:53 AM","granularity":"sec","time":"2009/09/05 02:28:53 -0400"},"geo_score":0.454,"unit":59,"disposition":200,"cfs":9,"call#":9.008734,"id":"a64ruf3nu0kf","geo_precision":"street","address":"1 City Lot 3","state":"OH","juris":"PD"},"type":"Feature","geometry":{"type":"Point","coordinates":[-83.184117,41.108723]}},{"properties":{"officer":"SGN","city":"Tiffin","zip":"44883","date":{"end_time":"2009/09/03 12:52:45 -0400","original":"9/3/2009 12:52:44 PM","granularity":"sec","time":"2009/09/03 12:52:44 -0400"},"geo_score":0.516,"unit":62,"disposition":200,"cfs":9,"call#":9.008651,"id":"a64rueukad8z","geo_precision":"street","address":"45 St Lawrence Dr","state":"OH","juris":"PD"},"type":"Feature","geometry":{"type":"Point","coordinates":[-82.718729,41.455282]}},{"properties":{"officer":"SWK","city":"Tiffin","zip":"44883","date":{"end_time":"2009/09/01 17:38:43 -0400","original":"9/1/2009 5:38:42 PM","granularity":"sec","time":"2009/09/01 17:38:42 -0400"},"geo_score":0.902,"unit":61,"disposition":100,"cfs":9,"call#":9.008588,"id":"a64ruesvopvp","geo_precision":"range","address":"295 W Market St","state":"OH","juris":"PD"},"type":"Feature","geometry":{"type":"Point","coordinates":[-83.190676,41.113222]}},{"properties":{"officer":"DGH","city":"Tiffin","zip":"44883","date":{"end_time":"2009/08/31 09:16:39 -0400","original":"8/31/2009 9:16:38 AM","granularity":"sec","time":"2009/08/31 09:16:38 -0400"},"geo_score":0.902,"unit":63,"disposition":200,"cfs":9,"call#":9.008547,"id":"a64ruf25u7t1","geo_precision":"range","address":"278 Wentz St","state":"OH","juris":"PD"},"type":"Feature","geometry":{"type":"Point","coordinates":[-83.195388,41.114962]}},{"properties":{"officer":"REB","city":"Tiffin","zip":"44883","date":{"end_time":"2009/08/31 08:05:44 -0400","original":"8/31/2009 8:05:43 AM","granularity":"sec","time":"2009/08/31 08:05:43 -0400"},"geo_score":0.902,"unit":62,"disposition":200,"cfs":9,"call#":9.008545,"id":"a64ruevzdt78","geo_precision":"range","address":"31 S Washington St","state":"OH","juris":"PD"},"type":"Feature","geometry":{"type":"Point","coordinates":[-83.176907,41.116726]}},{"properties":{"officer":"RJO","city":"Tiffin","zip":"44883","date":{"end_time":"2009/08/30 15:31:29 -0400","original":"8/30/2009 3:31:28 PM","granularity":"sec","time":"2009/08/30 15:31:28 -0400"},"geo_score":0.902,"unit":57,"disposition":200,"cfs":9,"call#":9.008531,"id":"a64ruesujwkj","geo_precision":"range","address":"182 E Market St,117","state":"OH","juris":"PD"},"type":"Feature","geometry":{"type":"Point","coordinates":[-83.17587,41.11467]}},{"properties":{"officer":"DES","city":"Tiffin","zip":"44883","date":{"end_time":"2009/08/30 14:32:40 -0400","original":"8/30/2009 2:32:39 PM","granularity":"sec","time":"2009/08/30 14:32:39 -0400"},"geo_score":0.861,"unit":61,"disposition":200,"cfs":9,"call#":9.008528,"id":"a64ruexb8411","geo_precision":"range","address":"45 Park Av","state":"OH","juris":"PD"},"type":"Feature","geometry":{"type":"Point","coordinates":[-83.177411,41.130527]}},{"properties":{"officer":"REB","city":"Tiffin","zip":"44883","date":{"end_time":"2009/08/30 12:01:11 -0400","original":"8/30/2009 12:01:10 PM","granularity":"sec","time":"2009/08/30 12:01:10 -0400"},"geo_score":0.902,"unit":62,"disposition":200,"cfs":9,"call#":9.008525,"id":"a64ruetv3nt8","geo_precision":"range","address":"28 Rebecca St","state":"OH","juris":"PD"},"type":"Feature","geometry":{"type":"Point","coordinates":[-83.170219,41.113052]}},{"properties":{"officer":"JAD","city":"Tiffin","zip":"44883","date":{"end_time":"2009/08/30 01:57:48 -0400","original":"8/30/2009 1:57:47 AM","granularity":"sec","time":"2009/08/30 01:57:47 -0400"},"geo_score":0.902,"unit":56,"disposition":200,"cfs":9,"call#":9.00851,"id":"a64rueusysl7","geo_precision":"range","address":"68 E Market St","state":"OH","juris":"PD"},"type":"Feature","geometry":{"type":"Point","coordinates":[-83.177693,41.114492]}},{"properties":{"officer":"MAM","city":"Tiffin","zip":"44883","date":{"end_time":"2009/08/29 10:54:49 -0400","original":"8/29/2009 10:54:48 AM","granularity":"sec","time":"2009/08/29 10:54:48 -0400"},"geo_score":0.902,"unit":58,"disposition":200,"cfs":9,"call#":9.008467,"id":"a64ruf591wkg","geo_precision":"range","address":"255 Main St","state":"OH","juris":"PD"},"type":"Feature","geometry":{"type":"Point","coordinates":[-83.164025,41.11237]}},{"properties":{"officer":"DES","city":"Tiffin","zip":"44883","date":{"end_time":"2009/08/27 15:26:40 -0400","original":"8/27/2009 3:26:39 PM","granularity":"sec","time":"2009/08/27 15:26:39 -0400"},"geo_score":0.902,"unit":61,"disposition":200,"cfs":9,"call#":9.008389,"id":"a64ruf5f9hk4","geo_precision":"range","address":"116 Huss St","state":"OH","juris":"PD"},"type":"Feature","geometry":{"type":"Point","coordinates":[-83.169103,41.13111]}},{"properties":{"officer":"SGN","city":"Tiffin","zip":"44883","date":{"end_time":"2009/08/26 07:17:03 -0400","original":"8/26/2009 7:17:02 AM","granularity":"sec","time":"2009/08/26 07:17:02 -0400"},"geo_score":0.756,"unit":62,"disposition":200,"cfs":9,"call#":9.008328,"id":"a64ruf0dc1b5","geo_precision":"range","address":"241 Seventh Av","state":"OH","juris":"PD"},"type":"Feature","geometry":{"type":"Point","coordinates":[-83.181773,41.133047]}},{"properties":{"officer":"SGN","city":"Tiffin","zip":"44883","date":{"end_time":"2009/08/25 07:38:10 -0400","original":"8/25/2009 7:38:09 AM","granularity":"sec","time":"2009/08/25 07:38:09 -0400"},"geo_score":0.902,"unit":62,"disposition":200,"cfs":9,"call#":9.008301,"id":"a64rueycaekr","geo_precision":"range","address":"104 Madison St","state":"OH","juris":"PD"},"type":"Feature","geometry":{"type":"Point","coordinates":[-83.176052,41.113417]}},{"properties":{"officer":"JMW","city":"Tiffin","zip":"44883","date":{"end_time":"2009/08/24 17:16:07 -0400","original":"8/24/2009 5:16:06 PM","granularity":"sec","time":"2009/08/24 17:16:06 -0400"},"geo_score":0.902,"unit":58,"disposition":100,"cfs":9,"call#":9.008285,"id":"a64ruf31dqag","geo_precision":"range","address":"9 Bryden Rd","state":"OH","juris":"PD"},"type":"Feature","geometry":{"type":"Point","coordinates":[-83.162915,41.102149]}},{"properties":{"officer":"SGN","city":"Tiffin","zip":"44883","date":{"end_time":"2009/08/24 10:35:48 -0400","original":"8/24/2009 10:35:47 AM","granularity":"sec","time":"2009/08/24 10:35:47 -0400"},"geo_score":0.902,"unit":62,"disposition":200,"cfs":9,"call#":9.008272,"id":"a64rueugahz2","geo_precision":"range","address":"255 Gross St","state":"OH","juris":"PD"},"type":"Feature","geometry":{"type":"Point","coordinates":[-83.162229,41.102204]}},{"properties":{"officer":"DGH","city":"Tiffin","zip":"44883","date":{"end_time":"2009/08/24 09:15:24 -0400","original":"8/24/2009 9:15:23 AM","granularity":"sec","time":"2009/08/24 09:15:23 -0400"},"geo_score":0.902,"unit":63,"disposition":200,"cfs":9,"call#":9.008269,"id":"a64ruezmsgwa","geo_precision":"range","address":"28 Rose Ln","state":"OH","juris":"PD"},"type":"Feature","geometry":{"type":"Point","coordinates":[-83.160656,41.102614]}},{"properties":{"officer":"DGH","city":"Tiffin","zip":"44883","date":{"end_time":"2009/08/24 08:49:29 -0400","original":"8/24/2009 8:49:28 AM","granularity":"sec","time":"2009/08/24 08:49:28 -0400"},"geo_score":0.902,"unit":63,"disposition":200,"cfs":9,"call#":9.008266,"id":"a64rueulm1vg","geo_precision":"range","address":"245 Gross St","state":"OH","juris":"PD"},"type":"Feature","geometry":{"type":"Point","coordinates":[-83.162383,41.102297]}},{"properties":{"officer":"LMK","city":"Tiffin","zip":"44883","date":{"end_time":"2009/08/24 08:29:34 -0400","original":"8/24/2009 8:29:33 AM","granularity":"sec","time":"2009/08/24 08:29:33 -0400"},"geo_score":0.902,"unit":59,"disposition":200,"cfs":9,"call#":9.008265,"id":"a64ruf44rbc5","geo_precision":"range","address":"7 Linda Ln","state":"OH","juris":"PD"},"type":"Feature","geometry":{"type":"Point","coordinates":[-83.165151,41.101952]}},{"properties":{"officer":"LMK","city":"Tiffin","zip":"44883","date":{"end_time":"2009/08/24 07:56:54 -0400","original":"8/24/2009 7:56:53 AM","granularity":"sec","time":"2009/08/24 07:56:53 -0400"},"geo_score":0.902,"unit":59,"disposition":200,"cfs":9,"call#":9.008261,"id":"a64ruew1wsrd","geo_precision":"range","address":"275 Gross St","state":"OH","juris":"PD"},"type":"Feature","geometry":{"type":"Point","coordinates":[-83.161921,41.102018]}},{"properties":{"officer":"DES","city":"Tiffin","zip":"44883","date":{"end_time":"2009/08/22 11:49:59 -0400","original":"8/22/2009 11:49:58 AM","granularity":"sec","time":"2009/08/22 11:49:58 -0400"},"geo_score":0.902,"unit":62,"disposition":200,"cfs":9,"call#":9.008187,"id":"a64ruf5rahb8","geo_precision":"range","address":"279X S Monroe St","state":"OH","juris":"PD"},"type":"Feature","geometry":{"type":"Point","coordinates":[-83.177309,41.108761]}},{"properties":{"officer":"SGN","city":"Tiffin","zip":"44883","date":{"end_time":"2009/08/19 16:23:44 -0400","original":"8/19/2009 4:23:43 PM","granularity":"sec","time":"2009/08/19 16:23:43 -0400"},"geo_score":0.861,"unit":63,"disposition":200,"cfs":9,"call#":9.00807,"id":"a64ruf9amtco","geo_precision":"range","address":"186 Ohio Av","state":"OH","juris":"PD"},"type":"Feature","geometry":{"type":"Point","coordinates":[-83.164862,41.123778]}},{"properties":{"officer":"MAM","city":"Tiffin","zip":"44883","date":{"end_time":"2009/08/19 13:15:05 -0400","original":"8/19/2009 1:15:04 PM","granularity":"sec","time":"2009/08/19 13:15:04 -0400"},"geo_score":0.72,"unit":58,"disposition":200,"cfs":9,"call#":9.00806,"id":"a64ruevk6pve","geo_precision":"street","address":"269 S Washington St,5","state":"OH","juris":"PD"},"type":"Feature","geometry":{"type":"Point","coordinates":[-83.176943,41.117025]}},{"properties":{"officer":"MAM","city":"Tiffin","zip":"44883","date":{"end_time":"2009/08/19 11:26:27 -0400","original":"8/19/2009 11:26:26 AM","granularity":"sec","time":"2009/08/19 11:26:26 -0400"},"geo_score":0.902,"unit":58,"disposition":200,"cfs":9,"call#":9.008056,"id":"a64ruf8ybx28","geo_precision":"range","address":"77 Douglas St","state":"OH","juris":"PD"},"type":"Feature","geometry":{"type":"Point","coordinates":[-83.173754,41.127695]}},{"properties":{"officer":"SGN","city":"Tiffin","zip":"44883","date":{"end_time":"2009/08/19 08:33:02 -0400","original":"8/19/2009 8:33:01 AM","granularity":"sec","time":"2009/08/19 08:33:01 -0400"},"geo_score":0.902,"unit":63,"disposition":200,"cfs":9,"call#":9.008051,"id":"a64ruf820l05","geo_precision":"range","address":"145X Madison St","state":"OH","juris":"PD"},"type":"Feature","geometry":{"type":"Point","coordinates":[-83.174721,41.113518]}},{"properties":{"officer":"SGN","city":"Tiffin","zip":"44883","date":{"end_time":"2009/08/19 08:00:37 -0400","original":"8/19/2009 8:00:36 AM","granularity":"sec","time":"2009/08/19 08:00:36 -0400"},"geo_score":0.777,"unit":63,"disposition":200,"cfs":9,"call#":9.00805,"id":"a64ruf1fgp7x","geo_precision":"range","address":"31 Court St","state":"OH","juris":"PD"},"type":"Feature","geometry":{"type":"Point","coordinates":[-83.176111,41.1153]}},{"properties":{"officer":"SGN","city":"Tiffin","zip":"44883","date":{"end_time":"2009/08/19 07:49:17 -0400","original":"8/19/2009 7:49:16 AM","granularity":"sec","time":"2009/08/19 07:49:16 -0400"},"geo_score":0.902,"unit":63,"disposition":200,"cfs":9,"call#":9.008049,"id":"a64ruf3zc1g6","geo_precision":"range","address":"81 Jefferson St","state":"OH","juris":"PD"},"type":"Feature","geometry":{"type":"Point","coordinates":[-83.175049,41.115382]}},{"properties":{"officer":"RJO","city":"Tiffin","zip":"44883","date":{"end_time":"2009/08/12 09:59:53 -0400","original":"8/12/2009 9:59:52 AM","granularity":"sec","time":"2009/08/12 09:59:52 -0400"},"geo_score":0.902,"unit":57,"disposition":200,"cfs":9,"call#":9.007819,"id":"a64ruev9n6ij","geo_precision":"range","address":"191 E Market St","state":"OH","juris":"PD"},"type":"Feature","geometry":{"type":"Point","coordinates":[-83.173515,41.114903]}},{"properties":{"officer":"JSC","city":"Tiffin","zip":"44883","date":{"end_time":"2009/08/12 02:49:37 -0400","original":"8/12/2009 2:49:36 AM","granularity":"sec","time":"2009/08/12 02:49:36 -0400"},"geo_score":0.902,"unit":59,"disposition":200,"cfs":9,"call#":9.007813,"id":"a64rueyiqdw5","geo_precision":"range","address":"274 S Washington St","state":"OH","juris":"PD"},"type":"Feature","geometry":{"type":"Point","coordinates":[-83.17585,41.110025]}},{"properties":{"officer":"REB","city":"Tiffin","zip":"44883","date":{"end_time":"2009/08/04 11:56:47 -0400","original":"8/4/2009 11:56:46 AM","granularity":"sec","time":"2009/08/04 11:56:46 -0400"},"geo_score":0.902,"unit":59,"disposition":200,"cfs":9,"call#":9.007566,"id":"a64ruf55sr9l","geo_precision":"range","address":"151 Minerva St","state":"OH","juris":"PD"},"type":"Feature","geometry":{"type":"Point","coordinates":[-83.176527,41.124689]}},{"properties":{"officer":"SGN","city":"Tiffin","zip":"44883","date":{"end_time":"2009/08/04 09:03:57 -0400","original":"8/4/2009 9:03:56 AM","granularity":"sec","time":"2009/08/04 09:03:56 -0400"},"geo_score":0.902,"unit":62,"disposition":200,"cfs":9,"call#":9.007562,"id":"a64rueyju4ko","geo_precision":"range","address":"29 Webster St","state":"OH","juris":"PD"},"type":"Feature","geometry":{"type":"Point","coordinates":[-83.173861,41.123829]}},{"properties":{"officer":"LMK","city":"Tiffin","zip":"44883","date":{"end_time":"2009/08/03 06:10:12 -0400","original":"8/3/2009 6:10:11 AM","granularity":"sec","time":"2009/08/03 06:10:11 -0400"},"geo_score":0.902,"unit":62,"disposition":200,"cfs":9,"call#":9.007523,"id":"a64ruf2di0ln","geo_precision":"range","address":"21 Main St","state":"OH","juris":"PD"},"type":"Feature","geometry":{"type":"Point","coordinates":[-83.17401,41.111512]}},{"properties":{"officer":"JSC","city":"Tiffin","zip":"44883","date":{"end_time":"2009/08/01 23:56:44 -0400","original":"8/1/2009 11:56:43 PM","granularity":"sec","time":"2009/08/01 23:56:43 -0400"},"geo_score":0.902,"unit":59,"disposition":200,"cfs":9,"call#":9.007483,"id":"a64ruew8255z","geo_precision":"range","address":"64 E Perry St","state":"OH","juris":"PD"},"type":"Feature","geometry":{"type":"Point","coordinates":[-83.177734,41.115757]}},{"properties":{"officer":"RLT","city":"Tiffin","zip":"44883","date":{"end_time":"2009/08/01 21:26:56 -0400","original":"8/1/2009 9:26:55 PM","granularity":"sec","time":"2009/08/01 21:26:55 -0400"},"geo_score":0.902,"unit":58,"disposition":200,"cfs":9,"call#":9.007479,"id":"a64ruf43pzpm","geo_precision":"range","address":"17 Frost Pkwy","state":"OH","juris":"PD"},"type":"Feature","geometry":{"type":"Point","coordinates":[-83.180758,41.114695]}},{"properties":{"officer":"RLT","city":"Tiffin","zip":"44883","date":{"end_time":"2009/07/31 19:00:53 -0400","original":"7/31/2009 7:00:52 PM","granularity":"sec","time":"2009/07/31 19:00:52 -0400"},"geo_score":0.902,"unit":58,"disposition":200,"cfs":9,"call#":9.007425,"id":"a64ruf3nfmsl","geo_precision":"range","address":"530 W Market St","state":"OH","juris":"PD"},"type":"Feature","geometry":{"type":"Point","coordinates":[-83.198244,41.112443]}},{"properties":{"officer":"JPF","city":"Tiffin","zip":"44883","date":{"end_time":"2009/07/31 15:17:56 -0400","original":"7/31/2009 3:17:55 PM","granularity":"sec","time":"2009/07/31 15:17:55 -0400"},"geo_score":0.902,"unit":59,"disposition":200,"cfs":9,"call#":9.007419,"id":"a64ruewlpxm2","geo_precision":"range","address":"281 Jefferson St","state":"OH","juris":"PD"},"type":"Feature","geometry":{"type":"Point","coordinates":[-83.174205,41.109897]}},{"properties":{"officer":"SGN","city":"Tiffin","zip":"44883","date":{"end_time":"2009/07/31 12:12:45 -0400","original":"7/31/2009 12:12:44 PM","granularity":"sec","time":"2009/07/31 12:12:44 -0400"},"geo_score":0.902,"unit":62,"disposition":200,"cfs":9,"call#":9.007416,"id":"a64ruf4ec9l9","geo_precision":"range","address":"93 Minerva St","state":"OH","juris":"PD"},"type":"Feature","geometry":{"type":"Point","coordinates":[-83.176245,41.122903]}},{"properties":{"officer":"JAD","city":"Tiffin","zip":"44883","date":{"end_time":"2009/07/30 21:23:36 -0400","original":"7/30/2009 9:23:35 PM","granularity":"sec","time":"2009/07/30 21:23:35 -0400"},"geo_score":0.902,"unit":56,"disposition":200,"cfs":9,"call#":9.007392,"id":"a64ruf8cpq91","geo_precision":"range","address":"80 Miami St","state":"OH","juris":"PD"},"type":"Feature","geometry":{"type":"Point","coordinates":[-83.182104,41.117798]}},{"properties":{"officer":"MEM","city":"Tiffin","zip":"44883","date":{"end_time":"2009/07/30 21:10:38 -0400","original":"7/30/2009 9:10:37 PM","granularity":"sec","time":"2009/07/30 21:10:37 -0400"},"geo_score":0.429,"unit":62,"disposition":100,"cfs":9,"call#":9.00739,"id":"a64ruf0s9e1f","geo_precision":"street","address":"1742 W Market St,F","state":"OH","juris":"PD"},"type":"Feature","geometry":{"type":"Point","coordinates":[-83.181592,41.114111]}},{"properties":{"officer":"AMR","city":"Tiffin","zip":"44883","date":{"end_time":"2009/07/29 22:29:49 -0400","original":"7/29/2009 10:29:48 PM","granularity":"sec","time":"2009/07/29 22:29:48 -0400"},"geo_score":0.756,"unit":62,"disposition":200,"cfs":9,"call#":9.007352,"id":"a64ruf4jbt9s","geo_precision":"range","address":"125 First Av","state":"OH","juris":"PD"},"type":"Feature","geometry":{"type":"Point","coordinates":[-83.18148,41.127902]}},{"properties":{"officer":"DGH","city":"Tiffin","zip":"44883","date":{"end_time":"2009/07/28 13:47:56 -0400","original":"7/28/2009 1:47:55 PM","granularity":"sec","time":"2009/07/28 13:47:55 -0400"},"geo_score":0.902,"unit":57,"disposition":200,"cfs":9,"call#":9.007306,"id":"a64ruf210kca","geo_precision":"range","address":"105 Frost Pkwy","state":"OH","juris":"PD"},"type":"Feature","geometry":{"type":"Point","coordinates":[-83.179373,41.116816]}},{"properties":{"officer":"REB","city":"Tiffin","zip":"44883","date":{"end_time":"2009/07/28 08:28:44 -0400","original":"7/28/2009 8:28:43 AM","granularity":"sec","time":"2009/07/28 08:28:43 -0400"},"geo_score":0.902,"unit":58,"disposition":200,"cfs":9,"call#":9.007292,"id":"a64ruey4qp9d","geo_precision":"range","address":"448 E Perry St","state":"OH","juris":"PD"},"type":"Feature","geometry":{"type":"Point","coordinates":[-83.163105,41.118139]}},{"properties":{"officer":"DGH","city":"Tiffin","zip":"44883","date":{"end_time":"2009/07/27 12:09:19 -0400","original":"7/27/2009 12:09:18 PM","granularity":"sec","time":"2009/07/27 12:09:18 -0400"},"geo_score":0.902,"unit":57,"disposition":200,"cfs":9,"call#":9.00727,"id":"a64ruf7l261m","geo_precision":"range","address":"297 N Sandusky St","state":"OH","juris":"PD"},"type":"Feature","geometry":{"type":"Point","coordinates":[-83.178118,41.126272]}},{"properties":{"officer":"DES","city":"Tiffin","zip":"44883","date":{"end_time":"2009/07/26 08:13:19 -0400","original":"7/26/2009 8:13:18 AM","granularity":"sec","time":"2009/07/26 08:13:18 -0400"},"geo_score":0.902,"unit":63,"disposition":200,"cfs":9,"call#":9.007238,"id":"a64ruetuq5eg","geo_precision":"range","address":"39 Rosa St","state":"OH","juris":"PD"},"type":"Feature","geometry":{"type":"Point","coordinates":[-83.168407,41.107617]}},{"properties":{"officer":"EDA","city":"Tiffin","zip":"44883","date":{"end_time":"2009/07/25 20:06:12 -0400","original":"7/25/2009 8:06:11 PM","granularity":"sec","time":"2009/07/25 20:06:11 -0400"},"geo_score":0.902,"unit":59,"disposition":100,"cfs":9,"call#":9.007208,"id":"a64ruevo0wh5","geo_precision":"range","address":"34 E Perry St","state":"OH","juris":"PD"},"type":"Feature","geometry":{"type":"Point","coordinates":[-83.178669,41.115671]}},{"properties":{"officer":"REB","city":"Tiffin","zip":"44883","date":{"end_time":"2009/07/25 14:20:47 -0400","original":"7/25/2009 2:20:46 PM","granularity":"sec","time":"2009/07/25 14:20:46 -0400"},"geo_score":0.876,"unit":62,"disposition":200,"cfs":9,"call#":9.007198,"id":"a64ruf49amsp","geo_precision":"range","address":"100 Hopewell Av","state":"OH","juris":"PD"},"type":"Feature","geometry":{"type":"Point","coordinates":[-83.198955,41.109228]}},{"properties":{"officer":"REB","city":"Tiffin","zip":"44883","date":{"end_time":"2009/07/25 11:28:03 -0400","original":"7/25/2009 11:28:02 AM","granularity":"sec","time":"2009/07/25 11:28:02 -0400"},"geo_score":0.902,"unit":62,"disposition":200,"cfs":9,"call#":9.007194,"id":"a64ruf56hcxp","geo_precision":"range","address":"300 S Washington St","state":"OH","juris":"PD"},"type":"Feature","geometry":{"type":"Point","coordinates":[-83.175743,41.109463]}},{"properties":{"officer":"EDA","city":"Tiffin","zip":"44883","date":{"end_time":"2009/07/23 19:41:02 -0400","original":"7/23/2009 7:41:01 PM","granularity":"sec","time":"2009/07/23 19:41:01 -0400"},"geo_score":0.902,"unit":58,"disposition":200,"cfs":9,"call#":9.007129,"id":"a64ruf6oh566","geo_precision":"range","address":"37 Schonhardt St","state":"OH","juris":"PD"},"type":"Feature","geometry":{"type":"Point","coordinates":[-83.172808,41.111707]}},{"properties":{"officer":"RJO","city":"Tiffin","zip":"44883","date":{"end_time":"2009/07/20 13:09:05 -0400","original":"7/20/2009 1:09:04 PM","granularity":"sec","time":"2009/07/20 13:09:04 -0400"},"geo_score":0.902,"unit":57,"disposition":200,"cfs":9,"call#":9.007017,"id":"a64ruf1ui4wn","geo_precision":"range","address":"59 Boehler St","state":"OH","juris":"PD"},"type":"Feature","geometry":{"type":"Point","coordinates":[-83.188434,41.117289]}},{"properties":{"officer":"FAI","city":"Tiffin","zip":"44883","date":{"end_time":"2009/07/20 09:14:35 -0400","original":"7/20/2009 9:14:34 AM","granularity":"sec","time":"2009/07/20 09:14:34 -0400"},"geo_score":0.756,"unit":120,"disposition":200,"cfs":9,"call#":9.007009,"id":"a64rueu01haq","geo_precision":"range","address":"231 Second Av","state":"OH","juris":"PD"},"type":"Feature","geometry":{"type":"Point","coordinates":[-83.184694,41.128723]}},{"properties":{"officer":"JMW","city":"Tiffin","zip":"44883","date":{"end_time":"2009/07/19 20:10:59 -0400","original":"7/19/2009 8:10:58 PM","granularity":"sec","time":"2009/07/19 20:10:58 -0400"},"geo_score":0.902,"unit":60,"disposition":200,"cfs":9,"call#":9.006992,"id":"a64ruf8f7530","geo_precision":"range","address":"100 Miami St","state":"OH","juris":"PD"},"type":"Feature","geometry":{"type":"Point","coordinates":[-83.182673,41.118023]}},{"properties":{"officer":"GTM","city":"Tiffin","zip":"44883","date":{"end_time":"2009/07/19 09:48:47 -0400","original":"7/19/2009 9:48:46 AM","granularity":"sec","time":"2009/07/19 09:48:46 -0400"},"geo_score":0.902,"unit":57,"disposition":200,"cfs":9,"call#":9.006975,"id":"a64ruf8m9pid","geo_precision":"range","address":"500 Riverside Dr","state":"OH","juris":"PD"},"type":"Feature","geometry":{"type":"Point","coordinates":[-83.166156,41.127615]}},{"properties":{"officer":"MAM","city":"Tiffin","zip":"44883","date":{"end_time":"2009/07/18 11:50:28 -0400","original":"7/18/2009 11:50:27 AM","granularity":"sec","time":"2009/07/18 11:50:27 -0400"},"geo_score":0.902,"unit":58,"disposition":200,"cfs":9,"call#":9.00693,"id":"a64ruet2ir1l","geo_precision":"range","address":"22 Miami St","state":"OH","juris":"PD"},"type":"Feature","geometry":{"type":"Point","coordinates":[-83.180039,41.117027]}},{"properties":{"officer":"DES","city":"Tiffin","zip":"44883","date":{"end_time":"2009/07/17 10:25:00 -0400","original":"7/17/2009 10:24:00 AM","granularity":"min","time":"2009/07/17 10:24:00 -0400"},"geo_score":0.429,"unit":62,"disposition":200,"cfs":9,"call#":9.006868,"id":"a64ruf6trj9s","geo_precision":"street","address":"40 Jackson St,REAR","state":"OH","juris":"PD"},"type":"Feature","geometry":{"type":"Point","coordinates":[-83.188463,41.113439]}},{"properties":{"officer":"GTM","city":"Tiffin","zip":"44883","date":{"end_time":"2009/07/16 22:52:36 -0400","original":"7/16/2009 10:52:35 PM","granularity":"sec","time":"2009/07/16 22:52:35 -0400"},"geo_score":0.902,"unit":58,"disposition":200,"cfs":9,"call#":9.006848,"id":"a64ruf4ujgqs","geo_precision":"range","address":"91 N Washington St","state":"OH","juris":"PD"},"type":"Feature","geometry":{"type":"Point","coordinates":[-83.177472,41.120343]}},{"properties":{"officer":"MAM","city":"Tiffin","zip":"44883","date":{"end_time":"2009/07/16 15:00:16 -0400","original":"7/16/2009 3:00:15 PM","granularity":"sec","time":"2009/07/16 15:00:15 -0400"},"geo_score":0.902,"unit":58,"disposition":200,"cfs":9,"call#":9.006835,"id":"a64ruf2zmfwt","geo_precision":"range","address":"402 S Jefferson St","state":"OH","juris":"PD"},"type":"Feature","geometry":{"type":"Point","coordinates":[-83.173515,41.10567]}},{"properties":{"officer":"AMR","city":"Tiffin","zip":"44883","date":{"end_time":"2009/07/16 00:27:00 -0400","original":"7/16/2009 12:26:00 AM","granularity":"min","time":"2009/07/16 00:26:00 -0400"},"geo_score":0.902,"unit":63,"disposition":100,"cfs":9,"call#":9.006814,"id":"a64ruev2wv08","geo_precision":"range","address":"152 Madison St","state":"OH","juris":"PD"},"type":"Feature","geometry":{"type":"Point","coordinates":[-83.174582,41.113535]}},{"properties":{"officer":"REB","city":"Tiffin","zip":"44883","date":{"end_time":"2009/07/14 11:01:35 -0400","original":"7/14/2009 11:01:34 AM","granularity":"sec","time":"2009/07/14 11:01:34 -0400"},"geo_score":0.902,"unit":62,"disposition":200,"cfs":9,"call#":9.006756,"id":"a64ruevqxefe","geo_precision":"range","address":"100 Miami St","state":"OH","juris":"PD"},"type":"Feature","geometry":{"type":"Point","coordinates":[-83.182673,41.118023]}},{"properties":{"officer":"REB","city":"Tiffin","zip":"44883","date":{"end_time":"2009/07/13 15:41:50 -0400","original":"7/13/2009 3:41:49 PM","granularity":"sec","time":"2009/07/13 15:41:49 -0400"},"geo_score":0.902,"unit":62,"disposition":200,"cfs":9,"call#":9.006723,"id":"a64ruety49f1","geo_precision":"range","address":"156 E Perry St","state":"OH","juris":"PD"},"type":"Feature","geometry":{"type":"Point","coordinates":[-83.174254,41.116084]}},{"properties":{"officer":"JPF","city":"Tiffin","zip":"44883","date":{"end_time":"2009/07/13 07:28:06 -0400","original":"7/13/2009 7:28:05 AM","granularity":"sec","time":"2009/07/13 07:28:05 -0400"},"geo_score":0.756,"unit":59,"disposition":200,"cfs":9,"call#":9.006708,"id":"a64ruf44d353","geo_precision":"range","address":"255 Second Av","state":"OH","juris":"PD"},"type":"Feature","geometry":{"type":"Point","coordinates":[-83.185276,41.128714]}},{"properties":{"officer":"EDA","city":"Tiffin","zip":"44883","date":{"end_time":"2009/07/11 17:59:22 -0400","original":"7/11/2009 5:59:21 PM","granularity":"sec","time":"2009/07/11 17:59:21 -0400"},"geo_score":0.902,"unit":59,"disposition":200,"cfs":9,"call#":9.006644,"id":"a64ruevre98z","geo_precision":"range","address":"500 Riverside Dr","state":"OH","juris":"PD"},"type":"Feature","geometry":{"type":"Point","coordinates":[-83.166156,41.127615]}},{"properties":{"officer":"RLT","city":"Tiffin","zip":"44883","date":{"end_time":"2009/07/11 00:15:04 -0400","original":"7/11/2009 12:15:03 AM","granularity":"sec","time":"2009/07/11 00:15:03 -0400"},"geo_score":0.902,"unit":57,"disposition":100,"cfs":9,"call#":9.006614,"id":"a64ruf6kwvxz","geo_precision":"range","address":"610 N Washington St","state":"OH","juris":"PD"},"type":"Feature","geometry":{"type":"Point","coordinates":[-83.17875,41.134792]}},{"properties":{"officer":"MAM","city":"Tiffin","zip":"44883","date":{"end_time":"2009/07/10 07:51:12 -0400","original":"7/10/2009 7:51:11 AM","granularity":"sec","time":"2009/07/10 07:51:11 -0400"},"geo_score":0.429,"unit":58,"disposition":200,"cfs":9,"call#":9.006575,"id":"a64ruf6mud34","geo_precision":"street","address":"40 Jackson St,REAR","state":"OH","juris":"PD"},"type":"Feature","geometry":{"type":"Point","coordinates":[-83.188463,41.113439]}},{"properties":{"officer":"FWS","city":"Tiffin","zip":"44883","date":{"end_time":"2009/07/08 22:44:34 -0400","original":"7/8/2009 10:44:33 PM","granularity":"sec","time":"2009/07/08 22:44:33 -0400"},"geo_score":0.482,"unit":57,"disposition":200,"cfs":9,"call#":9.006529,"id":"a64ruewnrgoy","geo_precision":"street","address":"225 Mohawk St,A7","state":"OH","juris":"PD"},"type":"Feature","geometry":{"type":"Point","coordinates":[-83.178062,41.103556]}},{"properties":{"officer":"RJO","city":"Tiffin","zip":"44883","date":{"end_time":"2009/07/08 15:52:57 -0400","original":"7/8/2009 3:52:56 PM","granularity":"sec","time":"2009/07/08 15:52:56 -0400"},"geo_score":0.87,"unit":57,"disposition":200,"cfs":9,"call#":9.006515,"id":"a64ruf0eipn4","geo_precision":"range","address":"1 Colony Av","state":"OH","juris":"PD"},"type":"Feature","geometry":{"type":"Point","coordinates":[-83.187743,41.114477]}},{"properties":{"officer":"RJO","city":"Tiffin","zip":"44883","date":{"end_time":"2009/07/08 14:18:20 -0400","original":"7/8/2009 2:18:19 PM","granularity":"sec","time":"2009/07/08 14:18:19 -0400"},"geo_score":0.902,"unit":57,"disposition":200,"cfs":9,"call#":9.006512,"id":"a64rueuikskm","geo_precision":"range","address":"31 Jackson St","state":"OH","juris":"PD"},"type":"Feature","geometry":{"type":"Point","coordinates":[-83.187954,41.114412]}},{"properties":{"officer":"RJO","city":"Tiffin","zip":"44883","date":{"end_time":"2009/07/08 08:01:07 -0400","original":"7/8/2009 8:01:06 AM","granularity":"sec","time":"2009/07/08 08:01:06 -0400"},"geo_score":0.902,"unit":57,"disposition":200,"cfs":9,"call#":9.006497,"id":"a64ruexngy6m","geo_precision":"range","address":"11 Jackson St","state":"OH","juris":"PD"},"type":"Feature","geometry":{"type":"Point","coordinates":[-83.188293,41.113763]}},{"properties":{"officer":"JAD","city":"Tiffin","zip":"44883","date":{"end_time":"2009/07/07 18:35:13 -0400","original":"7/7/2009 6:35:12 PM","granularity":"sec","time":"2009/07/07 18:35:12 -0400"},"geo_score":0.902,"unit":56,"disposition":200,"cfs":9,"call#":9.006485,"id":"a64ruf7bxp6d","geo_precision":"range","address":"44 N Sandusky St","state":"OH","juris":"PD"},"type":"Feature","geometry":{"type":"Point","coordinates":[-83.181732,41.121177]}},{"properties":{"officer":"RJO","city":"Tiffin","zip":"44883","date":{"end_time":"2009/07/07 13:03:49 -0400","original":"7/7/2009 1:03:48 PM","granularity":"sec","time":"2009/07/07 13:03:48 -0400"},"geo_score":0.902,"unit":57,"disposition":200,"cfs":9,"call#":9.006479,"id":"a64ruf24dbyv","geo_precision":"range","address":"23 Fulton St","state":"OH","juris":"PD"},"type":"Feature","geometry":{"type":"Point","coordinates":[-83.168937,41.104787]}},{"properties":{"officer":"REB","city":"Tiffin","zip":"44883","date":{"end_time":"2009/07/07 06:58:52 -0400","original":"7/7/2009 6:58:51 AM","granularity":"sec","time":"2009/07/07 06:58:51 -0400"},"geo_score":0.902,"unit":62,"disposition":200,"cfs":9,"call#":9.006468,"id":"a64ruf5q5u28","geo_precision":"range","address":"40 Jackson St","state":"OH","juris":"PD"},"type":"Feature","geometry":{"type":"Point","coordinates":[-83.187695,41.114569]}},{"properties":{"officer":"DGH","city":"Tiffin","zip":"44883","date":{"end_time":"2009/07/06 09:05:33 -0400","original":"7/6/2009 9:05:32 AM","granularity":"sec","time":"2009/07/06 09:05:32 -0400"},"geo_score":0.902,"unit":58,"disposition":200,"cfs":9,"call#":9.006438,"id":"a64ruetjjjxd","geo_precision":"range","address":"541 Circular St","state":"OH","juris":"PD"},"type":"Feature","geometry":{"type":"Point","coordinates":[-83.178445,41.105258]}},{"properties":{"officer":"JMW","city":"Tiffin","zip":"44883","date":{"end_time":"2009/07/05 17:43:41 -0400","original":"7/5/2009 5:43:40 PM","granularity":"sec","time":"2009/07/05 17:43:40 -0400"},"geo_score":0.873,"unit":60,"disposition":200,"cfs":9,"call#":9.006407,"id":"a64ruf7sol8v","geo_precision":"range","address":"199 Cottage Av","state":"OH","juris":"PD"},"type":"Feature","geometry":{"type":"Point","coordinates":[-83.198464,41.109322]}},{"properties":{"officer":"JMW","city":"Tiffin","zip":"44883","date":{"end_time":"2009/07/03 17:30:46 -0400","original":"7/3/2009 5:30:45 PM","granularity":"sec","time":"2009/07/03 17:30:45 -0400"},"geo_score":0.902,"unit":60,"disposition":100,"cfs":9,"call#":9.006332,"id":"a64ruf1cb6v1","geo_precision":"range","address":"23 Carl St","state":"OH","juris":"PD"},"type":"Feature","geometry":{"type":"Point","coordinates":[-83.181968,41.112685]}},{"properties":{"officer":"EDA","city":"Tiffin","zip":"44883","date":{"end_time":"2009/07/03 16:40:31 -0400","original":"7/3/2009 4:40:30 PM","granularity":"sec","time":"2009/07/03 16:40:30 -0400"},"geo_score":0.902,"unit":59,"disposition":200,"cfs":9,"call#":9.00633,"id":"a64ruf2zovie","geo_precision":"range","address":"20 Apple St","state":"OH","juris":"PD"},"type":"Feature","geometry":{"type":"Point","coordinates":[-83.17952,41.124596]}},{"properties":{"officer":"DGH","city":"Tiffin","zip":"44883","date":{"end_time":"2009/07/02 14:00:43 -0400","original":"7/2/2009 2:00:42 PM","granularity":"sec","time":"2009/07/02 14:00:42 -0400"},"geo_score":0.902,"unit":57,"disposition":200,"cfs":9,"call#":9.006286,"id":"a64ruexoor3o","geo_precision":"range","address":"89 Ann St","state":"OH","juris":"PD"},"type":"Feature","geometry":{"type":"Point","coordinates":[-83.171019,41.110655]}},{"properties":{"officer":"SMM","city":"Tiffin","zip":"44883","date":{"end_time":"2009/07/01 18:45:38 -0400","original":"7/1/2009 6:45:37 PM","granularity":"sec","time":"2009/07/01 18:45:37 -0400"},"geo_score":0.78,"unit":58,"disposition":200,"cfs":9,"call#":9.006263,"id":"a64ruewzjggv","geo_precision":"range","address":"790 W Market St","state":"OH","juris":"PD"},"type":"Feature","geometry":{"type":"Point","coordinates":[-83.207496,41.111156]}},{"properties":{"officer":"DGH","city":"Tiffin","zip":"44883","date":{"end_time":"2009/07/01 09:43:47 -0400","original":"7/1/2009 9:43:46 AM","granularity":"sec","time":"2009/07/01 09:43:46 -0400"},"geo_score":0.902,"unit":59,"disposition":200,"cfs":9,"call#":9.006242,"id":"a64ruf7xmiue","geo_precision":"range","address":"11 Jackson St","state":"OH","juris":"PD"},"type":"Feature","geometry":{"type":"Point","coordinates":[-83.188293,41.113763]}},{"properties":{"officer":"SGN","city":"Tiffin","zip":"44883","date":{"end_time":"2009/07/01 07:16:43 -0400","original":"7/1/2009 7:16:42 AM","granularity":"sec","time":"2009/07/01 07:16:42 -0400"},"geo_score":0.902,"unit":62,"disposition":200,"cfs":9,"call#":9.006237,"id":"a64rueu9ugo4","geo_precision":"range","address":"39 Rosa St","state":"OH","juris":"PD"},"type":"Feature","geometry":{"type":"Point","coordinates":[-83.168407,41.107617]}},{"properties":{"officer":"RJO","city":"Tiffin","zip":"44883","date":{"end_time":"2009/06/29 15:01:19 -0400","original":"6/29/2009 3:01:18 PM","granularity":"sec","time":"2009/06/29 15:01:18 -0400"},"geo_score":0.883,"unit":57,"disposition":200,"cfs":9,"call#":9.006187,"id":"a64ruf0hpa7d","geo_precision":"range","address":"130 Sycamore Wood Ln","state":"OH","juris":"PD"},"type":"Feature","geometry":{"type":"Point","coordinates":[-83.186644,41.099991]}},{"properties":{"officer":"REB","city":"Tiffin","zip":"44883","date":{"end_time":"2009/06/29 12:20:55 -0400","original":"6/29/2009 12:20:54 PM","granularity":"sec","time":"2009/06/29 12:20:54 -0400"},"geo_score":0.429,"unit":62,"disposition":100,"cfs":9,"call#":9.006181,"id":"a64ruex1tz9h","geo_precision":"street","address":"159 Dallas St,D","state":"OH","juris":"PD"},"type":"Feature","geometry":{"type":"Point","coordinates":[-82.625709,41.436284]}},{"properties":{"officer":"MAM","city":"Tiffin","zip":"44883","date":{"end_time":"2009/06/26 11:05:35 -0400","original":"6/26/2009 11:05:34 AM","granularity":"sec","time":"2009/06/26 11:05:34 -0400"},"geo_score":0.902,"unit":58,"disposition":200,"cfs":9,"call#":9.006044,"id":"a64ruevfgw1e","geo_precision":"range","address":"566 N Washington St","state":"OH","juris":"PD"},"type":"Feature","geometry":{"type":"Point","coordinates":[-83.178742,41.134343]}},{"properties":{"officer":"DGH","city":"Tiffin","zip":"44883","date":{"end_time":"2009/06/25 15:28:24 -0400","original":"6/25/2009 3:28:23 PM","granularity":"sec","time":"2009/06/25 15:28:23 -0400"},"geo_score":0.756,"unit":57,"disposition":200,"cfs":9,"call#":9.006013,"id":"a64ruexowgce","geo_precision":"range","address":"177 Second Av","state":"OH","juris":"PD"},"type":"Feature","geometry":{"type":"Point","coordinates":[-83.182826,41.128745]}},{"properties":{"officer":"MAM","city":"Tiffin","zip":"44883","date":{"end_time":"2009/06/24 10:52:23 -0400","original":"6/24/2009 10:52:22 AM","granularity":"sec","time":"2009/06/24 10:52:22 -0400"},"geo_score":0.902,"unit":58,"disposition":200,"cfs":9,"call#":9.005973,"id":"a64ruf3q7tx7","geo_precision":"range","address":"450 W Perry St","state":"OH","juris":"PD"},"type":"Feature","geometry":{"type":"Point","coordinates":[-83.196482,41.11402]}},{"properties":{"officer":"SGN","city":"Tiffin","zip":"44883","date":{"end_time":"2009/06/24 06:32:43 -0400","original":"6/24/2009 6:32:42 AM","granularity":"sec","time":"2009/06/24 06:32:42 -0400"},"geo_score":0.902,"unit":62,"disposition":200,"cfs":9,"call#":9.005964,"id":"a64ruf4n122e","geo_precision":"range","address":"21 Main St","state":"OH","juris":"PD"},"type":"Feature","geometry":{"type":"Point","coordinates":[-83.17401,41.111512]}},{"properties":{"officer":"GTM","city":"Tiffin","zip":"44883","date":{"end_time":"2009/06/23 22:24:58 -0400","original":"6/23/2009 10:24:57 PM","granularity":"sec","time":"2009/06/23 22:24:57 -0400"},"geo_score":0.902,"unit":60,"disposition":100,"cfs":9,"call#":9.005958,"id":"a64ruf8kjt3w","geo_precision":"range","address":"33 E Market St","state":"OH","juris":"PD"},"type":"Feature","geometry":{"type":"Point","coordinates":[-83.178836,41.114393]}},{"properties":{"officer":"PJD","city":"Tiffin","zip":"44883","date":{"end_time":"2009/06/16 23:25:08 -0400","original":"6/16/2009 11:25:07 PM","granularity":"sec","time":"2009/06/16 23:25:07 -0400"},"geo_score":0.902,"unit":62,"disposition":100,"cfs":9,"call#":9.005672,"id":"a64ruev8szdh","geo_precision":"range","address":"371 Water St","state":"OH","juris":"PD"},"type":"Feature","geometry":{"type":"Point","coordinates":[-83.173315,41.122851]}},{"properties":{"officer":"PJD","city":"Tiffin","zip":"44883","date":{"end_time":"2009/06/16 23:18:20 -0400","original":"6/16/2009 11:18:19 PM","granularity":"sec","time":"2009/06/16 23:18:19 -0400"},"geo_score":0.902,"unit":62,"disposition":100,"cfs":9,"call#":9.005671,"id":"a64ruf6m275k","geo_precision":"range","address":"431 Water St","state":"OH","juris":"PD"},"type":"Feature","geometry":{"type":"Point","coordinates":[-83.172503,41.12425]}},{"properties":{"officer":"REB","city":"Tiffin","zip":"44883","date":{"end_time":"2009/06/13 14:20:43 -0400","original":"6/13/2009 2:20:42 PM","granularity":"sec","time":"2009/06/13 14:20:42 -0400"},"geo_score":0.756,"unit":62,"disposition":200,"cfs":9,"call#":9.005551,"id":"a64ruewsh2p9","geo_precision":"range","address":"116 Third Av","state":"OH","juris":"PD"},"type":"Feature","geometry":{"type":"Point","coordinates":[-83.179845,41.129638]}},{"properties":{"officer":"JPF","city":"Tiffin","zip":"44883","date":{"end_time":"2009/06/13 09:52:47 -0400","original":"6/13/2009 9:52:46 AM","granularity":"sec","time":"2009/06/13 09:52:46 -0400"},"geo_score":0.902,"unit":59,"disposition":200,"cfs":9,"call#":9.005546,"id":"a64ruf84m8ig","geo_precision":"range","address":"83 W Davis St","state":"OH","juris":"PD"},"type":"Feature","geometry":{"type":"Point","coordinates":[-83.181166,41.126012]}},{"properties":{"officer":"DES","city":"Tiffin","zip":"44883","date":{"end_time":"2009/06/12 12:20:37 -0400","original":"6/12/2009 12:20:36 PM","granularity":"sec","time":"2009/06/12 12:20:36 -0400"},"geo_score":0.902,"unit":61,"disposition":200,"cfs":9,"call#":9.005504,"id":"a64ruf36xkqc","geo_precision":"range","address":"138 Longfellow Dr","state":"OH","juris":"PD"},"type":"Feature","geometry":{"type":"Point","coordinates":[-83.194635,41.100206]}},{"properties":{"officer":"RJO","city":"Tiffin","zip":"44883","date":{"end_time":"2009/06/10 16:22:49 -0400","original":"6/10/2009 4:22:48 PM","granularity":"sec","time":"2009/06/10 16:22:48 -0400"},"geo_score":0.902,"unit":57,"disposition":200,"cfs":9,"call#":9.005455,"id":"a64ruf2gdagu","geo_precision":"range","address":"195 Circular St","state":"OH","juris":"PD"},"type":"Feature","geometry":{"type":"Point","coordinates":[-83.169114,41.110231]}},{"properties":{"officer":"DGH","city":"Tiffin","zip":"44883","date":{"end_time":"2009/06/10 15:47:39 -0400","original":"6/10/2009 3:47:38 PM","granularity":"sec","time":"2009/06/10 15:47:38 -0400"},"geo_score":0.902,"unit":58,"disposition":200,"cfs":9,"call#":9.005453,"id":"a64ruevcr8zx","geo_precision":"range","address":"57 Gary Ln","state":"OH","juris":"PD"},"type":"Feature","geometry":{"type":"Point","coordinates":[-83.197556,41.099795]}},{"properties":{"officer":"RJO","city":"Tiffin","zip":"44883","date":{"end_time":"2009/06/10 09:19:31 -0400","original":"6/10/2009 9:19:30 AM","granularity":"sec","time":"2009/06/10 09:19:30 -0400"},"geo_score":0.902,"unit":57,"disposition":100,"cfs":9,"call#":9.005448,"id":"a64ruf7hc4u8","geo_precision":"range","address":"36 Schonhardt St","state":"OH","juris":"PD"},"type":"Feature","geometry":{"type":"Point","coordinates":[-83.17283,41.111896]}},{"properties":{"officer":"DGH","city":"Tiffin","zip":"44883","date":{"end_time":"2009/06/09 09:28:21 -0400","original":"6/9/2009 9:28:20 AM","granularity":"sec","time":"2009/06/09 09:28:20 -0400"},"geo_score":0.756,"unit":58,"disposition":200,"cfs":9,"call#":9.005426,"id":"a64rueyb97vc","geo_precision":"range","address":"240 Sixth Av","state":"OH","juris":"PD"},"type":"Feature","geometry":{"type":"Point","coordinates":[-83.182743,41.132183]}},{"properties":{"officer":"SGN","city":"Tiffin","zip":"44883","date":{"end_time":"2009/06/09 07:02:48 -0400","original":"6/9/2009 7:02:47 AM","granularity":"sec","time":"2009/06/09 07:02:47 -0400"},"geo_score":0.902,"unit":62,"disposition":200,"cfs":9,"call#":9.00542,"id":"a64rueyi6b9t","geo_precision":"range","address":"119 Rosa St","state":"OH","juris":"PD"},"type":"Feature","geometry":{"type":"Point","coordinates":[-83.165795,41.106294]}},{"properties":{"officer":"RJO","city":"Tiffin","zip":"44883","date":{"end_time":"2009/06/09 06:45:24 -0400","original":"6/9/2009 6:45:23 AM","granularity":"sec","time":"2009/06/09 06:45:23 -0400"},"geo_score":0.902,"unit":57,"disposition":200,"cfs":9,"call#":9.005419,"id":"a64ruetwlrxr","geo_precision":"range","address":"134 Fulton St","state":"OH","juris":"PD"},"type":"Feature","geometry":{"type":"Point","coordinates":[-83.167415,41.106913]}},{"properties":{"officer":"PJD","city":"Tiffin","zip":"44883","date":{"end_time":"2009/06/09 06:22:52 -0400","original":"6/9/2009 6:22:51 AM","granularity":"sec","time":"2009/06/09 06:22:51 -0400"},"geo_score":0.902,"unit":62,"disposition":200,"cfs":9,"call#":9.005418,"id":"a64ruf4ibenw","geo_precision":"range","address":"304 Coe St","state":"OH","juris":"PD"},"type":"Feature","geometry":{"type":"Point","coordinates":[-83.165874,41.105025]}},{"properties":{"officer":"RJO","city":"Tiffin","zip":"44883","date":{"end_time":"2009/06/08 09:41:27 -0400","original":"6/8/2009 9:41:26 AM","granularity":"sec","time":"2009/06/08 09:41:26 -0400"},"geo_score":0.902,"unit":57,"disposition":200,"cfs":9,"call#":9.005387,"id":"a64ruew2845w","geo_precision":"range","address":"270 S Washington St","state":"OH","juris":"PD"},"type":"Feature","geometry":{"type":"Point","coordinates":[-83.175862,41.110122]}},{"properties":{"officer":"JAD","city":"Tiffin","zip":"44883","date":{"end_time":"2009/06/08 01:07:10 -0400","original":"6/8/2009 1:07:09 AM","granularity":"sec","time":"2009/06/08 01:07:09 -0400"},"geo_score":0.902,"unit":56,"disposition":200,"cfs":9,"call#":9.005382,"id":"a64ruf1hyrq9","geo_precision":"range","address":"46 Boehler St","state":"OH","juris":"PD"},"type":"Feature","geometry":{"type":"Point","coordinates":[-83.188078,41.116227]}},{"properties":{"officer":"JAD","city":"Tiffin","zip":"44883","date":{"end_time":"2009/06/08 00:21:25 -0400","original":"6/8/2009 12:21:24 AM","granularity":"sec","time":"2009/06/08 00:21:24 -0400"},"geo_score":0.902,"unit":56,"disposition":200,"cfs":9,"call#":9.005377,"id":"a64ruet2x9fd","geo_precision":"range","address":"34 Oil St","state":"OH","juris":"PD"},"type":"Feature","geometry":{"type":"Point","coordinates":[-83.190548,41.113958]}},{"properties":{"officer":"REB","city":"Tiffin","zip":"44883","date":{"end_time":"2009/06/07 11:17:48 -0400","original":"6/7/2009 11:17:47 AM","granularity":"sec","time":"2009/06/07 11:17:47 -0400"},"geo_score":0.902,"unit":62,"disposition":200,"cfs":9,"call#":9.005355,"id":"a64ruf8pz3mi","geo_precision":"range","address":"26 Minerva St","state":"OH","juris":"PD"},"type":"Feature","geometry":{"type":"Point","coordinates":[-83.175981,41.121213]}},{"properties":{"officer":"JMW","city":"Tiffin","zip":"44883","date":{"end_time":"2009/06/06 22:26:38 -0400","original":"6/6/2009 10:26:37 PM","granularity":"sec","time":"2009/06/06 22:26:37 -0400"},"geo_score":0.902,"unit":60,"disposition":100,"cfs":9,"call#":9.005332,"id":"a64ruf7ho1h4","geo_precision":"range","address":"686 S Sandusky St","state":"OH","juris":"PD"},"type":"Feature","geometry":{"type":"Point","coordinates":[-83.195347,41.103548]}},{"properties":{"officer":"SMM","city":"Tiffin","zip":"44883","date":{"end_time":"2009/06/05 17:37:08 -0400","original":"6/5/2009 5:37:07 PM","granularity":"sec","time":"2009/06/05 17:37:07 -0400"},"geo_score":0.873,"unit":57,"disposition":200,"cfs":9,"call#":9.005282,"id":"a64ruf8wrf9i","geo_precision":"range","address":"304 Clinton Av","state":"OH","juris":"PD"},"type":"Feature","geometry":{"type":"Point","coordinates":[-83.16624,41.124065]}},{"properties":{"officer":"JPF","city":"Tiffin","zip":"44883","date":{"end_time":"2009/06/05 11:38:24 -0400","original":"6/5/2009 11:38:23 AM","granularity":"sec","time":"2009/06/05 11:38:23 -0400"},"geo_score":0.902,"unit":59,"disposition":200,"cfs":9,"call#":9.005266,"id":"a64ruf3pmmoi","geo_precision":"range","address":"298 Circular St","state":"OH","juris":"PD"},"type":"Feature","geometry":{"type":"Point","coordinates":[-83.170588,41.107792]}},{"properties":{"officer":"MAM","city":"Tiffin","zip":"44883","date":{"end_time":"2009/06/05 11:12:13 -0400","original":"6/5/2009 11:12:12 AM","granularity":"sec","time":"2009/06/05 11:12:12 -0400"},"geo_score":0.902,"unit":58,"disposition":200,"cfs":9,"call#":9.005264,"id":"a64ruf0vpdul","geo_precision":"range","address":"201X Jefferson St","state":"OH","juris":"PD"},"type":"Feature","geometry":{"type":"Point","coordinates":[-83.174543,41.111899]}},{"properties":{"officer":"SGN","city":"Tiffin","zip":"44883","date":{"end_time":"2009/06/05 10:44:35 -0400","original":"6/5/2009 10:44:34 AM","granularity":"sec","time":"2009/06/05 10:44:34 -0400"},"geo_score":0.902,"unit":62,"disposition":200,"cfs":9,"call#":9.005262,"id":"a64ruey0srir","geo_precision":"range","address":"349 Ella St","state":"OH","juris":"PD"},"type":"Feature","geometry":{"type":"Point","coordinates":[-83.193874,41.103649]}},{"properties":{"officer":"GTM","city":"Tiffin","zip":"44883","date":{"end_time":"2009/06/04 21:41:29 -0400","original":"6/4/2009 9:41:28 PM","granularity":"sec","time":"2009/06/04 21:41:28 -0400"},"geo_score":0.902,"unit":62,"disposition":100,"cfs":9,"call#":9.005251,"id":"a64ruf90i2lu","geo_precision":"range","address":"104 E Market St","state":"OH","juris":"PD"},"type":"Feature","geometry":{"type":"Point","coordinates":[-83.176392,41.114606]}},{"properties":{"officer":"DES","city":"Tiffin","zip":"44883","date":{"end_time":"2009/06/04 16:11:19 -0400","original":"6/4/2009 4:11:18 PM","granularity":"sec","time":"2009/06/04 16:11:18 -0400"},"geo_score":0.476,"unit":57,"disposition":200,"cfs":9,"call#":9.005246,"id":"a64ruevfayxs","geo_precision":"street","address":"1728 W Market St,E","state":"OH","juris":"PD"},"type":"Feature","geometry":{"type":"Point","coordinates":[-83.181592,41.114111]}},{"properties":{"officer":"SMM","city":"Tiffin","zip":"44883","date":{"end_time":"2009/06/03 20:10:16 -0400","original":"6/3/2009 8:10:15 PM","granularity":"sec","time":"2009/06/03 20:10:15 -0400"},"geo_score":0.727,"unit":58,"disposition":200,"cfs":9,"call#":9.005223,"id":"a64ruesy947u","geo_precision":"range","address":"159 Railroad St","state":"OH","juris":"PD"},"type":"Feature","geometry":{"type":"Point","coordinates":[-83.169322,41.1175]}},{"properties":{"officer":"JPF","city":"Tiffin","zip":"44883","date":{"end_time":"2009/05/30 11:49:49 -0400","original":"5/30/2009 11:49:48 AM","granularity":"sec","time":"2009/05/30 11:49:48 -0400"},"geo_score":0.537,"unit":62,"disposition":200,"cfs":9,"call#":9.005088,"id":"a64ruet09gox","geo_precision":"street","address":"145 Dallas St","state":"OH","juris":"PD"},"type":"Feature","geometry":{"type":"Point","coordinates":[-82.562576,41.384496]}},{"properties":{"officer":"GTM","city":"Tiffin","zip":"44883","date":{"end_time":"2009/05/30 01:53:26 -0400","original":"5/30/2009 1:53:25 AM","granularity":"sec","time":"2009/05/30 01:53:25 -0400"},"geo_score":0.902,"unit":57,"disposition":200,"cfs":9,"call#":9.005079,"id":"a64ruew0etvy","geo_precision":"range","address":"194 E Perry St","state":"OH","juris":"PD"},"type":"Feature","geometry":{"type":"Point","coordinates":[-83.172463,41.116218]}},{"properties":{"officer":"SGN","city":"Tiffin","zip":"44883","date":{"end_time":"2009/05/26 16:01:39 -0400","original":"5/26/2009 4:01:38 PM","granularity":"sec","time":"2009/05/26 16:01:38 -0400"},"geo_score":0.902,"unit":62,"disposition":200,"cfs":9,"call#":9.004965,"id":"a64ruf1iazx7","geo_precision":"range","address":"160 Huss St","state":"OH","juris":"PD"},"type":"Feature","geometry":{"type":"Point","coordinates":[-83.170785,41.131097]}},{"properties":{"officer":"RJO","city":"Tiffin","zip":"44883","date":{"end_time":"2009/05/26 12:29:55 -0400","original":"5/26/2009 12:29:54 PM","granularity":"sec","time":"2009/05/26 12:29:54 -0400"},"geo_score":0.429,"unit":57,"disposition":200,"cfs":9,"call#":9.004954,"id":"a64ruezjlf2g","geo_precision":"street","address":"620 S Sandusky St,F","state":"OH","juris":"PD"},"type":"Feature","geometry":{"type":"Point","coordinates":[-83.183613,41.118373]}},{"properties":{"officer":"SGN","city":"Tiffin","zip":"44883","date":{"end_time":"2009/05/26 09:51:44 -0400","original":"5/26/2009 9:51:43 AM","granularity":"sec","time":"2009/05/26 09:51:43 -0400"},"geo_score":0.902,"unit":62,"disposition":200,"cfs":9,"call#":9.004952,"id":"a64ruf7eu4km","geo_precision":"range","address":"83 Charlotte St","state":"OH","juris":"PD"},"type":"Feature","geometry":{"type":"Point","coordinates":[-83.180544,41.110136]}},{"properties":{"officer":"RJO","city":"Tiffin","zip":"44883","date":{"end_time":"2009/05/24 12:50:38 -0400","original":"5/24/2009 12:50:37 PM","granularity":"sec","time":"2009/05/24 12:50:37 -0400"},"geo_score":0.902,"unit":57,"disposition":450,"cfs":9,"call#":9.004901,"id":"a64ruf90zek8","geo_precision":"range","address":"265 Benner St","state":"OH","juris":"PD"},"type":"Feature","geometry":{"type":"Point","coordinates":[-83.184177,41.114424]}},{"properties":{"officer":"JPF","city":"Tiffin","zip":"44883","date":{"end_time":"2009/05/24 09:45:41 -0400","original":"5/24/2009 9:45:40 AM","granularity":"sec","time":"2009/05/24 09:45:40 -0400"},"geo_score":0.902,"unit":59,"disposition":200,"cfs":9,"call#":9.004896,"id":"a64ruf5llr6k","geo_precision":"range","address":"1692 W Market St,32","state":"OH","juris":"PD"},"type":"Feature","geometry":{"type":"Point","coordinates":[-83.181638,41.114105]}},{"properties":{"officer":"AMR","city":"Tiffin","zip":"44883","date":{"end_time":"2009/05/22 17:20:21 -0400","original":"5/22/2009 5:20:20 PM","granularity":"sec","time":"2009/05/22 17:20:20 -0400"},"geo_score":0.902,"unit":63,"disposition":200,"cfs":9,"call#":9.00483,"id":"a64ruewyb6d3","geo_precision":"range","address":"353 S Monroe St","state":"OH","juris":"PD"},"type":"Feature","geometry":{"type":"Point","coordinates":[-83.177026,41.106797]}},{"properties":{"officer":"SGN","city":"Tiffin","zip":"44883","date":{"end_time":"2009/05/22 11:35:13 -0400","original":"5/22/2009 11:35:12 AM","granularity":"sec","time":"2009/05/22 11:35:12 -0400"},"geo_score":0.857,"unit":62,"disposition":100,"cfs":9,"call#":9.004818,"id":"a64ruew1xt5s","geo_precision":"street","address":"S Washington St/E Market St","state":"OH","juris":"PD"},"type":"Feature","geometry":{"type":"Point","coordinates":[-83.179559,41.114309]}},{"properties":{"officer":"SGN","city":"Tiffin","zip":"44883","date":{"end_time":"2009/05/22 11:07:16 -0400","original":"5/22/2009 11:07:15 AM","granularity":"sec","time":"2009/05/22 11:07:15 -0400"},"geo_score":0.78,"unit":62,"disposition":200,"cfs":9,"call#":9.004817,"id":"a64ruf18kbph","geo_precision":"range","address":"738 W Market St","state":"OH","juris":"PD"},"type":"Feature","geometry":{"type":"Point","coordinates":[-83.206224,41.11138]}},{"properties":{"officer":"SWK","city":"Tiffin","zip":"44883","date":{"end_time":"2009/05/21 21:05:04 -0400","original":"5/21/2009 9:05:03 PM","granularity":"sec","time":"2009/05/21 21:05:03 -0400"},"geo_score":0.756,"unit":61,"disposition":200,"cfs":9,"call#":9.004794,"id":"a64ruf0cs3b2","geo_precision":"range","address":"217 Fourth Av","state":"OH","juris":"PD"},"type":"Feature","geometry":{"type":"Point","coordinates":[-83.182988,41.130462]}},{"properties":{"officer":"DGH","city":"Tiffin","zip":"44883","date":{"end_time":"2009/05/21 11:15:06 -0400","original":"5/21/2009 11:15:05 AM","granularity":"sec","time":"2009/05/21 11:15:05 -0400"},"geo_score":0.902,"unit":57,"disposition":200,"cfs":9,"call#":9.004774,"id":"a64ruezl1mxf","geo_precision":"range","address":"18 Charlotte St","state":"OH","juris":"PD"},"type":"Feature","geometry":{"type":"Point","coordinates":[-83.176724,41.110496]}},{"properties":{"officer":"SMM","city":"Tiffin","zip":"44883","date":{"end_time":"2009/05/20 20:03:00 -0400","original":"5/20/2009 8:02:59 PM","granularity":"sec","time":"2009/05/20 20:02:59 -0400"},"geo_score":0.902,"unit":58,"disposition":200,"cfs":9,"call#":9.004751,"id":"a64ruf1e6bcw","geo_precision":"range","address":"165 W Market St","state":"OH","juris":"PD"},"type":"Feature","geometry":{"type":"Point","coordinates":[-83.185711,41.11368]}},{"properties":{"officer":"SGN","city":"Tiffin","zip":"44883","date":{"end_time":"2009/05/20 12:30:55 -0400","original":"5/20/2009 12:30:54 PM","granularity":"sec","time":"2009/05/20 12:30:54 -0400"},"geo_score":0.514,"unit":62,"disposition":200,"cfs":9,"call#":9.004736,"id":"a64rueu8i4ll","geo_precision":"street","address":"159 Dallas St,C","state":"OH","juris":"PD"},"type":"Feature","geometry":{"type":"Point","coordinates":[-83.174672,41.108987]}},{"properties":{"officer":"LMK","city":"Tiffin","zip":"44883","date":{"end_time":"2009/05/19 22:10:59 -0400","original":"5/19/2009 10:10:58 PM","granularity":"sec","time":"2009/05/19 22:10:58 -0400"},"geo_score":0.902,"unit":60,"disposition":100,"cfs":9,"call#":9.004711,"id":"a64ruethmuyr","geo_precision":"range","address":"61 Blair St","state":"OH","juris":"PD"},"type":"Feature","geometry":{"type":"Point","coordinates":[-83.168553,41.128606]}},{"properties":{"officer":"REB","city":"Tiffin","zip":"44883","date":{"end_time":"2009/05/18 11:37:07 -0400","original":"5/18/2009 11:37:06 AM","granularity":"sec","time":"2009/05/18 11:37:06 -0400"},"geo_score":0.902,"unit":62,"disposition":200,"cfs":9,"call#":9.004656,"id":"a64rueuayowj","geo_precision":"range","address":"274 S Washington St","state":"OH","juris":"PD"},"type":"Feature","geometry":{"type":"Point","coordinates":[-83.17585,41.110025]}},{"properties":{"officer":"RLT","city":"Tiffin","zip":"44883","date":{"end_time":"2009/05/17 00:28:38 -0400","original":"5/17/2009 12:28:37 AM","granularity":"sec","time":"2009/05/17 00:28:37 -0400"},"geo_score":0.727,"unit":58,"disposition":200,"cfs":9,"call#":9.004623,"id":"a64ruf4a2621","geo_precision":"range","address":"76 Railroad St","state":"OH","juris":"PD"},"type":"Feature","geometry":{"type":"Point","coordinates":[-83.171457,41.117989]}},{"properties":{"officer":"RLT","city":"Tiffin","zip":"44883","date":{"end_time":"2009/05/17 00:12:20 -0400","original":"5/17/2009 12:12:19 AM","granularity":"sec","time":"2009/05/17 00:12:19 -0400"},"geo_score":0.857,"unit":58,"disposition":100,"cfs":9,"call#":9.004621,"id":"a64ruf0ytpwf","geo_precision":"street","address":"Schonhardt St/Tiffin St","state":"OH","juris":"PD"},"type":"Feature","geometry":{"type":"Point","coordinates":[-83.275897,41.132222]}},{"properties":{"officer":"JMW","city":"Tiffin","zip":"44883","date":{"end_time":"2009/05/15 14:51:25 -0400","original":"5/15/2009 2:51:24 PM","granularity":"sec","time":"2009/05/15 14:51:24 -0400"},"geo_score":0.902,"unit":60,"disposition":100,"cfs":9,"call#":9.004577,"id":"a64ruetbkshj","geo_precision":"range","address":"25 Cherry St","state":"OH","juris":"PD"},"type":"Feature","geometry":{"type":"Point","coordinates":[-83.19443,41.116673]}},{"properties":{"officer":"AMR","city":"Tiffin","zip":"44883","date":{"end_time":"2009/05/13 01:29:46 -0400","original":"5/13/2009 1:29:45 AM","granularity":"sec","time":"2009/05/13 01:29:45 -0400"},"geo_score":0.902,"unit":63,"disposition":100,"cfs":9,"call#":9.004514,"id":"a64ruextadtx","geo_precision":"range","address":"199 Charlotte St","state":"OH","juris":"PD"},"type":"Feature","geometry":{"type":"Point","coordinates":[-83.183307,41.109853]}},{"properties":{"officer":"LMK","city":"Tiffin","zip":"44883","date":{"end_time":"2009/05/12 20:46:00 -0400","original":"5/12/2009 8:45:59 PM","granularity":"sec","time":"2009/05/12 20:45:59 -0400"},"geo_score":0.902,"unit":59,"disposition":200,"cfs":9,"call#":9.004503,"id":"a64ruf20z4kw","geo_precision":"range","address":"87 Erie St","state":"OH","juris":"PD"},"type":"Feature","geometry":{"type":"Point","coordinates":[-83.174685,41.123166]}},{"properties":{"officer":"JSC","city":"Tiffin","zip":"44883","date":{"end_time":"2009/05/12 19:30:58 -0400","original":"5/12/2009 7:30:57 PM","granularity":"sec","time":"2009/05/12 19:30:57 -0400"},"geo_score":0.902,"unit":59,"disposition":200,"cfs":9,"call#":9.004499,"id":"a64ruf65jnv1","geo_precision":"range","address":"42 Madison St","state":"OH","juris":"PD"},"type":"Feature","geometry":{"type":"Point","coordinates":[-83.177805,41.113246]}},{"properties":{"officer":"JSC","city":"Tiffin","zip":"44883","date":{"end_time":"2009/05/09 18:38:25 -0400","original":"5/9/2009 6:38:24 PM","granularity":"sec","time":"2009/05/09 18:38:24 -0400"},"geo_score":0.902,"unit":59,"disposition":200,"cfs":9,"call#":9.004414,"id":"a64ruexpeyjd","geo_precision":"range","address":"94 Tomb St","state":"OH","juris":"PD"},"type":"Feature","geometry":{"type":"Point","coordinates":[-83.172768,41.128763]}},{"properties":{"officer":"JMW","city":"Tiffin","zip":"44883","date":{"end_time":"2009/05/09 08:30:02 -0400","original":"5/9/2009 8:30:01 AM","granularity":"sec","time":"2009/05/09 08:30:01 -0400"},"geo_score":0.902,"unit":60,"disposition":200,"cfs":9,"call#":9.004397,"id":"a64ruev1qui7","geo_precision":"range","address":"151 Minerva St","state":"OH","juris":"PD"},"type":"Feature","geometry":{"type":"Point","coordinates":[-83.176527,41.124689]}},{"properties":{"officer":"JPF","city":"Tiffin","zip":"44883","date":{"end_time":"2009/05/03 15:29:32 -0400","original":"5/3/2009 3:29:31 PM","granularity":"sec","time":"2009/05/03 15:29:31 -0400"},"geo_score":0.582,"unit":59,"disposition":200,"cfs":9,"call#":9.00422,"id":"a64ruf538lpz","geo_precision":"street","address":"2801 W Sr 18","state":"OH","juris":"PD"},"type":"Feature","geometry":{"type":"Point","coordinates":[-83.278292,41.108823]}},{"properties":{"officer":"JPF","city":"Tiffin","zip":"44883","date":{"end_time":"2009/05/03 07:25:41 -0400","original":"5/3/2009 7:25:40 AM","granularity":"sec","time":"2009/05/03 07:25:40 -0400"},"geo_score":0.902,"unit":59,"disposition":200,"cfs":9,"call#":9.004211,"id":"a64ruf283qld","geo_precision":"range","address":"14 Webster St","state":"OH","juris":"PD"},"type":"Feature","geometry":{"type":"Point","coordinates":[-83.173017,41.123803]}},{"properties":{"officer":"LMK","city":"Tiffin","zip":"44883","date":{"end_time":"2009/05/03 03:10:02 -0400","original":"5/3/2009 3:10:01 AM","granularity":"sec","time":"2009/05/03 03:10:01 -0400"},"geo_score":0.902,"unit":58,"disposition":200,"cfs":9,"call#":9.004208,"id":"a64ruf0vn8p2","geo_precision":"range","address":"92 Madison St","state":"OH","juris":"PD"},"type":"Feature","geometry":{"type":"Point","coordinates":[-83.176333,41.113386]}},{"properties":{"officer":"MAM","city":"Tiffin","zip":"44883","date":{"end_time":"2009/05/02 13:54:00 -0400","original":"5/2/2009 1:53:59 PM","granularity":"sec","time":"2009/05/02 13:53:59 -0400"},"geo_score":0.902,"unit":58,"disposition":200,"cfs":9,"call#":9.004189,"id":"a64ruf25bvwv","geo_precision":"range","address":"66Y E Market St","state":"OH","juris":"PD"},"type":"Feature","geometry":{"type":"Point","coordinates":[-83.177742,41.114486]}},{"properties":{"officer":"EDA","city":"Tiffin","zip":"44883","date":{"end_time":"2009/05/01 17:28:49 -0400","original":"5/1/2009 5:28:48 PM","granularity":"sec","time":"2009/05/01 17:28:48 -0400"},"geo_score":0.902,"unit":62,"disposition":200,"cfs":9,"call#":9.004146,"id":"a64ruevxexm0","geo_precision":"range","address":"117 Elmer St","state":"OH","juris":"PD"},"type":"Feature","geometry":{"type":"Point","coordinates":[-83.193404,41.11592]}},{"properties":{"officer":"SGN","city":"Tiffin","zip":"44883","date":{"end_time":"2009/05/01 11:02:25 -0400","original":"5/1/2009 11:02:24 AM","granularity":"sec","time":"2009/05/01 11:02:24 -0400"},"geo_score":0.837,"unit":62,"disposition":200,"cfs":9,"call#":9.004134,"id":"a64ruf10wn5a","geo_precision":"range","address":"23 Frost Py","state":"OH","juris":"PD"},"type":"Feature","geometry":{"type":"Point","coordinates":[-83.180781,41.114882]}},{"properties":{"officer":"BRB","city":"Tiffin","zip":"44883","date":{"end_time":"2009/04/29 01:59:58 -0400","original":"4/29/2009 1:59:57 AM","granularity":"sec","time":"2009/04/29 01:59:57 -0400"},"geo_score":0.866,"unit":59,"disposition":100,"cfs":9,"call#":9.00406,"id":"a64ruf2ngdza","geo_precision":"range","address":"60 Grand Av","state":"OH","juris":"PD"},"type":"Feature","geometry":{"type":"Point","coordinates":[-83.177402,41.129198]}},{"properties":{"officer":"RJO","city":"Tiffin","zip":"44883","date":{"end_time":"2009/04/28 15:40:48 -0400","original":"4/28/2009 3:40:47 PM","granularity":"sec","time":"2009/04/28 15:40:47 -0400"},"geo_score":0.902,"unit":57,"disposition":200,"cfs":9,"call#":9.004054,"id":"a64ruf1iamsp","geo_precision":"range","address":"186 E Market St,334","state":"OH","juris":"PD"},"type":"Feature","geometry":{"type":"Point","coordinates":[-83.168246,41.116989]}},{"properties":{"officer":"LMK","city":"Tiffin","zip":"44883","date":{"end_time":"2009/04/25 23:38:08 -0400","original":"4/25/2009 11:38:07 PM","granularity":"sec","time":"2009/04/25 23:38:07 -0400"},"geo_score":0.902,"unit":61,"disposition":200,"cfs":9,"call#":9.003958,"id":"a64ruf4tipsn","geo_precision":"range","address":"355 W Market St","state":"OH","juris":"PD"},"type":"Feature","geometry":{"type":"Point","coordinates":[-83.192424,41.113044]}},{"properties":{"officer":"EDA","city":"Tiffin","zip":"44883","date":{"end_time":"2009/04/25 17:30:33 -0400","original":"4/25/2009 5:30:32 PM","granularity":"sec","time":"2009/04/25 17:30:32 -0400"},"geo_score":0.902,"unit":58,"disposition":100,"cfs":9,"call#":9.003943,"id":"a64ruf30fqse","geo_precision":"range","address":"202 Main St","state":"OH","juris":"PD"},"type":"Feature","geometry":{"type":"Point","coordinates":[-83.167123,41.11212]}},{"properties":{"officer":"EDA","city":"Tiffin","zip":"44883","date":{"end_time":"2009/04/24 21:06:00 -0400","original":"4/24/2009 9:05:59 PM","granularity":"sec","time":"2009/04/24 21:05:59 -0400"},"geo_score":0.902,"unit":59,"disposition":100,"cfs":9,"call#":9.00391,"id":"a64rueuv2m4s","geo_precision":"range","address":"202 Main St","state":"OH","juris":"PD"},"type":"Feature","geometry":{"type":"Point","coordinates":[-83.167123,41.11212]}},{"properties":{"officer":"BAR","city":"Tiffin","zip":"44883","date":{"end_time":"2009/04/24 21:04:25 -0400","original":"4/24/2009 9:04:24 PM","granularity":"sec","time":"2009/04/24 21:04:24 -0400"},"geo_score":0.902,"unit":63,"disposition":200,"cfs":9,"call#":9.003909,"id":"a64rueyeja7g","geo_precision":"range","address":"686 S Sandusky St,25","state":"OH","juris":"PD"},"type":"Feature","geometry":{"type":"Point","coordinates":[-83.182903,41.11933]}},{"properties":{"officer":"SWK","city":"Tiffin","zip":"44883","date":{"end_time":"2009/04/22 23:53:08 -0400","original":"4/22/2009 11:53:07 PM","granularity":"sec","time":"2009/04/22 23:53:07 -0400"},"geo_score":0.902,"unit":61,"disposition":200,"cfs":9,"call#":9.003848,"id":"a64ruf0ridho","geo_precision":"range","address":"246 Union St","state":"OH","juris":"PD"},"type":"Feature","geometry":{"type":"Point","coordinates":[-83.186814,41.107197]}},{"properties":{"officer":"BAR","city":"Tiffin","zip":"44883","date":{"end_time":"2009/04/19 17:44:32 -0400","original":"4/19/2009 5:44:31 PM","granularity":"sec","time":"2009/04/19 17:44:31 -0400"},"geo_score":0.902,"unit":61,"disposition":200,"cfs":9,"call#":9.003762,"id":"a64ruf5333n1","geo_precision":"range","address":"175 Jefferson St,1","state":"OH","juris":"PD"},"type":"Feature","geometry":{"type":"Point","coordinates":[-83.175816,41.117579]}},{"properties":{"officer":"BAR","city":"Tiffin","zip":"44883","date":{"end_time":"2009/04/19 16:48:05 -0400","original":"4/19/2009 4:48:04 PM","granularity":"sec","time":"2009/04/19 16:48:04 -0400"},"geo_score":0.902,"unit":61,"disposition":100,"cfs":9,"call#":9.003759,"id":"a64rueuug7cw","geo_precision":"range","address":"132 Hunter St","state":"OH","juris":"PD"},"type":"Feature","geometry":{"type":"Point","coordinates":[-83.170391,41.120469]}},{"properties":{"officer":"JAD","city":"Tiffin","zip":"44883","date":{"end_time":"2009/04/18 19:03:27 -0400","original":"4/18/2009 7:03:26 PM","granularity":"sec","time":"2009/04/18 19:03:26 -0400"},"geo_score":0.805,"unit":56,"disposition":200,"cfs":9,"call#":9.003715,"id":"a64ruex3cinx","geo_precision":"street","address":"420 N Washington St","state":"OH","juris":"PD"},"type":"Feature","geometry":{"type":"Point","coordinates":[-83.178657,41.129656]}},{"properties":{"officer":"JSC","city":"Tiffin","zip":"44883","date":{"end_time":"2009/04/18 18:13:03 -0400","original":"4/18/2009 6:13:02 PM","granularity":"sec","time":"2009/04/18 18:13:02 -0400"},"geo_score":0.902,"unit":59,"disposition":200,"cfs":9,"call#":9.003713,"id":"a64ruf8yv1x5","geo_precision":"range","address":"211 E Perry St","state":"OH","juris":"PD"},"type":"Feature","geometry":{"type":"Point","coordinates":[-83.172316,41.116235]}},{"properties":{"officer":"BRB","city":"Tiffin","zip":"44883","date":{"end_time":"2009/04/17 02:58:23 -0400","original":"4/17/2009 2:58:22 AM","granularity":"sec","time":"2009/04/17 02:58:22 -0400"},"geo_score":0.902,"unit":58,"disposition":100,"cfs":9,"call#":9.003655,"id":"a64ruewyq2dm","geo_precision":"range","address":"209 Circular St","state":"OH","juris":"PD"},"type":"Feature","geometry":{"type":"Point","coordinates":[-83.169063,41.109775]}},{"properties":{"officer":"SGN","city":"Tiffin","zip":"44883","date":{"end_time":"2009/04/15 07:57:29 -0400","original":"4/15/2009 7:57:28 AM","granularity":"sec","time":"2009/04/15 07:57:28 -0400"},"geo_score":0.902,"unit":62,"disposition":200,"cfs":9,"call#":9.003574,"id":"a64ruezewapo","geo_precision":"range","address":"360 Coe St","state":"OH","juris":"PD"},"type":"Feature","geometry":{"type":"Point","coordinates":[-83.163822,41.104219]}},{"properties":{"officer":"DES","city":"Tiffin","zip":"44883","date":{"end_time":"2009/04/14 09:35:09 -0400","original":"4/14/2009 9:35:08 AM","granularity":"sec","time":"2009/04/14 09:35:08 -0400"},"geo_score":0.902,"unit":61,"disposition":200,"cfs":9,"call#":9.003545,"id":"a64ruetwzkdk","geo_precision":"range","address":"224 Coe St","state":"OH","juris":"PD"},"type":"Feature","geometry":{"type":"Point","coordinates":[-83.168572,41.106199]}},{"properties":{"officer":"EDA","city":"Tiffin","zip":"44883","date":{"end_time":"2009/04/11 19:29:34 -0400","original":"4/11/2009 7:29:33 PM","granularity":"sec","time":"2009/04/11 19:29:33 -0400"},"geo_score":0.902,"unit":60,"disposition":200,"cfs":9,"call#":9.003478,"id":"a64ruezwnni2","geo_precision":"range","address":"171 Jackson St","state":"OH","juris":"PD"},"type":"Feature","geometry":{"type":"Point","coordinates":[-83.185305,41.118106]}},{"properties":{"officer":"JPF","city":"Tiffin","zip":"44883","date":{"end_time":"2009/04/10 15:57:34 -0400","original":"4/10/2009 3:57:33 PM","granularity":"sec","time":"2009/04/10 15:57:33 -0400"},"geo_score":0.902,"unit":59,"disposition":200,"cfs":9,"call#":9.003424,"id":"a64ruexotjg3","geo_precision":"range","address":"46 St Clair St","state":"OH","juris":"PD"},"type":"Feature","geometry":{"type":"Point","coordinates":[-83.181355,41.112736]}},{"properties":{"officer":"JPF","city":"Tiffin","zip":"44883","date":{"end_time":"2009/04/09 16:31:21 -0400","original":"4/9/2009 4:31:20 PM","granularity":"sec","time":"2009/04/09 16:31:20 -0400"},"geo_score":0.902,"unit":59,"disposition":200,"cfs":9,"call#":9.003373,"id":"a64ruf0vwt6q","geo_precision":"range","address":"300 S Monroe St","state":"OH","juris":"PD"},"type":"Feature","geometry":{"type":"Point","coordinates":[-83.177173,41.107991]}},{"properties":{"officer":"DES","city":"Tiffin","zip":"44883","date":{"end_time":"2009/04/07 15:58:22 -0400","original":"4/7/2009 3:58:21 PM","granularity":"sec","time":"2009/04/07 15:58:21 -0400"},"geo_score":0.902,"unit":62,"disposition":200,"cfs":9,"call#":9.003313,"id":"a64ruey6ogv3","geo_precision":"range","address":"143 S Monroe St","state":"OH","juris":"PD"},"type":"Feature","geometry":{"type":"Point","coordinates":[-83.177906,41.112576]}},{"properties":{"officer":"DGH","city":"Tiffin","zip":"44883","date":{"end_time":"2009/04/07 12:44:53 -0400","original":"4/7/2009 12:44:52 PM","granularity":"sec","time":"2009/04/07 12:44:52 -0400"},"geo_score":0.87,"unit":59,"disposition":200,"cfs":9,"call#":9.003309,"id":"a64rueswo4b4","geo_precision":"range","address":"77 Warren Av","state":"OH","juris":"PD"},"type":"Feature","geometry":{"type":"Point","coordinates":[-83.180702,41.129346]}},{"properties":{"officer":"DES","city":"Tiffin","zip":"44883","date":{"end_time":"2009/04/07 12:13:42 -0400","original":"4/7/2009 12:13:41 PM","granularity":"sec","time":"2009/04/07 12:13:41 -0400"},"geo_score":0.902,"unit":62,"disposition":200,"cfs":9,"call#":9.003307,"id":"a64ruf3vb425","geo_precision":"range","address":"286 Circular St","state":"OH","juris":"PD"},"type":"Feature","geometry":{"type":"Point","coordinates":[-83.170382,41.108]}},{"properties":{"officer":"JPF","city":"Tiffin","zip":"44883","date":{"end_time":"2009/04/05 16:26:35 -0400","original":"4/5/2009 4:26:34 PM","granularity":"sec","time":"2009/04/05 16:26:34 -0400"},"geo_score":0.902,"unit":59,"disposition":200,"cfs":9,"call#":9.003252,"id":"a64ruf70ll39","geo_precision":"range","address":"80 Minerva St","state":"OH","juris":"PD"},"type":"Feature","geometry":{"type":"Point","coordinates":[-83.176206,41.122592]}},{"properties":{"officer":"JPF","city":"Tiffin","zip":"44883","date":{"end_time":"2009/04/02 11:15:09 -0400","original":"4/2/2009 11:15:08 AM","granularity":"sec","time":"2009/04/02 11:15:08 -0400"},"geo_score":0.902,"unit":59,"disposition":200,"cfs":9,"call#":9.003102,"id":"a64ruf2n1jzx","geo_precision":"range","address":"2226 W Market St","state":"OH","juris":"PD"},"type":"Feature","geometry":{"type":"Point","coordinates":[-83.213209,41.11005]}},{"properties":{"officer":"RJO","city":"Tiffin","zip":"44883","date":{"end_time":"2009/04/01 15:13:47 -0400","original":"4/1/2009 3:13:46 PM","granularity":"sec","time":"2009/04/01 15:13:46 -0400"},"geo_score":0.902,"unit":57,"disposition":200,"cfs":9,"call#":9.003068,"id":"a64ruf91ag7r","geo_precision":"range","address":"846 N Water St","state":"OH","juris":"PD"},"type":"Feature","geometry":{"type":"Point","coordinates":[-83.164032,41.13509]}},{"properties":{"officer":"DGH","city":"Tiffin","zip":"44883","date":{"end_time":"2009/03/31 13:44:59 -0400","original":"3/31/2009 1:44:58 PM","granularity":"sec","time":"2009/03/31 13:44:58 -0400"},"geo_score":0.902,"unit":59,"disposition":200,"cfs":9,"call#":9.003038,"id":"a64ruez1c0is","geo_precision":"range","address":"55 Madison St","state":"OH","juris":"PD"},"type":"Feature","geometry":{"type":"Point","coordinates":[-83.177509,41.113285]}},{"properties":{"officer":"SGN","city":"Tiffin","zip":"44883","date":{"end_time":"2009/03/31 13:02:19 -0400","original":"3/31/2009 1:02:18 PM","granularity":"sec","time":"2009/03/31 13:02:18 -0400"},"geo_score":0.902,"unit":62,"disposition":200,"cfs":9,"call#":9.003036,"id":"a64ruf6fiast","geo_precision":"range","address":"182 E Perry St","state":"OH","juris":"PD"},"type":"Feature","geometry":{"type":"Point","coordinates":[-83.172907,41.116184]}},{"properties":{"officer":"SGN","city":"Tiffin","zip":"44883","date":{"end_time":"2009/03/31 09:11:32 -0400","original":"3/31/2009 9:11:31 AM","granularity":"sec","time":"2009/03/31 09:11:31 -0400"},"geo_score":0.902,"unit":62,"disposition":200,"cfs":9,"call#":9.003031,"id":"a64ruf2j2228","geo_precision":"range","address":"191A Jefferson St","state":"OH","juris":"PD"},"type":"Feature","geometry":{"type":"Point","coordinates":[-83.174582,41.112209]}},{"properties":{"officer":"FWS","city":"Tiffin","zip":"44883","date":{"end_time":"2009/03/27 01:06:19 -0400","original":"3/27/2009 1:06:18 AM","granularity":"sec","time":"2009/03/27 01:06:18 -0400"},"geo_score":0.902,"unit":57,"disposition":200,"cfs":9,"call#":9.002835,"id":"a64ruexa4oot","geo_precision":"range","address":"204 Walker St","state":"OH","juris":"PD"},"type":"Feature","geometry":{"type":"Point","coordinates":[-83.165628,41.111279]}},{"properties":{"officer":"DES","city":"Tiffin","zip":"44883","date":{"end_time":"2009/03/23 07:50:21 -0400","original":"3/23/2009 7:50:20 AM","granularity":"sec","time":"2009/03/23 07:50:20 -0400"},"geo_score":0.902,"unit":62,"disposition":200,"cfs":9,"call#":9.002717,"id":"a64ruf8duvnp","geo_precision":"range","address":"254 E Market St","state":"OH","juris":"PD"},"type":"Feature","geometry":{"type":"Point","coordinates":[-83.170961,41.115227]}},{"properties":{"officer":"JMW","city":"Tiffin","zip":"44883","date":{"end_time":"2009/03/22 07:50:55 -0400","original":"3/22/2009 7:50:54 AM","granularity":"sec","time":"2009/03/22 07:50:54 -0400"},"geo_score":0.902,"unit":60,"disposition":200,"cfs":9,"call#":9.002688,"id":"a64ruf6ghx9g","geo_precision":"range","address":"241 W Perry St","state":"OH","juris":"PD"},"type":"Feature","geometry":{"type":"Point","coordinates":[-83.188977,41.115154]}},{"properties":{"officer":"EDA","city":"Tiffin","zip":"44883","date":{"end_time":"2009/03/21 00:38:37 -0400","original":"3/21/2009 12:38:36 AM","granularity":"sec","time":"2009/03/21 00:38:36 -0400"},"geo_score":0.902,"unit":60,"disposition":200,"cfs":9,"call#":9.002637,"id":"a64ruf1n7443","geo_precision":"range","address":"1692 W Market St,44","state":"OH","juris":"PD"},"type":"Feature","geometry":{"type":"Point","coordinates":[-83.181912,41.114069]}},{"properties":{"officer":"EDA","city":"Tiffin","zip":"44883","date":{"end_time":"2009/03/20 19:23:15 -0400","original":"3/20/2009 7:23:14 PM","granularity":"sec","time":"2009/03/20 19:23:14 -0400"},"geo_score":0.902,"unit":60,"disposition":200,"cfs":9,"call#":9.002622,"id":"a64ruf5nbn3j","geo_precision":"range","address":"300 S Monroe St","state":"OH","juris":"PD"},"type":"Feature","geometry":{"type":"Point","coordinates":[-83.177173,41.107991]}},{"properties":{"officer":"AMR","city":"Tiffin","zip":"44883","date":{"end_time":"2009/03/18 19:53:33 -0400","original":"3/18/2009 7:53:32 PM","granularity":"sec","time":"2009/03/18 19:53:32 -0400"},"geo_score":0.902,"unit":63,"disposition":100,"cfs":9,"call#":9.002561,"id":"a64ruf0lz5u8","geo_precision":"range","address":"24 Miami St","state":"OH","juris":"PD"},"type":"Feature","geometry":{"type":"Point","coordinates":[-83.180098,41.117058]}},{"properties":{"officer":"PJD","city":"Tiffin","zip":"44883","date":{"end_time":"2009/03/18 03:04:22 -0400","original":"3/18/2009 3:04:21 AM","granularity":"sec","time":"2009/03/18 03:04:21 -0400"},"geo_score":0.902,"unit":62,"disposition":100,"cfs":9,"call#":9.002532,"id":"a64ruf655a4m","geo_precision":"range","address":"771 S Washington St","state":"OH","juris":"PD"},"type":"Feature","geometry":{"type":"Point","coordinates":[-83.174748,41.096411]}},{"properties":{"officer":"SMM","city":"Tiffin","zip":"44883","date":{"end_time":"2009/03/17 18:38:13 -0400","original":"3/17/2009 6:38:12 PM","granularity":"sec","time":"2009/03/17 18:38:12 -0400"},"geo_score":0.756,"unit":58,"disposition":200,"cfs":9,"call#":9.002512,"id":"a64ruf80qajh","geo_precision":"range","address":"150 Third Av","state":"OH","juris":"PD"},"type":"Feature","geometry":{"type":"Point","coordinates":[-83.181193,41.129622]}},{"properties":{"officer":"RJO","city":"Tiffin","zip":"44883","date":{"end_time":"2009/03/16 13:17:16 -0400","original":"3/16/2009 1:17:15 PM","granularity":"sec","time":"2009/03/16 13:17:15 -0400"},"geo_score":0.756,"unit":57,"disposition":200,"cfs":9,"call#":9.002477,"id":"a64ruf1fhmwu","geo_precision":"range","address":"189 Second Av","state":"OH","juris":"PD"},"type":"Feature","geometry":{"type":"Point","coordinates":[-83.183145,41.12874]}},{"properties":{"officer":"DES","city":"Tiffin","zip":"44883","date":{"end_time":"2009/03/15 12:01:14 -0400","original":"3/15/2009 12:01:13 PM","granularity":"sec","time":"2009/03/15 12:01:13 -0400"},"geo_score":0.902,"unit":62,"disposition":200,"cfs":9,"call#":9.002444,"id":"a64rueziu5dd","geo_precision":"range","address":"242 Hedges St","state":"OH","juris":"PD"},"type":"Feature","geometry":{"type":"Point","coordinates":[-83.167763,41.110317]}},{"properties":{"officer":"GTM","city":"Tiffin","zip":"44883","date":{"end_time":"2009/03/13 22:03:00 -0400","original":"3/13/2009 10:02:00 PM","granularity":"min","time":"2009/03/13 22:02:00 -0400"},"geo_score":0.902,"unit":61,"disposition":200,"cfs":9,"call#":9.00238,"id":"a64rueupexry","geo_precision":"range","address":"167 Minerva St","state":"OH","juris":"PD"},"type":"Feature","geometry":{"type":"Point","coordinates":[-83.176594,41.125227]}},{"properties":{"officer":"GTM","city":"Tiffin","zip":"44883","date":{"end_time":"2009/03/10 21:13:20 -0400","original":"3/10/2009 9:13:19 PM","granularity":"sec","time":"2009/03/10 21:13:19 -0400"},"geo_score":0.902,"unit":62,"disposition":200,"cfs":9,"call#":9.002287,"id":"a64ruf2s92i0","geo_precision":"range","address":"55 Madison St","state":"OH","juris":"PD"},"type":"Feature","geometry":{"type":"Point","coordinates":[-83.177509,41.113285]}},{"properties":{"officer":"AMR","city":"Tiffin","zip":"44883","date":{"end_time":"2009/03/10 18:45:47 -0400","original":"3/10/2009 6:45:46 PM","granularity":"sec","time":"2009/03/10 18:45:46 -0400"},"geo_score":0.902,"unit":63,"disposition":200,"cfs":9,"call#":9.002285,"id":"a64rueupgwr7","geo_precision":"range","address":"130 Minerva St","state":"OH","juris":"PD"},"type":"Feature","geometry":{"type":"Point","coordinates":[-83.17642,41.124026]}},{"properties":{"officer":"RJO","city":"Tiffin","zip":"44883","date":{"end_time":"2009/03/09 08:19:36 -0400","original":"3/9/2009 8:19:35 AM","granularity":"sec","time":"2009/03/09 08:19:35 -0400"},"geo_score":0.902,"unit":57,"disposition":200,"cfs":9,"call#":9.002235,"id":"a64ruf83g2ps","geo_precision":"range","address":"376 W Perry St","state":"OH","juris":"PD"},"type":"Feature","geometry":{"type":"Point","coordinates":[-83.193834,41.114361]}},{"properties":{"officer":"DES","city":"Tiffin","zip":"44883","date":{"end_time":"2009/03/02 09:42:14 -0500","original":"3/2/2009 9:42:13 AM","granularity":"sec","time":"2009/03/02 09:42:13 -0500"},"geo_score":0.902,"unit":62,"disposition":200,"cfs":9,"call#":9.002042,"id":"a64ruez7vjok","geo_precision":"range","address":"2447 W Market St","state":"OH","juris":"PD"},"type":"Feature","geometry":{"type":"Point","coordinates":[-83.217679,41.109402]}},{"properties":{"officer":"DES","city":"Tiffin","zip":"44883","date":{"end_time":"2009/03/01 13:53:00 -0500","original":"3/1/2009 1:52:59 PM","granularity":"sec","time":"2009/03/01 13:52:59 -0500"},"geo_score":0.902,"unit":62,"disposition":200,"cfs":9,"call#":9.00202,"id":"a64ruexqub4u","geo_precision":"range","address":"31 W Davis St","state":"OH","juris":"PD"},"type":"Feature","geometry":{"type":"Point","coordinates":[-83.179056,41.126068]}},{"properties":{"officer":"DGH","city":"Tiffin","zip":"44883","date":{"end_time":"2009/02/26 14:46:55 -0500","original":"2/26/2009 2:46:54 PM","granularity":"sec","time":"2009/02/26 14:46:54 -0500"},"geo_score":0.902,"unit":59,"disposition":200,"cfs":9,"call#":9.001922,"id":"a64rueww4xh7","geo_precision":"range","address":"304 W Perry St","state":"OH","juris":"PD"},"type":"Feature","geometry":{"type":"Point","coordinates":[-83.19103,41.114811]}},{"properties":{"officer":"RJO","city":"Tiffin","zip":"44883","date":{"end_time":"2009/02/24 15:15:28 -0500","original":"2/24/2009 3:15:27 PM","granularity":"sec","time":"2009/02/24 15:15:27 -0500"},"geo_score":0.837,"unit":57,"disposition":200,"cfs":9,"call#":9.00187,"id":"a64ruetoxqcd","geo_precision":"range","address":"107X Frost Py","state":"OH","juris":"PD"},"type":"Feature","geometry":{"type":"Point","coordinates":[-83.179348,41.116848]}},{"properties":{"officer":"JAD","city":"Tiffin","zip":"44883","date":{"end_time":"2009/02/22 02:18:29 -0500","original":"2/22/2009 2:18:28 AM","granularity":"sec","time":"2009/02/22 02:18:28 -0500"},"geo_score":0.902,"unit":56,"disposition":230,"cfs":9,"call#":9.001816,"id":"a64rueumrnoz","geo_precision":"range","address":"92 Madison St","state":"OH","juris":"PD"},"type":"Feature","geometry":{"type":"Point","coordinates":[-83.176333,41.113386]}},{"properties":{"officer":"REB","city":"Tiffin","zip":"44883","date":{"end_time":"2009/02/20 14:42:08 -0500","original":"2/20/2009 2:42:07 PM","granularity":"sec","time":"2009/02/20 14:42:07 -0500"},"geo_score":0.756,"unit":558,"disposition":200,"cfs":9,"call#":9.001737,"id":"a64ruf1y1gb1","geo_precision":"range","address":"255 Second Av","state":"OH","juris":"PD"},"type":"Feature","geometry":{"type":"Point","coordinates":[-83.185276,41.128714]}},{"properties":{"officer":"JPF","city":"Tiffin","zip":"44883","date":{"end_time":"2009/02/19 15:31:23 -0500","original":"2/19/2009 3:31:22 PM","granularity":"sec","time":"2009/02/19 15:31:22 -0500"},"geo_score":0.857,"unit":57,"disposition":200,"cfs":9,"call#":9.001715,"id":"a64ruf4uqqpk","geo_precision":"street","address":"Rebecca St/Circular St","state":"OH","juris":"PD"},"type":"Feature","geometry":{"type":"Point","coordinates":[-83.169598,41.113072]}},{"properties":{"officer":"GTM","city":"Tiffin","zip":"44883","date":{"end_time":"2009/02/18 22:46:52 -0500","original":"2/18/2009 10:46:51 PM","granularity":"sec","time":"2009/02/18 22:46:51 -0500"},"geo_score":0.582,"unit":60,"disposition":200,"cfs":9,"call#":9.001688,"id":"a64rueyrv184","geo_precision":"street","address":"2801 W Sr 18","state":"OH","juris":"PD"},"type":"Feature","geometry":{"type":"Point","coordinates":[-83.278292,41.108823]}},{"properties":{"officer":"RJO","city":"Tiffin","zip":"44883","date":{"end_time":"2009/02/18 14:27:21 -0500","original":"2/18/2009 2:27:20 PM","granularity":"sec","time":"2009/02/18 14:27:20 -0500"},"geo_score":0.902,"unit":57,"disposition":200,"cfs":9,"call#":9.00168,"id":"a64ruf1yzcz9","geo_precision":"range","address":"130 Jefferson St","state":"OH","juris":"PD"},"type":"Feature","geometry":{"type":"Point","coordinates":[-83.174865,41.113987]}},{"properties":{"officer":null,"city":"Tiffin","zip":"44883","date":{"end_time":"2009/02/18 08:35:49 -0500","original":"2/18/2009 8:35:48 AM","granularity":"sec","time":"2009/02/18 08:35:48 -0500"},"geo_score":0.756,"unit":null,"disposition":100,"cfs":9,"call#":9.001672,"id":"a64ruf7t7rgc","geo_precision":"range","address":"281 Fourth Av","state":"OH","juris":"PD"},"type":"Feature","geometry":{"type":"Point","coordinates":[-83.185195,41.130437]}},{"properties":{"officer":"DES","city":"Tiffin","zip":"44883","date":{"end_time":"2009/02/17 14:15:13 -0500","original":"2/17/2009 2:15:12 PM","granularity":"sec","time":"2009/02/17 14:15:12 -0500"},"geo_score":0.902,"unit":58,"disposition":200,"cfs":9,"call#":9.001648,"id":"a64ruf3h52xq","geo_precision":"range","address":"210 N Washington St","state":"OH","juris":"PD"},"type":"Feature","geometry":{"type":"Point","coordinates":[-83.177997,41.123731]}},{"properties":{"officer":"SGN","city":"Tiffin","zip":"44883","date":{"end_time":"2009/02/17 08:47:04 -0500","original":"2/17/2009 8:47:03 AM","granularity":"sec","time":"2009/02/17 08:47:03 -0500"},"geo_score":0.756,"unit":62,"disposition":200,"cfs":9,"call#":9.001634,"id":"a64rueyiil8z","geo_precision":"range","address":"265 Sixth Av","state":"OH","juris":"PD"},"type":"Feature","geometry":{"type":"Point","coordinates":[-83.183327,41.132178]}},{"properties":{"officer":"JPF","city":"Tiffin","zip":"44883","date":{"end_time":"2009/02/14 13:25:39 -0500","original":"2/14/2009 1:25:38 PM","granularity":"sec","time":"2009/02/14 13:25:38 -0500"},"geo_score":0.717,"unit":59,"disposition":200,"cfs":9,"call#":9.001553,"id":"a64ruf3vrj4i","geo_precision":"street","address":"25 S Washington St, 1","state":"OH","juris":"PD"},"type":"Feature","geometry":{"type":"Point","coordinates":[-83.176943,41.117025]}},{"properties":{"officer":"JMW","city":"Tiffin","zip":"44883","date":{"end_time":"2009/02/14 06:30:07 -0500","original":"2/14/2009 6:30:06 AM","granularity":"sec","time":"2009/02/14 06:30:06 -0500"},"geo_score":0.902,"unit":57,"disposition":200,"cfs":9,"call#":9.001543,"id":"a64ruf6ipopr","geo_precision":"range","address":"36 W Perry St","state":"OH","juris":"PD"},"type":"Feature","geometry":{"type":"Point","coordinates":[-83.181359,41.11538]}},{"properties":{"officer":null,"city":"Tiffin","zip":"44883","date":{"end_time":"2009/02/13 16:38:22 -0500","original":"2/13/2009 4:38:21 PM","granularity":"sec","time":"2009/02/13 16:38:21 -0500"},"geo_score":0.902,"unit":null,"disposition":100,"cfs":9,"call#":9.001513,"id":"a64ruetewd4q","geo_precision":"range","address":"104 E Market St","state":"OH","juris":"PD"},"type":"Feature","geometry":{"type":"Point","coordinates":[-83.176392,41.114606]}},{"properties":{"officer":"JPF","city":"Tiffin","zip":"44883","date":{"end_time":"2009/02/13 08:35:28 -0500","original":"2/13/2009 8:35:27 AM","granularity":"sec","time":"2009/02/13 08:35:27 -0500"},"geo_score":0.857,"unit":59,"disposition":200,"cfs":9,"call#":9.001497,"id":"a64ruezbvj2n","geo_precision":"range","address":"15 Brookwood Pk","state":"OH","juris":"PD"},"type":"Feature","geometry":{"type":"Point","coordinates":[-83.181141,41.103195]}},{"properties":{"officer":"JPF","city":"Tiffin","zip":"44883","date":{"end_time":"2009/02/12 08:46:04 -0500","original":"2/12/2009 8:46:03 AM","granularity":"sec","time":"2009/02/12 08:46:03 -0500"},"geo_score":0.777,"unit":57,"disposition":200,"cfs":9,"call#":9.001462,"id":"a64rueta84s6","geo_precision":"range","address":"23 Court St","state":"OH","juris":"PD"},"type":"Feature","geometry":{"type":"Point","coordinates":[-83.176553,41.115245]}},{"properties":{"officer":"MEM","city":"Tiffin","zip":"44883","date":{"end_time":"2009/02/12 00:45:46 -0500","original":"2/12/2009 12:45:45 AM","granularity":"sec","time":"2009/02/12 00:45:45 -0500"},"geo_score":0.476,"unit":62,"disposition":200,"cfs":9,"call#":9.001452,"id":"a64ruf2y4axy","geo_precision":"street","address":"870 W Market St,R","state":"OH","juris":"PD"},"type":"Feature","geometry":{"type":"Point","coordinates":[-83.181592,41.114111]}},{"properties":{"officer":"SWK","city":"Tiffin","zip":"44883","date":{"end_time":"2009/02/11 23:59:19 -0500","original":"2/11/2009 11:59:18 PM","granularity":"sec","time":"2009/02/11 23:59:18 -0500"},"geo_score":0.866,"unit":61,"disposition":200,"cfs":9,"call#":9.001446,"id":"a64ruf4l7iqm","geo_precision":"range","address":"74 Grand Av","state":"OH","juris":"PD"},"type":"Feature","geometry":{"type":"Point","coordinates":[-83.177218,41.129534]}},{"properties":{"officer":"RJO","city":"Tiffin","zip":"44883","date":{"end_time":"2009/02/11 12:52:31 -0500","original":"2/11/2009 12:52:30 PM","granularity":"sec","time":"2009/02/11 12:52:30 -0500"},"geo_score":0.902,"unit":57,"disposition":200,"cfs":9,"call#":9.001417,"id":"a64rueybiqjm","geo_precision":"range","address":"165 S Washington St","state":"OH","juris":"PD"},"type":"Feature","geometry":{"type":"Point","coordinates":[-83.176326,41.112956]}},{"properties":{"officer":"BRB","city":"Tiffin","zip":"44883","date":{"end_time":"2009/02/11 06:11:44 -0500","original":"2/11/2009 6:11:43 AM","granularity":"sec","time":"2009/02/11 06:11:43 -0500"},"geo_score":0.902,"unit":57,"disposition":200,"cfs":9,"call#":9.001407,"id":"a64ruez61rqt","geo_precision":"range","address":"76 Walker St","state":"OH","juris":"PD"},"type":"Feature","geometry":{"type":"Point","coordinates":[-83.170242,41.110878]}},{"properties":{"officer":"DES","city":"Tiffin","zip":"44883","date":{"end_time":"2009/02/10 10:05:43 -0500","original":"2/10/2009 10:05:42 AM","granularity":"sec","time":"2009/02/10 10:05:42 -0500"},"geo_score":0.902,"unit":58,"disposition":200,"cfs":9,"call#":9.001383,"id":"a64ruezdazj3","geo_precision":"range","address":"68 Riverside Dr","state":"OH","juris":"PD"},"type":"Feature","geometry":{"type":"Point","coordinates":[-83.175127,41.11816]}},{"properties":{"officer":"DES","city":"Tiffin","zip":"44883","date":{"end_time":"2009/02/09 13:31:46 -0500","original":"2/9/2009 1:31:45 PM","granularity":"sec","time":"2009/02/09 13:31:45 -0500"},"geo_score":0.902,"unit":62,"disposition":200,"cfs":9,"call#":9.001362,"id":"a64ruf2e03w9","geo_precision":"range","address":"181 Oak St","state":"OH","juris":"PD"},"type":"Feature","geometry":{"type":"Point","coordinates":[-83.184182,41.125545]}},{"properties":{"officer":"RJO","city":"Tiffin","zip":"44883","date":{"end_time":"2009/02/09 08:48:08 -0500","original":"2/9/2009 8:48:07 AM","granularity":"sec","time":"2009/02/09 08:48:07 -0500"},"geo_score":0.902,"unit":57,"disposition":200,"cfs":9,"call#":9.001353,"id":"a64ruezhz07r","geo_precision":"range","address":"71 E Market St","state":"OH","juris":"PD"},"type":"Feature","geometry":{"type":"Point","coordinates":[-83.177644,41.114498]}},{"properties":{"officer":"JMW","city":"Tiffin","zip":"44883","date":{"end_time":"2009/02/09 08:45:59 -0500","original":"2/9/2009 8:45:58 AM","granularity":"sec","time":"2009/02/09 08:45:58 -0500"},"geo_score":0.902,"unit":60,"disposition":200,"cfs":9,"call#":9.001354,"id":"a64ruf4gs4xv","geo_precision":"range","address":"455 E Market St","state":"OH","juris":"PD"},"type":"Feature","geometry":{"type":"Point","coordinates":[-83.164927,41.119266]}},{"properties":{"officer":"DES","city":"Tiffin","zip":"44883","date":{"end_time":"2009/02/08 09:56:12 -0500","original":"2/8/2009 9:56:11 AM","granularity":"sec","time":"2009/02/08 09:56:11 -0500"},"geo_score":0.902,"unit":62,"disposition":200,"cfs":9,"call#":9.001338,"id":"a64ruewjlp9e","geo_precision":"range","address":"59 E Market St,1","state":"OH","juris":"PD"},"type":"Feature","geometry":{"type":"Point","coordinates":[-83.179559,41.114309]}},{"properties":{"officer":"RLT","city":"Tiffin","zip":"44883","date":{"end_time":"2009/02/08 03:18:55 -0500","original":"2/8/2009 3:18:54 AM","granularity":"sec","time":"2009/02/08 03:18:54 -0500"},"geo_score":0.902,"unit":57,"disposition":200,"cfs":9,"call#":9.00133,"id":"a64ruewg4c2j","geo_precision":"range","address":"233 Walker St","state":"OH","juris":"PD"},"type":"Feature","geometry":{"type":"Point","coordinates":[-83.165022,41.111349]}},{"properties":{"officer":"RLT","city":"Tiffin","zip":"44883","date":{"end_time":"2009/02/07 21:03:33 -0500","original":"2/7/2009 9:03:32 PM","granularity":"sec","time":"2009/02/07 21:03:32 -0500"},"geo_score":0.902,"unit":57,"disposition":200,"cfs":9,"call#":9.001314,"id":"a64ruf3uhwx6","geo_precision":"range","address":"15 E Market St","state":"OH","juris":"PD"},"type":"Feature","geometry":{"type":"Point","coordinates":[-83.179243,41.114346]}},{"properties":{"officer":"JPF","city":"Tiffin","zip":"44883","date":{"end_time":"2009/02/07 10:10:34 -0500","original":"2/7/2009 10:10:33 AM","granularity":"sec","time":"2009/02/07 10:10:33 -0500"},"geo_score":0.902,"unit":59,"disposition":200,"cfs":9,"call#":9.00129,"id":"a64ruevhezxg","geo_precision":"range","address":"175 Jefferson St","state":"OH","juris":"PD"},"type":"Feature","geometry":{"type":"Point","coordinates":[-83.174644,41.112704]}},{"properties":{"officer":"DES","city":"Tiffin","zip":"44883","date":{"end_time":"2009/02/07 09:17:18 -0500","original":"2/7/2009 9:17:17 AM","granularity":"sec","time":"2009/02/07 09:17:17 -0500"},"geo_score":0.902,"unit":62,"disposition":200,"cfs":9,"call#":9.001287,"id":"a64ruewp7dj7","geo_precision":"range","address":"500 W Perry St","state":"OH","juris":"PD"},"type":"Feature","geometry":{"type":"Point","coordinates":[-83.198001,41.11375]}},{"properties":{"officer":"JMW","city":"Tiffin","zip":"44883","date":{"end_time":"2009/02/07 08:56:02 -0500","original":"2/7/2009 8:56:01 AM","granularity":"sec","time":"2009/02/07 08:56:01 -0500"},"geo_score":0.902,"unit":60,"disposition":200,"cfs":9,"call#":9.001285,"id":"a64ruf2l1znr","geo_precision":"range","address":"197 Walker St","state":"OH","juris":"PD"},"type":"Feature","geometry":{"type":"Point","coordinates":[-83.165767,41.111263]}},{"properties":{"officer":"MEM","city":"Tiffin","zip":"44883","date":{"end_time":"2009/02/04 21:05:04 -0500","original":"2/4/2009 9:05:03 PM","granularity":"sec","time":"2009/02/04 21:05:03 -0500"},"geo_score":0.582,"unit":62,"disposition":200,"cfs":9,"call#":9.001189,"id":"a64ruf4vixig","geo_precision":"street","address":"2801 W Sr 18","state":"OH","juris":"PD"},"type":"Feature","geometry":{"type":"Point","coordinates":[-83.278292,41.108823]}},{"properties":{"officer":"MAM","city":"Tiffin","zip":"44883","date":{"end_time":"2009/01/29 15:09:47 -0500","original":"1/29/2009 3:09:46 PM","granularity":"sec","time":"2009/01/29 15:09:46 -0500"},"geo_score":0.902,"unit":58,"disposition":200,"cfs":9,"call#":9.000976,"id":"a64ruf7frh9z","geo_precision":"range","address":"815 S Sandusky St","state":"OH","juris":"PD"},"type":"Feature","geometry":{"type":"Point","coordinates":[-83.195462,41.103378]}},{"properties":{"officer":"RJO","city":"Tiffin","zip":"44883","date":{"end_time":"2009/01/25 14:42:38 -0500","original":"1/25/2009 2:42:37 PM","granularity":"sec","time":"2009/01/25 14:42:37 -0500"},"geo_score":0.902,"unit":57,"disposition":200,"cfs":9,"call#":9.000864,"id":"a64ruf7pkttg","geo_precision":"range","address":"126 S Washington St","state":"OH","juris":"PD"},"type":"Feature","geometry":{"type":"Point","coordinates":[-83.176503,41.114043]}},{"properties":{"officer":"MAM","city":"Tiffin","zip":"44883","date":{"end_time":"2009/01/22 10:08:06 -0500","original":"1/22/2009 10:08:05 AM","granularity":"sec","time":"2009/01/22 10:08:05 -0500"},"geo_score":0.546,"unit":58,"disposition":200,"cfs":9,"call#":9.000699,"id":"a64ruf950rr1","geo_precision":"street","address":"1 Oakley Park","state":"OH","juris":"PD"},"type":"Feature","geometry":{"type":"Point","coordinates":[-83.172916,41.112623]}},{"properties":{"officer":"SMM","city":"Tiffin","zip":"44883","date":{"end_time":"2009/01/20 17:20:09 -0500","original":"1/20/2009 5:20:08 PM","granularity":"sec","time":"2009/01/20 17:20:08 -0500"},"geo_score":0.78,"unit":58,"disposition":200,"cfs":9,"call#":9.000643,"id":"a64ruf51t69l","geo_precision":"range","address":"790 W Market St","state":"OH","juris":"PD"},"type":"Feature","geometry":{"type":"Point","coordinates":[-83.207496,41.111156]}},{"properties":{"officer":"RJO","city":"Tiffin","zip":"44883","date":{"end_time":"2009/01/20 15:05:39 -0500","original":"1/20/2009 3:05:38 PM","granularity":"sec","time":"2009/01/20 15:05:38 -0500"},"geo_score":0.514,"unit":57,"disposition":200,"cfs":9,"call#":9.000639,"id":"a64ruex77xcg","geo_precision":"street","address":"159 Dallas St,C","state":"OH","juris":"PD"},"type":"Feature","geometry":{"type":"Point","coordinates":[-83.174672,41.108987]}},{"properties":{"officer":"LMK","city":"Tiffin","zip":"44883","date":{"end_time":"2009/01/18 21:30:17 -0500","original":"1/18/2009 9:30:16 PM","granularity":"sec","time":"2009/01/18 21:30:16 -0500"},"geo_score":0.713,"unit":62,"disposition":200,"cfs":9,"call#":9.000595,"id":"a64ruezmd4es","geo_precision":"street","address":"7 Beechwood Dr,303","state":"OH","juris":"PD"},"type":"Feature","geometry":{"type":"Point","coordinates":[-83.208547,41.11647]}},{"properties":{"officer":"MAM","city":"Tiffin","zip":"44883","date":{"end_time":"2009/01/16 07:47:58 -0500","original":"1/16/2009 7:47:57 AM","granularity":"sec","time":"2009/01/16 07:47:57 -0500"},"geo_score":0.854,"unit":58,"disposition":200,"cfs":9,"call#":9.000495,"id":"a64ruf7vxyh6","geo_precision":"range","address":"274 Elm Av","state":"OH","juris":"PD"},"type":"Feature","geometry":{"type":"Point","coordinates":[-83.162133,41.125229]}},{"properties":{"officer":"MAM","city":"Tiffin","zip":"44883","date":{"end_time":"2009/01/14 15:44:22 -0500","original":"1/14/2009 3:44:21 PM","granularity":"sec","time":"2009/01/14 15:44:21 -0500"},"geo_score":0.715,"unit":58,"disposition":400,"cfs":9,"call#":9.000429,"id":"a64ruf52vpoo","geo_precision":"street","address":"1025 W Market St","state":"OH","juris":"PD"},"type":"Feature","geometry":{"type":"Point","coordinates":[-83.207659,41.111118]}},{"properties":{"officer":"DES","city":"Tiffin","zip":"44883","date":{"end_time":"2009/01/13 12:53:46 -0500","original":"1/13/2009 12:53:45 PM","granularity":"sec","time":"2009/01/13 12:53:45 -0500"},"geo_score":0.902,"unit":58,"disposition":200,"cfs":9,"call#":9.000397,"id":"a64ruevcjwma","geo_precision":"range","address":"51 E Market St","state":"OH","juris":"PD"},"type":"Feature","geometry":{"type":"Point","coordinates":[-83.17813,41.114436]}},{"properties":{"officer":"LMK","city":"Tiffin","zip":"44883","date":{"end_time":"2009/01/12 19:31:35 -0500","original":"1/12/2009 7:31:34 PM","granularity":"sec","time":"2009/01/12 19:31:34 -0500"},"geo_score":0.873,"unit":62,"disposition":200,"cfs":9,"call#":9.000384,"id":"a64ruexsiake","geo_precision":"range","address":"333 Clinton Av","state":"OH","juris":"PD"},"type":"Feature","geometry":{"type":"Point","coordinates":[-83.165723,41.124544]}},{"properties":{"officer":"DES","city":"Tiffin","zip":"44883","date":{"end_time":"2009/01/10 09:01:09 -0500","original":"1/10/2009 9:01:08 AM","granularity":"sec","time":"2009/01/10 09:01:08 -0500"},"geo_score":0.646,"unit":62,"disposition":200,"cfs":9,"call#":9.0003,"id":"a64ruf5sw81o","geo_precision":"range","address":"1 City Lot 7","state":"OH","juris":"PD"},"type":"Feature","geometry":{"type":"Point","coordinates":[-83.285418,41.123483]}},{"properties":{"officer":"FWS","city":"Tiffin","zip":"44883","date":{"end_time":"2009/01/09 13:17:56 -0500","original":"1/9/2009 1:17:55 PM","granularity":"sec","time":"2009/01/09 13:17:55 -0500"},"geo_score":0.902,"unit":57,"disposition":200,"cfs":9,"call#":9.000268,"id":"a64ruf19mopj","geo_precision":"range","address":"277 Water St","state":"OH","juris":"PD"},"type":"Feature","geometry":{"type":"Point","coordinates":[-83.174545,41.120364]}},{"properties":{"officer":"GTM","city":"Tiffin","zip":"44883","date":{"end_time":"2009/01/09 11:44:04 -0500","original":"1/9/2009 11:44:03 AM","granularity":"sec","time":"2009/01/09 11:44:03 -0500"},"geo_score":0.902,"unit":58,"disposition":200,"cfs":9,"call#":9.000267,"id":"a64rueto30oc","geo_precision":"range","address":"31 Jackson St","state":"OH","juris":"PD"},"type":"Feature","geometry":{"type":"Point","coordinates":[-83.187954,41.114412]}},{"properties":{"officer":"MAM","city":"Tiffin","zip":"44883","date":{"end_time":"2009/01/07 16:56:33 -0500","original":"1/7/2009 4:56:32 PM","granularity":"sec","time":"2009/01/07 16:56:32 -0500"},"geo_score":0.902,"unit":58,"disposition":200,"cfs":9,"call#":9.000213,"id":"a64rueuza3ox","geo_precision":"range","address":"225 S Monroe St","state":"OH","juris":"PD"},"type":"Feature","geometry":{"type":"Point","coordinates":[-83.177533,41.110403]}},{"properties":{"officer":"DGH","city":"Tiffin","zip":"44883","date":{"end_time":"2009/01/06 14:34:52 -0500","original":"1/6/2009 2:34:51 PM","granularity":"sec","time":"2009/01/06 14:34:51 -0500"},"geo_score":0.902,"unit":59,"disposition":200,"cfs":9,"call#":9.000186,"id":"a64rueyhwvg0","geo_precision":"range","address":"85 Westwood Dr","state":"OH","juris":"PD"},"type":"Feature","geometry":{"type":"Point","coordinates":[-83.210417,41.113887]}},{"properties":{"officer":"DGH","city":"Tiffin","zip":"44883","date":{"end_time":"2009/01/05 09:52:10 -0500","original":"1/5/2009 9:52:09 AM","granularity":"sec","time":"2009/01/05 09:52:09 -0500"},"geo_score":0.902,"unit":59,"disposition":200,"cfs":9,"call#":9.000151,"id":"a64ruf46jgta","geo_precision":"range","address":"116 Longfellow Dr","state":"OH","juris":"PD"},"type":"Feature","geometry":{"type":"Point","coordinates":[-83.194409,41.100792]}},{"properties":{"officer":"JMW","city":"Tiffin","zip":"44883","date":{"end_time":"2009/01/04 13:57:35 -0500","original":"1/4/2009 1:57:34 PM","granularity":"sec","time":"2009/01/04 13:57:34 -0500"},"geo_score":0.429,"unit":60,"disposition":200,"cfs":9,"call#":9.000132,"id":"a64ruf2wbpfv","geo_precision":"street","address":"1738 W Market St,F","state":"OH","juris":"PD"},"type":"Feature","geometry":{"type":"Point","coordinates":[-83.181592,41.114111]}},{"properties":{"officer":"FWS","city":"Tiffin","zip":"44883","date":{"end_time":"2009/01/04 13:18:10 -0500","original":"1/4/2009 1:18:09 PM","granularity":"sec","time":"2009/01/04 13:18:09 -0500"},"geo_score":0.902,"unit":58,"disposition":200,"cfs":9,"call#":9.000131,"id":"a64ruev8vnob","geo_precision":"range","address":"47 W Market St","state":"OH","juris":"PD"},"type":"Feature","geometry":{"type":"Point","coordinates":[-83.181975,41.114061]}},{"properties":{"officer":"JMW","city":"Tiffin","zip":"44883","date":{"end_time":"2009/01/04 08:44:33 -0500","original":"1/4/2009 8:44:32 AM","granularity":"sec","time":"2009/01/04 08:44:32 -0500"},"geo_score":0.902,"unit":60,"disposition":200,"cfs":9,"call#":9.000122,"id":"a64ruf0613cw","geo_precision":"range","address":"49 Tomb St","state":"OH","juris":"PD"},"type":"Feature","geometry":{"type":"Point","coordinates":[-83.173805,41.128747]}},{"properties":{"officer":"MAM","city":"Tiffin","zip":"44883","date":{"end_time":"2009/01/03 21:16:07 -0500","original":"1/3/2009 9:16:06 PM","granularity":"sec","time":"2009/01/03 21:16:06 -0500"},"geo_score":0.78,"unit":58,"disposition":200,"cfs":9,"call#":9.000099,"id":"a64rueukimez","geo_precision":"range","address":"738 W Market St","state":"OH","juris":"PD"},"type":"Feature","geometry":{"type":"Point","coordinates":[-83.206224,41.11138]}},{"properties":{"officer":"GTM","city":"Tiffin","zip":"44883","date":{"end_time":"2009/01/01 11:01:33 -0500","original":"1/1/2009 11:01:32 AM","granularity":"sec","time":"2009/01/01 11:01:32 -0500"},"geo_score":0.756,"unit":58,"disposition":200,"cfs":9,"call#":9.000017,"id":"a64ruf8osp85","geo_precision":"range","address":"116 Third Av","state":"OH","juris":"PD"},"type":"Feature","geometry":{"type":"Point","coordinates":[-83.179845,41.129638]}}],"is_temporal":true,"author":{"url":"","metadata":"","contact_name":"","contact_address":"","source":"","contact_phone":""},"source":"","pagination":{"sort":null,"start":0,"total":328,"limit":1000000},"state":"complete","tags":"","published":"2014-08-14T15:36:50-04:00","id":220649}