{"type":"FeatureCollection","data_type":"Dataset","url_type":null,"permissions":[{"permissions":{"download":true,"view":true},"group_id":"everyone"}],"classification":null,"title":"B &amp; E burg 2009","count":181,"stream_id":220620,"contributor":{"url":"http://geocommons.com/users/42302","name":"hillproject"},"data_attributes":null,"calculation_params":null,"icon_link":null,"link":"http://geocommons.com/overlays/220620.json","extent":[-83.2126,41.0993,-83.1587,41.1339],"geometry_types":["point"],"unique_name":null,"name":"B & E burg 2009","feature_count":181,"description":"","next_feature":null,"is_raster":false,"short_classification":"Y","stats":{"date":{"max":"2009/12/30 23:56:12 -0500","mean":"2009/07/27 13:02:18 -0400","variance":78046261406080.4,"stdev":8834379.51449225,"min":"2009/01/01 06:44:31 -0500","median":"2009/07/27 21:35:36 -0400"},"disposition":{"max":700,"mean":197.569060773481,"variance":4052.94659300186,"stdev":63.6627567185231,"min":100,"median":200},"cfs":{"max":5,"mean":5.0,"variance":0.0,"stdev":0.0,"min":5,"median":5},"call#":{"max":9.012373,"mean":9.00721572375692,"variance":1.28802314232654e-05,"stdev":0.00358890393062637,"min":9.000015,"median":9.00728}},"features":[{"properties":{"officer":"PJD","city":"Tiffin","zip":"44883","date":{"end_time":"2009/12/30 23:56:13 -0500","original":"12/30/2009 11:56:12 PM","granularity":"sec","time":"2009/12/30 23:56:12 -0500"},"geo_score":0.902,"unit":"63","disposition":200,"cfs":5,"call#":9.012373,"id":"a62t26adrk43","geo_precision":"range","address":"55 Madison St,3","state":"OH","juris":"PD"},"type":"Feature","geometry":{"type":"Point","coordinates":[-83.178806,41.113146]}},{"properties":{"officer":"JAD","city":"Tiffin","zip":"44883","date":{"end_time":"2009/12/27 02:57:30 -0500","original":"12/27/2009 2:57:29 AM","granularity":"sec","time":"2009/12/27 02:57:29 -0500"},"geo_score":0.756,"unit":"56","disposition":200,"cfs":5,"call#":9.012284,"id":"a62t26gkoq1s","geo_precision":"range","address":"222 Second Av","state":"OH","juris":"PD"},"type":"Feature","geometry":{"type":"Point","coordinates":[-83.184046,41.128726]}},{"properties":{"officer":"MAM","city":"Tiffin","zip":"44883","date":{"end_time":"2009/12/23 15:29:14 -0500","original":"12/23/2009 3:29:13 PM","granularity":"sec","time":"2009/12/23 15:29:13 -0500"},"geo_score":0.902,"unit":"58","disposition":200,"cfs":5,"call#":9.012214,"id":"a62t26botdhe","geo_precision":"range","address":"366 Hedges St","state":"OH","juris":"PD"},"type":"Feature","geometry":{"type":"Point","coordinates":[-83.168767,41.1072]}},{"properties":{"officer":"RJO","city":"Tiffin","zip":"44883","date":{"end_time":"2009/12/21 10:07:00 -0500","original":"12/21/2009 10:06:59 AM","granularity":"sec","time":"2009/12/21 10:06:59 -0500"},"geo_score":0.902,"unit":"57","disposition":200,"cfs":5,"call#":9.012156,"id":"a62t26eoumn0","geo_precision":"range","address":"370 S Monroe St","state":"OH","juris":"PD"},"type":"Feature","geometry":{"type":"Point","coordinates":[-83.176975,41.106384]}},{"properties":{"officer":"JMW","city":"Tiffin","zip":"44883","date":{"end_time":"2009/12/18 19:45:32 -0500","original":"12/18/2009 7:45:31 PM","granularity":"sec","time":"2009/12/18 19:45:31 -0500"},"geo_score":0.902,"unit":"57","disposition":200,"cfs":5,"call#":9.0121,"id":"a62t26fvt5c6","geo_precision":"range","address":"241 Hedges St","state":"OH","juris":"PD"},"type":"Feature","geometry":{"type":"Point","coordinates":[-83.167767,41.110354]}},{"properties":{"officer":"REB","city":"Tiffin","zip":"44883","date":{"end_time":"2009/12/16 13:32:55 -0500","original":"12/16/2009 1:32:54 PM","granularity":"sec","time":"2009/12/16 13:32:54 -0500"},"geo_score":0.902,"unit":"558","disposition":200,"cfs":5,"call#":9.012044,"id":"a62t26emince","geo_precision":"range","address":"336 Water St","state":"OH","juris":"PD"},"type":"Feature","geometry":{"type":"Point","coordinates":[-83.173786,41.121893]}},{"properties":{"officer":"SGN","city":"Tiffin","zip":"44883","date":{"end_time":"2009/12/15 13:00:54 -0500","original":"12/15/2009 1:00:53 PM","granularity":"sec","time":"2009/12/15 13:00:53 -0500"},"geo_score":0.902,"unit":"62","disposition":100,"cfs":5,"call#":9.012025,"id":"a62t268ix6y2","geo_precision":"range","address":"104 Hancock St","state":"OH","juris":"PD"},"type":"Feature","geometry":{"type":"Point","coordinates":[-83.167065,41.109704]}},{"properties":{"officer":"BRB","city":"Tiffin","zip":"44883","date":{"end_time":"2009/12/15 05:54:10 -0500","original":"12/15/2009 5:54:09 AM","granularity":"sec","time":"2009/12/15 05:54:09 -0500"},"geo_score":0.902,"unit":"62","disposition":200,"cfs":5,"call#":9.012009,"id":"a62t26b5srah","geo_precision":"range","address":"205 S Sandusky St","state":"OH","juris":"PD"},"type":"Feature","geometry":{"type":"Point","coordinates":[-83.186167,41.114614]}},{"properties":{"officer":"JPF","city":"Tiffin","zip":"44883","date":{"end_time":"2009/12/14 06:54:59 -0500","original":"12/14/2009 6:54:58 AM","granularity":"sec","time":"2009/12/14 06:54:58 -0500"},"geo_score":0.854,"unit":"59","disposition":200,"cfs":5,"call#":9.011976,"id":"a62t266zlsfe","geo_precision":"range","address":"108 Elm Av","state":"OH","juris":"PD"},"type":"Feature","geometry":{"type":"Point","coordinates":[-83.164769,41.122116]}},{"properties":{"officer":"RJO","city":"Tiffin","zip":"44883","date":{"end_time":"2009/12/13 15:53:33 -0500","original":"12/13/2009 3:53:32 PM","granularity":"sec","time":"2009/12/13 15:53:32 -0500"},"geo_score":0.902,"unit":"57","disposition":500,"cfs":5,"call#":9.011967,"id":"a62t263hxjsq","geo_precision":"range","address":"32 Minerva St","state":"OH","juris":"PD"},"type":"Feature","geometry":{"type":"Point","coordinates":[-83.176005,41.12141]}},{"properties":{"officer":"DES","city":"Tiffin","zip":"44883","date":{"end_time":"2009/12/10 13:40:20 -0500","original":"12/10/2009 1:40:19 PM","granularity":"sec","time":"2009/12/10 13:40:19 -0500"},"geo_score":0.902,"unit":"57","disposition":200,"cfs":5,"call#":9.011879,"id":"a62t264ra1ay","geo_precision":"range","address":"180X S Washington St","state":"OH","juris":"PD"},"type":"Feature","geometry":{"type":"Point","coordinates":[-83.176265,41.112471]}},{"properties":{"officer":"GTM","city":"Tiffin","zip":"44883","date":{"end_time":"2009/12/10 03:09:50 -0500","original":"12/10/2009 3:09:49 AM","granularity":"sec","time":"2009/12/10 03:09:49 -0500"},"geo_score":0.902,"unit":"59","disposition":200,"cfs":5,"call#":9.011869,"id":"a62t264aq11v","geo_precision":"range","address":"236 Tomb St","state":"OH","juris":"PD"},"type":"Feature","geometry":{"type":"Point","coordinates":[-83.16748,41.128812]}},{"properties":{"officer":"SGN","city":"Tiffin","zip":"44883","date":{"end_time":"2009/12/08 10:58:38 -0500","original":"12/8/2009 10:58:37 AM","granularity":"sec","time":"2009/12/08 10:58:37 -0500"},"geo_score":0.902,"unit":"62","disposition":200,"cfs":5,"call#":9.011817,"id":"a62t262vufcp","geo_precision":"range","address":"250 Benner St","state":"OH","juris":"PD"},"type":"Feature","geometry":{"type":"Point","coordinates":[-83.183982,41.11469]}},{"properties":{"officer":"JMW","city":"Tiffin","zip":"44883","date":{"end_time":"2009/12/06 19:09:18 -0500","original":"12/6/2009 7:09:17 PM","granularity":"sec","time":"2009/12/06 19:09:17 -0500"},"geo_score":0.902,"unit":"57","disposition":200,"cfs":5,"call#":9.011783,"id":"a62t2674wscj","geo_precision":"range","address":"400 N Sandusky St","state":"OH","juris":"PD"},"type":"Feature","geometry":{"type":"Point","coordinates":[-83.175902,41.129233]}},{"properties":{"officer":"RLT","city":"Tiffin","zip":"44883","date":{"end_time":"2009/12/05 01:45:02 -0500","original":"12/5/2009 1:45:01 AM","granularity":"sec","time":"2009/12/05 01:45:01 -0500"},"geo_score":0.902,"unit":"62","disposition":200,"cfs":5,"call#":9.01172,"id":"a62t26gfguxw","geo_precision":"range","address":"686 S Sandusky St,40","state":"OH","juris":"PD"},"type":"Feature","geometry":{"type":"Point","coordinates":[-83.18321,41.118747]}},{"properties":{"officer":"JMW","city":"Tiffin","zip":"44883","date":{"end_time":"2009/12/04 17:54:51 -0500","original":"12/4/2009 5:54:50 PM","granularity":"sec","time":"2009/12/04 17:54:50 -0500"},"geo_score":0.902,"unit":"57","disposition":200,"cfs":5,"call#":9.011706,"id":"a62t26fo8lma","geo_precision":"range","address":"66 Apple St","state":"OH","juris":"PD"},"type":"Feature","geometry":{"type":"Point","coordinates":[-83.181553,41.124798]}},{"properties":{"officer":"DES","city":"Tiffin","zip":"44883","date":{"end_time":"2009/12/03 09:25:25 -0500","original":"12/3/2009 9:25:24 AM","granularity":"sec","time":"2009/12/03 09:25:24 -0500"},"geo_score":0.536,"unit":"57","disposition":200,"cfs":5,"call#":9.011664,"id":"a62t266dfjwb","geo_precision":"street","address":"170 E Perry St,REAR","state":"OH","juris":"PD"},"type":"Feature","geometry":{"type":"Point","coordinates":[-83.178368,41.11568]}},{"properties":{"officer":"RJO","city":"Tiffin","zip":"44883","date":{"end_time":"2009/12/01 11:53:48 -0500","original":"12/1/2009 11:53:47 AM","granularity":"sec","time":"2009/12/01 11:53:47 -0500"},"geo_score":0.902,"unit":"57","disposition":200,"cfs":5,"call#":9.011619,"id":"a62t268gzayg","geo_precision":"range","address":"195 Apple St","state":"OH","juris":"PD"},"type":"Feature","geometry":{"type":"Point","coordinates":[-83.186193,41.124652]}},{"properties":{"officer":"RLT","city":"Tiffin","zip":"44883","date":{"end_time":"2009/11/30 21:14:32 -0500","original":"11/30/2009 9:14:31 PM","granularity":"sec","time":"2009/11/30 21:14:31 -0500"},"geo_score":0.902,"unit":"59","disposition":200,"cfs":5,"call#":9.011607,"id":"a62t262mfxgd","geo_precision":"range","address":"251 Main St","state":"OH","juris":"PD"},"type":"Feature","geometry":{"type":"Point","coordinates":[-83.164041,41.112368]}},{"properties":{"officer":"RLT","city":"Tiffin","zip":"44883","date":{"end_time":"2009/11/30 00:30:14 -0500","original":"11/30/2009 12:30:13 AM","granularity":"sec","time":"2009/11/30 00:30:13 -0500"},"geo_score":0.902,"unit":"61","disposition":200,"cfs":5,"call#":9.011592,"id":"a62t263bhaio","geo_precision":"range","address":"245 W Market St","state":"OH","juris":"PD"},"type":"Feature","geometry":{"type":"Point","coordinates":[-83.188976,41.113374]}},{"properties":{"officer":"RLT","city":"Tiffin","zip":"44883","date":{"end_time":"2009/11/29 22:50:47 -0500","original":"11/29/2009 10:50:46 PM","granularity":"sec","time":"2009/11/29 22:50:46 -0500"},"geo_score":0.902,"unit":"61","disposition":200,"cfs":5,"call#":9.011589,"id":"a62t26a1q80g","geo_precision":"range","address":"255 Main St","state":"OH","juris":"PD"},"type":"Feature","geometry":{"type":"Point","coordinates":[-83.164025,41.11237]}},{"properties":{"officer":"JAD","city":"Tiffin","zip":"44883","date":{"end_time":"2009/11/29 22:23:03 -0500","original":"11/29/2009 10:23:02 PM","granularity":"sec","time":"2009/11/29 22:23:02 -0500"},"geo_score":0.902,"unit":"56","disposition":200,"cfs":5,"call#":9.011587,"id":"a62t26e3bjgk","geo_precision":"range","address":"255 Main St","state":"OH","juris":"PD"},"type":"Feature","geometry":{"type":"Point","coordinates":[-83.164025,41.11237]}},{"properties":{"officer":"RLT","city":"Tiffin","zip":"44883","date":{"end_time":"2009/11/29 22:14:41 -0500","original":"11/29/2009 10:14:40 PM","granularity":"sec","time":"2009/11/29 22:14:40 -0500"},"geo_score":0.902,"unit":"61","disposition":200,"cfs":5,"call#":9.011586,"id":"a62t26b78tgs","geo_precision":"range","address":"255 Main St","state":"OH","juris":"PD"},"type":"Feature","geometry":{"type":"Point","coordinates":[-83.164025,41.11237]}},{"properties":{"officer":"JAD","city":"Tiffin","zip":"44883","date":{"end_time":"2009/11/29 22:12:22 -0500","original":"11/29/2009 10:12:21 PM","granularity":"sec","time":"2009/11/29 22:12:21 -0500"},"geo_score":0.902,"unit":"56","disposition":200,"cfs":5,"call#":9.011585,"id":"a62t2610luac","geo_precision":"range","address":"255 Main St","state":"OH","juris":"PD"},"type":"Feature","geometry":{"type":"Point","coordinates":[-83.164025,41.11237]}},{"properties":{"officer":"RLT","city":"Tiffin","zip":"44883","date":{"end_time":"2009/11/29 22:08:05 -0500","original":"11/29/2009 10:08:04 PM","granularity":"sec","time":"2009/11/29 22:08:04 -0500"},"geo_score":0.902,"unit":"61","disposition":200,"cfs":5,"call#":9.011584,"id":"a62t2689qdgs","geo_precision":"range","address":"255 Main St","state":"OH","juris":"PD"},"type":"Feature","geometry":{"type":"Point","coordinates":[-83.164025,41.11237]}},{"properties":{"officer":"JAD","city":"Tiffin","zip":"44883","date":{"end_time":"2009/11/29 22:07:39 -0500","original":"11/29/2009 10:07:38 PM","granularity":"sec","time":"2009/11/29 22:07:38 -0500"},"geo_score":0.902,"unit":"56","disposition":200,"cfs":5,"call#":9.011583,"id":"a62t26bkjvc9","geo_precision":"range","address":"255 Main St","state":"OH","juris":"PD"},"type":"Feature","geometry":{"type":"Point","coordinates":[-83.164025,41.11237]}},{"properties":{"officer":"JAD","city":"Tiffin","zip":"44883","date":{"end_time":"2009/11/29 21:45:43 -0500","original":"11/29/2009 9:45:42 PM","granularity":"sec","time":"2009/11/29 21:45:42 -0500"},"geo_score":0.902,"unit":"56","disposition":200,"cfs":5,"call#":9.011582,"id":"a62t268cym11","geo_precision":"range","address":"251 Main St","state":"OH","juris":"PD"},"type":"Feature","geometry":{"type":"Point","coordinates":[-83.164041,41.112368]}},{"properties":{"officer":"RLT","city":"Tiffin","zip":"44883","date":{"end_time":"2009/11/29 21:45:13 -0500","original":"11/29/2009 9:45:12 PM","granularity":"sec","time":"2009/11/29 21:45:12 -0500"},"geo_score":0.902,"unit":"61","disposition":200,"cfs":5,"call#":9.011581,"id":"a62t26ga4dz0","geo_precision":"range","address":"251 Main St","state":"OH","juris":"PD"},"type":"Feature","geometry":{"type":"Point","coordinates":[-83.164041,41.112368]}},{"properties":{"officer":"EDA","city":"Tiffin","zip":"44883","date":{"end_time":"2009/11/29 20:15:06 -0500","original":"11/29/2009 8:15:05 PM","granularity":"sec","time":"2009/11/29 20:15:05 -0500"},"geo_score":0.902,"unit":"58","disposition":200,"cfs":5,"call#":9.011576,"id":"a62t2696skux","geo_precision":"range","address":"255 Main St","state":"OH","juris":"PD"},"type":"Feature","geometry":{"type":"Point","coordinates":[-83.164025,41.11237]}},{"properties":{"officer":"EDA","city":"Tiffin","zip":"44883","date":{"end_time":"2009/11/29 19:47:59 -0500","original":"11/29/2009 7:47:58 PM","granularity":"sec","time":"2009/11/29 19:47:58 -0500"},"geo_score":0.902,"unit":"58","disposition":200,"cfs":5,"call#":9.011575,"id":"a62t261lv9lv","geo_precision":"range","address":"255 Main St","state":"OH","juris":"PD"},"type":"Feature","geometry":{"type":"Point","coordinates":[-83.164025,41.11237]}},{"properties":{"officer":"RLT","city":"Tiffin","zip":"44883","date":{"end_time":"2009/11/28 21:10:24 -0500","original":"11/28/2009 9:10:23 PM","granularity":"sec","time":"2009/11/28 21:10:23 -0500"},"geo_score":0.69,"unit":"61","disposition":200,"cfs":5,"call#":9.011548,"id":"a62t2638p6rr","geo_precision":"range","address":"60 N Sr 101","state":"OH","juris":"PD"},"type":"Feature","geometry":{"type":"Point","coordinates":[-83.158808,41.123521]}},{"properties":{"officer":"RLT","city":"Tiffin","zip":"44883","date":{"end_time":"2009/11/22 22:21:36 -0500","original":"11/22/2009 10:21:35 PM","granularity":"sec","time":"2009/11/22 22:21:35 -0500"},"geo_score":0.902,"unit":"61","disposition":200,"cfs":5,"call#":9.011374,"id":"a62t26f34t3x","geo_precision":"range","address":"251 Main St","state":"OH","juris":"PD"},"type":"Feature","geometry":{"type":"Point","coordinates":[-83.164041,41.112368]}},{"properties":{"officer":"LMK","city":"Tiffin","zip":"44883","date":{"end_time":"2009/11/22 04:48:55 -0500","original":"11/22/2009 4:48:54 AM","granularity":"sec","time":"2009/11/22 04:48:54 -0500"},"geo_score":0.902,"unit":"63","disposition":200,"cfs":5,"call#":9.011349,"id":"a62t26ay0926","geo_precision":"range","address":"68 Riverside Dr","state":"OH","juris":"PD"},"type":"Feature","geometry":{"type":"Point","coordinates":[-83.175127,41.11816]}},{"properties":{"officer":"DES","city":"Tiffin","zip":"44883","date":{"end_time":"2009/11/19 12:02:13 -0500","original":"11/19/2009 12:02:12 PM","granularity":"sec","time":"2009/11/19 12:02:12 -0500"},"geo_score":0.805,"unit":"61","disposition":200,"cfs":5,"call#":9.011253,"id":"a62t268tz01a","geo_precision":"street","address":"99 Union St","state":"OH","juris":"PD"},"type":"Feature","geometry":{"type":"Point","coordinates":[-83.180629,41.107721]}},{"properties":{"officer":"RJO","city":"Tiffin","zip":"44883","date":{"end_time":"2009/11/17 15:59:45 -0500","original":"11/17/2009 3:59:44 PM","granularity":"sec","time":"2009/11/17 15:59:44 -0500"},"geo_score":0.902,"unit":"57","disposition":200,"cfs":5,"call#":9.011212,"id":"a62t263mddz2","geo_precision":"range","address":"255 Main St","state":"OH","juris":"PD"},"type":"Feature","geometry":{"type":"Point","coordinates":[-83.164025,41.11237]}},{"properties":{"officer":"DGH","city":"Tiffin","zip":"44883","date":{"end_time":"2009/11/16 13:45:26 -0500","original":"11/16/2009 1:45:25 PM","granularity":"sec","time":"2009/11/16 13:45:25 -0500"},"geo_score":0.902,"unit":"63","disposition":200,"cfs":5,"call#":9.01119,"id":"a62t265ubm57","geo_precision":"range","address":"423 N Sandusky St","state":"OH","juris":"PD"},"type":"Feature","geometry":{"type":"Point","coordinates":[-83.175408,41.129949]}},{"properties":{"officer":"DES","city":"Tiffin","zip":"44883","date":{"end_time":"2009/11/15 10:55:50 -0500","original":"11/15/2009 10:55:49 AM","granularity":"sec","time":"2009/11/15 10:55:49 -0500"},"geo_score":0.866,"unit":"61","disposition":200,"cfs":5,"call#":9.011165,"id":"a62t268xpzmi","geo_precision":"range","address":"260 Grand Av","state":"OH","juris":"PD"},"type":"Feature","geometry":{"type":"Point","coordinates":[-83.173903,41.133949]}},{"properties":{"officer":"MAM","city":"Tiffin","zip":"44883","date":{"end_time":"2009/11/12 12:23:22 -0500","original":"11/12/2009 12:23:21 PM","granularity":"sec","time":"2009/11/12 12:23:21 -0500"},"geo_score":0.805,"unit":"58","disposition":200,"cfs":5,"call#":9.011041,"id":"a62t263ysbjc","geo_precision":"street","address":"398 N Washington St","state":"OH","juris":"PD"},"type":"Feature","geometry":{"type":"Point","coordinates":[-83.17864,41.128983]}},{"properties":{"officer":"SGN","city":"Tiffin","zip":"44883","date":{"end_time":"2009/11/10 10:19:44 -0500","original":"11/10/2009 10:19:43 AM","granularity":"sec","time":"2009/11/10 10:19:43 -0500"},"geo_score":0.902,"unit":"62","disposition":200,"cfs":5,"call#":9.010985,"id":"a62t26702bhk","geo_precision":"range","address":"151 Minerva St","state":"OH","juris":"PD"},"type":"Feature","geometry":{"type":"Point","coordinates":[-83.176527,41.124689]}},{"properties":{"officer":"DGH","city":"Tiffin","zip":"44883","date":{"end_time":"2009/11/09 09:23:02 -0500","original":"11/9/2009 9:23:01 AM","granularity":"sec","time":"2009/11/09 09:23:01 -0500"},"geo_score":0.902,"unit":"63","disposition":200,"cfs":5,"call#":9.010951,"id":"a62t262ld561","geo_precision":"range","address":"246 Clay St","state":"OH","juris":"PD"},"type":"Feature","geometry":{"type":"Point","coordinates":[-83.187644,41.118654]}},{"properties":{"officer":"JPF","city":"Tiffin","zip":"44883","date":{"end_time":"2009/11/07 08:29:39 -0500","original":"11/7/2009 8:29:38 AM","granularity":"sec","time":"2009/11/07 08:29:38 -0500"},"geo_score":0.805,"unit":"58","disposition":200,"cfs":5,"call#":9.010893,"id":"a62t264hemp2","geo_precision":"street","address":"398 N Washington St","state":"OH","juris":"PD"},"type":"Feature","geometry":{"type":"Point","coordinates":[-83.17864,41.128983]}},{"properties":{"officer":"SMM","city":"Tiffin","zip":"44883","date":{"end_time":"2009/11/05 20:30:41 -0500","original":"11/5/2009 8:30:40 PM","granularity":"sec","time":"2009/11/05 20:30:40 -0500"},"geo_score":0.902,"unit":"58","disposition":200,"cfs":5,"call#":9.010853,"id":"a62t2658tsx7","geo_precision":"range","address":"205 E Market St","state":"OH","juris":"PD"},"type":"Feature","geometry":{"type":"Point","coordinates":[-83.172198,41.114978]}},{"properties":{"officer":"MAM","city":"Tiffin","zip":"44883","date":{"end_time":"2009/11/05 10:38:38 -0500","original":"11/5/2009 10:38:37 AM","granularity":"sec","time":"2009/11/05 10:38:37 -0500"},"geo_score":0.902,"unit":"58","disposition":200,"cfs":5,"call#":9.010833,"id":"a62t26h9ix1v","geo_precision":"range","address":"137 Minerva St","state":"OH","juris":"PD"},"type":"Feature","geometry":{"type":"Point","coordinates":[-83.176448,41.124271]}},{"properties":{"officer":"MEM","city":"Tiffin","zip":"44883","date":{"end_time":"2009/11/05 03:41:21 -0500","original":"11/5/2009 3:41:20 AM","granularity":"sec","time":"2009/11/05 03:41:20 -0500"},"geo_score":0.876,"unit":"62","disposition":200,"cfs":5,"call#":9.010824,"id":"a62t267tvecg","geo_precision":"range","address":"5 Fairview Av","state":"OH","juris":"PD"},"type":"Feature","geometry":{"type":"Point","coordinates":[-83.187146,41.116289]}},{"properties":{"officer":"SGN","city":"Tiffin","zip":"44883","date":{"end_time":"2009/11/04 13:33:10 -0500","original":"11/4/2009 1:33:09 PM","granularity":"sec","time":"2009/11/04 13:33:09 -0500"},"geo_score":0.873,"unit":"62","disposition":200,"cfs":5,"call#":9.010807,"id":"a62t26crrw0h","geo_precision":"range","address":"161 Lindsay Av","state":"OH","juris":"PD"},"type":"Feature","geometry":{"type":"Point","coordinates":[-83.196362,41.111062]}},{"properties":{"officer":"MAM","city":"Tiffin","zip":"44883","date":{"end_time":"2009/11/04 09:38:14 -0500","original":"11/4/2009 9:38:13 AM","granularity":"sec","time":"2009/11/04 09:38:13 -0500"},"geo_score":0.902,"unit":"58","disposition":200,"cfs":5,"call#":9.0108,"id":"a62t26g35iep","geo_precision":"range","address":"243 Wentz St","state":"OH","juris":"PD"},"type":"Feature","geometry":{"type":"Point","coordinates":[-83.194552,41.115313]}},{"properties":{"officer":"SMM","city":"Tiffin","zip":"44883","date":{"end_time":"2009/11/03 23:21:12 -0500","original":"11/3/2009 11:21:11 PM","granularity":"sec","time":"2009/11/03 23:21:11 -0500"},"geo_score":0.902,"unit":"58","disposition":200,"cfs":5,"call#":9.010791,"id":"a62t268ec41j","geo_precision":"range","address":"95X Melmore St","state":"OH","juris":"PD"},"type":"Feature","geometry":{"type":"Point","coordinates":[-83.173501,41.107286]}},{"properties":{"officer":"JPF","city":"Tiffin","zip":"44883","date":{"end_time":"2009/10/30 12:22:38 -0400","original":"10/30/2009 12:22:37 PM","granularity":"sec","time":"2009/10/30 12:22:37 -0400"},"geo_score":0.902,"unit":"63","disposition":200,"cfs":5,"call#":9.01064,"id":"a62t2688b5ib","geo_precision":"range","address":"255 Main St","state":"OH","juris":"PD"},"type":"Feature","geometry":{"type":"Point","coordinates":[-83.164025,41.11237]}},{"properties":{"officer":"MEM","city":"Tiffin","zip":"44883","date":{"end_time":"2009/10/29 21:15:13 -0400","original":"10/29/2009 9:15:12 PM","granularity":"sec","time":"2009/10/29 21:15:12 -0400"},"geo_score":0.902,"unit":"61","disposition":200,"cfs":5,"call#":9.010623,"id":"a62t264nhhr5","geo_precision":"range","address":"211 S Monroe St","state":"OH","juris":"PD"},"type":"Feature","geometry":{"type":"Point","coordinates":[-83.177595,41.110724]}},{"properties":{"officer":"MAM","city":"Tiffin","zip":"44883","date":{"end_time":"2009/10/23 14:17:56 -0400","original":"10/23/2009 2:17:55 PM","granularity":"sec","time":"2009/10/23 14:17:55 -0400"},"geo_score":0.902,"unit":"58","disposition":200,"cfs":5,"call#":9.010423,"id":"a62t26a55buf","geo_precision":"range","address":"251 Main St","state":"OH","juris":"PD"},"type":"Feature","geometry":{"type":"Point","coordinates":[-83.164041,41.112368]}},{"properties":{"officer":"JAD","city":"Tiffin","zip":"44883","date":{"end_time":"2009/10/22 21:31:28 -0400","original":"10/22/2009 9:31:27 PM","granularity":"sec","time":"2009/10/22 21:31:27 -0400"},"geo_score":0.902,"unit":"56","disposition":400,"cfs":5,"call#":9.010403,"id":"a62t268bso9x","geo_precision":"range","address":"102 Erie St","state":"OH","juris":"PD"},"type":"Feature","geometry":{"type":"Point","coordinates":[-83.174731,41.123544]}},{"properties":{"officer":"LMK","city":"Tiffin","zip":"44883","date":{"end_time":"2009/10/20 20:51:24 -0400","original":"10/20/2009 8:51:23 PM","granularity":"sec","time":"2009/10/20 20:51:23 -0400"},"geo_score":0.902,"unit":"57","disposition":200,"cfs":5,"call#":9.010315,"id":"a62t26da7gvm","geo_precision":"range","address":"255 Main St","state":"OH","juris":"PD"},"type":"Feature","geometry":{"type":"Point","coordinates":[-83.164025,41.11237]}},{"properties":{"officer":"SWK","city":"Tiffin","zip":"44883","date":{"end_time":"2009/10/20 18:52:04 -0400","original":"10/20/2009 6:52:03 PM","granularity":"sec","time":"2009/10/20 18:52:03 -0400"},"geo_score":0.902,"unit":"61","disposition":200,"cfs":5,"call#":9.01031,"id":"a62t26ez4cgh","geo_precision":"range","address":"24 Miami St","state":"OH","juris":"PD"},"type":"Feature","geometry":{"type":"Point","coordinates":[-83.180098,41.117058]}},{"properties":{"officer":"SMM","city":"Tiffin","zip":"44883","date":{"end_time":"2009/10/20 17:48:56 -0400","original":"10/20/2009 5:48:55 PM","granularity":"sec","time":"2009/10/20 17:48:55 -0400"},"geo_score":0.902,"unit":"58","disposition":200,"cfs":5,"call#":9.010308,"id":"a62t26famtrt","geo_precision":"range","address":"167 Main St","state":"OH","juris":"PD"},"type":"Feature","geometry":{"type":"Point","coordinates":[-83.168532,41.111997]}},{"properties":{"officer":"SGN","city":"Tiffin","zip":"44883","date":{"end_time":"2009/10/20 13:29:10 -0400","original":"10/20/2009 1:29:09 PM","granularity":"sec","time":"2009/10/20 13:29:09 -0400"},"geo_score":0.902,"unit":"62","disposition":200,"cfs":5,"call#":9.010301,"id":"a62t2625ke5b","geo_precision":"range","address":"167 Main St","state":"OH","juris":"PD"},"type":"Feature","geometry":{"type":"Point","coordinates":[-83.168532,41.111997]}},{"properties":{"officer":"SGN","city":"Tiffin","zip":"44883","date":{"end_time":"2009/10/20 13:25:02 -0400","original":"10/20/2009 1:25:01 PM","granularity":"sec","time":"2009/10/20 13:25:01 -0400"},"geo_score":0.902,"unit":"62","disposition":200,"cfs":5,"call#":9.0103,"id":"a62t26azrqii","geo_precision":"range","address":"167 Main St","state":"OH","juris":"PD"},"type":"Feature","geometry":{"type":"Point","coordinates":[-83.168532,41.111997]}},{"properties":{"officer":"SGN","city":"Tiffin","zip":"44883","date":{"end_time":"2009/10/20 12:17:52 -0400","original":"10/20/2009 12:17:51 PM","granularity":"sec","time":"2009/10/20 12:17:51 -0400"},"geo_score":0.902,"unit":"62","disposition":200,"cfs":5,"call#":9.010294,"id":"a62t2672djmw","geo_precision":"range","address":"167 Main St","state":"OH","juris":"PD"},"type":"Feature","geometry":{"type":"Point","coordinates":[-83.168532,41.111997]}},{"properties":{"officer":"LMK","city":"Tiffin","zip":"44883","date":{"end_time":"2009/10/20 00:46:32 -0400","original":"10/20/2009 12:46:31 AM","granularity":"sec","time":"2009/10/20 00:46:31 -0400"},"geo_score":0.902,"unit":"57","disposition":200,"cfs":5,"call#":9.010279,"id":"a62t26garpol","geo_precision":"range","address":"278 Charlotte St","state":"OH","juris":"PD"},"type":"Feature","geometry":{"type":"Point","coordinates":[-83.187661,41.109483]}},{"properties":{"officer":"RJO","city":"Tiffin","zip":"44883","date":{"end_time":"2009/10/19 13:02:13 -0400","original":"10/19/2009 1:02:12 PM","granularity":"sec","time":"2009/10/19 13:02:12 -0400"},"geo_score":0.902,"unit":"57","disposition":200,"cfs":5,"call#":9.010263,"id":"a62t263leayd","geo_precision":"range","address":"167 Main St","state":"OH","juris":"PD"},"type":"Feature","geometry":{"type":"Point","coordinates":[-83.168532,41.111997]}},{"properties":{"officer":"JPF","city":"Tiffin","zip":"44883","date":{"end_time":"2009/10/16 15:24:34 -0400","original":"10/16/2009 3:24:33 PM","granularity":"sec","time":"2009/10/16 15:24:33 -0400"},"geo_score":0.902,"unit":"59","disposition":200,"cfs":5,"call#":9.010169,"id":"a62t26e680uu","geo_precision":"range","address":"36 Maple St","state":"OH","juris":"PD"},"type":"Feature","geometry":{"type":"Point","coordinates":[-83.184298,41.112965]}},{"properties":{"officer":"SMM","city":"Tiffin","zip":"44883","date":{"end_time":"2009/10/07 18:12:14 -0400","original":"10/7/2009 6:12:13 PM","granularity":"sec","time":"2009/10/07 18:12:13 -0400"},"geo_score":0.902,"unit":"58","disposition":200,"cfs":5,"call#":9.009875,"id":"a62t26cou7gj","geo_precision":"range","address":"172 N Sandusky St","state":"OH","juris":"PD"},"type":"Feature","geometry":{"type":"Point","coordinates":[-83.179692,41.124051]}},{"properties":{"officer":"RLT","city":"Tiffin","zip":"44883","date":{"end_time":"2009/10/02 23:42:18 -0400","original":"10/2/2009 11:42:17 PM","granularity":"sec","time":"2009/10/02 23:42:17 -0400"},"geo_score":0.902,"unit":"59","disposition":100,"cfs":5,"call#":9.009712,"id":"a62t266fdfru","geo_precision":"range","address":"262 N Washington St","state":"OH","juris":"PD"},"type":"Feature","geometry":{"type":"Point","coordinates":[-83.178189,41.125019]}},{"properties":{"officer":"GTM","city":"Tiffin","zip":"44883","date":{"end_time":"2009/09/26 05:36:12 -0400","original":"9/26/2009 5:36:11 AM","granularity":"sec","time":"2009/09/26 05:36:11 -0400"},"geo_score":0.902,"unit":"57","disposition":200,"cfs":5,"call#":9.009474,"id":"a62t26c6oy5x","geo_precision":"range","address":"283 S Washington St","state":"OH","juris":"PD"},"type":"Feature","geometry":{"type":"Point","coordinates":[-83.175825,41.10983]}},{"properties":{"officer":"SWK","city":"Tiffin","zip":"44883","date":{"end_time":"2009/09/23 17:32:09 -0400","original":"9/23/2009 5:32:08 PM","granularity":"sec","time":"2009/09/23 17:32:08 -0400"},"geo_score":0.902,"unit":"61","disposition":200,"cfs":5,"call#":9.009374,"id":"a62t26gmebfc","geo_precision":"range","address":"264 Main St","state":"OH","juris":"PD"},"type":"Feature","geometry":{"type":"Point","coordinates":[-83.165527,41.112304]}},{"properties":{"officer":"JPF","city":"Tiffin","zip":"44883","date":{"end_time":"2009/09/21 11:27:21 -0400","original":"9/21/2009 11:27:20 AM","granularity":"sec","time":"2009/09/21 11:27:20 -0400"},"geo_score":0.876,"unit":"59","disposition":200,"cfs":5,"call#":9.009312,"id":"a62t2694ckxs","geo_precision":"range","address":"12 Virginia Av","state":"OH","juris":"PD"},"type":"Feature","geometry":{"type":"Point","coordinates":[-83.192037,41.115543]}},{"properties":{"officer":"JMW","city":"Tiffin","zip":"44883","date":{"end_time":"2009/09/20 20:21:19 -0400","original":"9/20/2009 8:21:18 PM","granularity":"sec","time":"2009/09/20 20:21:18 -0400"},"geo_score":0.902,"unit":"57","disposition":200,"cfs":5,"call#":9.009295,"id":"a62t26fy5tq8","geo_precision":"range","address":"205 E Market St","state":"OH","juris":"PD"},"type":"Feature","geometry":{"type":"Point","coordinates":[-83.172198,41.114978]}},{"properties":{"officer":"JPF","city":"Tiffin","zip":"44883","date":{"end_time":"2009/09/19 10:40:24 -0400","original":"9/19/2009 10:40:23 AM","granularity":"sec","time":"2009/09/19 10:40:23 -0400"},"geo_score":0.902,"unit":"63","disposition":200,"cfs":5,"call#":9.009231,"id":"a62t26b1so0a","geo_precision":"range","address":"126 S Washington St","state":"OH","juris":"PD"},"type":"Feature","geometry":{"type":"Point","coordinates":[-83.176503,41.114043]}},{"properties":{"officer":"JPF","city":"Tiffin","zip":"44883","date":{"end_time":"2009/09/13 11:31:45 -0400","original":"9/13/2009 11:31:44 AM","granularity":"sec","time":"2009/09/13 11:31:44 -0400"},"geo_score":0.902,"unit":"59","disposition":200,"cfs":5,"call#":9.00901,"id":"a62t262lme48","geo_precision":"range","address":"421 W Adams St","state":"OH","juris":"PD"},"type":"Feature","geometry":{"type":"Point","coordinates":[-83.194161,41.121972]}},{"properties":{"officer":"JPF","city":"Tiffin","zip":"44883","date":{"end_time":"2009/09/11 17:57:04 -0400","original":"9/11/2009 5:57:03 PM","granularity":"sec","time":"2009/09/11 17:57:03 -0400"},"geo_score":0.902,"unit":"63","disposition":200,"cfs":5,"call#":9.008948,"id":"a62t26fkmto8","geo_precision":"range","address":"292 Noble St","state":"OH","juris":"PD"},"type":"Feature","geometry":{"type":"Point","coordinates":[-83.183717,41.123875]}},{"properties":{"officer":"RLT","city":"Tiffin","zip":"44883","date":{"end_time":"2009/09/06 22:08:51 -0400","original":"9/6/2009 10:08:50 PM","granularity":"sec","time":"2009/09/06 22:08:50 -0400"},"geo_score":0.902,"unit":"57","disposition":200,"cfs":5,"call#":9.008815,"id":"a62t261e2lmb","geo_precision":"range","address":"686 S Sandusky St,84","state":"OH","juris":"PD"},"type":"Feature","geometry":{"type":"Point","coordinates":[-83.184046,41.117547]}},{"properties":{"officer":"LMK","city":"Tiffin","zip":"44883","date":{"end_time":"2009/09/06 22:06:23 -0400","original":"9/6/2009 10:06:22 PM","granularity":"sec","time":"2009/09/06 22:06:22 -0400"},"geo_score":0.902,"unit":"62","disposition":200,"cfs":5,"call#":9.008814,"id":"a62t2611jf8h","geo_precision":"range","address":"859 Miami St,12","state":"OH","juris":"PD"},"type":"Feature","geometry":{"type":"Point","coordinates":[-83.179744,41.116874]}},{"properties":{"officer":"RLT","city":"Tiffin","zip":"44883","date":{"end_time":"2009/09/06 21:38:08 -0400","original":"9/6/2009 9:38:07 PM","granularity":"sec","time":"2009/09/06 21:38:07 -0400"},"geo_score":0.902,"unit":"57","disposition":200,"cfs":5,"call#":9.008813,"id":"a62t269vuks6","geo_precision":"range","address":"686 S Sandusky St,98","state":"OH","juris":"PD"},"type":"Feature","geometry":{"type":"Point","coordinates":[-83.18444,41.117185]}},{"properties":{"officer":"JMW","city":"Tiffin","zip":"44883","date":{"end_time":"2009/09/06 16:41:42 -0400","original":"9/6/2009 4:41:41 PM","granularity":"sec","time":"2009/09/06 16:41:41 -0400"},"geo_score":0.902,"unit":"58","disposition":200,"cfs":5,"call#":9.008799,"id":"a62t2697r1ex","geo_precision":"range","address":"77 Huss St","state":"OH","juris":"PD"},"type":"Feature","geometry":{"type":"Point","coordinates":[-83.168485,41.131115]}},{"properties":{"officer":"REB","city":"Tiffin","zip":"44883","date":{"end_time":"2009/09/06 12:54:33 -0400","original":"9/6/2009 12:54:32 PM","granularity":"sec","time":"2009/09/06 12:54:32 -0400"},"geo_score":0.902,"unit":"59","disposition":100,"cfs":5,"call#":9.008794,"id":"a62t26ep8mv8","geo_precision":"range","address":"240 N Washington St","state":"OH","juris":"PD"},"type":"Feature","geometry":{"type":"Point","coordinates":[-83.178131,41.124531]}},{"properties":{"officer":"JMW","city":"Tiffin","zip":"44883","date":{"end_time":"2009/09/05 22:12:44 -0400","original":"9/5/2009 10:12:43 PM","granularity":"sec","time":"2009/09/05 22:12:43 -0400"},"geo_score":0.902,"unit":"57","disposition":100,"cfs":5,"call#":9.008767,"id":"a62t263mks4i","geo_precision":"range","address":"72 N Monroe St,9","state":"OH","juris":"PD"},"type":"Feature","geometry":{"type":"Point","coordinates":[-83.178678,41.117725]}},{"properties":{"officer":"DES","city":"Tiffin","zip":"44883","date":{"end_time":"2009/08/29 14:24:16 -0400","original":"8/29/2009 2:24:15 PM","granularity":"sec","time":"2009/08/29 14:24:15 -0400"},"geo_score":0.902,"unit":"61","disposition":200,"cfs":5,"call#":9.008474,"id":"a62t265jt0y6","geo_precision":"range","address":"859 Miami St,36","state":"OH","juris":"PD"},"type":"Feature","geometry":{"type":"Point","coordinates":[-83.180453,41.117242]}},{"properties":{"officer":"DES","city":"Tiffin","zip":"44883","date":{"end_time":"2009/08/29 10:32:22 -0400","original":"8/29/2009 10:32:21 AM","granularity":"sec","time":"2009/08/29 10:32:21 -0400"},"geo_score":0.902,"unit":"61","disposition":200,"cfs":5,"call#":9.008465,"id":"a62t265qesgf","geo_precision":"range","address":"110 Thomas St","state":"OH","juris":"PD"},"type":"Feature","geometry":{"type":"Point","coordinates":[-83.171191,41.129908]}},{"properties":{"officer":"DES","city":"Tiffin","zip":"44883","date":{"end_time":"2009/08/28 08:46:33 -0400","original":"8/28/2009 8:46:32 AM","granularity":"sec","time":"2009/08/28 08:46:32 -0400"},"geo_score":0.902,"unit":"61","disposition":200,"cfs":5,"call#":9.008416,"id":"a62t26c34suj","geo_precision":"range","address":"530 Miami St","state":"OH","juris":"PD"},"type":"Feature","geometry":{"type":"Point","coordinates":[-83.199513,41.117409]}},{"properties":{"officer":"DES","city":"Tiffin","zip":"44883","date":{"end_time":"2009/08/27 11:28:12 -0400","original":"8/27/2009 11:28:11 AM","granularity":"sec","time":"2009/08/27 11:28:11 -0400"},"geo_score":0.902,"unit":"61","disposition":200,"cfs":5,"call#":9.008378,"id":"a62t26e7dtkx","geo_precision":"range","address":"78 Elmer St","state":"OH","juris":"PD"},"type":"Feature","geometry":{"type":"Point","coordinates":[-83.19355,41.115286]}},{"properties":{"officer":"SWK","city":"Tiffin","zip":"44883","date":{"end_time":"2009/08/27 01:51:59 -0400","original":"8/27/2009 1:51:58 AM","granularity":"sec","time":"2009/08/27 01:51:58 -0400"},"geo_score":0.902,"unit":"61","disposition":200,"cfs":5,"call#":9.008363,"id":"a62t261b8ril","geo_precision":"range","address":"66 Charlotte St","state":"OH","juris":"PD"},"type":"Feature","geometry":{"type":"Point","coordinates":[-83.178163,41.110346]}},{"properties":{"officer":"PJD","city":"Tiffin","zip":"44883","date":{"end_time":"2009/08/23 23:40:14 -0400","original":"8/23/2009 11:40:13 PM","granularity":"sec","time":"2009/08/23 23:40:13 -0400"},"geo_score":0.902,"unit":"57","disposition":450,"cfs":5,"call#":9.008255,"id":"a62t26d28q6u","geo_precision":"range","address":"353 N Washington St","state":"OH","juris":"PD"},"type":"Feature","geometry":{"type":"Point","coordinates":[-83.178611,41.127624]}},{"properties":{"officer":"LMK","city":"Tiffin","zip":"44883","date":{"end_time":"2009/08/23 03:03:02 -0400","original":"8/23/2009 3:03:01 AM","granularity":"sec","time":"2009/08/23 03:03:01 -0400"},"geo_score":0.857,"unit":"63","disposition":200,"cfs":5,"call#":9.00823,"id":"a62t266g15f3","geo_precision":"street","address":"W Perry St/Benner St","state":"OH","juris":"PD"},"type":"Feature","geometry":{"type":"Point","coordinates":[-83.178861,41.118824]}},{"properties":{"officer":"JPF","city":"Tiffin","zip":"44883","date":{"end_time":"2009/08/18 09:32:46 -0400","original":"8/18/2009 9:32:45 AM","granularity":"sec","time":"2009/08/18 09:32:45 -0400"},"geo_score":0.902,"unit":"59","disposition":200,"cfs":5,"call#":9.008023,"id":"a62t26cgr282","geo_precision":"range","address":"22 Miami St","state":"OH","juris":"PD"},"type":"Feature","geometry":{"type":"Point","coordinates":[-83.180039,41.117027]}},{"properties":{"officer":"LMK","city":"Tiffin","zip":"44883","date":{"end_time":"2009/08/15 22:45:41 -0400","original":"8/15/2009 10:45:40 PM","granularity":"sec","time":"2009/08/15 22:45:40 -0400"},"geo_score":0.876,"unit":"62","disposition":200,"cfs":5,"call#":9.007957,"id":"a62t267dzfzf","geo_precision":"range","address":"64 Virginia Av","state":"OH","juris":"PD"},"type":"Feature","geometry":{"type":"Point","coordinates":[-83.190519,41.115957]}},{"properties":{"officer":"RJO","city":"Tiffin","zip":"44883","date":{"end_time":"2009/08/10 15:35:19 -0400","original":"8/10/2009 3:35:18 PM","granularity":"sec","time":"2009/08/10 15:35:18 -0400"},"geo_score":0.902,"unit":"57","disposition":200,"cfs":5,"call#":9.007772,"id":"a62t26deytpv","geo_precision":"range","address":"63 Linwood Rd","state":"OH","juris":"PD"},"type":"Feature","geometry":{"type":"Point","coordinates":[-83.161988,41.099311]}},{"properties":{"officer":"JDW","city":"Tiffin","zip":"44883","date":{"end_time":"2009/08/08 19:34:37 -0400","original":"8/8/2009 7:34:36 PM","granularity":"sec","time":"2009/08/08 19:34:36 -0400"},"geo_score":0.902,"unit":"648","disposition":100,"cfs":5,"call#":9.007725,"id":"a62t2634l6kh","geo_precision":"range","address":"16X E Market St","state":"OH","juris":"PD"},"type":"Feature","geometry":{"type":"Point","coordinates":[-83.179228,41.114348]}},{"properties":{"officer":"JPF","city":"Tiffin","zip":"44883","date":{"end_time":"2009/08/07 08:38:17 -0400","original":"8/7/2009 8:38:16 AM","granularity":"sec","time":"2009/08/07 08:38:16 -0400"},"geo_score":0.78,"unit":"59","disposition":100,"cfs":5,"call#":9.007665,"id":"a62t264p7hn0","geo_precision":"range","address":"870 W Market St","state":"OH","juris":"PD"},"type":"Feature","geometry":{"type":"Point","coordinates":[-83.207559,41.111141]}},{"properties":{"officer":"DGH","city":"Tiffin","zip":"44883","date":{"end_time":"2009/08/05 07:38:13 -0400","original":"8/5/2009 7:38:12 AM","granularity":"sec","time":"2009/08/05 07:38:12 -0400"},"geo_score":0.902,"unit":"63","disposition":200,"cfs":5,"call#":9.007595,"id":"a62t26738jft","geo_precision":"range","address":"1530 W Market St","state":"OH","juris":"PD"},"type":"Feature","geometry":{"type":"Point","coordinates":[-83.202505,41.111985]}},{"properties":{"officer":"EDA","city":"Tiffin","zip":"44883","date":{"end_time":"2009/07/30 18:18:05 -0400","original":"7/30/2009 6:18:04 PM","granularity":"sec","time":"2009/07/30 18:18:04 -0400"},"geo_score":0.902,"unit":"58","disposition":200,"cfs":5,"call#":9.007385,"id":"a62t263cfjrs","geo_precision":"range","address":"22 Sycamore St","state":"OH","juris":"PD"},"type":"Feature","geometry":{"type":"Point","coordinates":[-83.176134,41.109068]}},{"properties":{"officer":"PJD","city":"Tiffin","zip":"44883","date":{"end_time":"2009/07/29 04:42:32 -0400","original":"7/29/2009 4:42:31 AM","granularity":"sec","time":"2009/07/29 04:42:31 -0400"},"geo_score":0.902,"unit":"58","disposition":200,"cfs":5,"call#":9.007322,"id":"a62t26fn82n9","geo_precision":"range","address":"162 Thomas St","state":"OH","juris":"PD"},"type":"Feature","geometry":{"type":"Point","coordinates":[-83.169067,41.129926]}},{"properties":{"officer":"RLT","city":"Tiffin","zip":"44883","date":{"end_time":"2009/07/27 21:35:37 -0400","original":"7/27/2009 9:35:36 PM","granularity":"sec","time":"2009/07/27 21:35:36 -0400"},"geo_score":0.902,"unit":"1000","disposition":200,"cfs":5,"call#":9.00728,"id":"a62t26ep9uos","geo_precision":"range","address":"40X N Washington St","state":"OH","juris":"PD"},"type":"Feature","geometry":{"type":"Point","coordinates":[-83.177211,41.118721]}},{"properties":{"officer":"JMW","city":"Tiffin","zip":"44883","date":{"end_time":"2009/07/27 19:37:03 -0400","original":"7/27/2009 7:37:02 PM","granularity":"sec","time":"2009/07/27 19:37:02 -0400"},"geo_score":0.902,"unit":"60","disposition":200,"cfs":5,"call#":9.007279,"id":"a62t26dgwfeo","geo_precision":"range","address":"74 Gross St","state":"OH","juris":"PD"},"type":"Feature","geometry":{"type":"Point","coordinates":[-83.167847,41.104465]}},{"properties":{"officer":"EDA","city":"Tiffin","zip":"44883","date":{"end_time":"2009/07/24 15:09:59 -0400","original":"7/24/2009 3:09:58 PM","granularity":"sec","time":"2009/07/24 15:09:58 -0400"},"geo_score":0.902,"unit":"FS1","disposition":200,"cfs":5,"call#":9.00716,"id":"a62t26599tx5","geo_precision":"range","address":"164 Hall St","state":"OH","juris":"PD"},"type":"Feature","geometry":{"type":"Point","coordinates":[-83.182993,41.122848]}},{"properties":{"officer":"EDA","city":"Tiffin","zip":"44883","date":{"end_time":"2009/07/23 17:24:43 -0400","original":"7/23/2009 5:24:42 PM","granularity":"sec","time":"2009/07/23 17:24:42 -0400"},"geo_score":0.902,"unit":"58","disposition":200,"cfs":5,"call#":9.007124,"id":"a62t269e6qau","geo_precision":"range","address":"22 Sycamore St","state":"OH","juris":"PD"},"type":"Feature","geometry":{"type":"Point","coordinates":[-83.176134,41.109068]}},{"properties":{"officer":"JSC","city":"Tiffin","zip":"44883","date":{"end_time":"2009/07/21 19:43:53 -0400","original":"7/21/2009 7:43:52 PM","granularity":"sec","time":"2009/07/21 19:43:52 -0400"},"geo_score":0.902,"unit":"58","disposition":100,"cfs":5,"call#":9.007073,"id":"a62t26css4bz","geo_precision":"range","address":"455 E Market St","state":"OH","juris":"PD"},"type":"Feature","geometry":{"type":"Point","coordinates":[-83.164927,41.119266]}},{"properties":{"officer":"RAG","city":"Tiffin","zip":"44883","date":{"end_time":"2009/07/21 12:57:49 -0400","original":"7/21/2009 12:57:48 PM","granularity":"sec","time":"2009/07/21 12:57:48 -0400"},"geo_score":0.902,"unit":"59","disposition":100,"cfs":5,"call#":9.007063,"id":"a62t26a9zp5a","geo_precision":"range","address":"127 Jackson St","state":"OH","juris":"PD"},"type":"Feature","geometry":{"type":"Point","coordinates":[-83.186334,41.116976]}},{"properties":{"officer":"JMW","city":"Tiffin","zip":"44883","date":{"end_time":"2009/07/20 19:49:58 -0400","original":"7/20/2009 7:49:57 PM","granularity":"sec","time":"2009/07/20 19:49:57 -0400"},"geo_score":0.876,"unit":"60","disposition":200,"cfs":5,"call#":9.007034,"id":"a62t267ffcjv","geo_precision":"range","address":"7 Fairview Av","state":"OH","juris":"PD"},"type":"Feature","geometry":{"type":"Point","coordinates":[-83.186939,41.116665]}},{"properties":{"officer":"DGH","city":"Tiffin","zip":"44883","date":{"end_time":"2009/07/20 13:42:30 -0400","original":"7/20/2009 1:42:29 PM","granularity":"sec","time":"2009/07/20 13:42:29 -0400"},"geo_score":0.756,"unit":"63","disposition":200,"cfs":5,"call#":9.00702,"id":"a62t2677rzko","geo_precision":"range","address":"265 Sixth Av","state":"OH","juris":"PD"},"type":"Feature","geometry":{"type":"Point","coordinates":[-83.183327,41.132178]}},{"properties":{"officer":"EDA","city":"Tiffin","zip":"44883","date":{"end_time":"2009/07/19 19:38:00 -0400","original":"7/19/2009 7:37:00 PM","granularity":"min","time":"2009/07/19 19:37:00 -0400"},"geo_score":0.429,"unit":"63","disposition":100,"cfs":5,"call#":9.00699,"id":"a62t267h3t7b","geo_precision":"street","address":"39 W Perry St,B","state":"OH","juris":"PD"},"type":"Feature","geometry":{"type":"Point","coordinates":[-83.178368,41.11568]}},{"properties":{"officer":"FWS","city":"Tiffin","zip":"44883","date":{"end_time":"2009/07/15 15:01:37 -0400","original":"7/15/2009 3:01:36 PM","granularity":"sec","time":"2009/07/15 15:01:36 -0400"},"geo_score":0.902,"unit":"57","disposition":200,"cfs":5,"call#":9.006793,"id":"a62t26egnlkx","geo_precision":"range","address":"40 Jackson St","state":"OH","juris":"PD"},"type":"Feature","geometry":{"type":"Point","coordinates":[-83.187695,41.114569]}},{"properties":{"officer":"SMM","city":"Tiffin","zip":"44883","date":{"end_time":"2009/07/09 16:50:54 -0400","original":"7/9/2009 4:50:53 PM","granularity":"sec","time":"2009/07/09 16:50:53 -0400"},"geo_score":0.429,"unit":"59","disposition":200,"cfs":5,"call#":9.006553,"id":"a62t26eioxlq","geo_precision":"street","address":"157 Dallas St,G","state":"OH","juris":"PD"},"type":"Feature","geometry":{"type":"Point","coordinates":[-83.1693,41.106625]}},{"properties":{"officer":"BRB","city":"Tiffin","zip":"44883","date":{"end_time":"2009/07/07 02:00:03 -0400","original":"7/7/2009 2:00:02 AM","granularity":"sec","time":"2009/07/07 02:00:02 -0400"},"geo_score":0.902,"unit":"58","disposition":200,"cfs":5,"call#":9.006463,"id":"a62t26eii3hn","geo_precision":"range","address":"200 N Washington St","state":"OH","juris":"PD"},"type":"Feature","geometry":{"type":"Point","coordinates":[-83.177915,41.123391]}},{"properties":{"officer":"JMW","city":"Tiffin","zip":"44883","date":{"end_time":"2009/07/05 20:53:51 -0400","original":"7/5/2009 8:53:50 PM","granularity":"sec","time":"2009/07/05 20:53:50 -0400"},"geo_score":0.902,"unit":"60","disposition":200,"cfs":5,"call#":9.00642,"id":"a62t262stlkb","geo_precision":"range","address":"493 S Washington St","state":"OH","juris":"PD"},"type":"Feature","geometry":{"type":"Point","coordinates":[-83.174923,41.104108]}},{"properties":{"officer":"FWS","city":"Tiffin","zip":"44883","date":{"end_time":"2009/07/02 22:34:58 -0400","original":"7/2/2009 10:34:57 PM","granularity":"sec","time":"2009/07/02 22:34:57 -0400"},"geo_score":0.902,"unit":"57","disposition":200,"cfs":5,"call#":9.006303,"id":"a62t2655lu4w","geo_precision":"range","address":"270 Main St","state":"OH","juris":"PD"},"type":"Feature","geometry":{"type":"Point","coordinates":[-83.165373,41.112321]}},{"properties":{"officer":"SWK","city":"Tiffin","zip":"44883","date":{"end_time":"2009/07/01 17:33:47 -0400","original":"7/1/2009 5:33:46 PM","granularity":"sec","time":"2009/07/01 17:33:46 -0400"},"geo_score":0.902,"unit":"57","disposition":200,"cfs":5,"call#":9.006261,"id":"a62t262nh3lj","geo_precision":"range","address":"175 Jefferson St","state":"OH","juris":"PD"},"type":"Feature","geometry":{"type":"Point","coordinates":[-83.174644,41.112704]}},{"properties":{"officer":"LMK","city":"Tiffin","zip":"44883","date":{"end_time":"2009/06/27 23:19:28 -0400","original":"6/27/2009 11:19:27 PM","granularity":"sec","time":"2009/06/27 23:19:27 -0400"},"geo_score":0.902,"unit":"62","disposition":200,"cfs":5,"call#":9.00612,"id":"a62t261z4hlw","geo_precision":"range","address":"686 S Sandusky St,70","state":"OH","juris":"PD"},"type":"Feature","geometry":{"type":"Point","coordinates":[-83.183857,41.117908]}},{"properties":{"officer":"JPF","city":"Tiffin","zip":"44883","date":{"end_time":"2009/06/22 14:16:16 -0400","original":"6/22/2009 2:16:15 PM","granularity":"sec","time":"2009/06/22 14:16:15 -0400"},"geo_score":0.729,"unit":"59","disposition":200,"cfs":5,"call#":9.005912,"id":"a62t261oqtfr","geo_precision":"street","address":"Virginia Av/Melissa St","state":"OH","juris":"PD"},"type":"Feature","geometry":{"type":"Point","coordinates":[-83.191758,41.113127]}},{"properties":{"officer":"DES","city":"Tiffin","zip":"44883","date":{"end_time":"2009/06/18 13:47:47 -0400","original":"6/18/2009 1:47:46 PM","granularity":"sec","time":"2009/06/18 13:47:46 -0400"},"geo_score":0.902,"unit":"60","disposition":200,"cfs":5,"call#":9.005746,"id":"a62t263eqqw9","geo_precision":"range","address":"35 Northwood Dr","state":"OH","juris":"PD"},"type":"Feature","geometry":{"type":"Point","coordinates":[-83.212559,41.114344]}},{"properties":{"officer":"SGN","city":"Tiffin","zip":"44883","date":{"end_time":"2009/06/18 12:40:11 -0400","original":"6/18/2009 12:40:10 PM","granularity":"sec","time":"2009/06/18 12:40:10 -0400"},"geo_score":0.902,"unit":"62","disposition":200,"cfs":5,"call#":9.005741,"id":"a62t26f5onpe","geo_precision":"range","address":"124 Ann St","state":"OH","juris":"PD"},"type":"Feature","geometry":{"type":"Point","coordinates":[-83.170896,41.109882]}},{"properties":{"officer":"MAM","city":"Tiffin","zip":"44883","date":{"end_time":"2009/06/18 12:05:49 -0400","original":"6/18/2009 12:05:48 PM","granularity":"sec","time":"2009/06/18 12:05:48 -0400"},"geo_score":0.902,"unit":"58","disposition":200,"cfs":5,"call#":9.005739,"id":"a62t263e5t8c","geo_precision":"range","address":"250 Benner St","state":"OH","juris":"PD"},"type":"Feature","geometry":{"type":"Point","coordinates":[-83.183982,41.11469]}},{"properties":{"officer":"DES","city":"Tiffin","zip":"44883","date":{"end_time":"2009/06/18 07:12:43 -0400","original":"6/18/2009 7:12:42 AM","granularity":"sec","time":"2009/06/18 07:12:42 -0400"},"geo_score":0.902,"unit":"60","disposition":200,"cfs":5,"call#":9.005727,"id":"a62t266r5kwe","geo_precision":"range","address":"10 Walker St","state":"OH","juris":"PD"},"type":"Feature","geometry":{"type":"Point","coordinates":[-83.172396,41.110673]}},{"properties":{"officer":"GTM","city":"Tiffin","zip":"44883","date":{"end_time":"2009/06/18 06:30:05 -0400","original":"6/18/2009 6:30:04 AM","granularity":"sec","time":"2009/06/18 06:30:04 -0400"},"geo_score":0.902,"unit":"62","disposition":200,"cfs":5,"call#":9.005726,"id":"a62t2634rh5c","geo_precision":"range","address":"104 Ann St","state":"OH","juris":"PD"},"type":"Feature","geometry":{"type":"Point","coordinates":[-83.171015,41.110622]}},{"properties":{"officer":"BRB","city":"Tiffin","zip":"44883","date":{"end_time":"2009/06/18 06:07:25 -0400","original":"6/18/2009 6:07:24 AM","granularity":"sec","time":"2009/06/18 06:07:24 -0400"},"geo_score":0.902,"unit":"59","disposition":200,"cfs":5,"call#":9.005725,"id":"a62t2676lfvj","geo_precision":"range","address":"105 Schonhardt St","state":"OH","juris":"PD"},"type":"Feature","geometry":{"type":"Point","coordinates":[-83.172595,41.110585]}},{"properties":{"officer":"GTM","city":"Tiffin","zip":"44883","date":{"end_time":"2009/06/18 05:37:20 -0400","original":"6/18/2009 5:37:19 AM","granularity":"sec","time":"2009/06/18 05:37:19 -0400"},"geo_score":0.902,"unit":"62","disposition":200,"cfs":5,"call#":9.005724,"id":"a62t26bxkpa4","geo_precision":"range","address":"334 Coe St","state":"OH","juris":"PD"},"type":"Feature","geometry":{"type":"Point","coordinates":[-83.1648,41.104594]}},{"properties":{"officer":"MEM","city":"Tiffin","zip":"44883","date":{"end_time":"2009/06/18 04:57:08 -0400","original":"6/18/2009 4:57:07 AM","granularity":"sec","time":"2009/06/18 04:57:07 -0400"},"geo_score":0.902,"unit":"57","disposition":200,"cfs":5,"call#":9.005723,"id":"a62t264i39mi","geo_precision":"range","address":"340 Coe St","state":"OH","juris":"PD"},"type":"Feature","geometry":{"type":"Point","coordinates":[-83.164652,41.104508]}},{"properties":{"officer":"SGN","city":"Tiffin","zip":"44883","date":{"end_time":"2009/06/17 11:14:17 -0400","original":"6/17/2009 11:14:16 AM","granularity":"sec","time":"2009/06/17 11:14:16 -0400"},"geo_score":0.902,"unit":"62","disposition":200,"cfs":5,"call#":9.005688,"id":"a62t2632wv25","geo_precision":"range","address":"357 Water St","state":"OH","juris":"PD"},"type":"Feature","geometry":{"type":"Point","coordinates":[-83.173539,41.122429]}},{"properties":{"officer":"LMK","city":"Tiffin","zip":"44883","date":{"end_time":"2009/06/14 19:23:16 -0400","original":"6/14/2009 7:23:15 PM","granularity":"sec","time":"2009/06/14 19:23:15 -0400"},"geo_score":0.902,"unit":"62","disposition":110,"cfs":5,"call#":9.005598,"id":"a62t26323rh5","geo_precision":"range","address":"356 Walker St","state":"OH","juris":"PD"},"type":"Feature","geometry":{"type":"Point","coordinates":[-83.160288,41.111731]}},{"properties":{"officer":"REB","city":"Tiffin","zip":"44883","date":{"end_time":"2009/06/14 10:12:29 -0400","original":"6/14/2009 10:12:28 AM","granularity":"sec","time":"2009/06/14 10:12:28 -0400"},"geo_score":0.902,"unit":"62","disposition":200,"cfs":5,"call#":9.005585,"id":"a62t267wgyqq","geo_precision":"range","address":"534 Circular St","state":"OH","juris":"PD"},"type":"Feature","geometry":{"type":"Point","coordinates":[-83.178344,41.105224]}},{"properties":{"officer":"JAD","city":"Tiffin","zip":"44883","date":{"end_time":"2009/06/13 23:44:23 -0400","original":"6/13/2009 11:44:22 PM","granularity":"sec","time":"2009/06/13 23:44:22 -0400"},"geo_score":0.902,"unit":"56","disposition":100,"cfs":5,"call#":9.005572,"id":"a62t265ib190","geo_precision":"range","address":"24 N Washington St","state":"OH","juris":"PD"},"type":"Feature","geometry":{"type":"Point","coordinates":[-83.177155,41.11844]}},{"properties":{"officer":"JPF","city":"Tiffin","zip":"44883","date":{"end_time":"2009/06/13 14:32:04 -0400","original":"6/13/2009 2:32:03 PM","granularity":"sec","time":"2009/06/13 14:32:03 -0400"},"geo_score":0.902,"unit":"59","disposition":200,"cfs":5,"call#":9.005552,"id":"a62t26e3ii1d","geo_precision":"range","address":"191 S Sandusky St","state":"OH","juris":"PD"},"type":"Feature","geometry":{"type":"Point","coordinates":[-83.185994,41.114943]}},{"properties":{"officer":"SWK","city":"Tiffin","zip":"44883","date":{"end_time":"2009/06/10 19:54:07 -0400","original":"6/10/2009 7:54:06 PM","granularity":"sec","time":"2009/06/10 19:54:06 -0400"},"geo_score":0.902,"unit":"61","disposition":200,"cfs":5,"call#":9.005457,"id":"a62t26a7bo6f","geo_precision":"range","address":"292 Noble St","state":"OH","juris":"PD"},"type":"Feature","geometry":{"type":"Point","coordinates":[-83.183717,41.123875]}},{"properties":{"officer":"JPF","city":"Tiffin","zip":"44883","date":{"end_time":"2009/06/06 14:11:38 -0400","original":"6/6/2009 2:11:37 PM","granularity":"sec","time":"2009/06/06 14:11:37 -0400"},"geo_score":0.902,"unit":"59","disposition":200,"cfs":5,"call#":9.005317,"id":"a62t263pd08b","geo_precision":"range","address":"216 Coe St","state":"OH","juris":"PD"},"type":"Feature","geometry":{"type":"Point","coordinates":[-83.168815,41.106341]}},{"properties":{"officer":"REB","city":"Tiffin","zip":"44883","date":{"end_time":"2009/06/06 09:54:02 -0400","original":"6/6/2009 9:54:01 AM","granularity":"sec","time":"2009/06/06 09:54:01 -0400"},"geo_score":0.902,"unit":"62","disposition":200,"cfs":5,"call#":9.00531,"id":"a62t263o70bw","geo_precision":"range","address":"94 W Market St","state":"OH","juris":"PD"},"type":"Feature","geometry":{"type":"Point","coordinates":[-83.183702,41.113904]}},{"properties":{"officer":"SGN","city":"Tiffin","zip":"44883","date":{"end_time":"2009/05/28 13:06:57 -0400","original":"5/28/2009 1:06:56 PM","granularity":"sec","time":"2009/05/28 13:06:56 -0400"},"geo_score":0.902,"unit":"62","disposition":200,"cfs":5,"call#":9.005024,"id":"a62t26crpwe2","geo_precision":"range","address":"48 Douglas St","state":"OH","juris":"PD"},"type":"Feature","geometry":{"type":"Point","coordinates":[-83.17516,41.127662]}},{"properties":{"officer":"SGN","city":"Tiffin","zip":"44883","date":{"end_time":"2009/05/22 15:49:54 -0400","original":"5/22/2009 3:49:53 PM","granularity":"sec","time":"2009/05/22 15:49:53 -0400"},"geo_score":0.866,"unit":"62","disposition":100,"cfs":5,"call#":9.004827,"id":"a62t262cc12p","geo_precision":"range","address":"74 Grand Av","state":"OH","juris":"PD"},"type":"Feature","geometry":{"type":"Point","coordinates":[-83.177218,41.129534]}},{"properties":{"officer":"SGN","city":"Tiffin","zip":"44883","date":{"end_time":"2009/05/21 14:40:37 -0400","original":"5/21/2009 2:40:36 PM","granularity":"sec","time":"2009/05/21 14:40:36 -0400"},"geo_score":0.902,"unit":"62","disposition":200,"cfs":5,"call#":9.004781,"id":"a62t26fdean8","geo_precision":"range","address":"275 S Monroe St,6","state":"OH","juris":"PD"},"type":"Feature","geometry":{"type":"Point","coordinates":[-83.178442,41.116135]}},{"properties":{"officer":"SWK","city":"Tiffin","zip":"44883","date":{"end_time":"2009/05/11 18:17:45 -0400","original":"5/11/2009 6:17:44 PM","granularity":"sec","time":"2009/05/11 18:17:44 -0400"},"geo_score":0.873,"unit":"61","disposition":200,"cfs":5,"call#":9.004471,"id":"a62t26ckvufk","geo_precision":"range","address":"203 Lindsay Av","state":"OH","juris":"PD"},"type":"Feature","geometry":{"type":"Point","coordinates":[-83.197994,41.111019]}},{"properties":{"officer":null,"city":"Tiffin","zip":"44883","date":{"end_time":"2009/05/11 09:21:20 -0400","original":"5/11/2009 9:21:19 AM","granularity":"sec","time":"2009/05/11 09:21:19 -0400"},"geo_score":0.902,"unit":"648","disposition":700,"cfs":5,"call#":9.005016,"id":"a62t2656vahz","geo_precision":"range","address":"180 Prospect St","state":"OH","juris":"PD"},"type":"Feature","geometry":{"type":"Point","coordinates":[-83.161551,41.109362]}},{"properties":{"officer":"REB","city":"Tiffin","zip":"44883","date":{"end_time":"2009/05/09 19:03:00 -0400","original":"5/9/2009 7:02:59 PM","granularity":"sec","time":"2009/05/09 19:02:59 -0400"},"geo_score":0.902,"unit":"62","disposition":200,"cfs":5,"call#":9.004415,"id":"a62t268jn929","geo_precision":"range","address":"686 S Sandusky St,125","state":"OH","juris":"PD"},"type":"Feature","geometry":{"type":"Point","coordinates":[-83.184759,41.116574]}},{"properties":{"officer":"JPF","city":"Tiffin","zip":"44883","date":{"end_time":"2009/05/06 00:24:30 -0400","original":"5/6/2009 12:24:29 AM","granularity":"sec","time":"2009/05/06 00:24:29 -0400"},"geo_score":0.902,"unit":"60","disposition":200,"cfs":5,"call#":9.004279,"id":"a62t267n6t4j","geo_precision":"range","address":"141 Main St","state":"OH","juris":"PD"},"type":"Feature","geometry":{"type":"Point","coordinates":[-83.169171,41.111928]}},{"properties":{"officer":"RJO","city":"Tiffin","zip":"44883","date":{"end_time":"2009/05/04 16:21:52 -0400","original":"5/4/2009 4:21:51 PM","granularity":"sec","time":"2009/05/04 16:21:51 -0400"},"geo_score":0.902,"unit":"58","disposition":200,"cfs":5,"call#":9.004245,"id":"a62t264jraxf","geo_precision":"range","address":"196 Hudson St","state":"OH","juris":"PD"},"type":"Feature","geometry":{"type":"Point","coordinates":[-83.183927,41.121605]}},{"properties":{"officer":"JPF","city":"Tiffin","zip":"44883","date":{"end_time":"2009/05/02 11:57:11 -0400","original":"5/2/2009 11:57:10 AM","granularity":"sec","time":"2009/05/02 11:57:10 -0400"},"geo_score":0.756,"unit":"59","disposition":200,"cfs":5,"call#":9.004183,"id":"a62t269z0cv2","geo_precision":"range","address":"264 Second Av","state":"OH","juris":"PD"},"type":"Feature","geometry":{"type":"Point","coordinates":[-83.185518,41.12871]}},{"properties":{"officer":"JMW","city":"Tiffin","zip":"44883","date":{"end_time":"2009/05/01 06:50:18 -0400","original":"5/1/2009 6:50:17 AM","granularity":"sec","time":"2009/05/01 06:50:17 -0400"},"geo_score":0.902,"unit":"60","disposition":200,"cfs":5,"call#":9.004126,"id":"a62t268tm5sz","geo_precision":"range","address":"203 E Market St","state":"OH","juris":"PD"},"type":"Feature","geometry":{"type":"Point","coordinates":[-83.172198,41.114978]}},{"properties":{"officer":"GTM","city":"Tiffin","zip":"44883","date":{"end_time":"2009/04/30 01:39:21 -0400","original":"4/30/2009 1:39:20 AM","granularity":"sec","time":"2009/04/30 01:39:20 -0400"},"geo_score":0.902,"unit":"57","disposition":200,"cfs":5,"call#":9.004086,"id":"a62t2687j0ce","geo_precision":"range","address":"21 Circular St","state":"OH","juris":"PD"},"type":"Feature","geometry":{"type":"Point","coordinates":[-83.170347,41.114818]}},{"properties":{"officer":"BAR","city":"Tiffin","zip":"44883","date":{"end_time":"2009/04/25 16:59:15 -0400","original":"4/25/2009 4:59:14 PM","granularity":"sec","time":"2009/04/25 16:59:14 -0400"},"geo_score":0.902,"unit":"63","disposition":200,"cfs":5,"call#":9.003942,"id":"a62t26arb0pj","geo_precision":"range","address":"66Y E Market St","state":"OH","juris":"PD"},"type":"Feature","geometry":{"type":"Point","coordinates":[-83.177742,41.114486]}},{"properties":{"officer":"RLT","city":"Tiffin","zip":"44883","date":{"end_time":"2009/04/25 02:41:00 -0400","original":"4/25/2009 2:40:59 AM","granularity":"sec","time":"2009/04/25 02:40:59 -0400"},"geo_score":0.902,"unit":"61","disposition":200,"cfs":5,"call#":9.003924,"id":"a62t267fxvcp","geo_precision":"range","address":"215 Main St","state":"OH","juris":"PD"},"type":"Feature","geometry":{"type":"Point","coordinates":[-83.164184,41.112351]}},{"properties":{"officer":"JMW","city":"Tiffin","zip":"44883","date":{"end_time":"2009/04/24 13:30:36 -0400","original":"4/24/2009 1:30:35 PM","granularity":"sec","time":"2009/04/24 13:30:35 -0400"},"geo_score":0.902,"unit":"60","disposition":200,"cfs":5,"call#":9.003899,"id":"a62t261ae48r","geo_precision":"range","address":"202 Main St","state":"OH","juris":"PD"},"type":"Feature","geometry":{"type":"Point","coordinates":[-83.167123,41.11212]}},{"properties":{"officer":"RLT","city":"Tiffin","zip":"44883","date":{"end_time":"2009/04/20 21:11:26 -0400","original":"4/20/2009 9:11:25 PM","granularity":"sec","time":"2009/04/20 21:11:25 -0400"},"geo_score":0.902,"unit":"61","disposition":200,"cfs":5,"call#":9.003792,"id":"a62t26ekdwnd","geo_precision":"range","address":"154 S Washington St,300","state":"OH","juris":"PD"},"type":"Feature","geometry":{"type":"Point","coordinates":[-83.175743,41.109463]}},{"properties":{"officer":"DES","city":"Tiffin","zip":"44883","date":{"end_time":"2009/04/19 13:04:54 -0400","original":"4/19/2009 1:04:53 PM","granularity":"sec","time":"2009/04/19 13:04:53 -0400"},"geo_score":0.902,"unit":"62","disposition":200,"cfs":5,"call#":9.003753,"id":"a62t26b6y4rb","geo_precision":"range","address":"100 Greenfield St","state":"OH","juris":"PD"},"type":"Feature","geometry":{"type":"Point","coordinates":[-83.166202,41.115229]}},{"properties":{"officer":"LMK","city":"Tiffin","zip":"44883","date":{"end_time":"2009/04/19 00:10:11 -0400","original":"4/19/2009 12:10:10 AM","granularity":"sec","time":"2009/04/19 00:10:10 -0400"},"geo_score":0.756,"unit":"61","disposition":400,"cfs":5,"call#":9.003735,"id":"a62t264a4zd7","geo_precision":"range","address":"177 Second Av","state":"OH","juris":"PD"},"type":"Feature","geometry":{"type":"Point","coordinates":[-83.182826,41.128745]}},{"properties":{"officer":"SGN","city":"Tiffin","zip":"44883","date":{"end_time":"2009/04/17 11:10:03 -0400","original":"4/17/2009 11:10:02 AM","granularity":"sec","time":"2009/04/17 11:10:02 -0400"},"geo_score":0.902,"unit":"62","disposition":200,"cfs":5,"call#":9.003666,"id":"a62t2656pzu0","geo_precision":"range","address":"315 W Market St","state":"OH","juris":"PD"},"type":"Feature","geometry":{"type":"Point","coordinates":[-83.191142,41.113162]}},{"properties":{"officer":"SGN","city":"Tiffin","zip":"44883","date":{"end_time":"2009/04/17 07:49:05 -0400","original":"4/17/2009 7:49:04 AM","granularity":"sec","time":"2009/04/17 07:49:04 -0400"},"geo_score":0.902,"unit":"62","disposition":200,"cfs":5,"call#":9.00366,"id":"a62t26f2ezww","geo_precision":"range","address":"98 Center St","state":"OH","juris":"PD"},"type":"Feature","geometry":{"type":"Point","coordinates":[-83.182769,41.112574]}},{"properties":{"officer":"SWK","city":"Tiffin","zip":"44883","date":{"end_time":"2009/04/17 00:27:28 -0400","original":"4/17/2009 12:27:27 AM","granularity":"sec","time":"2009/04/17 00:27:27 -0400"},"geo_score":0.902,"unit":"61","disposition":200,"cfs":5,"call#":9.003648,"id":"a62t2690vfq2","geo_precision":"range","address":"255 E Perry St","state":"OH","juris":"PD"},"type":"Feature","geometry":{"type":"Point","coordinates":[-83.1709,41.116357]}},{"properties":{"officer":"SGN","city":"Tiffin","zip":"44883","date":{"end_time":"2009/04/16 14:59:11 -0400","original":"4/16/2009 2:59:10 PM","granularity":"sec","time":"2009/04/16 14:59:10 -0400"},"geo_score":0.902,"unit":"62","disposition":200,"cfs":5,"call#":9.003631,"id":"a62t26156izg","geo_precision":"range","address":"160 S Washington St","state":"OH","juris":"PD"},"type":"Feature","geometry":{"type":"Point","coordinates":[-83.176342,41.113078]}},{"properties":{"officer":"BRB","city":"Tiffin","zip":"44883","date":{"end_time":"2009/04/14 22:00:54 -0400","original":"4/14/2009 10:00:53 PM","granularity":"sec","time":"2009/04/14 22:00:53 -0400"},"geo_score":0.902,"unit":"57","disposition":100,"cfs":5,"call#":9.003568,"id":"a62t264vterj","geo_precision":"range","address":"123 Melmore St","state":"OH","juris":"PD"},"type":"Feature","geometry":{"type":"Point","coordinates":[-83.17293,41.106713]}},{"properties":{"officer":"RJO","city":"Tiffin","zip":"44883","date":{"end_time":"2009/04/14 13:26:38 -0400","original":"4/14/2009 1:26:37 PM","granularity":"sec","time":"2009/04/14 13:26:37 -0400"},"geo_score":0.902,"unit":"57","disposition":200,"cfs":5,"call#":9.003552,"id":"a62t26gltxg4","geo_precision":"range","address":"35 Beechwood Dr","state":"OH","juris":"PD"},"type":"Feature","geometry":{"type":"Point","coordinates":[-83.202582,41.115065]}},{"properties":{"officer":"DES","city":"Tiffin","zip":"44883","date":{"end_time":"2009/04/12 15:17:46 -0400","original":"4/12/2009 3:17:45 PM","granularity":"sec","time":"2009/04/12 15:17:45 -0400"},"geo_score":0.902,"unit":"62","disposition":100,"cfs":5,"call#":9.003503,"id":"a62t260sehkl","geo_precision":"range","address":"376 Water St","state":"OH","juris":"PD"},"type":"Feature","geometry":{"type":"Point","coordinates":[-83.173253,41.12302]}},{"properties":{"officer":"JAD","city":"Tiffin","zip":"44883","date":{"end_time":"2009/04/11 01:35:45 -0400","original":"4/11/2009 1:35:44 AM","granularity":"sec","time":"2009/04/11 01:35:44 -0400"},"geo_score":0.902,"unit":"56","disposition":200,"cfs":5,"call#":9.00344,"id":"a62t265wh11c","geo_precision":"range","address":"167 Main St","state":"OH","juris":"PD"},"type":"Feature","geometry":{"type":"Point","coordinates":[-83.168532,41.111997]}},{"properties":{"officer":"MEM","city":"Tiffin","zip":"44883","date":{"end_time":"2009/04/10 05:31:48 -0400","original":"4/10/2009 5:31:47 AM","granularity":"sec","time":"2009/04/10 05:31:47 -0400"},"geo_score":0.902,"unit":"62","disposition":200,"cfs":5,"call#":9.003412,"id":"a62t26b5sv15","geo_precision":"range","address":"143 Coe St","state":"OH","juris":"PD"},"type":"Feature","geometry":{"type":"Point","coordinates":[-83.170945,41.107344]}},{"properties":{"officer":"DES","city":"Tiffin","zip":"44883","date":{"end_time":"2009/04/07 11:39:56 -0400","original":"4/7/2009 11:39:55 AM","granularity":"sec","time":"2009/04/07 11:39:55 -0400"},"geo_score":0.902,"unit":"62","disposition":200,"cfs":5,"call#":9.003305,"id":"a62t26btfie0","geo_precision":"range","address":"207 Sycamore St","state":"OH","juris":"PD"},"type":"Feature","geometry":{"type":"Point","coordinates":[-83.179334,41.105489]}},{"properties":{"officer":"BAR","city":"Tiffin","zip":"44883","date":{"end_time":"2009/04/05 18:09:39 -0400","original":"4/5/2009 6:09:38 PM","granularity":"sec","time":"2009/04/05 18:09:38 -0400"},"geo_score":0.902,"unit":"57","disposition":200,"cfs":5,"call#":9.003258,"id":"a62t267uwngo","geo_precision":"range","address":"142 Rosa St","state":"OH","juris":"PD"},"type":"Feature","geometry":{"type":"Point","coordinates":[-83.166392,41.106643]}},{"properties":{"officer":"DES","city":"Tiffin","zip":"44883","date":{"end_time":"2009/04/04 10:40:42 -0400","original":"4/4/2009 10:40:41 AM","granularity":"sec","time":"2009/04/04 10:40:41 -0400"},"geo_score":0.854,"unit":"62","disposition":100,"cfs":5,"call#":9.003189,"id":"a62t267ek2a2","geo_precision":"range","address":"303 Elm Av","state":"OH","juris":"PD"},"type":"Feature","geometry":{"type":"Point","coordinates":[-83.162083,41.12598]}},{"properties":{"officer":"SGN","city":"Tiffin","zip":"44883","date":{"end_time":"2009/04/03 14:00:17 -0400","original":"4/3/2009 2:00:16 PM","granularity":"sec","time":"2009/04/03 14:00:16 -0400"},"geo_score":0.756,"unit":"62","disposition":200,"cfs":5,"call#":9.003152,"id":"a62t26eqqyhz","geo_precision":"range","address":"260 Second Av","state":"OH","juris":"PD"},"type":"Feature","geometry":{"type":"Point","coordinates":[-83.185421,41.128711]}},{"properties":{"officer":"GTM","city":"Tiffin","zip":"44883","date":{"end_time":"2009/04/03 05:50:21 -0400","original":"4/3/2009 5:50:20 AM","granularity":"sec","time":"2009/04/03 05:50:20 -0400"},"geo_score":0.902,"unit":"61","disposition":200,"cfs":5,"call#":9.003135,"id":"a62t26h3vywu","geo_precision":"range","address":"292 Ella St","state":"OH","juris":"PD"},"type":"Feature","geometry":{"type":"Point","coordinates":[-83.191058,41.103775]}},{"properties":{"officer":"SGN","city":"Tiffin","zip":"44883","date":{"end_time":"2009/03/31 16:11:59 -0400","original":"3/31/2009 4:11:58 PM","granularity":"sec","time":"2009/03/31 16:11:58 -0400"},"geo_score":0.902,"unit":"62","disposition":200,"cfs":5,"call#":9.003046,"id":"a62t267ug5mj","geo_precision":"range","address":"21 Ash St","state":"OH","juris":"PD"},"type":"Feature","geometry":{"type":"Point","coordinates":[-83.186046,41.12271]}},{"properties":{"officer":"DGH","city":"Tiffin","zip":"44883","date":{"end_time":"2009/03/31 13:08:37 -0400","original":"3/31/2009 1:08:36 PM","granularity":"sec","time":"2009/03/31 13:08:36 -0400"},"geo_score":0.902,"unit":"59","disposition":200,"cfs":5,"call#":9.003037,"id":"a62t267t0m21","geo_precision":"range","address":"26 Holmes St","state":"OH","juris":"PD"},"type":"Feature","geometry":{"type":"Point","coordinates":[-83.158656,41.113488]}},{"properties":{"officer":"RJO","city":"Tiffin","zip":"44883","date":{"end_time":"2009/03/31 08:12:58 -0400","original":"3/31/2009 8:12:57 AM","granularity":"sec","time":"2009/03/31 08:12:57 -0400"},"geo_score":0.902,"unit":"57","disposition":200,"cfs":5,"call#":9.00303,"id":"a62t269vchay","geo_precision":"range","address":"59 E Market St","state":"OH","juris":"PD"},"type":"Feature","geometry":{"type":"Point","coordinates":[-83.177936,41.114461]}},{"properties":{"officer":"AMR","city":"Tiffin","zip":"44883","date":{"end_time":"2009/03/25 20:33:35 -0400","original":"3/25/2009 8:33:34 PM","granularity":"sec","time":"2009/03/25 20:33:34 -0400"},"geo_score":0.902,"unit":"63","disposition":100,"cfs":5,"call#":9.002793,"id":"a62t2686ozy3","geo_precision":"range","address":"273 Clay St","state":"OH","juris":"PD"},"type":"Feature","geometry":{"type":"Point","coordinates":[-83.189084,41.11908]}},{"properties":{"officer":"BAR","city":"Tiffin","zip":"44883","date":{"end_time":"2009/03/20 18:45:32 -0400","original":"3/20/2009 6:45:31 PM","granularity":"sec","time":"2009/03/20 18:45:31 -0400"},"geo_score":0.902,"unit":"63","disposition":200,"cfs":5,"call#":9.002619,"id":"a62t26aoovih","geo_precision":"range","address":"260 Circular St","state":"OH","juris":"PD"},"type":"Feature","geometry":{"type":"Point","coordinates":[-83.16987,41.108491]}},{"properties":{"officer":"DGH","city":"Tiffin","zip":"44883","date":{"end_time":"2009/03/19 08:19:21 -0400","original":"3/19/2009 8:19:20 AM","granularity":"sec","time":"2009/03/19 08:19:20 -0400"},"geo_score":0.902,"unit":"57","disposition":200,"cfs":5,"call#":9.002568,"id":"a62t266aalwm","geo_precision":"range","address":"184 S Washington St","state":"OH","juris":"PD"},"type":"Feature","geometry":{"type":"Point","coordinates":[-83.17625,41.112349]}},{"properties":{"officer":"DES","city":"Tiffin","zip":"44883","date":{"end_time":"2009/03/17 08:35:43 -0400","original":"3/17/2009 8:35:42 AM","granularity":"sec","time":"2009/03/17 08:35:42 -0400"},"geo_score":0.756,"unit":"61","disposition":200,"cfs":5,"call#":9.002498,"id":"a62t266413dl","geo_precision":"range","address":"241 Seventh Av","state":"OH","juris":"PD"},"type":"Feature","geometry":{"type":"Point","coordinates":[-83.181773,41.133047]}},{"properties":{"officer":"JMW","city":"Tiffin","zip":"44883","date":{"end_time":"2009/03/15 14:04:31 -0400","original":"3/15/2009 2:04:30 PM","granularity":"sec","time":"2009/03/15 14:04:30 -0400"},"geo_score":0.902,"unit":"59","disposition":200,"cfs":5,"call#":9.002446,"id":"a62t262t4gtb","geo_precision":"range","address":"103 W Market St","state":"OH","juris":"PD"},"type":"Feature","geometry":{"type":"Point","coordinates":[-83.183901,41.113878]}},{"properties":{"officer":"JMW","city":"Tiffin","zip":"44883","date":{"end_time":"2009/03/15 10:22:36 -0400","original":"3/15/2009 10:22:35 AM","granularity":"sec","time":"2009/03/15 10:22:35 -0400"},"geo_score":0.902,"unit":"59","disposition":100,"cfs":5,"call#":9.002443,"id":"a62t265yt8yt","geo_precision":"range","address":"171 Jefferson St","state":"OH","juris":"PD"},"type":"Feature","geometry":{"type":"Point","coordinates":[-83.174659,41.112828]}},{"properties":{"officer":"MAM","city":"Tiffin","zip":"44883","date":{"end_time":"2009/03/13 12:18:29 -0400","original":"3/13/2009 12:18:28 PM","granularity":"sec","time":"2009/03/13 12:18:28 -0400"},"geo_score":0.902,"unit":"58","disposition":100,"cfs":5,"call#":9.002357,"id":"a62t262vinzr","geo_precision":"range","address":"55 Avery St","state":"OH","juris":"PD"},"type":"Feature","geometry":{"type":"Point","coordinates":[-83.178149,41.110468]}},{"properties":{"officer":"GTM","city":"Tiffin","zip":"44883","date":{"end_time":"2009/03/13 04:31:29 -0400","original":"3/13/2009 4:31:28 AM","granularity":"sec","time":"2009/03/13 04:31:28 -0400"},"geo_score":0.902,"unit":"61","disposition":200,"cfs":5,"call#":9.002343,"id":"a62t26afvxmh","geo_precision":"range","address":"175 Jefferson St,4","state":"OH","juris":"PD"},"type":"Feature","geometry":{"type":"Point","coordinates":[-83.175798,41.117537]}},{"properties":{"officer":"DGH","city":"Tiffin","zip":"44883","date":{"end_time":"2009/03/12 13:16:21 -0400","original":"3/12/2009 1:16:20 PM","granularity":"sec","time":"2009/03/12 13:16:20 -0400"},"geo_score":0.902,"unit":"59","disposition":200,"cfs":5,"call#":9.002325,"id":"a62t264ehzyb","geo_precision":"range","address":"449 S Jefferson St","state":"OH","juris":"PD"},"type":"Feature","geometry":{"type":"Point","coordinates":[-83.173407,41.104792]}},{"properties":{"officer":"SGN","city":"Tiffin","zip":"44883","date":{"end_time":"2009/03/11 15:44:41 -0400","original":"3/11/2009 3:44:40 PM","granularity":"sec","time":"2009/03/11 15:44:40 -0400"},"geo_score":0.902,"unit":"62","disposition":200,"cfs":5,"call#":9.002304,"id":"a62t266ick07","geo_precision":"range","address":"11 Rebecca St","state":"OH","juris":"PD"},"type":"Feature","geometry":{"type":"Point","coordinates":[-83.170966,41.112964]}},{"properties":{"officer":"DES","city":"Tiffin","zip":"44883","date":{"end_time":"2009/02/22 15:15:42 -0500","original":"2/22/2009 3:15:41 PM","granularity":"sec","time":"2009/02/22 15:15:41 -0500"},"geo_score":0.902,"unit":"62","disposition":200,"cfs":5,"call#":9.001828,"id":"a62t26amzqdy","geo_precision":"range","address":"228 W Perry St","state":"OH","juris":"PD"},"type":"Feature","geometry":{"type":"Point","coordinates":[-83.188747,41.115204]}},{"properties":{"officer":"RLT","city":"Tiffin","zip":"44883","date":{"end_time":"2009/02/21 01:43:52 -0500","original":"2/21/2009 1:43:51 AM","granularity":"sec","time":"2009/02/21 01:43:51 -0500"},"geo_score":0.902,"unit":"59","disposition":100,"cfs":5,"call#":9.001766,"id":"a62t263hlirq","geo_precision":"range","address":"106 S Washington St","state":"OH","juris":"PD"},"type":"Feature","geometry":{"type":"Point","coordinates":[-83.176566,41.114585]}},{"properties":{"officer":"JAD","city":"Tiffin","zip":"44883","date":{"end_time":"2009/02/20 22:17:32 -0500","original":"2/20/2009 10:17:31 PM","granularity":"sec","time":"2009/02/20 22:17:31 -0500"},"geo_score":0.902,"unit":"56","disposition":200,"cfs":5,"call#":9.001753,"id":"a62t26dj6nio","geo_precision":"range","address":"259 Hedges St","state":"OH","juris":"PD"},"type":"Feature","geometry":{"type":"Point","coordinates":[-83.167628,41.10964]}},{"properties":{"officer":"RLT","city":"Tiffin","zip":"44883","date":{"end_time":"2009/02/17 05:57:15 -0500","original":"2/17/2009 5:57:14 AM","granularity":"sec","time":"2009/02/17 05:57:14 -0500"},"geo_score":0.902,"unit":"60","disposition":100,"cfs":5,"call#":9.00163,"id":"a62t26a8pczl","geo_precision":"range","address":"285 E Perry St","state":"OH","juris":"PD"},"type":"Feature","geometry":{"type":"Point","coordinates":[-83.169743,41.116546]}},{"properties":{"officer":"JAD","city":"Tiffin","zip":"44883","date":{"end_time":"2009/02/14 03:43:49 -0500","original":"2/14/2009 3:43:48 AM","granularity":"sec","time":"2009/02/14 03:43:48 -0500"},"geo_score":0.902,"unit":"56","disposition":200,"cfs":5,"call#":9.001541,"id":"a62t26as5t45","geo_precision":"range","address":"13 Miami St","state":"OH","juris":"PD"},"type":"Feature","geometry":{"type":"Point","coordinates":[-83.179788,41.116897]}},{"properties":{"officer":"RJO","city":"Tiffin","zip":"44883","date":{"end_time":"2009/02/08 11:34:37 -0500","original":"2/8/2009 11:34:36 AM","granularity":"sec","time":"2009/02/08 11:34:36 -0500"},"geo_score":0.756,"unit":"57","disposition":200,"cfs":5,"call#":9.001339,"id":"a62t26ci2jl5","geo_precision":"range","address":"231 Second Av","state":"OH","juris":"PD"},"type":"Feature","geometry":{"type":"Point","coordinates":[-83.184694,41.128723]}},{"properties":{"officer":"SMM","city":"Tiffin","zip":"44883","date":{"end_time":"2009/02/04 00:06:28 -0500","original":"2/4/2009 12:06:27 AM","granularity":"sec","time":"2009/02/04 00:06:27 -0500"},"geo_score":0.902,"unit":"57","disposition":200,"cfs":5,"call#":9.001162,"id":"a62t26a68aqx","geo_precision":"range","address":"168 S Sandusky St","state":"OH","juris":"PD"},"type":"Feature","geometry":{"type":"Point","coordinates":[-83.185252,41.115629]}},{"properties":{"officer":"DGH","city":"Tiffin","zip":"44883","date":{"end_time":"2009/01/20 14:38:26 -0500","original":"1/20/2009 2:38:25 PM","granularity":"sec","time":"2009/01/20 14:38:25 -0500"},"geo_score":0.902,"unit":"59","disposition":200,"cfs":5,"call#":9.000637,"id":"a62t26e19auj","geo_precision":"range","address":"292 Noble St","state":"OH","juris":"PD"},"type":"Feature","geometry":{"type":"Point","coordinates":[-83.183717,41.123875]}},{"properties":{"officer":"DES","city":"Tiffin","zip":"44883","date":{"end_time":"2009/01/12 12:25:00 -0500","original":"1/12/2009 12:24:59 PM","granularity":"sec","time":"2009/01/12 12:24:59 -0500"},"geo_score":0.902,"unit":"62","disposition":200,"cfs":5,"call#":9.000375,"id":"a62t26en2n7j","geo_precision":"range","address":"463X S Washington St","state":"OH","juris":"PD"},"type":"Feature","geometry":{"type":"Point","coordinates":[-83.175076,41.105041]}},{"properties":{"officer":"JMW","city":"Tiffin","zip":"44883","date":{"end_time":"2009/01/11 07:49:45 -0500","original":"1/11/2009 7:49:44 AM","granularity":"sec","time":"2009/01/11 07:49:44 -0500"},"geo_score":0.756,"unit":"60","disposition":200,"cfs":5,"call#":9.000339,"id":"a62t2697n9p0","geo_precision":"range","address":"286 Second Av","state":"OH","juris":"PD"},"type":"Feature","geometry":{"type":"Point","coordinates":[-83.186052,41.128701]}},{"properties":{"officer":"MEM","city":"Tiffin","zip":"44883","date":{"end_time":"2009/01/09 23:51:05 -0500","original":"1/9/2009 11:51:04 PM","granularity":"sec","time":"2009/01/09 23:51:04 -0500"},"geo_score":0.717,"unit":"57","disposition":200,"cfs":5,"call#":9.000287,"id":"a62t26gle3jv","geo_precision":"street","address":"73 St Clair St,1","state":"OH","juris":"PD"},"type":"Feature","geometry":{"type":"Point","coordinates":[-83.181592,41.114111]}},{"properties":{"officer":"AMR","city":"Tiffin","zip":"44883","date":{"end_time":"2009/01/07 20:19:37 -0500","original":"1/7/2009 8:19:36 PM","granularity":"sec","time":"2009/01/07 20:19:36 -0500"},"geo_score":0.902,"unit":"63","disposition":100,"cfs":5,"call#":9.00022,"id":"a62t26exka10","geo_precision":"range","address":"107X Frost Pkwy","state":"OH","juris":"PD"},"type":"Feature","geometry":{"type":"Point","coordinates":[-83.179348,41.116848]}},{"properties":{"officer":"RLT","city":"Tiffin","zip":"44883","date":{"end_time":"2009/01/05 15:55:43 -0500","original":"1/5/2009 3:55:42 PM","granularity":"sec","time":"2009/01/05 15:55:42 -0500"},"geo_score":0.902,"unit":"58","disposition":200,"cfs":5,"call#":9.000163,"id":"a62t26e6b8mu","geo_precision":"range","address":"286 W Perry St","state":"OH","juris":"PD"},"type":"Feature","geometry":{"type":"Point","coordinates":[-83.190347,41.114908]}},{"properties":{"officer":"MEM","city":"Tiffin","zip":"44883","date":{"end_time":"2009/01/01 06:44:32 -0500","original":"1/1/2009 6:44:31 AM","granularity":"sec","time":"2009/01/01 06:44:31 -0500"},"geo_score":0.727,"unit":"57","disposition":400,"cfs":5,"call#":9.000015,"id":"a62t26fq4ntt","geo_precision":"range","address":"145 Hampden Pk","state":"OH","juris":"PD"},"type":"Feature","geometry":{"type":"Point","coordinates":[-83.181288,41.100284]}}],"is_temporal":true,"author":{"url":"","metadata":"","contact_name":"","contact_address":"","source":"","contact_phone":""},"source":"","pagination":{"sort":null,"start":0,"total":181,"limit":1000000},"state":"complete","tags":"","published":"2014-08-14T15:34:51-04:00","id":220620}