{"type":"FeatureCollection","data_type":"Dataset","url_type":null,"permissions":[{"permissions":{"download":true,"view":true},"group_id":"everyone"}],"classification":null,"title":"James_-_Mortgage_Brokers_-_ran_March_27th","count":199,"stream_id":220741,"contributor":{"url":"http://geocommons.com/users/39447","name":"sam.felipe"},"data_attributes":null,"calculation_params":null,"icon_link":null,"link":"http://geocommons.com/overlays/220741.json","extent":[-118.05,32.9599,-117.209,34.078],"geometry_types":["point"],"unique_name":null,"name":"James_-_Mortgage_Brokers_-_ran_March_27th","feature_count":199,"description":"","next_feature":null,"is_raster":false,"short_classification":"Y","stats":{"rep? (1 for yes, 0 for no)":{"max":1,"mean":0.0954773869346734,"variance":0.086797624486067,"stdev":0.294614365715705,"min":0,"median":0}},"features":[{"properties":{"rep? (1 for yes, 0 for no)":0,"city":"Aliso Viejo","zip":"92656","geo_score":0.785,"street address":"26831 Aliso Creek Road Suite 200","id":"a6q39ze4t6ep","geo_precision":"range"},"type":"Feature","geometry":{"type":"Point","coordinates":[-117.72345,33.57306]}},{"properties":{"rep? (1 for yes, 0 for no)":1,"city":"Anaheim","zip":"92805","geo_score":0.468,"street address":"222 S. Harbor Blvd. Suite 110","id":"a6q39z5jdljy","geo_precision":"street"},"type":"Feature","geometry":{"type":"Point","coordinates":[-117.919501,33.834185]}},{"properties":{"rep? (1 for yes, 0 for no)":0,"city":"Anaheim","zip":"92807","geo_score":0.441,"street address":"4175 East la Palma Ave Suite 100","id":"a6q39z6s6o9d","geo_precision":"street"},"type":"Feature","geometry":{"type":"Point","coordinates":[-117.810902,33.792214]}},{"properties":{"rep? (1 for yes, 0 for no)":0,"city":"Anaheim Hills","zip":"92807","geo_score":0.464,"street address":"100 S. Imperial Hwy.","id":"a6q39zc21nsb","geo_precision":"street"},"type":"Feature","geometry":{"type":"Point","coordinates":[-117.790169,33.848974]}},{"properties":{"rep? (1 for yes, 0 for no)":1,"city":"Anaheim Hills","zip":"92807","geo_score":0.777,"street address":"6200 East Canyone Rim Road Suite 205","id":"a6q39zfnwiik","geo_precision":"range"},"type":"Feature","geometry":{"type":"Point","coordinates":[-117.773432,33.845354]}},{"properties":{"rep? (1 for yes, 0 for no)":0,"city":"Brea","zip":"92821","geo_score":0.609,"street address":"One Pointe Drive Suite 120","id":"a6q39zglzq16","geo_precision":"street"},"type":"Feature","geometry":{"type":"Point","coordinates":[-117.87707,33.92661]}},{"properties":{"rep? (1 for yes, 0 for no)":0,"city":"Brea","zip":"92821","geo_score":0.816,"street address":"3000 East Imperial Highways #100","id":"a6q39z5tmdtn","geo_precision":"range"},"type":"Feature","geometry":{"type":"Point","coordinates":[-117.90029,33.91644]}},{"properties":{"rep? (1 for yes, 0 for no)":0,"city":"Brea","zip":"92821","geo_score":0.5,"street address":"2500 E. Imperial Hwy. Suite 174","id":"a6q39z52gk5k","geo_precision":"street"},"type":"Feature","geometry":{"type":"Point","coordinates":[-117.90215,33.93194]}},{"properties":{"rep? (1 for yes, 0 for no)":1,"city":"Brea","zip":"92821","geo_score":0.646,"street address":"770 S. Brea Blvd. #221","id":"a6q39ze0h602","geo_precision":"range"},"type":"Feature","geometry":{"type":"Point","coordinates":[-117.90686,33.919283]}},{"properties":{"rep? (1 for yes, 0 for no)":0,"city":"Brea","zip":"92821","geo_score":0.468,"street address":"1555 E. Imperial Hwy.","id":"a6q39zkwt6th","geo_precision":"street"},"type":"Feature","geometry":{"type":"Point","coordinates":[-117.90029,33.91644]}},{"properties":{"rep? (1 for yes, 0 for no)":0,"city":"Buena Park","zip":"90620","geo_score":0.902,"street address":"6805 Knott Ave.","id":"a6q39zcz355o","geo_precision":"range"},"type":"Feature","geometry":{"type":"Point","coordinates":[-118.01113,33.861787]}},{"properties":{"rep? (1 for yes, 0 for no)":0,"city":"Buena Park","zip":"90620","geo_score":0.429,"street address":"7964 Beach Blvd. 2nd Floor","id":"a6q39zjwpro6","geo_precision":"street"},"type":"Feature","geometry":{"type":"Point","coordinates":[-117.99801,33.85891]}},{"properties":{"rep? (1 for yes, 0 for no)":0,"city":"Capistrano Beach","zip":"92624","geo_score":0.791,"street address":"34175 Camino Capistrano Suite 102","id":"a6q39z7v588t","geo_precision":"range"},"type":"Feature","geometry":{"type":"Point","coordinates":[-117.67378,33.46672]}},{"properties":{"rep? (1 for yes, 0 for no)":0,"city":"Corona Del Mar","zip":"92625","geo_score":0.429,"street address":"2600 East Coast Hwy. Suite 210","id":"a6q39zjmzuox","geo_precision":"street"},"type":"Feature","geometry":{"type":"Point","coordinates":[-117.904108,33.616742]}},{"properties":{"rep? (1 for yes, 0 for no)":0,"city":"Corona Del Mar","zip":"92625","geo_score":0.5,"street address":"2865 E. Coast Highway 1st Floor","id":"a6q39zhvpk41","geo_precision":"street"},"type":"Feature","geometry":{"type":"Point","coordinates":[-117.878248,33.601807]}},{"properties":{"rep? (1 for yes, 0 for no)":0,"city":"Costa Mesa","zip":"92627","geo_score":0.514,"street address":"2183 Fairview Rd. Suite 110","id":"a6q39zaud877","geo_precision":"street"},"type":"Feature","geometry":{"type":"Point","coordinates":[-117.90751,33.65275]}},{"properties":{"rep? (1 for yes, 0 for no)":0,"city":"Costa Mesa","zip":"92626","geo_score":0.785,"street address":"3200 Bristol Street Seventh Floor","id":"a6q39zi22hno","geo_precision":"range"},"type":"Feature","geometry":{"type":"Point","coordinates":[-117.88559,33.68869]}},{"properties":{"rep? (1 for yes, 0 for no)":0,"city":"Costa Mesa","zip":"92626","geo_score":0.634,"street address":"185 E. Paulerino \"C\" #104","id":"a6q39zfstbqe","geo_precision":"range"},"type":"Feature","geometry":{"type":"Point","coordinates":[-117.875613,33.680963]}},{"properties":{"rep? (1 for yes, 0 for no)":1,"city":"Costa Mesa","zip":"92626","geo_score":0.756,"street address":"1500 Adams Avenue Suite 201","id":"a6q39z964adk","geo_precision":"range"},"type":"Feature","geometry":{"type":"Point","coordinates":[-117.91936,33.673329]}},{"properties":{"rep? (1 for yes, 0 for no)":1,"city":"Costa Mesa","zip":"92627","geo_score":0.49,"street address":"250 E. 17th Street Suite 200","id":"a6q39zdqky2y","geo_precision":"street"},"type":"Feature","geometry":{"type":"Point","coordinates":[-117.921573,33.63739]}},{"properties":{"rep? (1 for yes, 0 for no)":0,"city":"Costa Mesa","zip":"92627","geo_score":0.514,"street address":"2183 Fairview Rd. Suite 109","id":"a6q39zi25sj6","geo_precision":"street"},"type":"Feature","geometry":{"type":"Point","coordinates":[-117.90751,33.65275]}},{"properties":{"rep? (1 for yes, 0 for no)":1,"city":"Costa Mesa","zip":"92626","geo_score":0.756,"street address":"940 South Coast Drive Suite 200","id":"a6q39zfa6aip","geo_precision":"range"},"type":"Feature","geometry":{"type":"Point","coordinates":[-117.89647,33.68991]}},{"properties":{"rep? (1 for yes, 0 for no)":0,"city":"Costa Mesa","zip":"92626","geo_score":0.774,"street address":"3151 Airway Avenue Suite L-1","id":"a6q39zhlw611","geo_precision":"range"},"type":"Feature","geometry":{"type":"Point","coordinates":[-117.87178,33.678329]}},{"properties":{"rep? (1 for yes, 0 for no)":0,"city":"Costa Mesa","zip":"92626","geo_score":0.655,"street address":"949 South Coast Drive Third Floor","id":"a6q39zf49enx","geo_precision":"range"},"type":"Feature","geometry":{"type":"Point","coordinates":[-117.89693,33.689849]}},{"properties":{"rep? (1 for yes, 0 for no)":0,"city":"Costa Mesa","zip":"92626","geo_score":0.506,"street address":"1570 Corporate Dr. Suite F","id":"a6q39z6ir508","geo_precision":"street"},"type":"Feature","geometry":{"type":"Point","coordinates":[-117.92391,33.69787]}},{"properties":{"rep? (1 for yes, 0 for no)":0,"city":"Costa Mesa","zip":"92626","geo_score":0.634,"street address":"949 South Coast Drive Suite 200","id":"a6q39zajw16i","geo_precision":"range"},"type":"Feature","geometry":{"type":"Point","coordinates":[-117.89693,33.689849]}},{"properties":{"rep? (1 for yes, 0 for no)":0,"city":"Costa Mesa","zip":"92626","geo_score":0.756,"street address":"940 South Coast Drive Suite 200","id":"a6q39z8pq2ql","geo_precision":"range"},"type":"Feature","geometry":{"type":"Point","coordinates":[-117.89647,33.68991]}},{"properties":{"rep? (1 for yes, 0 for no)":0,"city":"Costa Mesa","zip":"92626","geo_score":0.5,"street address":"3200 Park Center Dr. Suite 200","id":"a6q39zbsi77z","geo_precision":"street"},"type":"Feature","geometry":{"type":"Point","coordinates":[-117.88091,33.68837]}},{"properties":{"rep? (1 for yes, 0 for no)":0,"city":"Costa Mesa","zip":"92626","geo_score":0.902,"street address":"150 Paularino Avenue #276","id":"a6q39zkulblo","geo_precision":"range"},"type":"Feature","geometry":{"type":"Point","coordinates":[-117.875151,33.680686]}},{"properties":{"rep? (1 for yes, 0 for no)":0,"city":"Dana Point","zip":"92629","geo_score":0.665,"street address":"24591 Seth Circle Suite 201","id":"a6q39zjfo818","geo_precision":"range"},"type":"Feature","geometry":{"type":"Point","coordinates":[-117.70102,33.485013]}},{"properties":{"rep? (1 for yes, 0 for no)":0,"city":"Dana Point","zip":"92629","geo_score":0.429,"street address":"P.O. Box 127","id":"a6q39zhfx047","geo_precision":"street"},"type":"Feature","geometry":{"type":"Point","coordinates":[-117.71859,33.68018]}},{"properties":{"rep? (1 for yes, 0 for no)":0,"city":"Dana Point","zip":"92629","geo_score":0.821,"street address":"32786 Leah Drive","id":"a6q39z7yl6qc","geo_precision":"range"},"type":"Feature","geometry":{"type":"Point","coordinates":[-117.702095,33.487021]}},{"properties":{"rep? (1 for yes, 0 for no)":0,"city":"Diamond Bar","zip":"91765","geo_score":0.713,"street address":"1440 Bridge Gate Drive Suite 350","id":"a6q39zji9l7v","geo_precision":"range"},"type":"Feature","geometry":{"type":"Point","coordinates":[-117.83277,33.998985]}},{"properties":{"rep? (1 for yes, 0 for no)":0,"city":"Foothill Ranch","zip":"92610","geo_score":0.791,"street address":"26672 Towne Centre Drive Suite 310","id":"a6q39zjk307s","geo_precision":"range"},"type":"Feature","geometry":{"type":"Point","coordinates":[-117.673551,33.682716]}},{"properties":{"rep? (1 for yes, 0 for no)":0,"city":"Fountain Valley","zip":"92708","geo_score":0.902,"street address":"18709 Brookhurst Street","id":"a6q39zhk28cm","geo_precision":"range"},"type":"Feature","geometry":{"type":"Point","coordinates":[-117.954049,33.690846]}},{"properties":{"rep? (1 for yes, 0 for no)":0,"city":"Fountain Valley","zip":"92708","geo_score":0.902,"street address":"18671 Brookhurst Street","id":"a6q39zc8twg3","geo_precision":"range"},"type":"Feature","geometry":{"type":"Point","coordinates":[-117.954062,33.691527]}},{"properties":{"rep? (1 for yes, 0 for no)":0,"city":"Fountain Valley","zip":"92708","geo_score":0.854,"street address":"18446 Brookhurst","id":"a6q39zgxa28x","geo_precision":"range"},"type":"Feature","geometry":{"type":"Point","coordinates":[-117.95412,33.69495]}},{"properties":{"rep? (1 for yes, 0 for no)":0,"city":"Fountain Valley","zip":"92708","geo_score":0.777,"street address":"17400 Brookhurst Street Suite 104B","id":"a6q39zisuw48","geo_precision":"range"},"type":"Feature","geometry":{"type":"Point","coordinates":[-117.95433,33.710339]}},{"properties":{"rep? (1 for yes, 0 for no)":0,"city":"Fullerton","zip":"92832","geo_score":0.455,"street address":"111 W. Orangethorpe Ave.","id":"a6q39zfkhpw1","geo_precision":"street"},"type":"Feature","geometry":{"type":"Point","coordinates":[-117.924289,33.859469]}},{"properties":{"rep? (1 for yes, 0 for no)":0,"city":"Huntington Beach","zip":"92647","geo_score":0.765,"street address":"8071 Slater Avenue Suite 100","id":"a6q39zd8l30h","geo_precision":"range"},"type":"Feature","geometry":{"type":"Point","coordinates":[-117.987616,33.708434]}},{"properties":{"rep? (1 for yes, 0 for no)":0,"city":"Huntington Beach","zip":"92647","geo_score":0.805,"street address":"7777 Edinger Ave.","id":"a6q39zfh11up","geo_precision":"range"},"type":"Feature","geometry":{"type":"Point","coordinates":[-117.993433,33.730181]}},{"properties":{"rep? (1 for yes, 0 for no)":0,"city":"Huntington Beach","zip":"92648","geo_score":0.325,"street address":"2025 W. Balboa Blvd.","id":"a6q39zfxwmbb","geo_precision":"street"},"type":"Feature","geometry":{"type":"Point","coordinates":[-117.90765,33.604219]}},{"properties":{"rep? (1 for yes, 0 for no)":0,"city":"Huntington Beach","zip":"92648","geo_score":0.429,"street address":"18682 Beach Blvd. Suite 165","id":"a6q39zgnngsf","geo_precision":"street"},"type":"Feature","geometry":{"type":"Point","coordinates":[-117.98901,33.699049]}},{"properties":{"rep? (1 for yes, 0 for no)":0,"city":"Huntington Beach","zip":"92648","geo_score":0.735,"street address":"101 Main Street Suite 400","id":"a6q39zatwue4","geo_precision":"range"},"type":"Feature","geometry":{"type":"Point","coordinates":[-118.00196,33.657199]}},{"properties":{"rep? (1 for yes, 0 for no)":0,"city":"Huntington Beach","zip":"92646","geo_score":0.902,"street address":"20002 Brookhurst Street","id":"a6q39zbolqzz","geo_precision":"range"},"type":"Feature","geometry":{"type":"Point","coordinates":[-117.95378,33.672288]}},{"properties":{"rep? (1 for yes, 0 for no)":0,"city":"Huntington Beach","zip":"92646","geo_score":0.902,"street address":"10172 Adams Ave.","id":"a6q39zd62xu1","geo_precision":"range"},"type":"Feature","geometry":{"type":"Point","coordinates":[-117.950347,33.672357]}},{"properties":{"rep? (1 for yes, 0 for no)":0,"city":"Huntington Beach","zip":"92647","geo_score":0.902,"street address":"7269 Murdy Circle","id":"a6q39zkvoo1b","geo_precision":"range"},"type":"Feature","geometry":{"type":"Point","coordinates":[-118.001597,33.725442]}},{"properties":{"rep? (1 for yes, 0 for no)":0,"city":"Irvine","zip":"92606","geo_score":0.902,"street address":"16802 Aston Street","id":"a6q39zgnolz7","geo_precision":"range"},"type":"Feature","geometry":{"type":"Point","coordinates":[-117.843594,33.700332]}},{"properties":{"rep? (1 for yes, 0 for no)":1,"city":"Irvine","zip":"92618","geo_score":0.756,"street address":"111 Pacifica Suite 305","id":"a6q39z8a7syz","geo_precision":"range"},"type":"Feature","geometry":{"type":"Point","coordinates":[-117.754392,33.659693]}},{"properties":{"rep? (1 for yes, 0 for no)":0,"city":"Irvine","zip":"92618","geo_score":0.788,"street address":"8001 Irvine Center Drive Suite 1090","id":"a6q39zaqblbv","geo_precision":"range"},"type":"Feature","geometry":{"type":"Point","coordinates":[-117.753172,33.661686]}},{"properties":{"rep? (1 for yes, 0 for no)":0,"city":"Irvine","zip":"92620","geo_score":0.765,"street address":"5420 Trabuco Road Suite 180","id":"a6q39z4kq4oj","geo_precision":"range"},"type":"Feature","geometry":{"type":"Point","coordinates":[-117.778379,33.707715]}},{"properties":{"rep? (1 for yes, 0 for no)":0,"city":"Irvine","zip":"92604","geo_score":0.785,"street address":"4000 Barranca Parkway Suite 250","id":"a6q39z8au766","geo_precision":"range"},"type":"Feature","geometry":{"type":"Point","coordinates":[-117.808261,33.68408]}},{"properties":{"rep? (1 for yes, 0 for no)":0,"city":"Irvine","zip":"92614","geo_score":0.793,"street address":"17962 Sky Park Circle Suite C","id":"a6q39zft7kyf","geo_precision":"range"},"type":"Feature","geometry":{"type":"Point","coordinates":[-117.860497,33.68968]}},{"properties":{"rep? (1 for yes, 0 for no)":0,"city":"Irvine","zip":"92614","geo_score":0.848,"street address":"38 Executive Park 250","id":"a6q39zhud7a7","geo_precision":"range"},"type":"Feature","geometry":{"type":"Point","coordinates":[-117.860329,33.684875]}},{"properties":{"rep? (1 for yes, 0 for no)":0,"city":"Irvine","zip":"92612","geo_score":0.777,"street address":"2361 Campus Drive 2nd Floor","id":"a6q39zk6xbxe","geo_precision":"range"},"type":"Feature","geometry":{"type":"Point","coordinates":[-117.860061,33.670104]}},{"properties":{"rep? (1 for yes, 0 for no)":0,"city":"Irvine","zip":"92612","geo_score":0.663,"street address":"19200 Von Karman Avenue Suite 400","id":"a6q39z5zflrx","geo_precision":"range"},"type":"Feature","geometry":{"type":"Point","coordinates":[-117.85813,33.670937]}},{"properties":{"rep? (1 for yes, 0 for no)":0,"city":"Irvine","zip":"92604","geo_score":0.429,"street address":"4040 Barranca Pkwy. Suite 200","id":"a6q39z78odi5","geo_precision":"street"},"type":"Feature","geometry":{"type":"Point","coordinates":[-117.805857,33.682407]}},{"properties":{"rep? (1 for yes, 0 for no)":0,"city":"Irvine","zip":"92618","geo_score":0.707,"street address":"15751 Rockfield Blvd. #200","id":"a6q39zf5jsmm","geo_precision":"street"},"type":"Feature","geometry":{"type":"Point","coordinates":[-117.721179,33.638448]}},{"properties":{"rep? (1 for yes, 0 for no)":0,"city":"Irvine","zip":"92612","geo_score":0.902,"street address":"18044 Culver Drive","id":"a6q39zftjap1","geo_precision":"range"},"type":"Feature","geometry":{"type":"Point","coordinates":[-117.826938,33.665057]}},{"properties":{"rep? (1 for yes, 0 for no)":0,"city":"Irvine","zip":"92614","geo_score":0.805,"street address":"1 Park Plaza #100","id":"a6q39zigtbz2","geo_precision":"street"},"type":"Feature","geometry":{"type":"Point","coordinates":[-117.837863,33.677196]}},{"properties":{"rep? (1 for yes, 0 for no)":0,"city":"Irvine","zip":"92612","geo_score":0.902,"street address":"18044 Culver Drive","id":"a6q39z6u18wk","geo_precision":"range"},"type":"Feature","geometry":{"type":"Point","coordinates":[-117.826938,33.665057]}},{"properties":{"rep? (1 for yes, 0 for no)":0,"city":"Irvine","zip":"92614","geo_score":0.805,"street address":"1 Park Plaza #100","id":"a6q39zcsrapg","geo_precision":"street"},"type":"Feature","geometry":{"type":"Point","coordinates":[-117.837863,33.677196]}},{"properties":{"rep? (1 for yes, 0 for no)":0,"city":"Irvine","zip":"92614","geo_score":0.735,"street address":"2020 Main Street Suite 250","id":"a6q39zka2c5o","geo_precision":"range"},"type":"Feature","geometry":{"type":"Point","coordinates":[-117.855611,33.685622]}},{"properties":{"rep? (1 for yes, 0 for no)":0,"city":"Irvine","zip":"92614","geo_score":0.756,"street address":"1200 Main Street Suite H","id":"a6q39z7yetgb","geo_precision":"range"},"type":"Feature","geometry":{"type":"Point","coordinates":[-117.86639,33.690627]}},{"properties":{"rep? (1 for yes, 0 for no)":0,"city":"Irvine","zip":"92614","geo_score":0.735,"street address":"1920 Main Street Suite 210","id":"a6q39z9ko01m","geo_precision":"range"},"type":"Feature","geometry":{"type":"Point","coordinates":[-117.857203,33.686014]}},{"properties":{"rep? (1 for yes, 0 for no)":0,"city":"Irvine","zip":"92604","geo_score":0.849,"street address":"215 Wet Yale Loop","id":"a6q39z8r6c1o","geo_precision":"range"},"type":"Feature","geometry":{"type":"Point","coordinates":[-117.785206,33.677374]}},{"properties":{"rep? (1 for yes, 0 for no)":0,"city":"Irvine","zip":"92618","geo_score":0.756,"street address":"108 Pacifica Suite  250","id":"a6q39zjdqmxj","geo_precision":"range"},"type":"Feature","geometry":{"type":"Point","coordinates":[-117.754402,33.659669]}},{"properties":{"rep? (1 for yes, 0 for no)":1,"city":"Irvine","zip":"92614","geo_score":0.765,"street address":"2405 McCabe Way Suite 213","id":"a6q39zdgofap","geo_precision":"range"},"type":"Feature","geometry":{"type":"Point","coordinates":[-117.847592,33.679294]}},{"properties":{"rep? (1 for yes, 0 for no)":0,"city":"Irvine","zip":"92618","geo_score":0.796,"street address":"7525 Irvine Center Drive Suite 200","id":"a6q39z5m9c0q","geo_precision":"range"},"type":"Feature","geometry":{"type":"Point","coordinates":[-117.754063,33.662392]}},{"properties":{"rep? (1 for yes, 0 for no)":0,"city":"Irvine","zip":"92618","geo_score":0.756,"street address":"100 Pacifica Suite 160","id":"a6q39z8v4505","geo_precision":"range"},"type":"Feature","geometry":{"type":"Point","coordinates":[-117.754745,33.6584]}},{"properties":{"rep? (1 for yes, 0 for no)":0,"city":"Irvine","zip":"92606","geo_score":0.791,"street address":"3 Corporate Park Suite 260","id":"a6q39zcg1w3i","geo_precision":"range"},"type":"Feature","geometry":{"type":"Point","coordinates":[-117.829171,33.68937]}},{"properties":{"rep? (1 for yes, 0 for no)":0,"city":"Irvine","zip":"92618","geo_score":0.449,"street address":"15707 Rockfield Suite 333","id":"a6q39z8n9d8q","geo_precision":"street"},"type":"Feature","geometry":{"type":"Point","coordinates":[-117.722295,33.640539]}},{"properties":{"rep? (1 for yes, 0 for no)":0,"city":"Irvine","zip":"92602","geo_score":0.409,"street address":"410 Exchange Suite 100","id":"a6q39z9c5b93","geo_precision":"street"},"type":"Feature","geometry":{"type":"Point","coordinates":[-118.04982,33.727669]}},{"properties":{"rep? (1 for yes, 0 for no)":0,"city":"Irvine","zip":"92618","geo_score":0.698,"street address":"7700 Irvine Center Drive Suite 630","id":"a6q39zjm5ubp","geo_precision":"range"},"type":"Feature","geometry":{"type":"Point","coordinates":[-117.753734,33.662131]}},{"properties":{"rep? (1 for yes, 0 for no)":0,"city":"Irvine","zip":"92604","geo_score":0.429,"street address":"4010 Barranca Pkwy. Suite 100","id":"a6q39zauq2ht","geo_precision":"street"},"type":"Feature","geometry":{"type":"Point","coordinates":[-117.805857,33.682407]}},{"properties":{"rep? (1 for yes, 0 for no)":0,"city":"Irvine","zip":"92618","geo_score":0.902,"street address":"163 Technology Drive","id":"a6q39zho5fcl","geo_precision":"range"},"type":"Feature","geometry":{"type":"Point","coordinates":[-117.744549,33.663606]}},{"properties":{"rep? (1 for yes, 0 for no)":0,"city":"Irvine","zip":"92602","geo_score":0.709,"street address":"200 Commerce","id":"a6q39zjg78rm","geo_precision":"street"},"type":"Feature","geometry":{"type":"Point","coordinates":[-117.78573,33.717795]}},{"properties":{"rep? (1 for yes, 0 for no)":0,"city":"Irvine","zip":"92618","geo_score":0.805,"street address":"9500 Toledo Way","id":"a6q39zac66n3","geo_precision":"range"},"type":"Feature","geometry":{"type":"Point","coordinates":[-117.712555,33.654983]}},{"properties":{"rep? (1 for yes, 0 for no)":0,"city":"Irvine","zip":"92612","geo_score":0.779,"street address":"19600 Fairchild Road Suite 200","id":"a6q39z5ubn63","geo_precision":"range"},"type":"Feature","geometry":{"type":"Point","coordinates":[-117.860628,33.654358]}},{"properties":{"rep? (1 for yes, 0 for no)":0,"city":"Irvine","zip":"92606","geo_score":0.791,"street address":"3 Corporate Park Suite 260","id":"a6q39z8jyxu1","geo_precision":"range"},"type":"Feature","geometry":{"type":"Point","coordinates":[-117.829171,33.68937]}},{"properties":{"rep? (1 for yes, 0 for no)":0,"city":"Irvine","zip":"92606","geo_score":0.791,"street address":"1 Corporate Park Suite 150","id":"a6q39zcth43j","geo_precision":"range"},"type":"Feature","geometry":{"type":"Point","coordinates":[-117.828544,33.688931]}},{"properties":{"rep? (1 for yes, 0 for no)":0,"city":"Irvine","zip":"92612","geo_score":0.777,"street address":"2212 Dupont Drive Suite V","id":"a6q39zjps4we","geo_precision":"range"},"type":"Feature","geometry":{"type":"Point","coordinates":[-117.858202,33.675118]}},{"properties":{"rep? (1 for yes, 0 for no)":0,"city":"Irvine","zip":"92614","geo_score":0.735,"street address":"2010 Main Street Suite 550","id":"a6q39zgp1o8a","geo_precision":"range"},"type":"Feature","geometry":{"type":"Point","coordinates":[-117.855753,33.685652]}},{"properties":{"rep? (1 for yes, 0 for no)":0,"city":"Irvine","zip":"92612","geo_score":0.462,"street address":"19782 MacArthur Blvd. Suite 250","id":"a6q39zay59ff","geo_precision":"street"},"type":"Feature","geometry":{"type":"Point","coordinates":[-117.862704,33.657534]}},{"properties":{"rep? (1 for yes, 0 for no)":0,"city":"Irvine","zip":"92604","geo_score":0.429,"street address":"4040 Barranca Pkwy. Suite 280","id":"a6q39zj0j3nl","geo_precision":"street"},"type":"Feature","geometry":{"type":"Point","coordinates":[-117.805857,33.682407]}},{"properties":{"rep? (1 for yes, 0 for no)":0,"city":"Irvine","zip":"92614","geo_score":0.673,"street address":"26 Corporate Plaza Suite 200","id":"a6q39zgy1xyl","geo_precision":"range"},"type":"Feature","geometry":{"type":"Point","coordinates":[-117.876835,33.607183]}},{"properties":{"rep? (1 for yes, 0 for no)":0,"city":"Irvine","zip":"92614","geo_score":0.902,"street address":"17861 Von Karman Avenue","id":"a6q39zdo01ba","geo_precision":"range"},"type":"Feature","geometry":{"type":"Point","coordinates":[-117.845235,33.686461]}},{"properties":{"rep? (1 for yes, 0 for no)":0,"city":"Irvine","zip":"92612","geo_score":0.429,"street address":"18401 Von Karman Ave. Suite 400","id":"a6q39zjvoy95","geo_precision":"street"},"type":"Feature","geometry":{"type":"Point","coordinates":[-117.861093,33.667798]}},{"properties":{"rep? (1 for yes, 0 for no)":0,"city":"La Palma","zip":"90623","geo_score":0.49,"street address":"1 Centerpointe Dr. Suite 370","id":"a6q39zhz4iyk","geo_precision":"street"},"type":"Feature","geometry":{"type":"Point","coordinates":[-118.0296,33.86087]}},{"properties":{"rep? (1 for yes, 0 for no)":1,"city":"Laguna Beach","zip":"92651","geo_score":0.709,"street address":"939 Glenneyre Street Suite E","id":"a6q39zk5mr33","geo_precision":"range"},"type":"Feature","geometry":{"type":"Point","coordinates":[-117.777277,33.536013]}},{"properties":{"rep? (1 for yes, 0 for no)":1,"city":"Laguna Hills","zip":"92653","geo_score":0.729,"street address":"23121 Verdugo Drive Suite 100","id":"a6q39zjqdokk","geo_precision":"range"},"type":"Feature","geometry":{"type":"Point","coordinates":[-117.729191,33.626406]}},{"properties":{"rep? (1 for yes, 0 for no)":0,"city":"Laguna Hills","zip":"92653","geo_score":0.729,"street address":"23232 Peralta Drive Suite 202","id":"a6q39z5tl5j4","geo_precision":"range"},"type":"Feature","geometry":{"type":"Point","coordinates":[-117.7251,33.624874]}},{"properties":{"rep? (1 for yes, 0 for no)":0,"city":"Laguna Hills","zip":"92653","geo_score":0.424,"street address":"23461 S. Pointe Drive Suite 175","id":"a6q39zdjkgsc","geo_precision":"street"},"type":"Feature","geometry":{"type":"Point","coordinates":[-117.72232,33.625389]}},{"properties":{"rep? (1 for yes, 0 for no)":0,"city":"Laguna Hills","zip":"92653","geo_score":0.537,"street address":"24085 El Toro Rd. 2nd Floor","id":"a6q39zdr9gyi","geo_precision":"street"},"type":"Feature","geometry":{"type":"Point","coordinates":[-117.74428,33.60174]}},{"properties":{"rep? (1 for yes, 0 for no)":0,"city":"Laguna HIlls","zip":"92653","geo_score":0.439,"street address":"23521 Paseo de Valencia Suite 310","id":"a6q39z4r49ni","geo_precision":"street"},"type":"Feature","geometry":{"type":"Point","coordinates":[-117.711377,33.608148]}},{"properties":{"rep? (1 for yes, 0 for no)":0,"city":"Laguna Hills","zip":"92653","geo_score":0.747,"street address":"23046 Avenida de la Carlota Suite 600","id":"a6q39zjbohz4","geo_precision":"range"},"type":"Feature","geometry":{"type":"Point","coordinates":[-117.721749,33.627226]}},{"properties":{"rep? (1 for yes, 0 for no)":0,"city":"Laguna Niguel","zip":"92677","geo_score":0.711,"street address":"28281 Crown Valley Parkway Suite 150","id":"a6q39z9cgllx","geo_precision":"range"},"type":"Feature","geometry":{"type":"Point","coordinates":[-117.690971,33.544074]}},{"properties":{"rep? (1 for yes, 0 for no)":0,"city":"Laguna Niguel","zip":"92677","geo_score":0.45,"street address":"27611 La Paz Suite D","id":"a6q39z8j8obq","geo_precision":"street"},"type":"Feature","geometry":{"type":"Point","coordinates":[-118.04722,33.727689]}},{"properties":{"rep? (1 for yes, 0 for no)":0,"city":"Laguna Niguel","zip":"92677","geo_score":0.657,"street address":"28202 Cabot Road Suite 610","id":"a6q39zbhxfcx","geo_precision":"range"},"type":"Feature","geometry":{"type":"Point","coordinates":[-117.679085,33.552309]}},{"properties":{"rep? (1 for yes, 0 for no)":0,"city":"Laguna Niguel","zip":"92677","geo_score":0.786,"street address":"27120-B Alicia Parkway","id":"a6q39zcwt59n","geo_precision":"range"},"type":"Feature","geometry":{"type":"Point","coordinates":[-117.715289,33.566547]}},{"properties":{"rep? (1 for yes, 0 for no)":0,"city":"Laguna Niguel","zip":"92677","geo_score":0.813,"street address":"25461 Rancho Niguel Road","id":"a6q39zesc4er","geo_precision":"range"},"type":"Feature","geometry":{"type":"Point","coordinates":[-117.688366,33.554647]}},{"properties":{"rep? (1 for yes, 0 for no)":1,"city":"Laguna Niguel","zip":"92677","geo_score":0.813,"street address":"23807 Aliso Creek Road","id":"a6q39zjwkxlh","geo_precision":"range"},"type":"Feature","geometry":{"type":"Point","coordinates":[-117.712679,33.555521]}},{"properties":{"rep? (1 for yes, 0 for no)":0,"city":"Laguna Niguel","zip":"92677","geo_score":0.657,"street address":"28202 Cabot Road Suite 135","id":"a6q39z9k4a6y","geo_precision":"range"},"type":"Feature","geometry":{"type":"Point","coordinates":[-117.679085,33.552309]}},{"properties":{"rep? (1 for yes, 0 for no)":0,"city":"Laguna Niguel","zip":"92677","geo_score":0.813,"street address":"27040 Alicia Pkwy.","id":"a6q39zk5xa7c","geo_precision":"range"},"type":"Feature","geometry":{"type":"Point","coordinates":[-117.715041,33.567329]}},{"properties":{"rep? (1 for yes, 0 for no)":0,"city":"Lake Forest","zip":"92630","geo_score":0.824,"street address":"22222 Newbridge Drive","id":"a6q39zkyossm","geo_precision":"range"},"type":"Feature","geometry":{"type":"Point","coordinates":[-117.673027,33.640909]}},{"properties":{"rep? (1 for yes, 0 for no)":0,"city":"Mission Viejo","zip":"92691","geo_score":0.466,"street address":"26522 La Alameda Suite 100","id":"a6q39zfzn51j","geo_precision":"street"},"type":"Feature","geometry":{"type":"Point","coordinates":[-117.64678,33.64787]}},{"properties":{"rep? (1 for yes, 0 for no)":0,"city":"Mission Viejo","zip":"92691","geo_score":0.902,"street address":"27805 Santa Margarita Parkway","id":"a6q39zf485xj","geo_precision":"range"},"type":"Feature","geometry":{"type":"Point","coordinates":[-117.644538,33.654956]}},{"properties":{"rep? (1 for yes, 0 for no)":0,"city":"Mission Viejo","zip":"92691","geo_score":0.772,"street address":"27101 Puerta Real Suite 100","id":"a6q39z97hf1n","geo_precision":"range"},"type":"Feature","geometry":{"type":"Point","coordinates":[-117.66768,33.569379]}},{"properties":{"rep? (1 for yes, 0 for no)":0,"city":"Mission Viejo","zip":"92691","geo_score":0.902,"street address":"27805 Santa Margarita Parkway","id":"a6q39zkmqosz","geo_precision":"range"},"type":"Feature","geometry":{"type":"Point","coordinates":[-117.644538,33.654956]}},{"properties":{"rep? (1 for yes, 0 for no)":0,"city":"Mission Viejo","zip":"92691","geo_score":0.772,"street address":"27101 Puerta Real Suite 100","id":"a6q39zhbyv2q","geo_precision":"range"},"type":"Feature","geometry":{"type":"Point","coordinates":[-117.66768,33.569379]}},{"properties":{"rep? (1 for yes, 0 for no)":0,"city":"Mission Viejo","zip":"92691","geo_score":0.902,"street address":"27805 Santa Margarita Parkway","id":"a6q39zkn8rxq","geo_precision":"range"},"type":"Feature","geometry":{"type":"Point","coordinates":[-117.644538,33.654956]}},{"properties":{"rep? (1 for yes, 0 for no)":0,"city":"Mission Viejo","zip":"92691","geo_score":0.722,"street address":"25910 Acero Suite 390","id":"a6q39zf82ybn","geo_precision":"range"},"type":"Feature","geometry":{"type":"Point","coordinates":[-117.678974,33.616903]}},{"properties":{"rep? (1 for yes, 0 for no)":0,"city":"Mission Viejo","zip":"92691","geo_score":0.454,"street address":"27001 La Paz Road Suite 300","id":"a6q39z82onqu","geo_precision":"street"},"type":"Feature","geometry":{"type":"Point","coordinates":[-117.64678,33.64787]}},{"properties":{"rep? (1 for yes, 0 for no)":1,"city":"Mission Viejo","zip":"92691","geo_score":0.61,"street address":"25909 Pala Dr. #100","id":"a6q39zdbb2jt","geo_precision":"street"},"type":"Feature","geometry":{"type":"Point","coordinates":[-117.6784,33.61908]}},{"properties":{"rep? (1 for yes, 0 for no)":0,"city":"Mission Viejo","zip":"92691","geo_score":0.72,"street address":"23436 Madero Street Suite 140","id":"a6q39z6wdkcz","geo_precision":"range"},"type":"Feature","geometry":{"type":"Point","coordinates":[-117.677661,33.622953]}},{"properties":{"rep? (1 for yes, 0 for no)":0,"city":"Mission Viejo","zip":"92692","geo_score":0.782,"street address":"27782 Vista del Lago Suite 29","id":"a6q39zb3x1dt","geo_precision":"range"},"type":"Feature","geometry":{"type":"Point","coordinates":[-117.648413,33.634189]}},{"properties":{"rep? (1 for yes, 0 for no)":0,"city":"Monarch Beach","zip":"92629","geo_score":0.902,"street address":"2 Ritz Carlton Drive","id":"a6q39z5j8y4p","geo_precision":"range"},"type":"Feature","geometry":{"type":"Point","coordinates":[-117.71896,33.47629]}},{"properties":{"rep? (1 for yes, 0 for no)":0,"city":"Newport Beach","zip":"92660","geo_score":0.771,"street address":"23 Corporate Plaza Suite 240","id":"a6q39zjj37rj","geo_precision":"range"},"type":"Feature","geometry":{"type":"Point","coordinates":[-117.876835,33.607183]}},{"properties":{"rep? (1 for yes, 0 for no)":0,"city":"Newport Beach","zip":"92660","geo_score":0.524,"street address":"3300 Irvine Ave. Suite 135","id":"a6q39zhe4cel","geo_precision":"street"},"type":"Feature","geometry":{"type":"Point","coordinates":[-117.906983,33.630155]}},{"properties":{"rep? (1 for yes, 0 for no)":0,"city":"Newport Beach","zip":"92660","geo_score":0.486,"street address":"180 Newport Center Dr. Suite 180","id":"a6q39zfnyilu","geo_precision":"street"},"type":"Feature","geometry":{"type":"Point","coordinates":[-117.878874,33.607663]}},{"properties":{"rep? (1 for yes, 0 for no)":0,"city":"Newport Beach","zip":"92663","geo_score":0.429,"street address":"1500 West Balboa Blvd. Suite 103","id":"a6q39zjbzcpv","geo_precision":"street"},"type":"Feature","geometry":{"type":"Point","coordinates":[-117.92059,33.607108]}},{"properties":{"rep? (1 for yes, 0 for no)":0,"city":"Newport Beach","zip":"92663","geo_score":0.429,"street address":"1500 West Balboa Blvd. Suite 103","id":"a6q39zcayoto","geo_precision":"street"},"type":"Feature","geometry":{"type":"Point","coordinates":[-117.92059,33.607108]}},{"properties":{"rep? (1 for yes, 0 for no)":0,"city":"Newport Beach","zip":"92663","geo_score":0.553,"street address":"881 Dover Drive Suite 380","id":"a6q39zker3s6","geo_precision":"street"},"type":"Feature","geometry":{"type":"Point","coordinates":[-117.906952,33.621394]}},{"properties":{"rep? (1 for yes, 0 for no)":0,"city":"Newport Beach","zip":"92660","geo_score":0.714,"street address":"3848 Campus Dr. Suite 214","id":"a6q39zkrr721","geo_precision":"street"},"type":"Feature","geometry":{"type":"Point","coordinates":[-117.864029,33.671738]}},{"properties":{"rep? (1 for yes, 0 for no)":0,"city":"Newport Beach","zip":"92660","geo_score":0.801,"street address":"110 Newport Center Drive Suite 200","id":"a6q39zcbn7gg","geo_precision":"range"},"type":"Feature","geometry":{"type":"Point","coordinates":[-117.878157,33.608401]}},{"properties":{"rep? (1 for yes, 0 for no)":1,"city":"Newport Beach","zip":"92660","geo_score":0.718,"street address":"5000 Birch Street 6th Floor East Tower","id":"a6q39zd8mb9v","geo_precision":"range"},"type":"Feature","geometry":{"type":"Point","coordinates":[-117.857201,33.665014]}},{"properties":{"rep? (1 for yes, 0 for no)":0,"city":"Newport Beach","zip":"92663","geo_score":0.78,"street address":"2901 Newport Blvd.","id":"a6q39z7chlu7","geo_precision":"range"},"type":"Feature","geometry":{"type":"Point","coordinates":[-117.929869,33.614115]}},{"properties":{"rep? (1 for yes, 0 for no)":0,"city":"Newport Beach","zip":"92663","geo_score":0.857,"street address":null,"id":"a6q39zdohpvq","geo_precision":"zip"},"type":"Feature","geometry":{"type":"Point","coordinates":[-117.91709,33.61837]}},{"properties":{"rep? (1 for yes, 0 for no)":1,"city":"Newport Beach","zip":"92663","geo_score":0.815,"street address":"425 Old Newport Blvd Suite C","id":"a6q39z9vqs7j","geo_precision":"range"},"type":"Feature","geometry":{"type":"Point","coordinates":[-117.926639,33.626158]}},{"properties":{"rep? (1 for yes, 0 for no)":0,"city":"Newport Beach","zip":"92660","geo_score":0.779,"street address":"4685  MacArthur Court Suite 170","id":"a6q39z5lmzv6","geo_precision":"range"},"type":"Feature","geometry":{"type":"Point","coordinates":[-117.861585,33.670281]}},{"properties":{"rep? (1 for yes, 0 for no)":0,"city":"Newport Beach","zip":"92660","geo_score":0.468,"street address":"4400 MacArthur Blvd. Suite 950","id":"a6q39zgxk4pl","geo_precision":"street"},"type":"Feature","geometry":{"type":"Point","coordinates":[-117.861207,33.670078]}},{"properties":{"rep? (1 for yes, 0 for no)":0,"city":"Newport Beach","zip":"92660","geo_score":0.714,"street address":"3848 Campus Dr. Suite 214","id":"a6q39z7w8dkj","geo_precision":"street"},"type":"Feature","geometry":{"type":"Point","coordinates":[-117.864029,33.671738]}},{"properties":{"rep? (1 for yes, 0 for no)":0,"city":"Newport Beach","zip":"92660","geo_score":0.902,"street address":"4301 MacArthur Blvd.","id":"a6q39z8ijj4k","geo_precision":"range"},"type":"Feature","geometry":{"type":"Point","coordinates":[-117.864212,33.666647]}},{"properties":{"rep? (1 for yes, 0 for no)":0,"city":"Newport Beach","zip":"92660","geo_score":0.468,"street address":"3991 Macarthur Blvd. Suite 300","id":"a6q39zaf1cve","geo_precision":"street"},"type":"Feature","geometry":{"type":"Point","coordinates":[-117.861207,33.670078]}},{"properties":{"rep? (1 for yes, 0 for no)":0,"city":"Newport Beach","zip":"92660","geo_score":0.746,"street address":"1000 Quail Street Suite 260","id":"a6q39z9pkyyj","geo_precision":"range"},"type":"Feature","geometry":{"type":"Point","coordinates":[-117.864557,33.658125]}},{"properties":{"rep? (1 for yes, 0 for no)":1,"city":"Newport Beach","zip":"92660","geo_score":0.902,"street address":"1401 Dove Street","id":"a6q39zgg1xni","geo_precision":"range"},"type":"Feature","geometry":{"type":"Point","coordinates":[-117.865832,33.663451]}},{"properties":{"rep? (1 for yes, 0 for no)":0,"city":"Newport Beach","zip":"92660","geo_score":0.486,"street address":"450 Newport Center Dr. Suite 360","id":"a6q39z8mkj1a","geo_precision":"street"},"type":"Feature","geometry":{"type":"Point","coordinates":[-117.878874,33.607663]}},{"properties":{"rep? (1 for yes, 0 for no)":0,"city":"Newport Beach","zip":"92660","geo_score":0.791,"street address":"4041 Macarthur Boulevard Suite 160","id":"a6q39zgayoai","geo_precision":"range"},"type":"Feature","geometry":{"type":"Point","coordinates":[-117.863369,33.661766]}},{"properties":{"rep? (1 for yes, 0 for no)":0,"city":"Newport Beach","zip":"92661","geo_score":0.821,"street address":"1215 West Bay Ave.","id":"a6q39zf29e9f","geo_precision":"range"},"type":"Feature","geometry":{"type":"Point","coordinates":[-117.916074,33.606915]}},{"properties":{"rep? (1 for yes, 0 for no)":0,"city":"Newport Beach","zip":"92660","geo_score":0.476,"street address":"377 E. Coast Hwy. Suite 250","id":"a6q39zf7d9ao","geo_precision":"street"},"type":"Feature","geometry":{"type":"Point","coordinates":[-117.904108,33.616742]}},{"properties":{"rep? (1 for yes, 0 for no)":0,"city":"Newport Beach","zip":"92660","geo_score":0.779,"street address":"4685 MacArthur Court Suite 300","id":"a6q39z4nu3v8","geo_precision":"range"},"type":"Feature","geometry":{"type":"Point","coordinates":[-117.861585,33.670281]}},{"properties":{"rep? (1 for yes, 0 for no)":0,"city":"Newport Beach","zip":"92660","geo_score":0.537,"street address":"4440 Von Karman #100","id":"a6q39zjrtffz","geo_precision":"street"},"type":"Feature","geometry":{"type":"Point","coordinates":[-117.863527,33.662504]}},{"properties":{"rep? (1 for yes, 0 for no)":1,"city":"Newport Beach","zip":"92660","geo_score":0.468,"street address":"4299 MacArthur Blvd. Suite 207","id":"a6q39zdt6hbf","geo_precision":"street"},"type":"Feature","geometry":{"type":"Point","coordinates":[-117.861207,33.670078]}},{"properties":{"rep? (1 for yes, 0 for no)":0,"city":"Newport Beach","zip":"92663","geo_score":0.429,"street address":"1500 West Balboa Blvd. Suite 201","id":"a6q39zae6rle","geo_precision":"street"},"type":"Feature","geometry":{"type":"Point","coordinates":[-117.92059,33.607108]}},{"properties":{"rep? (1 for yes, 0 for no)":0,"city":"Newport Beach","zip":"92660","geo_score":0.902,"street address":"1401 Dove Street","id":"a6q39zho150o","geo_precision":"range"},"type":"Feature","geometry":{"type":"Point","coordinates":[-117.865832,33.663451]}},{"properties":{"rep? (1 for yes, 0 for no)":0,"city":"Newport Beach","zip":"92660","geo_score":0.565,"street address":"3848 Campus Drive Suite 210","id":"a6q39z7vney4","geo_precision":"street"},"type":"Feature","geometry":{"type":"Point","coordinates":[-117.872638,33.664701]}},{"properties":{"rep? (1 for yes, 0 for no)":0,"city":"Newport Beach","zip":"92660","geo_score":0.771,"street address":"26 Corporate Plaza Suite 200","id":"a6q39z7n20fo","geo_precision":"range"},"type":"Feature","geometry":{"type":"Point","coordinates":[-117.876835,33.607183]}},{"properties":{"rep? (1 for yes, 0 for no)":0,"city":"Newport Beach","zip":"92660","geo_score":0.902,"street address":"4590 Mac Arthur Blvd.","id":"a6q39zjgl14x","geo_precision":"range"},"type":"Feature","geometry":{"type":"Point","coordinates":[-117.864403,33.670379]}},{"properties":{"rep? (1 for yes, 0 for no)":0,"city":"Newport Beach","zip":"92660","geo_score":0.738,"street address":"5000 Birch Street Suite 2200","id":"a6q39za9f6ru","geo_precision":"range"},"type":"Feature","geometry":{"type":"Point","coordinates":[-117.857201,33.665014]}},{"properties":{"rep? (1 for yes, 0 for no)":0,"city":"Newport Beach","zip":"92660","geo_score":0.536,"street address":"4343 Von Karman Ave. Suite 150","id":"a6q39z5qq1g4","geo_precision":"street"},"type":"Feature","geometry":{"type":"Point","coordinates":[-117.844603,33.615294]}},{"properties":{"rep? (1 for yes, 0 for no)":0,"city":"Newport Beach","zip":"92660","geo_score":0.829,"street address":"5 Corporate Plaza","id":"a6q39z60f1c7","geo_precision":"range"},"type":"Feature","geometry":{"type":"Point","coordinates":[-117.876869,33.608989]}},{"properties":{"rep? (1 for yes, 0 for no)":0,"city":"Newport Beach","zip":"92660","geo_score":0.536,"street address":"4343 Von Karman Ave. Suite 150","id":"a6q39z8y4g0c","geo_precision":"street"},"type":"Feature","geometry":{"type":"Point","coordinates":[-117.844603,33.615294]}},{"properties":{"rep? (1 for yes, 0 for no)":0,"city":"Newport Beach","zip":"92660","geo_score":0.791,"street address":"4041 Macarthur Boulevard Suite 160","id":"a6q39zauuw6n","geo_precision":"range"},"type":"Feature","geometry":{"type":"Point","coordinates":[-117.863369,33.661766]}},{"properties":{"rep? (1 for yes, 0 for no)":0,"city":"Orange","zip":"92868","geo_score":0.612,"street address":"One City Boulevard West Suite 1800","id":"a6q39zdm3hh0","geo_precision":"street"},"type":"Feature","geometry":{"type":"Point","coordinates":[-117.889859,33.782216]}},{"properties":{"rep? (1 for yes, 0 for no)":0,"city":"Orange","zip":"92866","geo_score":0.468,"street address":"291 N. Glassell","id":"a6q39zg6dye4","geo_precision":"street"},"type":"Feature","geometry":{"type":"Point","coordinates":[-117.853088,33.789685]}},{"properties":{"rep? (1 for yes, 0 for no)":0,"city":"Orange","zip":"92865","geo_score":0.902,"street address":"1508 East Lincoln Ave.","id":"a6q39zhlspvd","geo_precision":"range"},"type":"Feature","geometry":{"type":"Point","coordinates":[-117.838333,33.834967]}},{"properties":{"rep? (1 for yes, 0 for no)":1,"city":"Orange","zip":"92865","geo_score":0.476,"street address":"3111 N. Tustin Ave. Suite 220","id":"a6q39zig7jzk","geo_precision":"street"},"type":"Feature","geometry":{"type":"Point","coordinates":[-117.835893,33.817455]}},{"properties":{"rep? (1 for yes, 0 for no)":0,"city":"Orange","zip":"92868","geo_score":0.621,"street address":"One City Boulevard West Suite 655","id":"a6q39za6fq0g","geo_precision":"street"},"type":"Feature","geometry":{"type":"Point","coordinates":[-117.889859,33.782216]}},{"properties":{"rep? (1 for yes, 0 for no)":0,"city":"Orange","zip":"92868","geo_score":0.49,"street address":"505 S. Main St. Suite 810","id":"a6q39z8ifr9a","geo_precision":"street"},"type":"Feature","geometry":{"type":"Point","coordinates":[-117.86729,33.786069]}},{"properties":{"rep? (1 for yes, 0 for no)":0,"city":"Orange","zip":"92866","geo_score":0.468,"street address":"101 E. Chapman Avenue","id":"a6q39z58k0jg","geo_precision":"street"},"type":"Feature","geometry":{"type":"Point","coordinates":[-117.852677,33.787874]}},{"properties":{"rep? (1 for yes, 0 for no)":0,"city":"Rancho Santa Margarita","zip":"92688","geo_score":0.655,"street address":"22751 El Prado Suite 3308","id":"a6q39z79k83q","geo_precision":"range"},"type":"Feature","geometry":{"type":"Point","coordinates":[-117.59539,33.631589]}},{"properties":{"rep? (1 for yes, 0 for no)":0,"city":"Rancho Santa Margarita","zip":"92688","geo_score":0.82,"street address":"4 Via Neblina","id":"a6q39zivt5zo","geo_precision":"range"},"type":"Feature","geometry":{"type":"Point","coordinates":[-117.615055,33.659221]}},{"properties":{"rep? (1 for yes, 0 for no)":0,"city":"Riverside","zip":"92507","geo_score":0.379,"street address":"1159 Iowa Ave. Suite E","id":"a6q39zcegkwh","geo_precision":"street"},"type":"Feature","geometry":{"type":"Point","coordinates":[-117.339899,34.018202]}},{"properties":{"rep? (1 for yes, 0 for no)":0,"city":"San Clemente","zip":"92673","geo_score":0.485,"street address":"209 Avenida Del Mar Suite 207","id":"a6q39z9be5db","geo_precision":"street"},"type":"Feature","geometry":{"type":"Point","coordinates":[-117.58453,33.461339]}},{"properties":{"rep? (1 for yes, 0 for no)":0,"city":"San Diego","zip":"92130","geo_score":0.538,"street address":"3525 Del Mar Heights Road Suite 315","id":"a6q39zfaz4jc","geo_precision":"street"},"type":"Feature","geometry":{"type":"Point","coordinates":[-117.208746,32.959905]}},{"properties":{"rep? (1 for yes, 0 for no)":0,"city":"San Dimas","zip":"91773","geo_score":0.87,"street address":"140 East Via Verde","id":"a6q39z7xltns","geo_precision":"range"},"type":"Feature","geometry":{"type":"Point","coordinates":[-117.813228,34.078]}},{"properties":{"rep? (1 for yes, 0 for no)":0,"city":"San Juan Capistrano","zip":"92675","geo_score":0.429,"street address":"32291 E. Camino Capistrano","id":"a6q39ze6slgj","geo_precision":"street"},"type":"Feature","geometry":{"type":"Point","coordinates":[-117.67355,33.57082]}},{"properties":{"rep? (1 for yes, 0 for no)":0,"city":"Santa Ana","zip":"92704","geo_score":0.844,"street address":"3742 South Bristol","id":"a6q39z6vrnxz","geo_precision":"range"},"type":"Feature","geometry":{"type":"Point","coordinates":[-117.885614,33.697603]}},{"properties":{"rep? (1 for yes, 0 for no)":0,"city":"Santa Ana","zip":"92707","geo_score":0.454,"street address":"6 Hutton Centre Dr. Suite 1100","id":"a6q39zb7p0fk","geo_precision":"street"},"type":"Feature","geometry":{"type":"Point","coordinates":[-117.8656,33.69925]}},{"properties":{"rep? (1 for yes, 0 for no)":0,"city":"Santa Ana","zip":"92701","geo_score":0.824,"street address":"1801 Parkcourt Place D-105","id":"a6q39z5n5lzj","geo_precision":"range"},"type":"Feature","geometry":{"type":"Point","coordinates":[-117.842135,33.74988]}},{"properties":{"rep? (1 for yes, 0 for no)":1,"city":"Santa Ana","zip":"92704","geo_score":0.471,"street address":"3500 S. Coast Bristol St.","id":"a6q39zc3n7rw","geo_precision":"street"},"type":"Feature","geometry":{"type":"Point","coordinates":[-117.88504,33.73447]}},{"properties":{"rep? (1 for yes, 0 for no)":0,"city":"Santa Ana","zip":"92703","geo_score":0.471,"street address":"1111 N. Bristol Street Sutie F","id":"a6q39za9tqf2","geo_precision":"street"},"type":"Feature","geometry":{"type":"Point","coordinates":[-117.88517,33.745535]}},{"properties":{"rep? (1 for yes, 0 for no)":0,"city":"Santa Ana","zip":"92707","geo_score":0.454,"street address":"5 Hutton Center Dr. Suite 960","id":"a6q39z7eurv9","geo_precision":"street"},"type":"Feature","geometry":{"type":"Point","coordinates":[-117.8656,33.69925]}},{"properties":{"rep? (1 for yes, 0 for no)":0,"city":"Santa Ana","zip":"92707","geo_score":0.765,"street address":"2 First American Way","id":"a6q39za6ewz4","geo_precision":"range"},"type":"Feature","geometry":{"type":"Point","coordinates":[-117.86555,33.70116]}},{"properties":{"rep? (1 for yes, 0 for no)":0,"city":"Santa Ana","zip":"92701","geo_score":0.5,"street address":"1650 E. Fourth St. Suite 101","id":"a6q39z6jxdg3","geo_precision":"street"},"type":"Feature","geometry":{"type":"Point","coordinates":[-117.86763,33.74801]}},{"properties":{"rep? (1 for yes, 0 for no)":0,"city":"Santa Ana","zip":"92705","geo_score":0.395,"street address":"1971 E. 4th St. Suite 250","id":"a6q39zctd1t4","geo_precision":"street"},"type":"Feature","geometry":{"type":"Point","coordinates":[-117.843,33.748129]}},{"properties":{"rep? (1 for yes, 0 for no)":0,"city":"Santa Ana","zip":"92705","geo_score":0.385,"street address":"1833 E. 17th Street Suite 301","id":"a6q39zkf7j82","geo_precision":"street"},"type":"Feature","geometry":{"type":"Point","coordinates":[-117.851937,33.759938]}},{"properties":{"rep? (1 for yes, 0 for no)":0,"city":"Santa Ana","zip":"92707","geo_score":0.74,"street address":"6 Hutton Centre Suite 150","id":"a6q39zh01gd1","geo_precision":"range"},"type":"Feature","geometry":{"type":"Point","coordinates":[-117.86561,33.69882]}},{"properties":{"rep? (1 for yes, 0 for no)":0,"city":"Santa Ana","zip":"92705","geo_score":0.693,"street address":"1700 East Garry Ave Suite 210","id":"a6q39z7fzrr1","geo_precision":"range"},"type":"Feature","geometry":{"type":"Point","coordinates":[-117.85336,33.705222]}},{"properties":{"rep? (1 for yes, 0 for no)":0,"city":"Santa Ana","zip":"92705","geo_score":0.371,"street address":"2510 N. Grand Ave. Suite 208","id":"a6q39zds9s0a","geo_precision":"street"},"type":"Feature","geometry":{"type":"Point","coordinates":[-117.85148,33.74449]}},{"properties":{"rep? (1 for yes, 0 for no)":0,"city":"Santa Ana","zip":"92705","geo_score":0.61,"street address":"1851 East First St. Suite 1000","id":"a6q39zjqm01x","geo_precision":"street"},"type":"Feature","geometry":{"type":"Point","coordinates":[-117.84203,33.74554]}},{"properties":{"rep? (1 for yes, 0 for no)":0,"city":"Santa Ana","zip":"92707","geo_score":0.74,"street address":"5 Hutton Centre Suite 110","id":"a6q39zgl3lx5","geo_precision":"range"},"type":"Feature","geometry":{"type":"Point","coordinates":[-117.865607,33.698906]}},{"properties":{"rep? (1 for yes, 0 for no)":0,"city":"South Coast Metro","zip":"92707","geo_score":0.699,"street address":"5 Hutton Centre Suite 1100","id":"a6q39z9965f8","geo_precision":"range"},"type":"Feature","geometry":{"type":"Point","coordinates":[-117.865607,33.698906]}},{"properties":{"rep? (1 for yes, 0 for no)":0,"city":"Tustin","zip":"92780","geo_score":0.793,"street address":"13931 Carroll Way Suite C","id":"a6q39zbe73of","geo_precision":"range"},"type":"Feature","geometry":{"type":"Point","coordinates":[-117.829322,33.760653]}},{"properties":{"rep? (1 for yes, 0 for no)":0,"city":"Tustin","zip":"92780","geo_score":0.514,"street address":"18002 Irvine Blvd. Suite 201","id":"a6q39z6jda7k","geo_precision":"street"},"type":"Feature","geometry":{"type":"Point","coordinates":[-117.81195,33.748349]}},{"properties":{"rep? (1 for yes, 0 for no)":0,"city":"Tustin","zip":"92780","geo_score":0.49,"street address":"17501 E. 17th St. Suite 210","id":"a6q39zgkqgjq","geo_precision":"street"},"type":"Feature","geometry":{"type":"Point","coordinates":[-117.830245,33.759854]}},{"properties":{"rep? (1 for yes, 0 for no)":0,"city":"Tustin","zip":"92780","geo_score":0.772,"street address":"15991 Redhill Avenue Suite 110","id":"a6q39z8j8j45","geo_precision":"range"},"type":"Feature","geometry":{"type":"Point","coordinates":[-117.837538,33.711352]}},{"properties":{"rep? (1 for yes, 0 for no)":0,"city":"Tustin","zip":"92780","geo_score":0.429,"street address":"13031 Newport Ave. Suite 200","id":"a6q39z8mq40t","geo_precision":"street"},"type":"Feature","geometry":{"type":"Point","coordinates":[-117.80578,33.754529]}},{"properties":{"rep? (1 for yes, 0 for no)":0,"city":"Tustin","zip":"92780","geo_score":0.514,"street address":"18302 Irvine Blvd. Suite 100","id":"a6q39zgesgmb","geo_precision":"street"},"type":"Feature","geometry":{"type":"Point","coordinates":[-117.81195,33.748349]}},{"properties":{"rep? (1 for yes, 0 for no)":0,"city":"Tustin","zip":"92780","geo_score":0.514,"street address":"18302 Irvine Blvd. Suite 270","id":"a6q39z8p82ww","geo_precision":"street"},"type":"Feature","geometry":{"type":"Point","coordinates":[-117.81195,33.748349]}},{"properties":{"rep? (1 for yes, 0 for no)":0,"city":"Tustin","zip":"92780","geo_score":0.714,"street address":"205 West First St. Suite 204","id":"a6q39zjk2q7f","geo_precision":"street"},"type":"Feature","geometry":{"type":"Point","coordinates":[-117.82594,33.74566]}},{"properties":{"rep? (1 for yes, 0 for no)":0,"city":"Tustin","zip":"92780","geo_score":0.514,"street address":"18302 Irvine Blvd. Suite 270","id":"a6q39z65f7hw","geo_precision":"street"},"type":"Feature","geometry":{"type":"Point","coordinates":[-117.81195,33.748349]}},{"properties":{"rep? (1 for yes, 0 for no)":0,"city":"Tustin","zip":"92780","geo_score":0.514,"street address":"17772 Irvine Blvd. Suite 211","id":"a6q39z5g7dx9","geo_precision":"street"},"type":"Feature","geometry":{"type":"Point","coordinates":[-117.81195,33.748349]}},{"properties":{"rep? (1 for yes, 0 for no)":0,"city":"Tustin","zip":"92780","geo_score":0.772,"street address":"15941 Red Hill Avenue Suite 100","id":"a6q39ziroknf","geo_precision":"range"},"type":"Feature","geometry":{"type":"Point","coordinates":[-117.836858,33.711908]}},{"properties":{"rep? (1 for yes, 0 for no)":1,"city":"Tustin","zip":"92780","geo_score":0.514,"street address":"1442 Irvine Blvd. Suite 203","id":"a6q39zh102l9","geo_precision":"street"},"type":"Feature","geometry":{"type":"Point","coordinates":[-117.81195,33.748349]}},{"properties":{"rep? (1 for yes, 0 for no)":0,"city":"Tustin","zip":"92780","geo_score":0.772,"street address":"15991 Redhill Avenue Suite 110","id":"a6q39zhyq3r9","geo_precision":"range"},"type":"Feature","geometry":{"type":"Point","coordinates":[-117.837538,33.711352]}},{"properties":{"rep? (1 for yes, 0 for no)":0,"city":"Tustin","zip":"92780","geo_score":0.624,"street address":"151 Yorba Street Suite 200","id":"a6q39zeoiwjn","geo_precision":"range"},"type":"Feature","geometry":{"type":"Point","coordinates":[-117.830231,33.748282]}},{"properties":{"rep? (1 for yes, 0 for no)":0,"city":"Tustin","zip":"92780","geo_score":0.429,"street address":"13031 Newport Ave. Suite 115","id":"a6q39zkuqyim","geo_precision":"street"},"type":"Feature","geometry":{"type":"Point","coordinates":[-117.80578,33.754529]}},{"properties":{"rep? (1 for yes, 0 for no)":0,"city":"Yorba Linda","zip":"92887","geo_score":0.791,"street address":"22800 Savi Ranch Parkway Suite 200","id":"a6q39z8ivw87","geo_precision":"range"},"type":"Feature","geometry":{"type":"Point","coordinates":[-117.7397,33.8759]}}],"is_temporal":false,"author":{"url":"","metadata":null,"contact_name":null,"contact_address":null,"source":null,"contact_phone":null},"source":"","pagination":{"sort":null,"start":0,"total":199,"limit":1000000},"state":"complete","tags":"","published":"2014-08-14T15:43:23-04:00","id":220741}