{"type":"FeatureCollection","data_type":"Dataset","url_type":null,"permissions":[{"permissions":{"download":true,"view":true},"group_id":"everyone"}],"classification":null,"title":"Bobby_-_Muni_-_ran_March_27th","count":61,"stream_id":220754,"contributor":{"url":"http://geocommons.com/users/39447","name":"sam.felipe"},"data_attributes":null,"calculation_params":null,"icon_link":null,"link":"http://geocommons.com/overlays/220754.json","extent":[-120.362,35.1249,-117.96,37.3006],"geometry_types":["point"],"unique_name":null,"name":"Bobby_-_Muni_-_ran_March_27th","feature_count":61,"description":"","next_feature":null,"is_raster":false,"short_classification":"Y","stats":{"rep? (1 for yes, 0 for no)":{"max":1,"mean":0.311475409836066,"variance":0.218032786885246,"stdev":0.466939810773558,"min":0,"median":0}},"features":[{"properties":{"rep? (1 for yes, 0 for no)":1,"city":"Fresno","name":"City of Fresno","zip":"93721","geo_score":0.429,"street address":"2220 Tulare St. 6th Floor","id":"a64rvge68g73","geo_precision":"street"},"type":"Feature","geometry":{"type":"Point","coordinates":[-119.767542,36.844712]}},{"properties":{"rep? (1 for yes, 0 for no)":1,"city":"Fresno","name":"City of Prather","zip":"93721","geo_score":0.429,"street address":"2220 Tulare St. 6th Floor","id":"a64rvg3dewtj","geo_precision":"street"},"type":"Feature","geometry":{"type":"Point","coordinates":[-119.767542,36.844712]}},{"properties":{"rep? (1 for yes, 0 for no)":1,"city":"Clovis","name":"City of Clovis","zip":"93612","geo_score":0.598,"street address":"356 Pollasky Ave. Ste.200","id":"a64rvgeg0922","geo_precision":"range"},"type":"Feature","geometry":{"type":"Point","coordinates":[-119.701999,36.827876]}},{"properties":{"rep? (1 for yes, 0 for no)":0,"city":"Kingsburg","name":"City of Kingsburg","zip":"93631","geo_score":0.902,"street address":"1401 Draper St.","id":"a64rvg9uwi97","geo_precision":"range"},"type":"Feature","geometry":{"type":"Point","coordinates":[-119.552868,36.51477]}},{"properties":{"rep? (1 for yes, 0 for no)":0,"city":"Kerman","name":"City of Kerman","zip":"93630","geo_score":0.471,"street address":"850 S. Madera Ave.","id":"a64rvgc59u8f","geo_precision":"street"},"type":"Feature","geometry":{"type":"Point","coordinates":[-120.060133,36.732918]}},{"properties":{"rep? (1 for yes, 0 for no)":1,"city":"Visalia","name":"City of Visalia","zip":"93291","geo_score":0.36,"street address":"315 E. Acequia Ave.","id":"a64rvg5b5fee","geo_precision":"street"},"type":"Feature","geometry":{"type":"Point","coordinates":[-119.293428,36.329243]}},{"properties":{"rep? (1 for yes, 0 for no)":0,"city":"Coalinga","name":"City of Coalinga","zip":"93210","geo_score":0.329,"street address":"155 W. Durian Ave.","id":"a64rvge0krc6","geo_precision":"street"},"type":"Feature","geometry":{"type":"Point","coordinates":[-120.362364,36.139367]}},{"properties":{"rep? (1 for yes, 0 for no)":0,"city":"Sanger","name":"City of Sanger","zip":"93657","geo_score":0.716,"street address":"1700 7th St.","id":"a64rvg0n8yab","geo_precision":"range"},"type":"Feature","geometry":{"type":"Point","coordinates":[-119.561059,36.705897]}},{"properties":{"rep? (1 for yes, 0 for no)":0,"city":"Reedley","name":"City of Reedley","zip":"93654","geo_score":0.688,"street address":"1717 9th St.","id":"a64rvgex7i17","geo_precision":"range"},"type":"Feature","geometry":{"type":"Point","coordinates":[-119.453102,36.598342]}},{"properties":{"rep? (1 for yes, 0 for no)":1,"city":"Bakersfield","name":"City of Bakersfield","zip":"93301","geo_score":0.821,"street address":"1600 Truxtun Ave.","id":"a64rvg9ko165","geo_precision":"range"},"type":"Feature","geometry":{"type":"Point","coordinates":[-119.020039,35.373341]}},{"properties":{"rep? (1 for yes, 0 for no)":0,"city":"California City","name":"City of California City","zip":"93505","geo_score":0.902,"street address":"21000 Hacienda Blvd.","id":"a64rvgbq3mbt","geo_precision":"range"},"type":"Feature","geometry":{"type":"Point","coordinates":[-117.959868,35.125933]}},{"properties":{"rep? (1 for yes, 0 for no)":0,"city":"Delano","name":"City of Delano","zip":"93215","geo_score":0.429,"street address":"1015 11th Ave. P.O. Box 3010","id":"a64rvgaigb7q","geo_precision":"street"},"type":"Feature","geometry":{"type":"Point","coordinates":[-119.262935,35.76862]}},{"properties":{"rep? (1 for yes, 0 for no)":0,"city":"McFarland","name":"City of McFarland","zip":"93250","geo_score":0.482,"street address":"401 W. Kern St.","id":"a64rvg7go9mu","geo_precision":"street"},"type":"Feature","geometry":{"type":"Point","coordinates":[-119.227954,35.678042]}},{"properties":{"rep? (1 for yes, 0 for no)":0,"city":"Taft","name":"City of Kern","zip":"93268","geo_score":0.406,"street address":"209 E. Kern St.","id":"a64rvg782mwr","geo_precision":"street"},"type":"Feature","geometry":{"type":"Point","coordinates":[-119.479672,35.158505]}},{"properties":{"rep? (1 for yes, 0 for no)":0,"city":"Tehachapi","name":"City of Tehachapi","zip":"93561","geo_score":0.353,"street address":"115 S. Robinson St.","id":"a64rvg12dl5q","geo_precision":"street"},"type":"Feature","geometry":{"type":"Point","coordinates":[-118.446396,35.12969]}},{"properties":{"rep? (1 for yes, 0 for no)":0,"city":"Dinuba","name":"City of Dinuba","zip":"93618","geo_score":0.352,"street address":"405 E. El Monte Way","id":"a64rvgde5lem","geo_precision":"street"},"type":"Feature","geometry":{"type":"Point","coordinates":[-119.432338,36.546255]}},{"properties":{"rep? (1 for yes, 0 for no)":0,"city":"Exeter","name":"City of Exeter","zip":"93221","geo_score":0.393,"street address":"137 N. F St.","id":"a64rvgebk1cs","geo_precision":"street"},"type":"Feature","geometry":{"type":"Point","coordinates":[-119.142806,36.297105]}},{"properties":{"rep? (1 for yes, 0 for no)":0,"city":"Farmersville","name":"City of Farmersville","zip":"93223","geo_score":0.436,"street address":"909 W. Visalia rd","id":"a64rvg47t3q9","geo_precision":"street"},"type":"Feature","geometry":{"type":"Point","coordinates":[-119.207874,36.297737]}},{"properties":{"rep? (1 for yes, 0 for no)":0,"city":"Lindsay","name":"City of Lindsay","zip":"93247","geo_score":0.341,"street address":"251 Honolulu St. P.O. Box 369","id":"a64rvg7rz9yj","geo_precision":"street"},"type":"Feature","geometry":{"type":"Point","coordinates":[-119.091295,36.202135]}},{"properties":{"rep? (1 for yes, 0 for no)":0,"city":"Porterville","name":"City of Porterville","zip":"93258","geo_score":0.357,"street address":"291 Main St. P.O. Box 432","id":"a64rvg34xlh0","geo_precision":"street"},"type":"Feature","geometry":{"type":"Point","coordinates":[-120.140818,36.008913]}},{"properties":{"rep? (1 for yes, 0 for no)":1,"city":"Tulare","name":"City of Tulare","zip":"93274","geo_score":0.363,"street address":"411 E. Kern St.","id":"a64rvgdzrd1k","geo_precision":"street"},"type":"Feature","geometry":{"type":"Point","coordinates":[-119.34712,36.206583]}},{"properties":{"rep? (1 for yes, 0 for no)":0,"city":"Woodlake","name":"City of Woodlake","zip":"93286","geo_score":0.321,"street address":"350 N. Valencia Blvd.","id":"a64rvg1w3gto","geo_precision":"street"},"type":"Feature","geometry":{"type":"Point","coordinates":[-119.098935,36.413855]}},{"properties":{"rep? (1 for yes, 0 for no)":0,"city":"Hanford","name":"City if Avenal","zip":"93230","geo_score":0.383,"street address":"120 N. Irwin St.","id":"a64rvga9rs6b","geo_precision":"street"},"type":"Feature","geometry":{"type":"Point","coordinates":[-119.647678,36.330968]}},{"properties":{"rep? (1 for yes, 0 for no)":0,"city":"Corcoran","name":"City of Corcoran","zip":"93212","geo_score":0.488,"street address":"832 Whitney Ave.","id":"a64rvgghklfd","geo_precision":"street"},"type":"Feature","geometry":{"type":"Point","coordinates":[-119.092614,36.419208]}},{"properties":{"rep? (1 for yes, 0 for no)":1,"city":"Hanford","name":"City of Hanford","zip":"93230","geo_score":0.375,"street address":"317 N. Douty","id":"a64rvgbn797u","geo_precision":"street"},"type":"Feature","geometry":{"type":"Point","coordinates":[-119.645688,36.326609]}},{"properties":{"rep? (1 for yes, 0 for no)":0,"city":"Lemoore","name":"City of Lemoore","zip":"93245","geo_score":0.827,"street address":"119 Fox ST.","id":"a64rvgayda2e","geo_precision":"range"},"type":"Feature","geometry":{"type":"Point","coordinates":[-119.786089,36.299613]}},{"properties":{"rep? (1 for yes, 0 for no)":0,"city":"Ridgecrest","name":"City of Ridgecrest","zip":"93255","geo_score":0.286,"street address":"100 W. California Ave.","id":"a64rvgc3ox65","geo_precision":"street"},"type":"Feature","geometry":{"type":"Point","coordinates":[-119.227938,35.675816]}},{"properties":{"rep? (1 for yes, 0 for no)":0,"city":"Porterville","name":"City of Springville","zip":"93258","geo_score":0.357,"street address":"291 N. Main St.","id":"a64rvg255dxd","geo_precision":"street"},"type":"Feature","geometry":{"type":"Point","coordinates":[-120.140818,36.008913]}},{"properties":{"rep? (1 for yes, 0 for no)":0,"city":"Arvin","name":"City of Arvin","zip":"93203","geo_score":0.812,"street address":"200 Campus Dr.","id":"a64rvg92dpfz","geo_precision":"range"},"type":"Feature","geometry":{"type":"Point","coordinates":[-118.833203,35.209864]}},{"properties":{"rep? (1 for yes, 0 for no)":0,"city":"Oakhurst","name":"City of Oakhurst","zip":"93644","geo_score":0.405,"street address":"40637 Hwy. 41","id":"a64rvgdoqcrh","geo_precision":"street"},"type":"Feature","geometry":{"type":"Point","coordinates":[-119.648856,37.300574]}},{"properties":{"rep? (1 for yes, 0 for no)":1,"city":"Fresno","name":"Freno County","zip":"93721","geo_score":0.405,"street address":"2281 Tulare St. Ste.301 Hall","id":"a64rvg8dy94s","geo_precision":"street"},"type":"Feature","geometry":{"type":"Point","coordinates":[-119.779481,36.716885]}},{"properties":{"rep? (1 for yes, 0 for no)":1,"city":"Bakersfield","name":"Kern County","zip":"93301","geo_score":0.431,"street address":"2700 M St. Ste.100","id":"a64rvgdhvn1o","geo_precision":"street"},"type":"Feature","geometry":{"type":"Point","coordinates":[-119.015286,35.368474]}},{"properties":{"rep? (1 for yes, 0 for no)":1,"city":"Hanford","name":"Kings County","zip":"93230","geo_score":0.364,"street address":"1400 W. Lacey Blvd.","id":"a64rvgaultz5","geo_precision":"street"},"type":"Feature","geometry":{"type":"Point","coordinates":[-119.647669,36.328035]}},{"properties":{"rep? (1 for yes, 0 for no)":1,"city":"Visalia","name":"Tulare County","zip":"93277","geo_score":0.468,"street address":"5961 S, Mooney Blvd.","id":"a64rvg39kueo","geo_precision":"street"},"type":"Feature","geometry":{"type":"Point","coordinates":[-119.31324,36.272991]}},{"properties":{"rep? (1 for yes, 0 for no)":1,"city":"Fresno","name":"Olam","zip":"93720","geo_score":0.44,"street address":"205 E. River Park Circle Ste.310","id":"a64rvg9nk4x4","geo_precision":"street"},"type":"Feature","geometry":{"type":"Point","coordinates":[-119.785621,36.857786]}},{"properties":{"rep? (1 for yes, 0 for no)":1,"city":"Bakersfield","name":"Paramount Farming CO","zip":"93308","geo_score":0.692,"street address":"33141 Lerdo Hwy.","id":"a64rvg3rw7sx","geo_precision":"range"},"type":"Feature","geometry":{"type":"Point","coordinates":[-119.069263,35.499362]}},{"properties":{"rep? (1 for yes, 0 for no)":0,"city":"Fresno","name":"Pacific Gas &amp; Electric","zip":"93721","geo_score":0.469,"street address":"650 O. St.","id":"a64rvg2d3tm7","geo_precision":"street"},"type":"Feature","geometry":{"type":"Point","coordinates":[-119.775727,36.728688]}},{"properties":{"rep? (1 for yes, 0 for no)":0,"city":"Fresno","name":"Cvec Group Inc","zip":"93720","geo_score":0.463,"street address":"7259 N. 1St St. Ste. 101","id":"a64rvg2jhkcy","geo_precision":"street"},"type":"Feature","geometry":{"type":"Point","coordinates":[-119.774677,36.842521]}},{"properties":{"rep? (1 for yes, 0 for no)":1,"city":"Fresno","name":"Dwane Strickland Land Consulting","zip":"93711","geo_score":0.49,"street address":"1589 W. Shaw Ave,.","id":"a64rvg8525gm","geo_precision":"street"},"type":"Feature","geometry":{"type":"Point","coordinates":[-119.838385,36.808296]}},{"properties":{"rep? (1 for yes, 0 for no)":0,"city":"Fresno","name":"CA Valley Land Co Inc.","zip":"93711","geo_score":0.482,"street address":"7041 N. Van Ness Blvd.","id":"a64rvgexg3t8","geo_precision":"street"},"type":"Feature","geometry":{"type":"Point","coordinates":[-119.793244,36.851851]}},{"properties":{"rep? (1 for yes, 0 for no)":0,"city":"Fresno","name":"California Commerical land Sales","zip":"93711","geo_score":0.356,"street address":"8080 N. Palm Ave. Ste. 104","id":"a64rvg0hratm","geo_precision":"street"},"type":"Feature","geometry":{"type":"Point","coordinates":[-119.808266,36.746687]}},{"properties":{"rep? (1 for yes, 0 for no)":0,"city":"Clovis","name":"California Home &amp; Land Co","zip":"93612","geo_score":0.837,"street address":"1311 Hoblitt Ave","id":"a64rvg9ezm06","geo_precision":"range"},"type":"Feature","geometry":{"type":"Point","coordinates":[-119.692725,36.813958]}},{"properties":{"rep? (1 for yes, 0 for no)":0,"city":"Fresno","name":"Dry Creek Land","zip":"93711","geo_score":0.333,"street address":"755 N. Peach Ave","id":"a64rvg52qlk9","geo_precision":"street"},"type":"Feature","geometry":{"type":"Point","coordinates":[-119.718229,36.743119]}},{"properties":{"rep? (1 for yes, 0 for no)":1,"city":"Fresno","name":"Family Homes &amp; Land","zip":"93711","geo_score":0.49,"street address":"1589 W. Shaw Ave,.","id":"a64rvg2xt030","geo_precision":"street"},"type":"Feature","geometry":{"type":"Point","coordinates":[-119.838385,36.808296]}},{"properties":{"rep? (1 for yes, 0 for no)":0,"city":"Fresno","name":"Fresno Land Co","zip":"93711","geo_score":0.464,"street address":"7488 N. Highgrove Ln.","id":"a64rvg72vhkk","geo_precision":"street"},"type":"Feature","geometry":{"type":"Point","coordinates":[-119.827502,36.847678]}},{"properties":{"rep? (1 for yes, 0 for no)":0,"city":"Fresno","name":"Lemley Land Sales Inc.","zip":"93711","geo_score":0.49,"street address":"2350 W. Shaw Ave.","id":"a64rvg3gg6ae","geo_precision":"street"},"type":"Feature","geometry":{"type":"Point","coordinates":[-119.838385,36.808296]}},{"properties":{"rep? (1 for yes, 0 for no)":0,"city":"California City","name":"American Land Co","zip":"93505","geo_score":0.902,"street address":"9136 California City Blvd.","id":"a64rvg8rpqtq","geo_precision":"range"},"type":"Feature","geometry":{"type":"Point","coordinates":[-117.965019,35.125908]}},{"properties":{"rep? (1 for yes, 0 for no)":0,"city":"Bakersfield","name":"Delfino Land Co. Inc.","zip":"93263","geo_score":0.45,"street address":"11407 Hyde Park Dr.","id":"a64rvg0whc5z","geo_precision":"street"},"type":"Feature","geometry":{"type":"Point","coordinates":[-119.293119,35.516447]}},{"properties":{"rep? (1 for yes, 0 for no)":0,"city":"Bakersfield","name":"Quantum Land Services","zip":"93301","geo_score":0.724,"street address":"107 17th St.","id":"a64rvgaey5dx","geo_precision":"range"},"type":"Feature","geometry":{"type":"Point","coordinates":[-119.002955,35.374264]}},{"properties":{"rep? (1 for yes, 0 for no)":1,"city":"Bakersfield","name":"Crisp &amp; Cole Real Estate-Land","zip":"93309","geo_score":0.902,"street address":"5201 California Ave.","id":"a64rvgfufon1","geo_precision":"range"},"type":"Feature","geometry":{"type":"Point","coordinates":[-119.060026,35.361151]}},{"properties":{"rep? (1 for yes, 0 for no)":0,"city":"Shaver Lake","name":"Shaver Lake Land Co","zip":"93664","geo_score":0.765,"street address":"41548 Dinkey Creek Rd.","id":"a64rvg902ens","geo_precision":"range"},"type":"Feature","geometry":{"type":"Point","coordinates":[-119.315222,37.102495]}},{"properties":{"rep? (1 for yes, 0 for no)":0,"city":"Reedley","name":"Valley Land&amp; Investments Co","zip":"93654","geo_score":0.805,"street address":"1053 G ST.","id":"a64rvg70u7lm","geo_precision":"range"},"type":"Feature","geometry":{"type":"Point","coordinates":[-119.451424,36.596864]}},{"properties":{"rep? (1 for yes, 0 for no)":1,"city":"Bakersfield","name":"James Properties Land And Cattle LLC","zip":"93301","geo_score":0.821,"street address":"2005 Eye St.","id":"a64rvg5u0ozq","geo_precision":"range"},"type":"Feature","geometry":{"type":"Point","coordinates":[-119.020018,35.377192]}},{"properties":{"rep? (1 for yes, 0 for no)":0,"city":"Tehachapi","name":"The Land Co","zip":"93561","geo_score":0.794,"street address":"21069 Woodford Tehachapi","id":"a64rvg4dtjkf","geo_precision":"range"},"type":"Feature","geometry":{"type":"Point","coordinates":[-118.494919,35.124904]}},{"properties":{"rep? (1 for yes, 0 for no)":0,"city":"Stratford","name":"Roller Land Co","zip":"93266","geo_score":0.902,"street address":"19451 Madison Ave.","id":"a64rvged9wpv","geo_precision":"range"},"type":"Feature","geometry":{"type":"Point","coordinates":[-119.806225,36.167346]}},{"properties":{"rep? (1 for yes, 0 for no)":0,"city":"Hanford","name":"Austin Land","zip":"93230","geo_score":0.732,"street address":"13777 6th Ave.","id":"a64rvg8lxprc","geo_precision":"range"},"type":"Feature","geometry":{"type":"Point","coordinates":[-119.56511,36.272777]}},{"properties":{"rep? (1 for yes, 0 for no)":1,"city":"Hanford","name":"Federal Land Bank Assn Of Kingsburg","zip":"93230","geo_score":0.393,"street address":"1001 E. 3rd St.","id":"a64rvgf1hf56","geo_precision":"street"},"type":"Feature","geometry":{"type":"Point","coordinates":[-119.644719,36.322497]}},{"properties":{"rep? (1 for yes, 0 for no)":0,"city":"Tulare","name":"Great Valley Land Co","zip":"93274","geo_score":0.821,"street address":"1969 Hillman St","id":"a64rvg3okx05","geo_precision":"range"},"type":"Feature","geometry":{"type":"Point","coordinates":[-119.331036,36.230139]}},{"properties":{"rep? (1 for yes, 0 for no)":0,"city":"Visalia","name":"Mpi Prime","zip":"93277","geo_score":0.902,"street address":"3445 S Demaree St","id":"a64rvg2zdwgd","geo_precision":"range"},"type":"Feature","geometry":{"type":"Point","coordinates":[-119.331504,36.299953]}},{"properties":{"rep? (1 for yes, 0 for no)":0,"city":"Exeter","name":"Sequoia Valley Developers","zip":"93221","geo_score":0.393,"street address":"111 N. E St.","id":"a64rvgfc93ns","geo_precision":"street"},"type":"Feature","geometry":{"type":"Point","coordinates":[-119.14092,36.29634]}},{"properties":{"rep? (1 for yes, 0 for no)":1,"city":"Fowler","name":"Bee Sweet Citrus","zip":"93625","geo_score":0.772,"street address":"416 East South Avenue","id":"a64rvggpf7x8","geo_precision":"range"},"type":"Feature","geometry":{"type":"Point","coordinates":[-119.684445,36.619991]}}],"is_temporal":false,"author":{"url":"","metadata":null,"contact_name":null,"contact_address":null,"source":null,"contact_phone":null},"source":"","pagination":{"sort":null,"start":0,"total":61,"limit":1000000},"state":"complete","tags":"","published":"2014-08-14T15:44:36-04:00","id":220754}