{"type":"FeatureCollection","data_type":"Dataset","url_type":null,"permissions":[{"permissions":{"download":true,"view":true},"group_id":"everyone"}],"classification":null,"title":"Bobby_-_Cred_Union_-_ran_March_27th","count":82,"stream_id":220752,"contributor":{"url":"http://geocommons.com/users/39447","name":"sam.felipe"},"data_attributes":null,"calculation_params":null,"icon_link":null,"link":"http://geocommons.com/overlays/220752.json","extent":[-119.876,35.0044,-117.67,36.8518],"geometry_types":["point"],"unique_name":null,"name":"Bobby_-_Cred_Union_-_ran_March_27th","feature_count":82,"description":"","next_feature":null,"is_raster":false,"short_classification":"Y","stats":{"rep? (1 for yes, 0 for no)":{"max":1,"mean":0.439024390243902,"variance":0.249322493224932,"stdev":0.499322033586474,"min":0,"median":0}},"features":[{"properties":{"rep? (1 for yes, 0 for no)":1,"city":"Fresno","name":"Fresno County Federal Credit Union","zip":"93711","geo_score":0.49,"street address":"2580 W. Shaw","id":"a64rv67mi0be","geo_precision":"street"},"type":"Feature","geometry":{"type":"Point","coordinates":[-119.838385,36.808296]}},{"properties":{"rep? (1 for yes, 0 for no)":1,"city":"Fresno","name":"United Local Credit Union","zip":"93726","geo_score":0.471,"street address":"3650 E. Ashlan","id":"a64rv5xw4ra4","geo_precision":"street"},"type":"Feature","geometry":{"type":"Point","coordinates":[-119.788236,36.794088]}},{"properties":{"rep? (1 for yes, 0 for no)":1,"city":"Fresno","name":"San Joaquin Power Employees Credit Union","zip":"93711","geo_score":0.49,"street address":"1080 W. Shaw Ave","id":"a64rv6417sho","geo_precision":"street"},"type":"Feature","geometry":{"type":"Point","coordinates":[-119.838385,36.808296]}},{"properties":{"rep? (1 for yes, 0 for no)":0,"city":"Fresno","name":"First California Federal Credit Union","zip":"93726","geo_score":0.468,"street address":"2525 E. Shields Ave","id":"a64rv6auphyx","geo_precision":"street"},"type":"Feature","geometry":{"type":"Point","coordinates":[-119.790534,36.779599]}},{"properties":{"rep? (1 for yes, 0 for no)":0,"city":"Fresno","name":"So Val Tel Federal Credit Union","zip":"93727","geo_score":0.325,"street address":"4986 E. Clinton Way","id":"a64rv6121g5c","geo_precision":"street"},"type":"Feature","geometry":{"type":"Point","coordinates":[-119.731732,36.77224]}},{"properties":{"rep? (1 for yes, 0 for no)":1,"city":"Fresno","name":"Fresno Fire Department Credit Union","zip":"93710","geo_score":0.5,"street address":"5300 N. First Street","id":"a64rv62sibxc","geo_precision":"street"},"type":"Feature","geometry":{"type":"Point","coordinates":[-119.772278,36.812233]}},{"properties":{"rep? (1 for yes, 0 for no)":0,"city":"Fresno","name":"Greater Valley Credit Union","zip":"93728","geo_score":0.471,"street address":"1185 W. Hedges","id":"a64rv68gfm8g","geo_precision":"street"},"type":"Feature","geometry":{"type":"Point","coordinates":[-119.813112,36.759389]}},{"properties":{"rep? (1 for yes, 0 for no)":1,"city":"Fresno","name":"State Center Credit Union","zip":"93710","geo_score":0.49,"street address":"1515 E. Shaw Ave","id":"a64rv6cvkq4r","geo_precision":"street"},"type":"Feature","geometry":{"type":"Point","coordinates":[-119.790429,36.8085]}},{"properties":{"rep? (1 for yes, 0 for no)":1,"city":"Fresno","name":"Fresno Police Department Credit Union","zip":"93728","geo_score":0.468,"street address":"1004 N. Van Ness","id":"a64rv68lirm4","geo_precision":"street"},"type":"Feature","geometry":{"type":"Point","coordinates":[-119.798893,36.750423]}},{"properties":{"rep? (1 for yes, 0 for no)":1,"city":"Clovis","name":"Educational Employees Credit Union","zip":"93611","geo_score":0.902,"street address":"1660 Herndon Ave.","id":"a64rv62cygww","geo_precision":"range"},"type":"Feature","geometry":{"type":"Point","coordinates":[-119.685117,36.837477]}},{"properties":{"rep? (1 for yes, 0 for no)":1,"city":"Clovis","name":"Educational Employees Credit Union","zip":"93612","geo_score":0.758,"street address":"430 Pollasky","id":"a64rv6306nsy","geo_precision":"range"},"type":"Feature","geometry":{"type":"Point","coordinates":[-119.701987,36.824848]}},{"properties":{"rep? (1 for yes, 0 for no)":1,"city":"Fresno","name":"Educational Employees Credit Union","zip":"93710","geo_score":0.468,"street address":"455 E. Barstow","id":"a64rv6ab8vfh","geo_precision":"street"},"type":"Feature","geometry":{"type":"Point","coordinates":[-119.785486,36.81573]}},{"properties":{"rep? (1 for yes, 0 for no)":1,"city":"Fresno","name":"Educational Employees Credit Union","zip":"93711","geo_score":0.49,"street address":"3488 W. Shaw Ave.","id":"a64rv63yac2h","geo_precision":"street"},"type":"Feature","geometry":{"type":"Point","coordinates":[-119.838385,36.808296]}},{"properties":{"rep? (1 for yes, 0 for no)":1,"city":"Fresno","name":"Educational Employees Credit Union","zip":"93720","geo_score":0.429,"street address":"9515 N. Sommerville","id":"a64rv5zrqlvt","geo_precision":"street"},"type":"Feature","geometry":{"type":"Point","coordinates":[-119.737207,36.840178]}},{"properties":{"rep? (1 for yes, 0 for no)":1,"city":"Fresno","name":"Educational Employees Credit Union","zip":"93721","geo_score":0.745,"street address":"1177 Van Ness","id":"a64rv61czv2z","geo_precision":"range"},"type":"Feature","geometry":{"type":"Point","coordinates":[-119.791017,36.736388]}},{"properties":{"rep? (1 for yes, 0 for no)":1,"city":"Fresno","name":"Educational Employees Credit Union","zip":"93727","geo_score":0.316,"street address":"5640 E. Kings Canyon","id":"a64rv68px712","geo_precision":"street"},"type":"Feature","geometry":{"type":"Point","coordinates":[-119.736342,36.735921]}},{"properties":{"rep? (1 for yes, 0 for no)":1,"city":"Fresno","name":"Educational Employees Credit Union","zip":"93722","geo_score":0.468,"street address":"6745 N. Milburn","id":"a64rv6367nf8","geo_precision":"street"},"type":"Feature","geometry":{"type":"Point","coordinates":[-119.875762,36.757279]}},{"properties":{"rep? (1 for yes, 0 for no)":0,"city":"Hanford","name":"Educational Employees Credit Union","zip":"93230","geo_score":0.393,"street address":"1460 W. Seventh St","id":"a64rv6ax1d0h","geo_precision":"street"},"type":"Feature","geometry":{"type":"Point","coordinates":[-119.648877,36.326119]}},{"properties":{"rep? (1 for yes, 0 for no)":0,"city":"Reedley","name":"Educational Employees Credit Union","zip":"93654","geo_score":0.325,"street address":"1729 E. Manning Ave.","id":"a64rv62omkfj","geo_precision":"street"},"type":"Feature","geometry":{"type":"Point","coordinates":[-119.448734,36.604172]}},{"properties":{"rep? (1 for yes, 0 for no)":0,"city":"Selma","name":"Educational Employees Credit Union","zip":"93662","geo_score":0.815,"street address":"2029 High Street","id":"a64rv6787olw","geo_precision":"range"},"type":"Feature","geometry":{"type":"Point","coordinates":[-119.612223,36.569025]}},{"properties":{"rep? (1 for yes, 0 for no)":1,"city":"Visalia","name":"Educational Employees Credit Union","zip":"93277","geo_score":0.468,"street address":"3612 S. Mooney Blvd.","id":"a64rv6by6u6i","geo_precision":"street"},"type":"Feature","geometry":{"type":"Point","coordinates":[-119.31324,36.272991]}},{"properties":{"rep? (1 for yes, 0 for no)":1,"city":"Visalia","name":"Educational Employees Credit Union","zip":"93291","geo_score":0.349,"street address":"3020 N. Demaree","id":"a64rv600w2ng","geo_precision":"street"},"type":"Feature","geometry":{"type":"Point","coordinates":[-119.331802,36.329235]}},{"properties":{"rep? (1 for yes, 0 for no)":0,"city":"Fresno","name":"St. Agnes Hospital Federal Credit Union","zip":"93720","geo_score":0.468,"street address":"1303 E. Herndon Ave","id":"a64rv5yp38zz","geo_precision":"street"},"type":"Feature","geometry":{"type":"Point","coordinates":[-119.790226,36.837251]}},{"properties":{"rep? (1 for yes, 0 for no)":0,"city":"Fresno","name":"Fresno Grangers Federal Credit Union","zip":"93705","geo_score":0.329,"street address":"2319 N. Parkway Dr.","id":"a64rv6bub07n","geo_precision":"street"},"type":"Feature","geometry":{"type":"Point","coordinates":[-119.836626,36.766951]}},{"properties":{"rep? (1 for yes, 0 for no)":0,"city":"Hanford","name":"Family and Schools Together Credit Union","zip":"93230","geo_score":0.383,"street address":"240 N. Irwin St.","id":"a64rv61zh211","geo_precision":"street"},"type":"Feature","geometry":{"type":"Point","coordinates":[-119.647678,36.330968]}},{"properties":{"rep? (1 for yes, 0 for no)":0,"city":"Hanford","name":"Kings Kederal Credit Union","zip":"93230","geo_score":0.364,"street address":"1415 W. Lacey Blvd.","id":"a64rv66d2rl2","geo_precision":"street"},"type":"Feature","geometry":{"type":"Point","coordinates":[-119.647669,36.328035]}},{"properties":{"rep? (1 for yes, 0 for no)":0,"city":"Porterville","name":"El Tuturo Credit Union","zip":"93257","geo_score":0.74,"street address":"182 N. Main","id":"a64rv691ksmn","geo_precision":"zip"},"type":"Feature","geometry":{"type":"Point","coordinates":[-119.045658,36.114674]}},{"properties":{"rep? (1 for yes, 0 for no)":0,"city":"Bakersfield","name":"AltaOne Federal Credit Union","zip":"93309","geo_score":0.902,"street address":"6501 Ming Ave","id":"a64rv6d0uax0","geo_precision":"range"},"type":"Feature","geometry":{"type":"Point","coordinates":[-119.074474,35.334738]}},{"properties":{"rep? (1 for yes, 0 for no)":0,"city":"California City","name":"AltaOne Federal Credit Union","zip":"93504","geo_score":0.805,"street address":"9601 California City Blvd.","id":"a64rv615qdaf","geo_precision":"range"},"type":"Feature","geometry":{"type":"Point","coordinates":[-117.956046,35.125951]}},{"properties":{"rep? (1 for yes, 0 for no)":0,"city":"Laker Isabella","name":"AltaOne Federal Credit Union","zip":"93240","geo_score":0.747,"street address":"5946 Lake Isabella","id":"a64rv6bz06t5","geo_precision":"range"},"type":"Feature","geometry":{"type":"Point","coordinates":[-118.475091,35.623471]}},{"properties":{"rep? (1 for yes, 0 for no)":0,"city":"Ridgecrest","name":"AltaOne Federal Credit Union","zip":"93555","geo_score":0.459,"street address":"701 S. China Lake Blvd.","id":"a64rv631pssz","geo_precision":"street"},"type":"Feature","geometry":{"type":"Point","coordinates":[-117.670022,35.622307]}},{"properties":{"rep? (1 for yes, 0 for no)":0,"city":"Ridgecrest","name":"AltaOne Federal Credit Union","zip":"93555","geo_score":0.459,"street address":"800 N. China Lake Blvd.","id":"a64rv638ytvj","geo_precision":"street"},"type":"Feature","geometry":{"type":"Point","coordinates":[-117.669975,35.623811]}},{"properties":{"rep? (1 for yes, 0 for no)":0,"city":"Tehachapi","name":"AltaOne Federal Credit Union","zip":"93561","geo_score":0.702,"street address":"775 Tucker Road","id":"a64rv683hvsv","geo_precision":"range"},"type":"Feature","geometry":{"type":"Point","coordinates":[-118.467777,35.118065]}},{"properties":{"rep? (1 for yes, 0 for no)":0,"city":"Ridgecrest","name":"Desert Valleys Federal Credit Union","zip":"93556","geo_score":0.347,"street address":"100 E. Ward Ave.","id":"a64rv6cusfpl","geo_precision":"street"},"type":"Feature","geometry":{"type":"Point","coordinates":[-117.796626,35.644632]}},{"properties":{"rep? (1 for yes, 0 for no)":0,"city":"Tehachapi","name":"Calaveras Tehachapi Federal Credit Union","zip":"93561","geo_score":0.368,"street address":"206 S. Green Street","id":"a64rv5wvcl8m","geo_precision":"street"},"type":"Feature","geometry":{"type":"Point","coordinates":[-118.447741,35.130998]}},{"properties":{"rep? (1 for yes, 0 for no)":1,"city":"Tulare","name":"Tulare County Federal Credit Union","zip":"93274","geo_score":0.417,"street address":"300 N. K Street","id":"a64rv5zosd0f","geo_precision":"street"},"type":"Feature","geometry":{"type":"Point","coordinates":[-119.346477,36.209332]}},{"properties":{"rep? (1 for yes, 0 for no)":1,"city":"Bakersfield","name":"Espeeco Federal Credit Union","zip":"93305","geo_score":0.814,"street address":"1015 Sumner St.","id":"a64rv6aptf67","geo_precision":"range"},"type":"Feature","geometry":{"type":"Point","coordinates":[-118.988061,35.375744]}},{"properties":{"rep? (1 for yes, 0 for no)":0,"city":"Bakersfield","name":"Sun Financial Credit Union","zip":"93312","geo_score":0.823,"street address":"8200 Granite Falls Dr.","id":"a64rv66r1zgx","geo_precision":"range"},"type":"Feature","geometry":{"type":"Point","coordinates":[-119.094047,35.386992]}},{"properties":{"rep? (1 for yes, 0 for no)":1,"city":"Bakersfield","name":"Kern Schools Credit Union","zip":"93301","geo_score":0.821,"street address":"2424 Chester Ave","id":"a64rv63x8jar","geo_precision":"range"},"type":"Feature","geometry":{"type":"Point","coordinates":[-119.018783,35.381226]}},{"properties":{"rep? (1 for yes, 0 for no)":1,"city":"Bakersfield","name":"Kern Schools Credit Union","zip":"93305","geo_score":0.814,"street address":"1801 Panorama Dr.","id":"a64rv6260xf2","geo_precision":"range"},"type":"Feature","geometry":{"type":"Point","coordinates":[-118.973732,35.410861]}},{"properties":{"rep? (1 for yes, 0 for no)":1,"city":"Bakersfield","name":"Kern Schools Credit Union","zip":"93306","geo_score":0.429,"street address":"3901 Mt. Vernon Ave.","id":"a64rv6820ke7","geo_precision":"street"},"type":"Feature","geometry":{"type":"Point","coordinates":[-119.019972,35.338499]}},{"properties":{"rep? (1 for yes, 0 for no)":1,"city":"Bakersfield","name":"Kern Schools Credit Union","zip":"93370","geo_score":0.357,"street address":"501 S. Mt. Vernon Ave","id":"a64rv6ap4ods","geo_precision":"street"},"type":"Feature","geometry":{"type":"Point","coordinates":[-119.019972,35.338499]}},{"properties":{"rep? (1 for yes, 0 for no)":1,"city":"Bakersfield","name":"Kern Schools Credit Union","zip":"93309","geo_score":0.902,"street address":"4530 Ming Ave.","id":"a64rv69acmn7","geo_precision":"range"},"type":"Feature","geometry":{"type":"Point","coordinates":[-119.052222,35.339583]}},{"properties":{"rep? (1 for yes, 0 for no)":1,"city":"Bakersfield","name":"Kern Schools Credit Union","zip":"93309","geo_score":0.756,"street address":"2800 Buena Vista Road","id":"a64rv6c9abgg","geo_precision":"range"},"type":"Feature","geometry":{"type":"Point","coordinates":[-119.127944,35.329402]}},{"properties":{"rep? (1 for yes, 0 for no)":1,"city":"Bakersfield","name":"Kern Schools Credit Union","zip":"93311","geo_score":0.902,"street address":"8200 Stockdale Hwy","id":"a64rv68a9d42","geo_precision":"range"},"type":"Feature","geometry":{"type":"Point","coordinates":[-119.094525,35.354383]}},{"properties":{"rep? (1 for yes, 0 for no)":1,"city":"Bakersfield","name":"Kern Schools Credit Union","zip":"93311","geo_score":0.805,"street address":"9800 Ming Ave","id":"a64rv5xupfr0","geo_precision":"range"},"type":"Feature","geometry":{"type":"Point","coordinates":[-119.110474,35.339791]}},{"properties":{"rep? (1 for yes, 0 for no)":1,"city":"Bakersfield","name":"Kern Schools Credit Union","zip":"93312","geo_score":0.569,"street address":"6101 Coffee Raod","id":"a64rv68fjotp","geo_precision":"street"},"type":"Feature","geometry":{"type":"Point","coordinates":[-119.09222,35.432838]}},{"properties":{"rep? (1 for yes, 0 for no)":1,"city":"Bakersfield","name":"Kern Schools Credit Union","zip":"93313","geo_score":0.902,"street address":"5001 Panama Lane","id":"a64rv68faz8v","geo_precision":"range"},"type":"Feature","geometry":{"type":"Point","coordinates":[-119.057785,35.295962]}},{"properties":{"rep? (1 for yes, 0 for no)":1,"city":"Bakersfield","name":"Kern Schools Credit Union","zip":"93313","geo_score":0.902,"street address":"8501 Stine Road","id":"a64rv5ykbrsz","geo_precision":"range"},"type":"Feature","geometry":{"type":"Point","coordinates":[-119.056667,35.27623]}},{"properties":{"rep? (1 for yes, 0 for no)":1,"city":"Bakersfield","name":"Kern Schools Credit Union","zip":"93314","geo_score":0.78,"street address":"13129 Rosedale Highway","id":"a64rv65zhrcb","geo_precision":"range"},"type":"Feature","geometry":{"type":"Point","coordinates":[-119.152236,35.383505]}},{"properties":{"rep? (1 for yes, 0 for no)":1,"city":"Porterville","name":"Kern Schools Credit Union","zip":"93257","geo_score":0.351,"street address":"100 E. Collage Ave.","id":"a64rv6ci3593","geo_precision":"street"},"type":"Feature","geometry":{"type":"Point","coordinates":[-119.01687,36.048141]}},{"properties":{"rep? (1 for yes, 0 for no)":0,"city":"Tehachapi","name":"Kern Schools Credit Union","zip":"93561","geo_score":0.702,"street address":"821 Tucker Road","id":"a64rv65zafhp","geo_precision":"range"},"type":"Feature","geometry":{"type":"Point","coordinates":[-118.467777,35.11807]}},{"properties":{"rep? (1 for yes, 0 for no)":1,"city":"Bakersfield","name":"Kern Federal Credit Union","zip":"93301","geo_score":0.504,"street address":"1717 Truxtom Ave","id":"a64rv5zuddk7","geo_precision":"zip"},"type":"Feature","geometry":{"type":"Point","coordinates":[-118.949546,35.004413]}},{"properties":{"rep? (1 for yes, 0 for no)":0,"city":"Bakersfield","name":"Bakersfield City Employees Credit Union","zip":"93301","geo_score":0.724,"street address":"2817 16th Street","id":"a64rv5yp5r3v","geo_precision":"range"},"type":"Feature","geometry":{"type":"Point","coordinates":[-119.034163,35.372398]}},{"properties":{"rep? (1 for yes, 0 for no)":0,"city":"Bakersfield","name":"Kern Central Credit Union","zip":"93301","geo_score":0.821,"street address":"2100 H Street","id":"a64rv61iq5v7","geo_precision":"range"},"type":"Feature","geometry":{"type":"Point","coordinates":[-119.021179,35.378153]}},{"properties":{"rep? (1 for yes, 0 for no)":1,"city":"Bakersfield","name":"Safe 1 Credit Union","zip":"93711","geo_score":0.506,"street address":"1400 Mill Rock Way","id":"a64rv5wvbdpc","geo_precision":"zip"},"type":"Feature","geometry":{"type":"Point","coordinates":[-119.82824,36.830336]}},{"properties":{"rep? (1 for yes, 0 for no)":0,"city":"Bakersfield","name":"Bakersfield Community Federal Credit Union","zip":"93301","geo_score":0.724,"street address":"2101 16th Street","id":"a64rv60fcinu","geo_precision":"range"},"type":"Feature","geometry":{"type":"Point","coordinates":[-119.025867,35.372375]}},{"properties":{"rep? (1 for yes, 0 for no)":0,"city":"Hanford","name":"Fast Federal Credit Union","zip":"93230","geo_score":0.383,"street address":"240 N. Irwin St.","id":"a64rv6bgljgd","geo_precision":"street"},"type":"Feature","geometry":{"type":"Point","coordinates":[-119.647678,36.330968]}},{"properties":{"rep? (1 for yes, 0 for no)":0,"city":"Fresno","name":"The Golden 1 Credit Union","zip":"93727","geo_score":0.347,"street address":"5045 E. Butler","id":"a64rv6ax9duo","geo_precision":"street"},"type":"Feature","geometry":{"type":"Point","coordinates":[-119.685651,36.729428]}},{"properties":{"rep? (1 for yes, 0 for no)":0,"city":"Fresno","name":"The Golden 1 Credit Union","zip":"93710","geo_score":0.599,"street address":"111 E Shaw","id":"a64rv68xzrzs","geo_precision":"street"},"type":"Feature","geometry":{"type":"Point","coordinates":[-119.782878,36.808543]}},{"properties":{"rep? (1 for yes, 0 for no)":0,"city":"Fresno","name":"The Golden 1 Credit Union","zip":"93740","geo_score":0.531,"street address":"5280 N Jackson","id":"a64rv6a70i5e","geo_precision":"street"},"type":"Feature","geometry":{"type":"Point","coordinates":[-119.747457,36.808571]}},{"properties":{"rep? (1 for yes, 0 for no)":0,"city":"Clovis","name":"The Golden 1 Credit Union","zip":"93612","geo_score":0.837,"street address":"1030 Shaw Ave","id":"a64rv69o8oa8","geo_precision":"range"},"type":"Feature","geometry":{"type":"Point","coordinates":[-119.698355,36.808499]}},{"properties":{"rep? (1 for yes, 0 for no)":0,"city":"Fresno","name":"The Golden 1 Credit Union","zip":"93722","geo_score":0.468,"street address":"6040 N. Fig Garden Dr.","id":"a64rv6cx4xcn","geo_precision":"street"},"type":"Feature","geometry":{"type":"Point","coordinates":[-119.862423,36.829944]}},{"properties":{"rep? (1 for yes, 0 for no)":0,"city":"Fresno","name":"The Golden 1 Credit Union","zip":"93720","geo_score":0.482,"street address":"2970 E. Nees Ave.","id":"a64rv5yft0bu","geo_precision":"street"},"type":"Feature","geometry":{"type":"Point","coordinates":[-119.785676,36.851796]}},{"properties":{"rep? (1 for yes, 0 for no)":0,"city":"Hanford","name":"The Golden 1 Credit Union","zip":"93230","geo_score":0.393,"street address":"109 W. 8th Street","id":"a64rv68ff230","geo_precision":"street"},"type":"Feature","geometry":{"type":"Point","coordinates":[-119.649114,36.327193]}},{"properties":{"rep? (1 for yes, 0 for no)":0,"city":"Bakersfield","name":"The Golden 1 Credit Union","zip":"93309","geo_score":0.902,"street address":"4106 California Ave","id":"a64rv6amihy7","geo_precision":"range"},"type":"Feature","geometry":{"type":"Point","coordinates":[-119.047824,35.367398]}},{"properties":{"rep? (1 for yes, 0 for no)":1,"city":"Visalia","name":"Tucoemas Federal Credit Union","zip":"93277","geo_score":0.459,"street address":"2300 W. Whitendale Ave.","id":"a64rv5ymyjo0","geo_precision":"street"},"type":"Feature","geometry":{"type":"Point","coordinates":[-119.292928,36.305631]}},{"properties":{"rep? (1 for yes, 0 for no)":1,"city":"Visalia","name":"Tucoemas Federal Credit Union","zip":"93277","geo_score":0.468,"street address":"5222 W. Cypress Ave.","id":"a64rv65ba6b8","geo_precision":"street"},"type":"Feature","geometry":{"type":"Point","coordinates":[-119.29223,36.324128]}},{"properties":{"rep? (1 for yes, 0 for no)":0,"city":"Tulare","name":"Tucoemas Federal Credit Union","zip":"93274","geo_score":0.342,"street address":"1233 E. Prosperity Ave","id":"a64rv6c4qs2s","geo_precision":"street"},"type":"Feature","geometry":{"type":"Point","coordinates":[-119.306464,36.225972]}},{"properties":{"rep? (1 for yes, 0 for no)":0,"city":"Porterville","name":"Tucoemas Federal Credit Union","zip":"93257","geo_score":0.345,"street address":"1389 W. Henderson","id":"a64rv5xqi8yq","geo_precision":"street"},"type":"Feature","geometry":{"type":"Point","coordinates":[-119.021034,36.080362]}},{"properties":{"rep? (1 for yes, 0 for no)":0,"city":"Visalia","name":"Valley Oak Credit Union","zip":"93291","geo_score":0.367,"street address":"600 W. Main Street","id":"a64rv6bn7nza","geo_precision":"street"},"type":"Feature","geometry":{"type":"Point","coordinates":[-119.292316,36.330155]}},{"properties":{"rep? (1 for yes, 0 for no)":0,"city":"Tulare","name":"Valley Oak Credit Union","zip":"93274","geo_score":0.363,"street address":"255 E. King Ave.","id":"a64rv66ti3ro","geo_precision":"street"},"type":"Feature","geometry":{"type":"Point","coordinates":[-119.346477,36.209332]}},{"properties":{"rep? (1 for yes, 0 for no)":0,"city":"Bakersfield","name":"Safe 1 Credit Union","zip":"93304","geo_score":0.756,"street address":"400 Oak Streeet","id":"a64rv64lcy9y","geo_precision":"range"},"type":"Feature","geometry":{"type":"Point","coordinates":[-119.038806,35.361388]}},{"properties":{"rep? (1 for yes, 0 for no)":0,"city":"Delano","name":"Safe 1 Credit Union","zip":"93215","geo_score":0.902,"street address":"1101 Cecil Ave.","id":"a64rv6344u10","geo_precision":"range"},"type":"Feature","geometry":{"type":"Point","coordinates":[-119.244437,35.775864]}},{"properties":{"rep? (1 for yes, 0 for no)":0,"city":"Porterville","name":"Safe 1 Credit Union","zip":"93257","geo_score":0.351,"street address":"680 N. Prospect Ave","id":"a64rv62fp70h","geo_precision":"street"},"type":"Feature","geometry":{"type":"Point","coordinates":[-119.043502,36.06591]}},{"properties":{"rep? (1 for yes, 0 for no)":0,"city":"Tehachapi","name":"Safe 1 Credit Union","zip":"93561","geo_score":0.702,"street address":"20141 Valley Blvd","id":"a64rv6cqeoau","geo_precision":"range"},"type":"Feature","geometry":{"type":"Point","coordinates":[-118.486056,35.124285]}},{"properties":{"rep? (1 for yes, 0 for no)":1,"city":"Bakersfield","name":"Chevron Valley Credit Union","zip":"93309","geo_score":0.902,"street address":"5555 California Ave","id":"a64rv6011e5o","geo_precision":"range"},"type":"Feature","geometry":{"type":"Point","coordinates":[-119.06113,35.357438]}},{"properties":{"rep? (1 for yes, 0 for no)":0,"city":"Taft","name":"Chevron Valley Credit Union","zip":"93268","geo_score":0.299,"street address":"1092 W. Kern Street","id":"a64rv5wq5ro2","geo_precision":"street"},"type":"Feature","geometry":{"type":"Point","coordinates":[-119.449611,35.140758]}},{"properties":{"rep? (1 for yes, 0 for no)":0,"city":"Bakersfield","name":"Commnity Trust Credit Union","zip":"93301","geo_score":0.821,"street address":"2100 H Street","id":"a64rv6bma8q2","geo_precision":"range"},"type":"Feature","geometry":{"type":"Point","coordinates":[-119.021179,35.378153]}},{"properties":{"rep? (1 for yes, 0 for no)":0,"city":"Porterville","name":"Commnity Trust Credit Union","zip":"93257","geo_score":0.74,"street address":"182 N. Main St","id":"a64rv5yvhdzx","geo_precision":"zip"},"type":"Feature","geometry":{"type":"Point","coordinates":[-119.045658,36.114674]}},{"properties":{"rep? (1 for yes, 0 for no)":0,"city":"Bakersfield","name":"Energy One Credit Union","zip":"93301","geo_score":0.805,"street address":"5555 California Ave","id":"a64rv61rvzzs","geo_precision":"range"},"type":"Feature","geometry":{"type":"Point","coordinates":[-119.06113,35.357438]}},{"properties":{"rep? (1 for yes, 0 for no)":0,"city":"Bakersfield","name":"Ag Business Credit","zip":"93313","geo_score":0.902,"street address":"7108 Drift Creek St","id":"a64rv637z0u2","geo_precision":"range"},"type":"Feature","geometry":{"type":"Point","coordinates":[-119.08063,35.296679]}}],"is_temporal":false,"author":{"url":"","metadata":null,"contact_name":null,"contact_address":null,"source":null,"contact_phone":null},"source":"","pagination":{"sort":null,"start":0,"total":82,"limit":1000000},"state":"complete","tags":"","published":"2014-08-14T15:44:34-04:00","id":220752}