{"type":"FeatureCollection","data_type":"Dataset","url_type":null,"permissions":[{"permissions":{"download":true,"view":true},"group_id":"everyone"}],"classification":null,"title":"branch_offices_error","count":35,"stream_id":221179,"contributor":{"url":"http://geocommons.com/users/37409","name":"casitas.lake"},"data_attributes":null,"calculation_params":null,"icon_link":null,"link":"http://geocommons.com/overlays/221179.json","extent":[-122.709,32.6228,-86.2533,38.4396],"geometry_types":["point"],"unique_name":null,"name":"branch_offices_error","feature_count":35,"description":"","next_feature":null,"is_raster":false,"short_classification":"Y","stats":{"latitude":{"max":38.43961,"mean":35.8181709428571,"variance":4.04330504844364,"stdev":2.0107971176734,"min":32.622833,"median":36.327683},"longitude":{"max":-86.253301,"mean":-118.943049142857,"variance":37.4296956296822,"stdev":6.11798133616655,"min":-122.709004,"median":-119.645991},"geocode score":{"max":1.0,"mean":0.706,"variance":0.0284967058823529,"stdev":0.168809673544951,"min":0.319,"median":0.683},"# of branches":{"max":7,"mean":4.5,"variance":2.7,"stdev":1.6431676725155,"min":3,"median":4}},"features":[{"properties":{"city":"Bakersfield","latitude":35.368829,"column_10":null,"zip":"93312","branch name":"Bakersfield","street address":"8501 Brimhall Road","division president":"Maryann Froehlich","division":"Central California","main":"Main","longitude":-119.0978,"id":"a65crpre87he","geocode score":0.497,"geocode precision":"street","# of branches":4,"state":"CA"},"type":"Feature","geometry":{"type":"Point","coordinates":[-119.0978,35.368829]}},{"properties":{"city":"Camarillo","latitude":34.221416,"column_10":null,"zip":"93010","branch name":"Camarillo","street address":"771 E. Daily Drive #110","division president":"Randy Cox","division":"Los Angeles/Ventura","main":null,"longitude":-119.067543,"id":"a65crq0szgvf","geocode score":0.673,"geocode precision":"range","# of branches":null,"state":"CA"},"type":"Feature","geometry":{"type":"Point","coordinates":[-119.067543,34.221416]}},{"properties":{"city":"Campbell","latitude":37.29423,"column_10":null,"zip":"95008","branch name":"Campbell","street address":"910 E. Hamilton Ave. #150","division president":"Ralph Costanzo","division":"Northern California-South Bay","main":"Main","longitude":-121.93178,"id":"a65crpvfophc","geocode score":0.539,"geocode precision":"street","# of branches":6,"state":"CA"},"type":"Feature","geometry":{"type":"Point","coordinates":[-121.93178,37.29423]}},{"properties":{"city":"Capitola","latitude":36.968506,"column_10":null,"zip":"95010","branch name":"Capitola","street address":"1955 41st Ave.  #A-5","division president":"Ralph Costanzo","division":"Northern California-South Bay","main":null,"longitude":-121.9649,"id":"a65crpyx7fd0","geocode score":0.633,"geocode precision":"street","# of branches":null,"state":"CA"},"type":"Feature","geometry":{"type":"Point","coordinates":[-121.9649,36.968506]}},{"properties":{"city":"Carlsbad","latitude":33.131144,"column_10":null,"zip":"92008","branch name":"Carlsbad","street address":"5470 Fleet Street","division president":"TBD","division":"San Diego/Orange","main":null,"longitude":-117.317953,"id":"a65crq34qebe","geocode score":0.806,"geocode precision":"street","# of branches":null,"state":"CA"},"type":"Feature","geometry":{"type":"Point","coordinates":[-117.317953,33.131144]}},{"properties":{"city":"City of Industry","latitude":32.622833,"column_10":null,"zip":"91746","branch name":"City of Industry","street address":"13191 Crossroads Parkway North","division president":"Randy Cox","division":"Los Angeles/Ventura","main":null,"longitude":-116.952321,"id":"a65crpuqboqg","geocode score":0.47,"geocode precision":"street","# of branches":null,"state":"CA"},"type":"Feature","geometry":{"type":"Point","coordinates":[-116.952321,32.622833]}},{"properties":{"city":"Danville","latitude":37.822748,"column_10":null,"zip":"94526","branch name":"Danville","street address":"370 Diablo Rd. #100","division president":"Paul Hickman","division":"Northern California-North Bay","main":null,"longitude":-122.000376,"id":"a65crpr1elgm","geocode score":0.913,"geocode precision":"range","# of branches":null,"state":"CA"},"type":"Feature","geometry":{"type":"Point","coordinates":[-122.000376,37.822748]}},{"properties":{"city":"CLOSED","latitude":33.620788,"column_10":null,"zip":null,"branch name":"Encino","street address":"CLOSED","division president":null,"division":"Los Angeles/Ventura","main":null,"longitude":-86.253301,"id":"a65crq1raixc","geocode score":0.557,"geocode precision":"street","# of branches":null,"state":null},"type":"Feature","geometry":{"type":"Point","coordinates":[-86.253301,33.620788]}},{"properties":{"city":"Fairfield","latitude":38.210485,"column_10":null,"zip":"94534","branch name":"Fairfield","street address":"2850 Cordelia Rd, Ste 100","division president":"Michi Perkins/Paul Hickman","division":"RPC","main":null,"longitude":-122.135956,"id":"a65crq5o5xn2","geocode score":0.503,"geocode precision":"street","# of branches":null,"state":"CA"},"type":"Feature","geometry":{"type":"Point","coordinates":[-122.135956,38.210485]}},{"properties":{"city":"Fresno","latitude":36.857786,"column_10":null,"zip":"93720","branch name":"Fresno","street address":"205 East River Park Circle, Ste 100","division president":"Maryann Froehlich","division":"Central California","main":null,"longitude":-119.785621,"id":"a65crpxk7xoy","geocode score":0.607,"geocode precision":"street","# of branches":null,"state":"CA"},"type":"Feature","geometry":{"type":"Point","coordinates":[-119.785621,36.857786]}},{"properties":{"city":"Glendale","latitude":34.151588,"column_10":null,"zip":"91203","branch name":"Glendale","street address":"525 N. Brand Blvd.","division president":"Randy Cox","division":"Los Angeles/Ventura","main":"Main","longitude":-118.268689,"id":"a65crq5n31g4","geocode score":0.633,"geocode precision":"street","# of branches":3,"state":"CA"},"type":"Feature","geometry":{"type":"Point","coordinates":[-118.268689,34.151588]}},{"properties":{"city":"Greenbrae","latitude":37.944417,"column_10":null,"zip":"94904","branch name":"Greenbrae","street address":"100 Drakes Landing Rd. #130","division president":"Paul Hickman","division":"Northern California-North Bay","main":null,"longitude":-122.519139,"id":"a65crpvg43sj","geocode score":0.855,"geocode precision":"range","# of branches":null,"state":"CA"},"type":"Feature","geometry":{"type":"Point","coordinates":[-122.519139,37.944417]}},{"properties":{"city":"Hanford","latitude":36.327683,"column_10":null,"zip":"93230","branch name":"Hanford","street address":"329 W. 8th St. #105","division president":"Maryann Froehlich","division":"Central California","main":null,"longitude":-119.645991,"id":"a65crq1oj5c7","geocode score":0.683,"geocode precision":"range","# of branches":null,"state":"CA"},"type":"Feature","geometry":{"type":"Point","coordinates":[-119.645991,36.327683]}},{"properties":{"city":"El Centro","latitude":32.792828,"column_10":null,"zip":"92243","branch name":"Imperial","street address":"760 W. Main St.","division president":"Guy Kruger","division":"Inland Empire/Imperial","main":null,"longitude":-115.544156,"id":"a65crq17e2v1","geocode score":0.508,"geocode precision":"street","# of branches":null,"state":"CA"},"type":"Feature","geometry":{"type":"Point","coordinates":[-115.544156,32.792828]}},{"properties":{"city":"Irvine","latitude":33.69178,"column_10":null,"zip":"92614","branch name":"Irvine","street address":"2010 Main St. #250","division president":"TBD","division":"San Diego/Orange","main":null,"longitude":-117.86763,"id":"a65crpriei0n","geocode score":0.805,"geocode precision":"street","# of branches":null,"state":"CA"},"type":"Feature","geometry":{"type":"Point","coordinates":[-117.86763,33.69178]}},{"properties":{"city":"La Mesa","latitude":32.771268,"column_10":null,"zip":"91941","branch name":"La Mesa","street address":"8250 La Mesa Boulevard #102","division president":"TBD","division":"San Diego/Orange","main":null,"longitude":-116.993602,"id":"a65crq0j6wzk","geocode score":0.629,"geocode precision":"street","# of branches":null,"state":"CA"},"type":"Feature","geometry":{"type":"Point","coordinates":[-116.993602,32.771268]}},{"properties":{"city":"Los Gatos","latitude":37.230212,"column_10":null,"zip":"95032","branch name":"Los Gatos","street address":"750 University Ave. #120","division president":"Ralph Costanzo","division":"Northern California-South Bay","main":null,"longitude":-121.978564,"id":"a65crq451ml0","geocode score":0.806,"geocode precision":"street","# of branches":null,"state":"CA"},"type":"Feature","geometry":{"type":"Point","coordinates":[-121.978564,37.230212]}},{"properties":{"city":"Mill Valley","latitude":37.908023,"column_10":null,"zip":"94941","branch name":"Mill Valley","street address":"591 Redwood Hwy #2100","division president":"Paul Hickman","division":"Northern California-North Bay","main":null,"longitude":-122.514249,"id":"a65crptcp7h7","geocode score":0.76,"geocode precision":"street","# of branches":null,"state":"CA"},"type":"Feature","geometry":{"type":"Point","coordinates":[-122.514249,37.908023]}},{"properties":{"city":"Modesto","latitude":37.636688,"column_10":null,"zip":"95354","branch name":"Modesto","street address":"1601 I Street, Suite 150","division president":"Ralph Costanzo","division":"Northern California-South Bay","main":null,"longitude":-121.002965,"id":"a65crq1uci2o","geocode score":1.0,"geocode precision":"street","# of branches":null,"state":"CA"},"type":"Feature","geometry":{"type":"Point","coordinates":[-121.002965,37.636688]}},{"properties":{"city":"Murrieta","latitude":33.563913,"column_10":null,"zip":"92562","branch name":"Murrieta","street address":"41391 Kalmia Street, SuiCe 110","division president":"Guy Kruger","division":"Inland Empire/Imperial","main":null,"longitude":-117.208024,"id":"a65crpzun3bd","geocode score":1.0,"geocode precision":"street","# of branches":null,"state":"CA"},"type":"Feature","geometry":{"type":"Point","coordinates":[-117.208024,33.563913]}},{"properties":{"city":"Novato","latitude":38.090452,"column_10":null,"zip":"94945","branch name":"Novato","street address":"7250 Redwood Blvd. #208","division president":"Paul Hickman","division":"Northern California-North Bay","main":null,"longitude":-122.561816,"id":"a65crq56bp81","geocode score":0.717,"geocode precision":"street","# of branches":null,"state":"CA"},"type":"Feature","geometry":{"type":"Point","coordinates":[-122.561816,38.090452]}},{"properties":{"city":"Palm Desert","latitude":33.721955,"column_10":null,"zip":"92260","branch name":"Palm Desert","street address":"73020 El Paseo , Ste 103","division president":"Guy Kruger","division":"Inland Empire/Imperial","main":null,"longitude":-116.399156,"id":"a65crprd1egq","geocode score":0.757,"geocode precision":"street","# of branches":null,"state":"CA"},"type":"Feature","geometry":{"type":"Point","coordinates":[-116.399156,33.721955]}},{"properties":{"city":"Porterville","latitude":36.080362,"column_10":null,"zip":"93257","branch name":"Porterville","street address":"296 W. Henderson ave","division president":"Maryann Froehlich","division":"Central California","main":null,"longitude":-119.021034,"id":"a65crq671zc5","geocode score":0.319,"geocode precision":"street","# of branches":null,"state":"CA"},"type":"Feature","geometry":{"type":"Point","coordinates":[-119.021034,36.080362]}},{"properties":{"city":"Riverside","latitude":33.946311,"column_10":null,"zip":"92506","branch name":"Riverside","street address":"7065 Indiana Ave,Ste 100","division president":"Guy Kruger","division":"Inland Empire/Imperial","main":"Main","longitude":-117.387304,"id":"a65crpz0dz8h","geocode score":0.571,"geocode precision":"street","# of branches":4,"state":"CA"},"type":"Feature","geometry":{"type":"Point","coordinates":[-117.387304,33.946311]}},{"properties":{"city":"San Diego","latitude":32.770663,"column_10":null,"zip":"92108","branch name":"San Diego-Mission Valley","street address":"7676 Hazard Center Drive, Suite 1400","division president":"TBD","division":"San Diego/Orange","main":"Main","longitude":-117.157676,"id":"a65crpyct0xk","geocode score":0.602,"geocode precision":"street","# of branches":3,"state":"CA"},"type":"Feature","geometry":{"type":"Point","coordinates":[-117.157676,32.770663]}},{"properties":{"city":"San Francisco","latitude":37.787714,"column_10":null,"zip":"94109","branch name":"San Francisco-Presido","street address":"1388 Sutter St., Suite #1220","division president":"Paul Hickman","division":"Northern California-North Bay","main":null,"longitude":-122.420381,"id":"a65crq4syeio","geocode score":0.854,"geocode precision":"range","# of branches":null,"state":"CA"},"type":"Feature","geometry":{"type":"Point","coordinates":[-122.420381,37.787714]}},{"properties":{"city":"San Rafael","latitude":37.955461,"column_10":null,"zip":"94901","branch name":"San Rafael","street address":"700 Irwin St. #100","division president":"Paul Hickman","division":"Northern California-North Bay","main":"Main","longitude":-122.518148,"id":"a65crq0tkric","geocode score":1.0,"geocode precision":"range","# of branches":7,"state":"CA"},"type":"Feature","geometry":{"type":"Point","coordinates":[-122.518148,37.955461]}},{"properties":{"city":"Santa Cruz","latitude":36.975986,"column_10":null,"zip":"95060","branch name":"Santa Cruz","street address":"1541-D Pacific Ave.","division president":"Ralph Costanzo","division":"Northern California-South Bay","main":null,"longitude":-122.026706,"id":"a65crpvt9jqn","geocode score":0.884,"geocode precision":"range","# of branches":null,"state":"CA"},"type":"Feature","geometry":{"type":"Point","coordinates":[-122.026706,36.975986]}},{"properties":{"city":"Santa Rosa","latitude":38.43961,"column_10":null,"zip":"95404","branch name":"Santa Rosa","street address":"431 \"E\" St.","division president":"Paul Hickman","division":"Northern California-North Bay","main":null,"longitude":-122.709004,"id":"a65crpz5ft4g","geocode score":0.714,"geocode precision":"street","# of branches":null,"state":"CA"},"type":"Feature","geometry":{"type":"Point","coordinates":[-122.709004,38.43961]}},{"properties":{"city":"Saratoga","latitude":37.289,"column_10":null,"zip":"95070","branch name":"Saratoga","street address":"12820 Saratoga-Sunnyvale Rd.","division president":"Ralph Costanzo","division":"Northern California-South Bay","main":null,"longitude":-122.03243,"id":"a65crq4lwjgh","geocode score":0.731,"geocode precision":"street","# of branches":null,"state":"CA"},"type":"Feature","geometry":{"type":"Point","coordinates":[-122.03243,37.289]}},{"properties":{"city":"Turlock","latitude":37.49274,"column_10":null,"zip":"95380","branch name":"Turlock","street address":"121 W. Main St. #H","division president":"Ralph Costanzo","division":"Northern California-South Bay","main":null,"longitude":-120.848844,"id":"a65crq56zylw","geocode score":0.633,"geocode precision":"street","# of branches":null,"state":"CA"},"type":"Feature","geometry":{"type":"Point","coordinates":[-120.848844,37.49274]}},{"properties":{"city":"Ventura","latitude":34.261387,"column_10":null,"zip":"93003","branch name":"Ventura","street address":"1300 Eastman Avenue Ste 205","division president":"Randy Cox","division":"Los Angeles/Ventura","main":null,"longitude":-119.230397,"id":"a65crq2c6g2l","geocode score":0.89,"geocode precision":"range","# of branches":null,"state":"CA"},"type":"Feature","geometry":{"type":"Point","coordinates":[-119.230397,34.261387]}},{"properties":{"city":"Victorville","latitude":34.474881,"column_10":null,"zip":"92392","branch name":"Victorville","street address":"12370 Hesperia Rd.","division president":"Guy Kruger","division":"Inland Empire/Imperial","main":null,"longitude":-117.291474,"id":"a65crq595dqa","geocode score":0.632,"geocode precision":"street","# of branches":null,"state":"CA"},"type":"Feature","geometry":{"type":"Point","coordinates":[-117.291474,34.474881]}},{"properties":{"city":"Visilia","latitude":36.305631,"column_10":null,"zip":"93277","branch name":"Visalia","street address":"2439 W. Whitendale","division president":"Maryann Froehlich","division":"Central California","main":null,"longitude":-119.292928,"id":"a65crpqdqigt","geocode score":0.582,"geocode precision":"street","# of branches":null,"state":"CA"},"type":"Feature","geometry":{"type":"Point","coordinates":[-119.292928,36.305631]}},{"properties":{"city":"Walnut Creek","latitude":37.906665,"column_10":null,"zip":"94596","branch name":"Walnut Creek","street address":"1101 Civic Drive","division president":"Paul Hickman","division":"Northern California-North Bay","main":null,"longitude":-122.058862,"id":"a65crq167hht","geocode score":0.947,"geocode precision":"range","# of branches":null,"state":"CA"},"type":"Feature","geometry":{"type":"Point","coordinates":[-122.058862,37.906665]}}],"is_temporal":false,"author":{"url":"","metadata":null,"contact_name":null,"contact_address":null,"source":null,"contact_phone":null},"source":"","pagination":{"sort":null,"start":0,"total":35,"limit":1000000},"state":"complete","tags":"","published":"2014-08-14T16:22:34-04:00","id":221179}