{"type":"FeatureCollection","data_type":"Dataset","url_type":null,"permissions":[{"permissions":{"download":true,"view":true},"group_id":"everyone"}],"classification":null,"title":"Jim_-_Banks_-_ran_March_28th","count":74,"stream_id":221280,"contributor":{"url":"http://geocommons.com/users/39447","name":"sam.felipe"},"data_attributes":null,"calculation_params":null,"icon_link":null,"link":"http://geocommons.com/overlays/221280.json","extent":[-119.991,34.0324,-118.709,34.5861],"geometry_types":["point"],"unique_name":null,"name":"Jim_-_Banks_-_ran_March_28th","feature_count":74,"description":"","next_feature":null,"is_raster":false,"short_classification":"Y","stats":{"value":{"max":1,"mean":0.256756756756757,"variance":0.193446871529063,"stdev":0.439825955951969,"min":0,"median":0}},"features":[{"properties":{"city":"Simi Valley","column_10":null,"zip":"93065","column_6":null,"addresss":"660 E Los Angeles","column_7":null,"company name":"Chase 660","geo_score":0.743,"column_8":null,"column_9":null,"value":0,"id":"a65qsmp8u9bd","geo_precision":"zip"},"type":"Feature","geometry":{"type":"Point","coordinates":[-118.737592,34.26917]}},{"properties":{"city":"Ventura","column_10":null,"zip":"93001","column_6":null,"addresss":"101 S Chestnut St,","column_7":null,"company name":"Affinity Bank","geo_score":0.781,"column_8":null,"column_9":null,"value":1,"id":"a65qsmr62prh","geo_precision":"zip"},"type":"Feature","geometry":{"type":"Point","coordinates":[-119.293168,34.278335]}},{"properties":{"city":"Camarillo","column_10":null,"zip":"93010","column_6":null,"addresss":"1656 Arneil Rd","column_7":null,"company name":"Affinity Bank 1656","geo_score":0.753,"column_8":null,"column_9":null,"value":0,"id":"a65qsmqbs2af","geo_precision":"zip"},"type":"Feature","geometry":{"type":"Point","coordinates":[-119.095938,34.22056]}},{"properties":{"city":"Camarillo","column_10":null,"zip":"93010","column_6":null,"addresss":"1656 Arneil Rod","column_7":null,"company name":"Affinty Bank 1656","geo_score":0.753,"column_8":null,"column_9":null,"value":0,"id":"a65qsmrq3s4f","geo_precision":"zip"},"type":"Feature","geometry":{"type":"Point","coordinates":[-119.095938,34.22056]}},{"properties":{"city":"Fillmore","column_10":null,"zip":"93015","column_6":null,"addresss":"606 W Ventura St,","column_7":null,"company name":"Bank of America","geo_score":0.732,"column_8":null,"column_9":null,"value":0,"id":"a65qsmtknm96","geo_precision":"zip"},"type":"Feature","geometry":{"type":"Point","coordinates":[-118.950378,34.399997]}},{"properties":{"city":"Moorpark","column_10":null,"zip":"93021","column_6":null,"addresss":"4241 Tierra Rejada Rd,","column_7":null,"company name":"Bank of America","geo_score":0.724,"column_8":null,"column_9":null,"value":0,"id":"a65qsmtpznrv","geo_precision":"zip"},"type":"Feature","geometry":{"type":"Point","coordinates":[-118.858429,34.28778]}},{"properties":{"city":"Moorpark","column_10":null,"zip":"93021","column_6":null,"addresss":"4241 Tierra Rejada Rd,","column_7":null,"company name":"Bank of America","geo_score":0.724,"column_8":null,"column_9":null,"value":0,"id":"a65qsmnq9clp","geo_precision":"zip"},"type":"Feature","geometry":{"type":"Point","coordinates":[-118.858429,34.28778]}},{"properties":{"city":"Moorpark","column_10":null,"zip":"93021","column_6":null,"addresss":"730 New Los Angeles Ave,","column_7":null,"company name":"Bank of America","geo_score":0.724,"column_8":null,"column_9":null,"value":0,"id":"a65qsmk2ta8i","geo_precision":"zip"},"type":"Feature","geometry":{"type":"Point","coordinates":[-118.858429,34.28778]}},{"properties":{"city":"Santa Paula","column_10":null,"zip":"93060","column_6":null,"addresss":"715 E Main St,","column_7":null,"company name":"Bank of America","geo_score":0.735,"column_8":null,"column_9":null,"value":0,"id":"a65qsmsyjvvm","geo_precision":"zip"},"type":"Feature","geometry":{"type":"Point","coordinates":[-119.09455,34.42694]}},{"properties":{"city":"Port Hueneme","column_10":null,"zip":"93041","column_6":null,"addresss":"755 W Channel Islands","column_7":null,"company name":"Bank of America","geo_score":0.857,"column_8":null,"column_9":null,"value":1,"id":"a65qsmyxanzp","geo_precision":"zip"},"type":"Feature","geometry":{"type":"Point","coordinates":[-119.15458,34.148893]}},{"properties":{"city":"Camarillo","column_10":null,"zip":"93012","column_6":null,"addresss":"500 Santa Rosa Rd","column_7":null,"company name":"Bank of America","geo_score":0.857,"column_8":null,"column_9":null,"value":1,"id":"a65qsmtx6ucg","geo_precision":"zip"},"type":"Feature","geometry":{"type":"Point","coordinates":[-118.974355,34.204429]}},{"properties":{"city":"Simi Valley","column_10":null,"zip":"93063","column_6":null,"addresss":"1800 Tapo Canyon Rd","column_7":null,"company name":"Bank of America","geo_score":0.727,"column_8":null,"column_9":null,"value":0,"id":"a65qsmtwg1oi","geo_precision":"zip"},"type":"Feature","geometry":{"type":"Point","coordinates":[-118.70898,34.271669]}},{"properties":{"city":"Westlake","column_10":null,"zip":"91361","column_6":null,"addresss":"954 South Westlake Blvd","column_7":null,"company name":"Bank of America","geo_score":0.738,"column_8":null,"column_9":null,"value":0,"id":"a65qsmkzh61v","geo_precision":"zip"},"type":"Feature","geometry":{"type":"Point","coordinates":[-118.82193,34.137015]}},{"properties":{"city":"Simi Valley","column_10":null,"zip":"93065","column_6":null,"addresss":"1307 E Los Angeles","column_7":null,"company name":"Bank of America","geo_score":0.743,"column_8":null,"column_9":null,"value":0,"id":"a65qsmv0nbu6","geo_precision":"zip"},"type":"Feature","geometry":{"type":"Point","coordinates":[-118.737592,34.26917]}},{"properties":{"city":"Ventura","column_10":null,"zip":"93003","column_6":null,"addresss":"1794 S Victoria Ave,","column_7":null,"company name":"Bank of the West","geo_score":0.857,"column_8":null,"column_9":null,"value":1,"id":"a65qsmp0uhop","geo_precision":"zip"},"type":"Feature","geometry":{"type":"Point","coordinates":[-119.221299,34.230353]}},{"properties":{"city":"Ventura","column_10":null,"zip":"93003","column_6":null,"addresss":"4050 E Main St,","column_7":null,"company name":"California National Bank","geo_score":0.857,"column_8":null,"column_9":null,"value":1,"id":"a65qsmwvzik7","geo_precision":"zip"},"type":"Feature","geometry":{"type":"Point","coordinates":[-119.221299,34.230353]}},{"properties":{"city":"Simi Valley","column_10":null,"zip":"93065","column_6":null,"addresss":"2655 1st street Simi","column_7":null,"company name":"California United Bank","geo_score":0.743,"column_8":null,"column_9":null,"value":0,"id":"a65qsmuq1s2e","geo_precision":"zip"},"type":"Feature","geometry":{"type":"Point","coordinates":[-118.737592,34.26917]}},{"properties":{"city":"Camarillo","column_10":null,"zip":"93010","column_6":null,"addresss":"1150 Paseso","column_7":null,"company name":"Camarillo Community Bank","geo_score":0.753,"column_8":null,"column_9":null,"value":1,"id":"a65qsmnodlkw","geo_precision":"zip"},"type":"Feature","geometry":{"type":"Point","coordinates":[-119.095938,34.22056]}},{"properties":{"city":"Camarillo","column_10":null,"zip":"93101","column_6":null,"addresss":"430 Arneil Rd","column_7":null,"company name":"CitBank","geo_score":0.786,"column_8":null,"column_9":null,"value":0,"id":"a65qsmuvjwsc","geo_precision":"zip"},"type":"Feature","geometry":{"type":"Point","coordinates":[-119.990975,34.5861]}},{"properties":{"city":"Simi Valley","column_10":null,"zip":"93065","column_6":null,"addresss":"2860 Cochran Street","column_7":null,"company name":"Citi Bank 2860","geo_score":0.743,"column_8":null,"column_9":null,"value":0,"id":"a65qsmmvu0x0","geo_precision":"zip"},"type":"Feature","geometry":{"type":"Point","coordinates":[-118.737592,34.26917]}},{"properties":{"city":"Westlake","column_10":null,"zip":"91361","column_6":null,"addresss":"974 Westlake Blvd","column_7":null,"company name":"Citi Bank 974","geo_score":0.738,"column_8":null,"column_9":null,"value":0,"id":"a65qsmtwkp7v","geo_precision":"zip"},"type":"Feature","geometry":{"type":"Point","coordinates":[-118.82193,34.137015]}},{"properties":{"city":"Port Hueneme","column_10":null,"zip":"93041","column_6":null,"addresss":"739 W Channel Islands","column_7":null,"company name":"Citibank","geo_score":0.857,"column_8":null,"column_9":null,"value":1,"id":"a65qsmpuatsz","geo_precision":"zip"},"type":"Feature","geometry":{"type":"Point","coordinates":[-119.15458,34.148893]}},{"properties":{"city":"Camarillo","column_10":null,"zip":"93020","column_6":null,"addresss":"520 Las Posas Rd","column_7":null,"company name":"City National Bank","geo_score":0.73,"column_8":null,"column_9":null,"value":1,"id":"a65qsmn6kgcs","geo_precision":"zip"},"type":"Feature","geometry":{"type":"Point","coordinates":[-119.1343,34.032383]}},{"properties":{"city":"thousand oaks","column_10":null,"zip":"91361","column_6":null,"addresss":"2655 Townsgate Road","column_7":null,"company name":"City National Bank","geo_score":0.726,"column_8":null,"column_9":null,"value":0,"id":"a65qsmycclxh","geo_precision":"zip"},"type":"Feature","geometry":{"type":"Point","coordinates":[-118.82193,34.137015]}},{"properties":{"city":"Westlake","column_10":null,"zip":"91361","column_6":null,"addresss":"2915 Townsgate","column_7":null,"company name":"Comerica Bank 2915","geo_score":0.738,"column_8":null,"column_9":null,"value":0,"id":"a65qsmn7f8xc","geo_precision":"zip"},"type":"Feature","geometry":{"type":"Point","coordinates":[-118.82193,34.137015]}},{"properties":{"city":"Ventura","column_10":null,"zip":"93003","column_6":null,"addresss":"1463 S Victoria Ave,","column_7":null,"company name":"Community West Bank","geo_score":0.857,"column_8":null,"column_9":null,"value":1,"id":"a65qsmu4wvj7","geo_precision":"zip"},"type":"Feature","geometry":{"type":"Point","coordinates":[-119.221299,34.230353]}},{"properties":{"city":"Westlake","column_10":null,"zip":"91361","column_6":null,"addresss":"951 Westlake Blvd","column_7":null,"company name":"Community West Bank","geo_score":0.738,"column_8":null,"column_9":null,"value":0,"id":"a65qsmr4a84t","geo_precision":"zip"},"type":"Feature","geometry":{"type":"Point","coordinates":[-118.82193,34.137015]}},{"properties":{"city":"Westlake","column_10":null,"zip":"91361","column_6":null,"addresss":"32111 Agoura Road","column_7":null,"company name":"Firat California Bank","geo_score":0.738,"column_8":null,"column_9":null,"value":0,"id":"a65qsmwv5k7r","geo_precision":"zip"},"type":"Feature","geometry":{"type":"Point","coordinates":[-118.82193,34.137015]}},{"properties":{"city":"Westlake","column_10":null,"zip":"91361","column_6":null,"addresss":"2797 Agiur Road","column_7":null,"company name":"First Bank 2797","geo_score":0.738,"column_8":null,"column_9":null,"value":0,"id":"a65qsmz8h998","geo_precision":"zip"},"type":"Feature","geometry":{"type":"Point","coordinates":[-118.82193,34.137015]}},{"properties":{"city":"Westlake","column_10":null,"zip":"91361","column_6":null,"addresss":"3027 Townsgate","column_7":null,"company name":"First Californai Bank","geo_score":0.738,"column_8":null,"column_9":null,"value":0,"id":"a65qsmwybdv5","geo_precision":"zip"},"type":"Feature","geometry":{"type":"Point","coordinates":[-118.82193,34.137015]}},{"properties":{"city":"Simi Valley","column_10":null,"zip":"93065","column_6":null,"addresss":"1685 Sims Town Center","column_7":null,"company name":"First California Bank","geo_score":0.743,"column_8":null,"column_9":null,"value":0,"id":"a65qsmroivs7","geo_precision":"zip"},"type":"Feature","geometry":{"type":"Point","coordinates":[-118.737592,34.26917]}},{"properties":{"city":"Moorpark","column_10":null,"zip":"93021","column_6":null,"addresss":"4305 Hitch Blvd","column_7":null,"company name":"First Conejo Funding","geo_score":0.724,"column_8":null,"column_9":null,"value":1,"id":"a65qsmukbjfa","geo_precision":"zip"},"type":"Feature","geometry":{"type":"Point","coordinates":[-118.858429,34.28778]}},{"properties":{"city":"Moorpark","column_10":null,"zip":"93021","column_6":null,"addresss":"5154 Goldman Ave","column_7":null,"company name":"First U.S. Finance","geo_score":0.724,"column_8":null,"column_9":null,"value":0,"id":"a65qsmnrenmj","geo_precision":"zip"},"type":"Feature","geometry":{"type":"Point","coordinates":[-118.858429,34.28778]}},{"properties":{"city":"Westlake","column_10":null,"zip":"91361","column_6":null,"addresss":"2635 Townsgate","column_7":null,"company name":"Hunting National 2635","geo_score":0.738,"column_8":null,"column_9":null,"value":0,"id":"a65qsmph6ue9","geo_precision":"zip"},"type":"Feature","geometry":{"type":"Point","coordinates":[-118.82193,34.137015]}},{"properties":{"city":"Westlake","column_10":null,"zip":"91361","column_6":null,"addresss":"968 Westlake Blvd","column_7":null,"company name":"Montecito Bank and Trust","geo_score":0.738,"column_8":null,"column_9":null,"value":0,"id":"a65qsmq4h1q3","geo_precision":"zip"},"type":"Feature","geometry":{"type":"Point","coordinates":[-118.82193,34.137015]}},{"properties":{"city":"Westlake","column_10":null,"zip":"91361","column_6":null,"addresss":"875 Westlake Blvd","column_7":null,"company name":"National Bank of California","geo_score":0.738,"column_8":null,"column_9":null,"value":0,"id":"a65qsmxv8p9n","geo_precision":"zip"},"type":"Feature","geometry":{"type":"Point","coordinates":[-118.82193,34.137015]}},{"properties":{"city":"Camarillo","column_10":null,"zip":"93010","column_6":null,"addresss":"2245 Ventura Blvd","column_7":null,"company name":"One West Bank","geo_score":0.753,"column_8":null,"column_9":null,"value":1,"id":"a65qsmsymprp","geo_precision":"zip"},"type":"Feature","geometry":{"type":"Point","coordinates":[-119.095938,34.22056]}},{"properties":{"city":"Camarillo","column_10":null,"zip":"93010","column_6":null,"addresss":"1656 Arneil Rd","column_7":null,"company name":"Pacific Western Bank","geo_score":0.753,"column_8":null,"column_9":null,"value":1,"id":"a65qsmm1kxq4","geo_precision":"zip"},"type":"Feature","geometry":{"type":"Point","coordinates":[-119.095938,34.22056]}},{"properties":{"city":"Simi Valley","column_10":null,"zip":"93065","column_6":null,"addresss":"2760 Tapo Canyon Road","column_7":null,"company name":"PNC Bank 2760","geo_score":0.743,"column_8":null,"column_9":null,"value":0,"id":"a65qsmtmyd44","geo_precision":"zip"},"type":"Feature","geometry":{"type":"Point","coordinates":[-118.737592,34.26917]}},{"properties":{"city":"Simi Valley","column_10":null,"zip":"93063","column_6":null,"addresss":"1368 Madera Road Simi","column_7":null,"company name":"Premier American Credit","geo_score":0.727,"column_8":null,"column_9":null,"value":0,"id":"a65qsmwgdc7q","geo_precision":"zip"},"type":"Feature","geometry":{"type":"Point","coordinates":[-118.70898,34.271669]}},{"properties":{"city":"Camarillo","column_10":null,"zip":"93010","column_6":null,"addresss":"470 Arneil Rd","column_7":null,"company name":"Rabobank","geo_score":0.753,"column_8":null,"column_9":null,"value":0,"id":"a65qsmz989gs","geo_precision":"zip"},"type":"Feature","geometry":{"type":"Point","coordinates":[-119.095938,34.22056]}},{"properties":{"city":"Westlake","column_10":null,"zip":"91361","column_6":null,"addresss":"2663 Townsgate","column_7":null,"company name":"Rabobank America 2663","geo_score":0.738,"column_8":null,"column_9":null,"value":0,"id":"a65qsmsr9gmv","geo_precision":"zip"},"type":"Feature","geometry":{"type":"Point","coordinates":[-118.82193,34.137015]}},{"properties":{"city":"Ventura","column_10":null,"zip":"93003","column_6":null,"addresss":"300 S Mills Rd,","column_7":null,"company name":"Rabobank N.A.","geo_score":0.857,"column_8":null,"column_9":null,"value":1,"id":"a65qsmqncbjq","geo_precision":"zip"},"type":"Feature","geometry":{"type":"Point","coordinates":[-119.221299,34.230353]}},{"properties":{"city":"Moorpark","column_10":null,"zip":"93021","column_6":null,"addresss":"146 W Los Angeles","column_7":null,"company name":"Rabobank N.A.","geo_score":0.724,"column_8":null,"column_9":null,"value":0,"id":"a65qsmp5qivn","geo_precision":"zip"},"type":"Feature","geometry":{"type":"Point","coordinates":[-118.858429,34.28778]}},{"properties":{"city":"Camarillo","column_10":null,"zip":"93010","column_6":null,"addresss":"2310 Ponderosa Dr","column_7":null,"company name":"Sant Barbara Bank","geo_score":0.753,"column_8":null,"column_9":null,"value":1,"id":"a65qsmmqsidu","geo_precision":"zip"},"type":"Feature","geometry":{"type":"Point","coordinates":[-119.095938,34.22056]}},{"properties":{"city":"Santa Paula","column_10":null,"zip":"93060","column_6":null,"addresss":"537 W Harvard Blvd,","column_7":null,"company name":"Santa Barbara Bank","geo_score":0.735,"column_8":null,"column_9":null,"value":0,"id":"a65qsmvn1gac","geo_precision":"zip"},"type":"Feature","geometry":{"type":"Point","coordinates":[-119.09455,34.42694]}},{"properties":{"city":"Santa Paula","column_10":null,"zip":"93060","column_6":null,"addresss":"948 E Main St,","column_7":null,"company name":"Santa Barbara Bank","geo_score":0.735,"column_8":null,"column_9":null,"value":0,"id":"a65qsmq6se9k","geo_precision":"zip"},"type":"Feature","geometry":{"type":"Point","coordinates":[-119.09455,34.42694]}},{"properties":{"city":"Port Hueneme","column_10":null,"zip":"93041","column_6":null,"addresss":"585 W Channel Islands","column_7":null,"company name":"Santa Barbara Bank","geo_score":0.857,"column_8":null,"column_9":null,"value":1,"id":"a65qsmkfr6uv","geo_precision":"zip"},"type":"Feature","geometry":{"type":"Point","coordinates":[-119.15458,34.148893]}},{"properties":{"city":"Port Hueneme","column_10":null,"zip":"93041","column_6":null,"addresss":"583 W Channel Islands","column_7":null,"company name":"Santa Barbara Bank","geo_score":0.857,"column_8":null,"column_9":null,"value":0,"id":"a65qsmvgzymz","geo_precision":"zip"},"type":"Feature","geometry":{"type":"Point","coordinates":[-119.15458,34.148893]}},{"properties":{"city":"Camarillo","column_10":null,"zip":"93012","column_6":null,"addresss":"4646 Adolfo Rd","column_7":null,"company name":"Santa Barbara Bank","geo_score":0.857,"column_8":null,"column_9":null,"value":1,"id":"a65qsmzeci6v","geo_precision":"zip"},"type":"Feature","geometry":{"type":"Point","coordinates":[-118.974355,34.204429]}},{"properties":{"city":"Simi Valley","column_10":null,"zip":"93065","column_6":null,"addresss":"2930 Tapo Canyon Rd,","column_7":null,"company name":"Santa Barbara Bank","geo_score":0.743,"column_8":null,"column_9":null,"value":0,"id":"a65qsmz4u328","geo_precision":"zip"},"type":"Feature","geometry":{"type":"Point","coordinates":[-118.737592,34.26917]}},{"properties":{"city":"Fillmore","column_10":null,"zip":"93015","column_6":null,"addresss":"527 Sespe Ave","column_7":null,"company name":"Santa Clara Valley","geo_score":0.732,"column_8":null,"column_9":null,"value":0,"id":"a65qsmn0jm7i","geo_precision":"zip"},"type":"Feature","geometry":{"type":"Point","coordinates":[-118.950378,34.399997]}},{"properties":{"city":"Fillmore","column_10":null,"zip":"93015","column_6":null,"addresss":"540 Sespe Ave","column_7":null,"company name":"Santa Clara Valley","geo_score":0.732,"column_8":null,"column_9":null,"value":0,"id":"a65qsmsi8mml","geo_precision":"zip"},"type":"Feature","geometry":{"type":"Point","coordinates":[-118.950378,34.399997]}},{"properties":{"city":"Santa Paula","column_10":null,"zip":"93060","column_6":null,"addresss":"901 E Main St,","column_7":null,"company name":"Santa Clara Valley","geo_score":0.735,"column_8":null,"column_9":null,"value":0,"id":"a65qsmpvlvvg","geo_precision":"zip"},"type":"Feature","geometry":{"type":"Point","coordinates":[-119.09455,34.42694]}},{"properties":{"city":"Santa Paula","column_10":null,"zip":"93060","column_6":null,"addresss":"915 E Main St","column_7":null,"company name":"Santa Clara Valley","geo_score":0.735,"column_8":null,"column_9":null,"value":0,"id":"a65qsmn9npqm","geo_precision":"zip"},"type":"Feature","geometry":{"type":"Point","coordinates":[-119.09455,34.42694]}},{"properties":{"city":"Santa Paula","column_10":null,"zip":"93060","column_6":null,"addresss":"121 N Ojai St,","column_7":null,"company name":"Santa Paula Community","geo_score":0.735,"column_8":null,"column_9":null,"value":0,"id":"a65qsmszf5v6","geo_precision":"zip"},"type":"Feature","geometry":{"type":"Point","coordinates":[-119.09455,34.42694]}},{"properties":{"city":"Ventura","column_10":null,"zip":"93003","column_6":null,"addresss":"6040 Telegraph Rd","column_7":null,"company name":"U.S. Bank ATM","geo_score":0.857,"column_8":null,"column_9":null,"value":0,"id":"a65qsmuxfir9","geo_precision":"zip"},"type":"Feature","geometry":{"type":"Point","coordinates":[-119.221299,34.230353]}},{"properties":{"city":"Moorpark","column_10":null,"zip":"93021","column_6":null,"addresss":"256 W Los Angeles","column_7":null,"company name":"Union Bank","geo_score":0.724,"column_8":null,"column_9":null,"value":0,"id":"a65qsmkbhfoz","geo_precision":"zip"},"type":"Feature","geometry":{"type":"Point","coordinates":[-118.858429,34.28778]}},{"properties":{"city":"Santa Paula","column_10":null,"zip":"93060","column_6":null,"addresss":"634 E Main St,","column_7":null,"company name":"Union Bank","geo_score":0.735,"column_8":null,"column_9":null,"value":0,"id":"a65qsmyf7hkc","geo_precision":"zip"},"type":"Feature","geometry":{"type":"Point","coordinates":[-119.09455,34.42694]}},{"properties":{"city":"Simi Valley","column_10":null,"zip":"93065","column_6":null,"addresss":"1475 East Los Angeles","column_7":null,"company name":"Union Bank 1475","geo_score":0.743,"column_8":null,"column_9":null,"value":0,"id":"a65qsmmekpdt","geo_precision":"zip"},"type":"Feature","geometry":{"type":"Point","coordinates":[-118.737592,34.26917]}},{"properties":{"city":"Simi Valley","column_10":null,"zip":"93063","column_6":null,"addresss":"2092 Ttapo Street","column_7":null,"company name":"Union Bank 2092","geo_score":0.727,"column_8":null,"column_9":null,"value":0,"id":"a65qsmohzk89","geo_precision":"zip"},"type":"Feature","geometry":{"type":"Point","coordinates":[-118.70898,34.271669]}},{"properties":{"city":"Simi Valley","column_10":null,"zip":"93063","column_6":null,"addresss":"5821 East Los Angeles","column_7":null,"company name":"US Bank 5821","geo_score":0.727,"column_8":null,"column_9":null,"value":0,"id":"a65qsmo5vilr","geo_precision":"zip"},"type":"Feature","geometry":{"type":"Point","coordinates":[-118.70898,34.271669]}},{"properties":{"city":"Camarillo","column_10":null,"zip":"93010","column_6":null,"addresss":"601 e Daily","column_7":null,"company name":"US Bank 601","geo_score":0.753,"column_8":null,"column_9":null,"value":1,"id":"a65qsmnq11g4","geo_precision":"zip"},"type":"Feature","geometry":{"type":"Point","coordinates":[-119.095938,34.22056]}},{"properties":{"city":"Camarillo","column_10":null,"zip":"93010","column_6":null,"addresss":"820 Armeil Road","column_7":null,"company name":"US Bank 820","geo_score":0.753,"column_8":null,"column_9":null,"value":1,"id":"a65qsmub8u0e","geo_precision":"zip"},"type":"Feature","geometry":{"type":"Point","coordinates":[-119.095938,34.22056]}},{"properties":{"city":"Westlake","column_10":null,"zip":"91361","column_6":null,"addresss":"600 Hampshire","column_7":null,"company name":"Ventura County Bank","geo_score":0.738,"column_8":null,"column_9":null,"value":0,"id":"a65qsmqwrhm6","geo_precision":"zip"},"type":"Feature","geometry":{"type":"Point","coordinates":[-118.82193,34.137015]}},{"properties":{"city":"Ventura","column_10":null,"zip":"93003","column_6":null,"addresss":"2075 S Victoria Ave,","column_7":null,"company name":"Washington Mutual Bank","geo_score":0.857,"column_8":null,"column_9":null,"value":0,"id":"a65qsmogdtwt","geo_precision":"zip"},"type":"Feature","geometry":{"type":"Point","coordinates":[-119.221299,34.230353]}},{"properties":{"city":"Simi Valley","column_10":null,"zip":"93065","column_6":null,"addresss":"1200 E Los Angeles","column_7":null,"company name":"Wells","geo_score":0.743,"column_8":null,"column_9":null,"value":0,"id":"a65qsms4c4jd","geo_precision":"zip"},"type":"Feature","geometry":{"type":"Point","coordinates":[-118.737592,34.26917]}},{"properties":{"city":"Simi Valley","column_10":null,"zip":"93063","column_6":null,"addresss":"2888 Cochran Street","column_7":null,"company name":"Wells Fargo 2888","geo_score":0.727,"column_8":null,"column_9":null,"value":0,"id":"a65qsmy7zi4b","geo_precision":"zip"},"type":"Feature","geometry":{"type":"Point","coordinates":[-118.70898,34.271669]}},{"properties":{"city":"Santa Paula","column_10":null,"zip":"93060","column_6":null,"addresss":"576 W Main St,","column_7":null,"company name":"Wells Fargo Ban","geo_score":0.735,"column_8":null,"column_9":null,"value":0,"id":"a65qsmssju6i","geo_precision":"zip"},"type":"Feature","geometry":{"type":"Point","coordinates":[-119.09455,34.42694]}},{"properties":{"city":"Fillmore","column_10":null,"zip":"93015","column_6":null,"addresss":"636 W Ventura St,","column_7":null,"company name":"Wells Fargo Bank","geo_score":0.732,"column_8":null,"column_9":null,"value":0,"id":"a65qsmp78osd","geo_precision":"zip"},"type":"Feature","geometry":{"type":"Point","coordinates":[-118.950378,34.399997]}},{"properties":{"city":"Moorpark","column_10":null,"zip":"93021","column_6":null,"addresss":"515 W Los Angeles Ave,","column_7":null,"company name":"Wells Fargo Bank","geo_score":0.724,"column_8":null,"column_9":null,"value":0,"id":"a65qsmwdjixc","geo_precision":"zip"},"type":"Feature","geometry":{"type":"Point","coordinates":[-118.858429,34.28778]}},{"properties":{"city":"Port Hueneme","column_10":null,"zip":"93041","column_6":null,"addresss":"533 W Channel Islands","column_7":null,"company name":"Wells Fargo Bank","geo_score":0.857,"column_8":null,"column_9":null,"value":0,"id":"a65qsmvdd78t","geo_precision":"zip"},"type":"Feature","geometry":{"type":"Point","coordinates":[-119.15458,34.148893]}},{"properties":{"city":"Camarillo","column_10":null,"zip":"93010","column_6":null,"addresss":"11 e ponderosa","column_7":null,"company name":"Wells Fargo Bank","geo_score":0.753,"column_8":null,"column_9":null,"value":1,"id":"a65qsmzicv9t","geo_precision":"zip"},"type":"Feature","geometry":{"type":"Point","coordinates":[-119.095938,34.22056]}},{"properties":{"city":"Ventura","column_10":null,"zip":"93003","column_6":null,"addresss":"6477 Telephone Rd Ste","column_7":null,"company name":"World Savings &amp; Loan Associations","geo_score":0.857,"column_8":null,"column_9":null,"value":0,"id":"a65qsmopany9","geo_precision":"zip"},"type":"Feature","geometry":{"type":"Point","coordinates":[-119.221299,34.230353]}}],"is_temporal":false,"author":{"url":"","metadata":null,"contact_name":null,"contact_address":null,"source":null,"contact_phone":null},"source":"","pagination":{"sort":null,"start":0,"total":74,"limit":1000000},"state":"complete","tags":"","published":"2014-08-14T16:29:41-04:00","id":221280}