{"type":"FeatureCollection","data_type":"Dataset","url_type":null,"permissions":[{"permissions":{"download":true,"view":true},"group_id":"everyone"}],"classification":null,"title":"Kevin_-_Banks_-_ran_March_29th","count":173,"stream_id":221580,"contributor":{"url":"http://geocommons.com/users/39447","name":"sam.felipe"},"data_attributes":null,"calculation_params":null,"icon_link":null,"link":"http://geocommons.com/overlays/221580.json","extent":[-123.024,37.723,-120.853,39.001],"geometry_types":["point"],"unique_name":null,"name":"Kevin_-_Banks_-_ran_March_29th","feature_count":173,"description":"","next_feature":null,"is_raster":false,"short_classification":"Y","stats":{"rep? (1 for yes, 0 for no)":{"max":1,"mean":0.572254335260116,"variance":0.246202446565399,"stdev":0.496187914570074,"min":0,"median":1}},"features":[{"properties":{"rep? (1 for yes, 0 for no)":1,"city":"Santa Rosa","zip":"95402","geo_score":0.805,"street address":"10 Santa Rosa Ave","id":"a64jrl5a6ske","geo_precision":"range"},"type":"Feature","geometry":{"type":"Point","coordinates":[-122.71334,38.43955]}},{"properties":{"rep? (1 for yes, 0 for no)":1,"city":"Santa Rosa","zip":"95402","geo_score":0.688,"street address":"545 4th St","id":"a64jrkuj3aje","geo_precision":"range"},"type":"Feature","geometry":{"type":"Point","coordinates":[-123.023981,38.806705]}},{"properties":{"rep? (1 for yes, 0 for no)":1,"city":"Santa Rosa","zip":"95401","geo_score":0.709,"street address":"438 1st St","id":"a64jrl59i7hl","geo_precision":"range"},"type":"Feature","geometry":{"type":"Point","coordinates":[-122.715275,38.437306]}},{"properties":{"rep? (1 for yes, 0 for no)":1,"city":"Santa Rosa","zip":"95401","geo_score":0.766,"street address":"19 Old Courthouse","id":"a64jrkukouhx","geo_precision":"range"},"type":"Feature","geometry":{"type":"Point","coordinates":[-122.713433,38.438947]}},{"properties":{"rep? (1 for yes, 0 for no)":1,"city":"Santa Rosa","zip":"95401","geo_score":0.805,"street address":"50 Exchange Ave","id":"a64jrl7a0qbk","geo_precision":"range"},"type":"Feature","geometry":{"type":"Point","coordinates":[-122.713566,38.439146]}},{"properties":{"rep? (1 for yes, 0 for no)":1,"city":"Santa Rosa","zip":"95403","geo_score":0.349,"street address":"1155 W. Steele Ln","id":"a64jrl2rtvit","geo_precision":"street"},"type":"Feature","geometry":{"type":"Point","coordinates":[-122.728395,38.459907]}},{"properties":{"rep? (1 for yes, 0 for no)":1,"city":"Santa Rosa","zip":"95402","geo_score":0.805,"street address":"290 B St","id":"a64jrl0yc1o6","geo_precision":"range"},"type":"Feature","geometry":{"type":"Point","coordinates":[-122.715589,38.439645]}},{"properties":{"rep? (1 for yes, 0 for no)":1,"city":"Santa Rosa","zip":"95402","geo_score":0.736,"street address":"200 Coddingtown Ct","id":"a64jrkzq1qoq","geo_precision":"range"},"type":"Feature","geometry":{"type":"Point","coordinates":[-122.726937,38.45813]}},{"properties":{"rep? (1 for yes, 0 for no)":1,"city":"Santa Rosa","zip":"95404","geo_score":0.591,"street address":"2751 4th St","id":"a64jrkvznlnj","geo_precision":"street"},"type":"Feature","geometry":{"type":"Point","coordinates":[-122.688467,38.449715]}},{"properties":{"rep? (1 for yes, 0 for no)":1,"city":"Santa Rosa","zip":"95401","geo_score":0.515,"street address":"801 4th St","id":"a64jrks6i4lv","geo_precision":"street"},"type":"Feature","geometry":{"type":"Point","coordinates":[-122.718391,38.438493]}},{"properties":{"rep? (1 for yes, 0 for no)":1,"city":"Rohnert Park","zip":"94928","geo_score":0.902,"street address":"6301 State Farm Dr","id":"a64jrl5rs4hk","geo_precision":"range"},"type":"Feature","geometry":{"type":"Point","coordinates":[-122.706006,38.348359]}},{"properties":{"rep? (1 for yes, 0 for no)":1,"city":"Rohnert Park","zip":"94928","geo_score":0.585,"street address":"300 Rohnert Park","id":"a64jrky8x6jk","geo_precision":"zip"},"type":"Feature","geometry":{"type":"Point","coordinates":[-122.698398,38.345663]}},{"properties":{"rep? (1 for yes, 0 for no)":1,"city":"Rohnert Park","zip":"94928","geo_score":0.902,"street address":"6545 Hunter Dr","id":"a64jrl6wrgtr","geo_precision":"range"},"type":"Feature","geometry":{"type":"Point","coordinates":[-122.70932,38.345502]}},{"properties":{"rep? (1 for yes, 0 for no)":1,"city":"Rohnert Park","zip":"94928","geo_score":0.585,"street address":"201 Rohnert Park","id":"a64jrl13v44r","geo_precision":"zip"},"type":"Feature","geometry":{"type":"Point","coordinates":[-122.698398,38.345663]}},{"properties":{"rep? (1 for yes, 0 for no)":1,"city":"Rohnert Park","zip":"94928","geo_score":0.468,"street address":"10 Raleys Towne","id":"a64jrkywi2kl","geo_precision":"street"},"type":"Feature","geometry":{"type":"Point","coordinates":[-122.701663,38.354286]}},{"properties":{"rep? (1 for yes, 0 for no)":0,"city":"Petaluma","zip":"94952","geo_score":0.718,"street address":"2 E Washington St","id":"a64jrkzujzl6","geo_precision":"street"},"type":"Feature","geometry":{"type":"Point","coordinates":[-122.640241,38.235971]}},{"properties":{"rep? (1 for yes, 0 for no)":0,"city":"Petaluma","zip":"94952","geo_score":0.805,"street address":"373 S McDowell Blvd","id":"a64jrl6ua9ri","geo_precision":"range"},"type":"Feature","geometry":{"type":"Point","coordinates":[-122.622784,38.247447]}},{"properties":{"rep? (1 for yes, 0 for no)":0,"city":"Petaluma","zip":"94952","geo_score":0.816,"street address":"125 Western Ave","id":"a64jrkty7xay","geo_precision":"range"},"type":"Feature","geometry":{"type":"Point","coordinates":[-122.640933,38.233816]}},{"properties":{"rep? (1 for yes, 0 for no)":0,"city":"Petaluma","zip":"94952","geo_score":0.816,"street address":"101 Western Ave","id":"a64jrkrvv4b4","geo_precision":"range"},"type":"Feature","geometry":{"type":"Point","coordinates":[-122.640743,38.233886]}},{"properties":{"rep? (1 for yes, 0 for no)":1,"city":"Sebastopol","zip":"95472","geo_score":0.782,"street address":"7185 Healdsburg Av","id":"a64jrl2ahjx5","geo_precision":"range"},"type":"Feature","geometry":{"type":"Point","coordinates":[-122.827745,38.405257]}},{"properties":{"rep? (1 for yes, 0 for no)":0,"city":"Sebastopol","zip":"95472","geo_score":0.805,"street address":"800 Gravenstein Hwy","id":"a64jrkwxe8fy","geo_precision":"range"},"type":"Feature","geometry":{"type":"Point","coordinates":[-122.818887,38.394317]}},{"properties":{"rep? (1 for yes, 0 for no)":0,"city":"Sebastopol","zip":"95472","geo_score":0.347,"street address":"406 N. Main St","id":"a64jrkvzfj5b","geo_precision":"street"},"type":"Feature","geometry":{"type":"Point","coordinates":[-122.824188,38.402103]}},{"properties":{"rep? (1 for yes, 0 for no)":0,"city":"Sebastopol","zip":"95472","geo_score":0.805,"street address":"7151 Bodega Ave","id":"a64jrl0t3uvv","geo_precision":"range"},"type":"Feature","geometry":{"type":"Point","coordinates":[-122.825031,38.401779]}},{"properties":{"rep? (1 for yes, 0 for no)":1,"city":"Sebastopol","zip":"95472","geo_score":0.347,"street address":"105 N. Main St","id":"a64jrl7joubp","geo_precision":"street"},"type":"Feature","geometry":{"type":"Point","coordinates":[-122.824188,38.402103]}},{"properties":{"rep? (1 for yes, 0 for no)":0,"city":"Sonoma","zip":"95476","geo_score":0.814,"street address":"135 W Napa St","id":"a64jrksc10sw","geo_precision":"range"},"type":"Feature","geometry":{"type":"Point","coordinates":[-122.458987,38.292027]}},{"properties":{"rep? (1 for yes, 0 for no)":0,"city":"Sonoma","zip":"95476","geo_score":0.814,"street address":"202 W Napa St","id":"a64jrl7nlny6","geo_precision":"range"},"type":"Feature","geometry":{"type":"Point","coordinates":[-122.461285,38.292236]}},{"properties":{"rep? (1 for yes, 0 for no)":0,"city":"Sonoma","zip":"95476","geo_score":0.814,"street address":"35 W Napa St","id":"a64jrl5k51xf","geo_precision":"range"},"type":"Feature","geometry":{"type":"Point","coordinates":[-122.458135,38.291975]}},{"properties":{"rep? (1 for yes, 0 for no)":1,"city":"Sonoma","zip":"95476","geo_score":0.814,"street address":"500 Broadway","id":"a64jrkxl7dme","geo_precision":"range"},"type":"Feature","geometry":{"type":"Point","coordinates":[-122.457859,38.291957]}},{"properties":{"rep? (1 for yes, 0 for no)":1,"city":"Sonoma","zip":"95476","geo_score":0.814,"street address":"10 Maple St","id":"a64jrkynsoey","geo_precision":"range"},"type":"Feature","geometry":{"type":"Point","coordinates":[-122.458364,38.289149]}},{"properties":{"rep? (1 for yes, 0 for no)":1,"city":"Sonoma","zip":"95476","geo_score":0.814,"street address":"19245 Sonoma Hwy","id":"a64jrkwm492m","geo_precision":"range"},"type":"Feature","geometry":{"type":"Point","coordinates":[-122.475131,38.299096]}},{"properties":{"rep? (1 for yes, 0 for no)":1,"city":"Sonoma","zip":"95476","geo_score":0.814,"street address":"501 Broadway","id":"a64jrl2zay7c","geo_precision":"range"},"type":"Feature","geometry":{"type":"Point","coordinates":[-122.457859,38.291957]}},{"properties":{"rep? (1 for yes, 0 for no)":0,"city":"Healdsburg","zip":"95448","geo_score":0.815,"street address":"1031 Vine St","id":"a64jrl30r397","geo_precision":"range"},"type":"Feature","geometry":{"type":"Point","coordinates":[-122.871534,38.608983]}},{"properties":{"rep? (1 for yes, 0 for no)":0,"city":"Healdsburg","zip":"95448","geo_score":0.815,"street address":"502 Healdsburg Ave","id":"a64jrkrrwou2","geo_precision":"range"},"type":"Feature","geometry":{"type":"Point","coordinates":[-122.871881,38.61431]}},{"properties":{"rep? (1 for yes, 0 for no)":0,"city":"Healdsburg","zip":"95448","geo_score":0.815,"street address":"999 Vine St","id":"a64jrl3kph7v","geo_precision":"range"},"type":"Feature","geometry":{"type":"Point","coordinates":[-122.871268,38.608842]}},{"properties":{"rep? (1 for yes, 0 for no)":0,"city":"Healdsburg","zip":"95448","geo_score":0.815,"street address":"511 Healdsburg Ave","id":"a64jrl2p4jvl","geo_precision":"range"},"type":"Feature","geometry":{"type":"Point","coordinates":[-122.871894,38.614439]}},{"properties":{"rep? (1 for yes, 0 for no)":0,"city":"Healdsburg","zip":"95448","geo_score":0.815,"street address":"450 Center St","id":"a64jrl0auhhj","geo_precision":"range"},"type":"Feature","geometry":{"type":"Point","coordinates":[-122.870292,38.613775]}},{"properties":{"rep? (1 for yes, 0 for no)":1,"city":"Healdsburg","zip":"95448","geo_score":0.815,"street address":"1115 Vine St","id":"a64jrkzhmj7k","geo_precision":"range"},"type":"Feature","geometry":{"type":"Point","coordinates":[-122.872073,38.609444]}},{"properties":{"rep? (1 for yes, 0 for no)":1,"city":"Novato","zip":"94945","geo_score":0.815,"street address":"1590 Grant Ave","id":"a64jrl5bq7d6","geo_precision":"range"},"type":"Feature","geometry":{"type":"Point","coordinates":[-122.576978,38.108913]}},{"properties":{"rep? (1 for yes, 0 for no)":1,"city":"Novato","zip":"94945","geo_score":0.815,"street address":"1711 Grant Ave","id":"a64jrl27oqme","geo_precision":"range"},"type":"Feature","geometry":{"type":"Point","coordinates":[-122.578633,38.10922]}},{"properties":{"rep? (1 for yes, 0 for no)":1,"city":"Novato","zip":"94947","geo_score":0.833,"street address":"504 Redwood Blvd","id":"a64jrkviqhmp","geo_precision":"range"},"type":"Feature","geometry":{"type":"Point","coordinates":[-122.551266,38.075876]}},{"properties":{"rep? (1 for yes, 0 for no)":0,"city":"Danville","zip":"94526","geo_score":0.77,"street address":"4195 Blackhawk Plaza Circle","id":"a64jrl1hf686","geo_precision":"range"},"type":"Feature","geometry":{"type":"Point","coordinates":[-121.920624,37.800584]}},{"properties":{"rep? (1 for yes, 0 for no)":0,"city":"Danville","zip":"94526","geo_score":0.718,"street address":"620 San Ramon Valley Blvd","id":"a64jrkylfl2o","geo_precision":"range"},"type":"Feature","geometry":{"type":"Point","coordinates":[-121.996358,37.815386]}},{"properties":{"rep? (1 for yes, 0 for no)":0,"city":"Danville","zip":"94526","geo_score":0.816,"street address":"391 Diablo Rd, #100","id":"a64jrl1q42xj","geo_precision":"range"},"type":"Feature","geometry":{"type":"Point","coordinates":[-122.000376,37.822748]}},{"properties":{"rep? (1 for yes, 0 for no)":0,"city":"Danville","zip":"94526","geo_score":0.656,"street address":"7 Railroad Ave #7","id":"a64jrl4yq14w","geo_precision":"range"},"type":"Feature","geometry":{"type":"Point","coordinates":[-122.003471,37.824091]}},{"properties":{"rep? (1 for yes, 0 for no)":0,"city":"Danville","zip":"94526","geo_score":0.816,"street address":"307 Diablo Rd","id":"a64jrl207f2g","geo_precision":"range"},"type":"Feature","geometry":{"type":"Point","coordinates":[-121.997936,37.822977]}},{"properties":{"rep? (1 for yes, 0 for no)":0,"city":"Danville","zip":"94526","geo_score":0.575,"street address":"4125 Blackhawk Plaza Circle #105","id":"a64jrkzq7kl5","geo_precision":"street"},"type":"Feature","geometry":{"type":"Point","coordinates":[-121.917227,37.798868]}},{"properties":{"rep? (1 for yes, 0 for no)":0,"city":"Danville","zip":"94526","geo_score":0.816,"street address":"661 San Ramon Valley Blvd","id":"a64jrl3nw20w","geo_precision":"range"},"type":"Feature","geometry":{"type":"Point","coordinates":[-121.995839,37.813483]}},{"properties":{"rep? (1 for yes, 0 for no)":0,"city":"Danville","zip":"94526","geo_score":0.499,"street address":"3400 Camino Tassajara","id":"a64jrkvr2xds","geo_precision":"street"},"type":"Feature","geometry":{"type":"Point","coordinates":[-121.95177,37.808746]}},{"properties":{"rep? (1 for yes, 0 for no)":0,"city":"Danville","zip":"94526","geo_score":0.816,"street address":"641 San Ramon Valley Blvd","id":"a64jrl2ap410","geo_precision":"range"},"type":"Feature","geometry":{"type":"Point","coordinates":[-121.995933,37.813864]}},{"properties":{"rep? (1 for yes, 0 for no)":0,"city":"Danville","zip":"94526","geo_score":0.816,"street address":"318 Diablo Rd","id":"a64jrkzvup67","geo_precision":"range"},"type":"Feature","geometry":{"type":"Point","coordinates":[-121.99738,37.822942]}},{"properties":{"rep? (1 for yes, 0 for no)":0,"city":"Danville","zip":"94526","geo_score":0.718,"street address":"600 San Ramon Valley Blvd","id":"a64jrl1ijyvr","geo_precision":"range"},"type":"Feature","geometry":{"type":"Point","coordinates":[-121.996525,37.816062]}},{"properties":{"rep? (1 for yes, 0 for no)":0,"city":"Danville","zip":"94526","geo_score":0.816,"street address":"680 Hartz Ave","id":"a64jrl7vb9hx","geo_precision":"range"},"type":"Feature","geometry":{"type":"Point","coordinates":[-121.996564,37.819268]}},{"properties":{"rep? (1 for yes, 0 for no)":0,"city":"Danville","zip":"94526","geo_score":0.656,"street address":"210 Railroad Ave","id":"a64jrl2hbpuz","geo_precision":"range"},"type":"Feature","geometry":{"type":"Point","coordinates":[-121.999323,37.820347]}},{"properties":{"rep? (1 for yes, 0 for no)":0,"city":"Danville","zip":"94526","geo_score":0.499,"street address":"3496 Camino Tassajara","id":"a64jrkv0op42","geo_precision":"street"},"type":"Feature","geometry":{"type":"Point","coordinates":[-121.95177,37.808746]}},{"properties":{"rep? (1 for yes, 0 for no)":0,"city":"Danville","zip":"94526","geo_score":0.816,"street address":"387 Diablo Rd","id":"a64jrl7qht1f","geo_precision":"range"},"type":"Feature","geometry":{"type":"Point","coordinates":[-121.994195,37.822948]}},{"properties":{"rep? (1 for yes, 0 for no)":0,"city":"Danville","zip":"94526","geo_score":0.656,"street address":"345 Railroad Ave","id":"a64jrl5kuc5d","geo_precision":"range"},"type":"Feature","geometry":{"type":"Point","coordinates":[-121.99834,37.819748]}},{"properties":{"rep? (1 for yes, 0 for no)":0,"city":"Danville","zip":"94526","geo_score":0.816,"street address":"499 San Ramon Valley Blvd","id":"a64jrks4i3l9","geo_precision":"range"},"type":"Feature","geometry":{"type":"Point","coordinates":[-121.996576,37.817572]}},{"properties":{"rep? (1 for yes, 0 for no)":0,"city":"Danville","zip":"94526","geo_score":0.77,"street address":"4020 Blackhawk Plaza Circle","id":"a64jrkvbuyvk","geo_precision":"range"},"type":"Feature","geometry":{"type":"Point","coordinates":[-121.921249,37.802194]}},{"properties":{"rep? (1 for yes, 0 for no)":0,"city":"Danville","zip":"94526","geo_score":0.816,"street address":"1374 Fountain Springs Circle","id":"a64jrkto1fd4","geo_precision":"range"},"type":"Feature","geometry":{"type":"Point","coordinates":[-121.986418,37.794239]}},{"properties":{"rep? (1 for yes, 0 for no)":0,"city":"Danville","zip":"94526","geo_score":0.718,"street address":"720 San Ramon Valley Blvd","id":"a64jrl2whd52","geo_precision":"range"},"type":"Feature","geometry":{"type":"Point","coordinates":[-121.995469,37.812022]}},{"properties":{"rep? (1 for yes, 0 for no)":0,"city":"Danville","zip":"94526","geo_score":0.805,"street address":"3 Ashland Way","id":"a64jrkzbkfig","geo_precision":"range"},"type":"Feature","geometry":{"type":"Point","coordinates":[-121.936007,37.799807]}},{"properties":{"rep? (1 for yes, 0 for no)":0,"city":"Danville","zip":"94526","geo_score":0.816,"street address":"651 San Ramon Valley Blvd","id":"a64jrksofot9","geo_precision":"range"},"type":"Feature","geometry":{"type":"Point","coordinates":[-121.995879,37.813673]}},{"properties":{"rep? (1 for yes, 0 for no)":0,"city":"Danville","zip":"94526","geo_score":0.499,"street address":"3402 Camino Tassajara","id":"a64jrl3nrvij","geo_precision":"street"},"type":"Feature","geometry":{"type":"Point","coordinates":[-121.95177,37.808746]}},{"properties":{"rep? (1 for yes, 0 for no)":0,"city":"Danville","zip":"94526","geo_score":0.816,"street address":"425 El Pintado Rd","id":"a64jrl3oo90a","geo_precision":"range"},"type":"Feature","geometry":{"type":"Point","coordinates":[-121.999766,37.831063]}},{"properties":{"rep? (1 for yes, 0 for no)":0,"city":"Danville","zip":"94526","geo_score":0.816,"street address":"585 San Ramon Valley Blvd","id":"a64jrkvofrzn","geo_precision":"range"},"type":"Feature","geometry":{"type":"Point","coordinates":[-121.99638,37.815487]}},{"properties":{"rep? (1 for yes, 0 for no)":0,"city":"Danville","zip":"94526","geo_score":0.728,"street address":"380 Diablo Bldv #203","id":"a64jrl0cn3sp","geo_precision":"range"},"type":"Feature","geometry":{"type":"Point","coordinates":[-121.998806,37.823031]}},{"properties":{"rep? (1 for yes, 0 for no)":1,"city":"San Rafael","zip":"94901","geo_score":0.785,"street address":"1000 4th St","id":"a64jrl1k28e4","geo_precision":"range"},"type":"Feature","geometry":{"type":"Point","coordinates":[-122.527067,37.973034]}},{"properties":{"rep? (1 for yes, 0 for no)":1,"city":"San Rafael","zip":"94901","geo_score":0.785,"street address":"1101 4th St","id":"a64jrl23hca7","geo_precision":"range"},"type":"Feature","geometry":{"type":"Point","coordinates":[-122.528075,37.973135]}},{"properties":{"rep? (1 for yes, 0 for no)":1,"city":"San Rafael","zip":"94901","geo_score":0.805,"street address":"1108 5th Ave","id":"a64jrky5oqw6","geo_precision":"range"},"type":"Feature","geometry":{"type":"Point","coordinates":[-122.528142,37.97416]}},{"properties":{"rep? (1 for yes, 0 for no)":1,"city":"San Rafael","zip":"94901","geo_score":0.785,"street address":"1099 4th St","id":"a64jrl57ywtd","geo_precision":"range"},"type":"Feature","geometry":{"type":"Point","coordinates":[-122.528059,37.973133]}},{"properties":{"rep? (1 for yes, 0 for no)":1,"city":"San Rafael","zip":"94901","geo_score":0.805,"street address":"1250 5th Ave","id":"a64jrl15ucip","geo_precision":"range"},"type":"Feature","geometry":{"type":"Point","coordinates":[-122.529874,37.974338]}},{"properties":{"rep? (1 for yes, 0 for no)":1,"city":"San Rafael","zip":"94901","geo_score":0.785,"street address":"1203 4th St","id":"a64jrkwyp24v","geo_precision":"range"},"type":"Feature","geometry":{"type":"Point","coordinates":[-122.529489,37.973275]}},{"properties":{"rep? (1 for yes, 0 for no)":1,"city":"Mill Valley","zip":"94941","geo_score":0.857,"street address":"64 E Blithedale Ave","id":"a64jrl6vpn11","geo_precision":"range"},"type":"Feature","geometry":{"type":"Point","coordinates":[-122.545256,37.905984]}},{"properties":{"rep? (1 for yes, 0 for no)":1,"city":"Mill Valley","zip":"94901","geo_score":0.654,"street address":"19 Sunnyside Ave","id":"a64jrl22urkw","geo_precision":"range"},"type":"Feature","geometry":{"type":"Point","coordinates":[-122.54772,37.978039]}},{"properties":{"rep? (1 for yes, 0 for no)":1,"city":"Mill Valley","zip":"94901","geo_score":0.805,"street address":"71 Throckmorton Ave","id":"a64jrl6jdb0v","geo_precision":"range"},"type":"Feature","geometry":{"type":"Point","coordinates":[-122.547512,37.906675]}},{"properties":{"rep? (1 for yes, 0 for no)":1,"city":"Mill Valley","zip":"94901","geo_score":0.805,"street address":"18 Miller Ave","id":"a64jrkzjacsw","geo_precision":"range"},"type":"Feature","geometry":{"type":"Point","coordinates":[-122.54783,37.905552]}},{"properties":{"rep? (1 for yes, 0 for no)":1,"city":"Mill Valley","zip":"94901","geo_score":0.805,"street address":"13 Throckmorton Ave","id":"a64jrkrpo58y","geo_precision":"range"},"type":"Feature","geometry":{"type":"Point","coordinates":[-122.54685,37.90658]}},{"properties":{"rep? (1 for yes, 0 for no)":1,"city":"Mill Valley","zip":"94901","geo_score":0.805,"street address":"453 Miller Ave","id":"a64jrl1i2boh","geo_precision":"range"},"type":"Feature","geometry":{"type":"Point","coordinates":[-122.534755,37.895489]}},{"properties":{"rep? (1 for yes, 0 for no)":1,"city":"Greenbrae","zip":"94904","geo_score":0.754,"street address":"401 Sir Francis Drake","id":"a64jrkxco7hm","geo_precision":"range"},"type":"Feature","geometry":{"type":"Point","coordinates":[-122.522513,37.946635]}},{"properties":{"rep? (1 for yes, 0 for no)":1,"city":"Greenbrae","zip":"94904","geo_score":0.621,"street address":"230 Bon Air Ctr","id":"a64jrl3q2snd","geo_precision":"range"},"type":"Feature","geometry":{"type":"Point","coordinates":[-122.539373,37.943987]}},{"properties":{"rep? (1 for yes, 0 for no)":1,"city":"Greenbrae","zip":"94904","geo_score":0.754,"street address":"501 Sir Francis Drake","id":"a64jrks2bfrm","geo_precision":"range"},"type":"Feature","geometry":{"type":"Point","coordinates":[-122.525297,37.947584]}},{"properties":{"rep? (1 for yes, 0 for no)":1,"city":"Greenbrae","zip":"94904","geo_score":0.621,"street address":"100 Bon Air Ctr","id":"a64jrl7t676w","geo_precision":"range"},"type":"Feature","geometry":{"type":"Point","coordinates":[-122.539914,37.943479]}},{"properties":{"rep? (1 for yes, 0 for no)":1,"city":"Greenbrae","zip":"94904","geo_score":0.754,"street address":"301 Sir Francis Drake","id":"a64jrl6i0u3z","geo_precision":"range"},"type":"Feature","geometry":{"type":"Point","coordinates":[-122.520259,37.945654]}},{"properties":{"rep? (1 for yes, 0 for no)":1,"city":"Greenbrae","zip":"94904","geo_score":0.621,"street address":"50 Bon Air Ctr","id":"a64jrksagu0w","geo_precision":"range"},"type":"Feature","geometry":{"type":"Point","coordinates":[-122.540119,37.943275]}},{"properties":{"rep? (1 for yes, 0 for no)":0,"city":"San Francisco","zip":"94103","geo_score":0.708,"street address":"101 Market St","id":"a64jrl36tdl3","geo_precision":"street"},"type":"Feature","geometry":{"type":"Point","coordinates":[-122.403431,37.787642]}},{"properties":{"rep? (1 for yes, 0 for no)":0,"city":"San Francisco","zip":"94108","geo_score":0.619,"street address":"350 California St","id":"a64jrl3u1jiu","geo_precision":"street"},"type":"Feature","geometry":{"type":"Point","coordinates":[-122.404418,37.792639]}},{"properties":{"rep? (1 for yes, 0 for no)":1,"city":"San Francisco","zip":"94104","geo_score":0.902,"street address":"44 Montgomery St","id":"a64jrl1idl1w","geo_precision":"range"},"type":"Feature","geometry":{"type":"Point","coordinates":[-122.402063,37.789513]}},{"properties":{"rep? (1 for yes, 0 for no)":1,"city":"San Francisco","zip":"94104","geo_score":0.902,"street address":"345 Montgomery St","id":"a64jrkxr9xo1","geo_precision":"range"},"type":"Feature","geometry":{"type":"Point","coordinates":[-122.402641,37.792326]}},{"properties":{"rep? (1 for yes, 0 for no)":1,"city":"San Francisco","zip":"94108","geo_score":0.621,"street address":"540 California St","id":"a64jrksbsd8s","geo_precision":"street"},"type":"Feature","geometry":{"type":"Point","coordinates":[-122.404418,37.792639]}},{"properties":{"rep? (1 for yes, 0 for no)":0,"city":"San Francisco","zip":"94105","geo_score":0.805,"street address":"2 Grant Ave","id":"a64jrl7snsuy","geo_precision":"range"},"type":"Feature","geometry":{"type":"Point","coordinates":[-122.404583,37.78673]}},{"properties":{"rep? (1 for yes, 0 for no)":1,"city":"San Francisco","zip":"94109","geo_score":0.708,"street address":"295 Bush St","id":"a64jrkybo2et","geo_precision":"street"},"type":"Feature","geometry":{"type":"Point","coordinates":[-122.412076,37.789739]}},{"properties":{"rep? (1 for yes, 0 for no)":0,"city":"San Francisco","zip":"94127","geo_score":0.805,"street address":"405 Howard St","id":"a64jrl52e6qy","geo_precision":"range"},"type":"Feature","geometry":{"type":"Point","coordinates":[-122.39518,37.789206]}},{"properties":{"rep? (1 for yes, 0 for no)":1,"city":"San Francisco","zip":"94103","geo_score":0.902,"street address":"1201 Market St","id":"a64jrkx1ggqt","geo_precision":"range"},"type":"Feature","geometry":{"type":"Point","coordinates":[-122.41474,37.778718]}},{"properties":{"rep? (1 for yes, 0 for no)":1,"city":"San Francisco","zip":"94108","geo_score":0.493,"street address":"1275 Fell St","id":"a64jrky1bbw9","geo_precision":"street"},"type":"Feature","geometry":{"type":"Point","coordinates":[-122.40892,37.790813]}},{"properties":{"rep? (1 for yes, 0 for no)":1,"city":"San Francisco","zip":"94103","geo_score":0.902,"street address":"1525 Market St","id":"a64jrkvq7394","geo_precision":"range"},"type":"Feature","geometry":{"type":"Point","coordinates":[-122.418768,37.775448]}},{"properties":{"rep? (1 for yes, 0 for no)":0,"city":"San Francisco","zip":"94104","geo_score":0.844,"street address":"33 New Montgomery St","id":"a64jrkutnck7","geo_precision":"range"},"type":"Feature","geometry":{"type":"Point","coordinates":[-122.402047,37.789409]}},{"properties":{"rep? (1 for yes, 0 for no)":0,"city":"San Francisco","zip":"94122","geo_score":0.805,"street address":"1 Powell St","id":"a64jrl5ymmt3","geo_precision":"range"},"type":"Feature","geometry":{"type":"Point","coordinates":[-122.407698,37.784698]}},{"properties":{"rep? (1 for yes, 0 for no)":1,"city":"San Francisco","zip":"94123","geo_score":0.805,"street address":"1640 Van Ness Ave","id":"a64jrl3ko2co","geo_precision":"range"},"type":"Feature","geometry":{"type":"Point","coordinates":[-122.42229,37.790755]}},{"properties":{"rep? (1 for yes, 0 for no)":1,"city":"San Francisco","zip":"94108","geo_score":0.618,"street address":"50 California St","id":"a64jrl1c1c9q","geo_precision":"street"},"type":"Feature","geometry":{"type":"Point","coordinates":[-122.404418,37.792639]}},{"properties":{"rep? (1 for yes, 0 for no)":0,"city":"San Francisco","zip":"94114","geo_score":0.502,"street address":"980 8th St","id":"a64jrl7agpg5","geo_precision":"street"},"type":"Feature","geometry":{"type":"Point","coordinates":[-122.400877,37.767488]}},{"properties":{"rep? (1 for yes, 0 for no)":1,"city":"San Francisco","zip":"94114","geo_score":0.805,"street address":"2835 Geary Blvd","id":"a64jrl60eaeo","geo_precision":"range"},"type":"Feature","geometry":{"type":"Point","coordinates":[-122.449345,37.782201]}},{"properties":{"rep? (1 for yes, 0 for no)":1,"city":"San Francisco","zip":"94103","geo_score":0.78,"street address":"1266 Market St","id":"a64jrl7707a9","geo_precision":"range"},"type":"Feature","geometry":{"type":"Point","coordinates":[-122.415742,37.77766]}},{"properties":{"rep? (1 for yes, 0 for no)":0,"city":"San Francisco","zip":"94104","geo_score":0.902,"street address":"1 Montgomery St","id":"a64jrl1cxzzm","geo_precision":"range"},"type":"Feature","geometry":{"type":"Point","coordinates":[-122.401997,37.789103]}},{"properties":{"rep? (1 for yes, 0 for no)":0,"city":"San Francisco","zip":"94105","geo_score":0.805,"street address":"2 Grant Ave","id":"a64jrky728e2","geo_precision":"range"},"type":"Feature","geometry":{"type":"Point","coordinates":[-122.404583,37.78673]}},{"properties":{"rep? (1 for yes, 0 for no)":1,"city":"San Francisco","zip":"94108","geo_score":0.619,"street address":"464 California St","id":"a64jrl3q4tmu","geo_precision":"street"},"type":"Feature","geometry":{"type":"Point","coordinates":[-122.404418,37.792639]}},{"properties":{"rep? (1 for yes, 0 for no)":0,"city":"San Francisco","zip":"94104","geo_score":0.902,"street address":"420 Montgomery St","id":"a64jrl57syar","geo_precision":"range"},"type":"Feature","geometry":{"type":"Point","coordinates":[-122.402798,37.793041]}},{"properties":{"rep? (1 for yes, 0 for no)":1,"city":"San Francisco","zip":"94105","geo_score":0.902,"street address":"100 Spear St","id":"a64jrkys1lbi","geo_precision":"range"},"type":"Feature","geometry":{"type":"Point","coordinates":[-122.39406,37.792536]}},{"properties":{"rep? (1 for yes, 0 for no)":1,"city":"San Francisco","zip":"94127","geo_score":0.805,"street address":"1335 Webster St","id":"a64jrl1xn2gu","geo_precision":"range"},"type":"Feature","geometry":{"type":"Point","coordinates":[-122.430963,37.783038]}},{"properties":{"rep? (1 for yes, 0 for no)":1,"city":"San Francisco","zip":"94111","geo_score":0.902,"street address":"111 Pine St","id":"a64jrl5by3x6","geo_precision":"range"},"type":"Feature","geometry":{"type":"Point","coordinates":[-122.398683,37.792393]}},{"properties":{"rep? (1 for yes, 0 for no)":1,"city":"San Francisco","zip":"94132","geo_score":0.525,"street address":"1726 Haight St","id":"a64jrkrqzbe1","geo_precision":"street"},"type":"Feature","geometry":{"type":"Point","coordinates":[-122.462271,37.72302]}},{"properties":{"rep? (1 for yes, 0 for no)":1,"city":"San Francisco","zip":"94122","geo_score":0.746,"street address":"2055 Chestnut","id":"a64jrl3wcd1e","geo_precision":"range"},"type":"Feature","geometry":{"type":"Point","coordinates":[-122.4373,37.800684]}},{"properties":{"rep? (1 for yes, 0 for no)":1,"city":"Fair Oaks","zip":"95628","geo_score":0.902,"street address":"5450 Dewey Dr","id":"a64jrl4unu1m","geo_precision":"range"},"type":"Feature","geometry":{"type":"Point","coordinates":[-121.308573,38.664231]}},{"properties":{"rep? (1 for yes, 0 for no)":1,"city":"Fair Oaks","zip":"95628","geo_score":0.902,"street address":"4840 San Juan Ave","id":"a64jrkwhf067","geo_precision":"range"},"type":"Feature","geometry":{"type":"Point","coordinates":[-121.292054,38.652142]}},{"properties":{"rep? (1 for yes, 0 for no)":1,"city":"Fair Oaks","zip":"95628","geo_score":0.902,"street address":"10123 Fair Oaks Blvd","id":"a64jrkvbw9sx","geo_precision":"range"},"type":"Feature","geometry":{"type":"Point","coordinates":[-121.27014,38.640802]}},{"properties":{"rep? (1 for yes, 0 for no)":1,"city":"Fair Oaks","zip":"95628","geo_score":0.902,"street address":"8859 Madison Ave","id":"a64jrkz8j5fz","geo_precision":"range"},"type":"Feature","geometry":{"type":"Point","coordinates":[-121.228606,38.663962]}},{"properties":{"rep? (1 for yes, 0 for no)":1,"city":"Fair Oaks","zip":"95628","geo_score":0.902,"street address":"5261 Hazel Ave","id":"a64jrkvjh2k7","geo_precision":"range"},"type":"Feature","geometry":{"type":"Point","coordinates":[-121.225685,38.661825]}},{"properties":{"rep? (1 for yes, 0 for no)":1,"city":"Fair Oaks","zip":"95628","geo_score":0.902,"street address":"8925 Madison Ave","id":"a64jrl59kmiq","geo_precision":"range"},"type":"Feature","geometry":{"type":"Point","coordinates":[-121.224365,38.663927]}},{"properties":{"rep? (1 for yes, 0 for no)":1,"city":"Folsom","zip":"95630","geo_score":0.816,"street address":"403 E Bidwell St","id":"a64jrkvilt0x","geo_precision":"range"},"type":"Feature","geometry":{"type":"Point","coordinates":[-121.167047,38.6739]}},{"properties":{"rep? (1 for yes, 0 for no)":1,"city":"Folsom","zip":"95630","geo_score":0.816,"street address":"701 E Bidwell St","id":"a64jrkz1tu02","geo_precision":"range"},"type":"Feature","geometry":{"type":"Point","coordinates":[-121.156121,38.67005]}},{"properties":{"rep? (1 for yes, 0 for no)":0,"city":"Folsom","zip":"95630","geo_score":0.667,"street address":"3880 El Dorado Hills Blvd","id":"a64jrkxhm45t","geo_precision":"range"},"type":"Feature","geometry":{"type":"Point","coordinates":[-120.85323,38.707499]}},{"properties":{"rep? (1 for yes, 0 for no)":1,"city":"Folsom","zip":"95630","geo_score":0.816,"street address":"1113 E Bidwell St","id":"a64jrkvx8lrf","geo_precision":"range"},"type":"Feature","geometry":{"type":"Point","coordinates":[-121.153702,38.669294]}},{"properties":{"rep? (1 for yes, 0 for no)":0,"city":"Folsom","zip":"95630","geo_score":0.816,"street address":"9601 Greenback Ln","id":"a64jrkuzojh4","geo_precision":"range"},"type":"Feature","geometry":{"type":"Point","coordinates":[-121.195252,38.677803]}},{"properties":{"rep? (1 for yes, 0 for no)":0,"city":"Folsom","zip":"95630","geo_score":0.816,"street address":"300 E Bidwell St","id":"a64jrl4l3siy","geo_precision":"range"},"type":"Feature","geometry":{"type":"Point","coordinates":[-121.168039,38.674058]}},{"properties":{"rep? (1 for yes, 0 for no)":1,"city":"Elk Grove","zip":"95624","geo_score":0.817,"street address":"9340 E Stockton Blvd","id":"a64jrl6mk494","geo_precision":"range"},"type":"Feature","geometry":{"type":"Point","coordinates":[-121.391774,38.416145]}},{"properties":{"rep? (1 for yes, 0 for no)":1,"city":"Elk Grove","zip":"95624","geo_score":0.817,"street address":"8959 Elk Grove Blvd","id":"a64jrl3u1ryh","geo_precision":"range"},"type":"Feature","geometry":{"type":"Point","coordinates":[-121.368956,38.408997]}},{"properties":{"rep? (1 for yes, 0 for no)":1,"city":"Elk Grove","zip":"95757","geo_score":0.0,"street address":"8872 Bone Rd","id":"a64jrl7cn0fg","geo_precision":"unmatched"},"type":"Feature","geometry":null},{"properties":{"rep? (1 for yes, 0 for no)":0,"city":"Elk Grove","zip":"95757","geo_score":0.0,"street address":"9003 Elk Grove Blvd","id":"a64jrkxm9e3d","geo_precision":"unmatched"},"type":"Feature","geometry":null},{"properties":{"rep? (1 for yes, 0 for no)":0,"city":"Elk Grove","zip":"95624","geo_score":0.522,"street address":"5021 Laguna Blvd","id":"a64jrl2ah0ub","geo_precision":"street"},"type":"Feature","geometry":{"type":"Point","coordinates":[-121.708322,38.545586]}},{"properties":{"rep? (1 for yes, 0 for no)":1,"city":"Elk Grove","zip":"95624","geo_score":0.522,"street address":"8235 Laguna Blvd","id":"a64jrl04v2ct","geo_precision":"street"},"type":"Feature","geometry":{"type":"Point","coordinates":[-121.205218,38.32129]}},{"properties":{"rep? (1 for yes, 0 for no)":1,"city":"Rancho Cordova","zip":"95742","geo_score":0.708,"street address":"10607 Folsom Blvd","id":"a64jrksqvyu8","geo_precision":"street"},"type":"Feature","geometry":{"type":"Point","coordinates":[-121.269368,38.605682]}},{"properties":{"rep? (1 for yes, 0 for no)":1,"city":"Rancho Cordova","zip":"95742","geo_score":0.61,"street address":"3100 Zinfandel Dr","id":"a64jrl01j1dj","geo_precision":"street"},"type":"Feature","geometry":{"type":"Point","coordinates":[-121.312152,38.747081]}},{"properties":{"rep? (1 for yes, 0 for no)":0,"city":"Rancho Cordova","zip":"95670","geo_score":0.618,"street address":"2893 Sunrise Blvd","id":"a64jrkz6rg75","geo_precision":"street"},"type":"Feature","geometry":{"type":"Point","coordinates":[-121.269891,38.612919]}},{"properties":{"rep? (1 for yes, 0 for no)":0,"city":"Rancho Cordova","zip":"95670","geo_score":0.812,"street address":"11111 Olson Dr","id":"a64jrl1vksbj","geo_precision":"range"},"type":"Feature","geometry":{"type":"Point","coordinates":[-121.280674,38.59709]}},{"properties":{"rep? (1 for yes, 0 for no)":0,"city":"Rancho Cordova","zip":"95670","geo_score":0.618,"street address":"2880 Sunrise Blvd","id":"a64jrkx640h7","geo_precision":"street"},"type":"Feature","geometry":{"type":"Point","coordinates":[-121.269891,38.612919]}},{"properties":{"rep? (1 for yes, 0 for no)":1,"city":"Roseville","zip":"95661","geo_score":0.805,"street address":"201 Vernon St","id":"a64jrl54jgqf","geo_precision":"range"},"type":"Feature","geometry":{"type":"Point","coordinates":[-121.282849,38.749897]}},{"properties":{"rep? (1 for yes, 0 for no)":1,"city":"Roseville","zip":"95661","geo_score":0.707,"street address":"221 Estates Dr","id":"a64jrl5qoh7n","geo_precision":"range"},"type":"Feature","geometry":{"type":"Point","coordinates":[-121.274102,38.747699]}},{"properties":{"rep? (1 for yes, 0 for no)":0,"city":"Roseville","zip":"95747","geo_score":0.503,"street address":"122 N Sunrise Ave","id":"a64jrl6fgnnq","geo_precision":"street"},"type":"Feature","geometry":{"type":"Point","coordinates":[-121.04721,39.000969]}},{"properties":{"rep? (1 for yes, 0 for no)":1,"city":"Roseville","zip":"95747","geo_score":0.61,"street address":"1800 Douglas Blvd","id":"a64jrkxiwdu2","geo_precision":"street"},"type":"Feature","geometry":{"type":"Point","coordinates":[-121.226215,38.743857]}},{"properties":{"rep? (1 for yes, 0 for no)":0,"city":"Roseville","zip":"95747","geo_score":0.415,"street address":"1172 Galleria Blvd","id":"a64jrkzqwljp","geo_precision":"street"},"type":"Feature","geometry":{"type":"Point","coordinates":[-121.186511,38.554277]}},{"properties":{"rep? (1 for yes, 0 for no)":0,"city":"Roseville","zip":"95747","geo_score":0.585,"street address":"5040 Foothill Blvd","id":"a64jrkstwhiu","geo_precision":"zip"},"type":"Feature","geometry":{"type":"Point","coordinates":[-121.335559,38.779875]}},{"properties":{"rep? (1 for yes, 0 for no)":1,"city":"Citrus Heights","zip":"95610","geo_score":0.902,"street address":"5748 Sunrise Blvd","id":"a64jrkz8o0zo","geo_precision":"range"},"type":"Feature","geometry":{"type":"Point","coordinates":[-121.27145,38.671675]}},{"properties":{"rep? (1 for yes, 0 for no)":1,"city":"Citrus Heights","zip":"95610","geo_score":0.902,"street address":"7601 Sunrise Blvd","id":"a64jrkrmujoo","geo_precision":"range"},"type":"Feature","geometry":{"type":"Point","coordinates":[-121.27181,38.703742]}},{"properties":{"rep? (1 for yes, 0 for no)":1,"city":"Citrus Heights","zip":"95621","geo_score":0.708,"street address":"7965 Auburn Blvd","id":"a64jrl04dnml","geo_precision":"street"},"type":"Feature","geometry":{"type":"Point","coordinates":[-121.291288,38.694215]}},{"properties":{"rep? (1 for yes, 0 for no)":1,"city":"Citrus Heights","zip":"95621","geo_score":0.902,"street address":"7301 Greenback Ln","id":"a64jrky1mzmp","geo_precision":"range"},"type":"Feature","geometry":{"type":"Point","coordinates":[-121.29397,38.678186]}},{"properties":{"rep? (1 for yes, 0 for no)":0,"city":"Citrus Heights","zip":"95610","geo_score":0.78,"street address":"7084 Auburn Blvd","id":"a64jrkwy7rmk","geo_precision":"range"},"type":"Feature","geometry":{"type":"Point","coordinates":[-121.290312,38.697231]}},{"properties":{"rep? (1 for yes, 0 for no)":0,"city":"Citrus Heights","zip":"95621","geo_score":0.902,"street address":"7895 Lichen Dr","id":"a64jrl2g6req","geo_precision":"range"},"type":"Feature","geometry":{"type":"Point","coordinates":[-121.311656,38.708586]}},{"properties":{"rep? (1 for yes, 0 for no)":0,"city":"Sacramento","zip":"95811","geo_score":0.601,"street address":"621 Capital Mall","id":"a64jrkzfqiyy","geo_precision":"street"},"type":"Feature","geometry":{"type":"Point","coordinates":[-121.485321,38.57443]}},{"properties":{"rep? (1 for yes, 0 for no)":0,"city":"Sacramento","zip":"95811","geo_score":0.708,"street address":"700 L St","id":"a64jrktjzc6t","geo_precision":"street"},"type":"Feature","geometry":{"type":"Point","coordinates":[-121.484836,38.575551]}},{"properties":{"rep? (1 for yes, 0 for no)":0,"city":"Sacramento","zip":"95811","geo_score":0.601,"street address":"300 Capital Mall","id":"a64jrkzgz6mi","geo_precision":"street"},"type":"Feature","geometry":{"type":"Point","coordinates":[-121.485321,38.57443]}},{"properties":{"rep? (1 for yes, 0 for no)":0,"city":"Sacramento","zip":"95811","geo_score":0.601,"street address":"400 Capital Mall","id":"a64jrl7fadbm","geo_precision":"street"},"type":"Feature","geometry":{"type":"Point","coordinates":[-121.485321,38.57443]}},{"properties":{"rep? (1 for yes, 0 for no)":1,"city":"Sacramento","zip":"95834","geo_score":0.805,"street address":"1130 K St","id":"a64jrkucr4vr","geo_precision":"range"},"type":"Feature","geometry":{"type":"Point","coordinates":[-121.492276,38.578737]}},{"properties":{"rep? (1 for yes, 0 for no)":1,"city":"Sacramento","zip":"95834","geo_score":0.707,"street address":"1300 21st St","id":"a64jrkxe77px","geo_precision":"range"},"type":"Feature","geometry":{"type":"Point","coordinates":[-121.480001,38.57301]}},{"properties":{"rep? (1 for yes, 0 for no)":1,"city":"Sacramento","zip":"95825","geo_score":0.782,"street address":"1116 Alahambra Blvd","id":"a64jrkzsqpf0","geo_precision":"range"},"type":"Feature","geometry":{"type":"Point","coordinates":[-121.465748,38.571485]}},{"properties":{"rep? (1 for yes, 0 for no)":0,"city":"Sacramento","zip":"95811","geo_score":0.601,"street address":"520 Capital Mall","id":"a64jrl6sdegh","geo_precision":"street"},"type":"Feature","geometry":{"type":"Point","coordinates":[-121.485321,38.57443]}},{"properties":{"rep? (1 for yes, 0 for no)":1,"city":"Sacramento","zip":"95825","geo_score":0.688,"street address":"1015 7th St","id":"a64jrl6amcnz","geo_precision":"range"},"type":"Feature","geometry":{"type":"Point","coordinates":[-121.49751,38.581207]}},{"properties":{"rep? (1 for yes, 0 for no)":1,"city":"Sacramento","zip":"95825","geo_score":0.782,"street address":"1100 Alahambra Blvd","id":"a64jrktfl0vy","geo_precision":"range"},"type":"Feature","geometry":{"type":"Point","coordinates":[-121.465682,38.571678]}},{"properties":{"rep? (1 for yes, 0 for no)":1,"city":"Sacramento","zip":"95834","geo_score":0.746,"street address":"1515 Broadway","id":"a64jrkxzeucx","geo_precision":"range"},"type":"Feature","geometry":{"type":"Point","coordinates":[-121.493561,38.561905]}},{"properties":{"rep? (1 for yes, 0 for no)":0,"city":"Sacramento","zip":"95811","geo_score":0.601,"street address":"555 Capital Mall","id":"a64jrkzra6wi","geo_precision":"street"},"type":"Feature","geometry":{"type":"Point","coordinates":[-121.485321,38.57443]}},{"properties":{"rep? (1 for yes, 0 for no)":1,"city":"Sacramento","zip":"95834","geo_score":0.768,"street address":"3101 Arden Wy","id":"a64jrkwavkbv","geo_precision":"range"},"type":"Feature","geometry":{"type":"Point","coordinates":[-121.392215,38.595847]}},{"properties":{"rep? (1 for yes, 0 for no)":1,"city":"Sacramento","zip":"95834","geo_score":0.805,"street address":"7198 Stockton Blvd","id":"a64jrkwyo1af","geo_precision":"range"},"type":"Feature","geometry":{"type":"Point","coordinates":[-121.429081,38.496049]}},{"properties":{"rep? (1 for yes, 0 for no)":0,"city":"Sacramento","zip":"95834","geo_score":0.746,"street address":"3810 Broadway","id":"a64jrkxvswq6","geo_precision":"range"},"type":"Feature","geometry":{"type":"Point","coordinates":[-121.464955,38.547374]}},{"properties":{"rep? (1 for yes, 0 for no)":1,"city":"Sacramento","zip":"95825","geo_score":0.732,"street address":"1590 W El Camino Ave","id":"a64jrl1uvbbr","geo_precision":"range"},"type":"Feature","geometry":{"type":"Point","coordinates":[-121.497578,38.612742]}},{"properties":{"rep? (1 for yes, 0 for no)":0,"city":"Sacramento","zip":"95834","geo_score":0.488,"street address":"1 Park Center Dr","id":"a64jrl31vxtq","geo_precision":"street"},"type":"Feature","geometry":{"type":"Point","coordinates":[-121.485082,38.62819]}},{"properties":{"rep? (1 for yes, 0 for no)":1,"city":"Sacramento","zip":"95825","geo_score":0.776,"street address":"3001 Capital Ave","id":"a64jrkrsfg8f","geo_precision":"range"},"type":"Feature","geometry":{"type":"Point","coordinates":[-121.467978,38.569801]}},{"properties":{"rep? (1 for yes, 0 for no)":1,"city":"Sacramento","zip":"95834","geo_score":0.805,"street address":"1831 S St","id":"a64jrl44bdrc","geo_precision":"range"},"type":"Feature","geometry":{"type":"Point","coordinates":[-121.486529,38.567379]}},{"properties":{"rep? (1 for yes, 0 for no)":1,"city":"Sacramento","zip":"95825","geo_score":0.805,"street address":"5710 Folsom Blvd","id":"a64jrl3okryv","geo_precision":"range"},"type":"Feature","geometry":{"type":"Point","coordinates":[-121.437146,38.558046]}},{"properties":{"rep? (1 for yes, 0 for no)":1,"city":"Sacramento","zip":"95834","geo_score":0.768,"street address":"1510 Arden Wy","id":"a64jrkykuks7","geo_precision":"range"},"type":"Feature","geometry":{"type":"Point","coordinates":[-121.430482,38.601255]}},{"properties":{"rep? (1 for yes, 0 for no)":1,"city":"Sacramento","zip":"95811","geo_score":0.805,"street address":"2301 Watt Ave","id":"a64jrl7djoyd","geo_precision":"range"},"type":"Feature","geometry":{"type":"Point","coordinates":[-121.383125,38.606638]}},{"properties":{"rep? (1 for yes, 0 for no)":0,"city":"Sacramento","zip":"95811","geo_score":0.805,"street address":"1501 Del Paso Blvd","id":"a64jrl3vbkfu","geo_precision":"range"},"type":"Feature","geometry":{"type":"Point","coordinates":[-121.458513,38.606431]}},{"properties":{"rep? (1 for yes, 0 for no)":1,"city":"Carmichael","zip":"95608","geo_score":0.902,"street address":"7225 Fair Oaks Blvd","id":"a64jrl708545","geo_precision":"range"},"type":"Feature","geometry":{"type":"Point","coordinates":[-121.328176,38.631998]}},{"properties":{"rep? (1 for yes, 0 for no)":1,"city":"Carmichael","zip":"95608","geo_score":0.902,"street address":"4005 Manzanita Ave","id":"a64jrkto50ba","geo_precision":"range"},"type":"Feature","geometry":{"type":"Point","coordinates":[-121.327999,38.637759]}},{"properties":{"rep? (1 for yes, 0 for no)":1,"city":"Carmichael","zip":"95608","geo_score":0.902,"street address":"6705 Fair Oaks Blvd","id":"a64jrku93wth","geo_precision":"range"},"type":"Feature","geometry":{"type":"Point","coordinates":[-121.328469,38.622256]}},{"properties":{"rep? (1 for yes, 0 for no)":0,"city":"Sacramento","zip":"95811","geo_score":0.752,"street address":"1545 River Park Dr","id":"a64jrkv6ziw0","geo_precision":"range"},"type":"Feature","geometry":{"type":"Point","coordinates":[-121.438602,38.598726]}}],"is_temporal":false,"author":{"url":"","metadata":null,"contact_name":null,"contact_address":null,"source":null,"contact_phone":null},"source":"","pagination":{"sort":null,"start":0,"total":173,"limit":1000000},"state":"complete","tags":"","published":"2014-08-14T16:57:13-04:00","id":221580}