{"type":"FeatureCollection","data_type":"Dataset","url_type":null,"permissions":[{"permissions":{"download":true,"edit":true,"view":true},"group_id":42518},{"permissions":{"download":true,"view":true},"group_id":"everyone"}],"classification":null,"title":"Jim Banks Map - ran March 30th STCA","count":74,"stream_id":222044,"contributor":{"url":"http://geocommons.com/users/39447","name":"sam.felipe"},"data_attributes":null,"calculation_params":null,"icon_link":null,"link":"http://geocommons.com/overlays/222044.json","extent":[-119.991,34.1196,-118.678,34.5861],"geometry_types":["point"],"unique_name":null,"name":"Jim Banks Map - ran March 30th STCA","feature_count":74,"description":"","next_feature":null,"is_raster":false,"short_classification":"Y","stats":{"value":{"max":1,"mean":0.256756756756757,"variance":0.193446871529063,"stdev":0.439825955951969,"min":0,"median":0}},"features":[{"properties":{"city":"Simi Valley","column_10":null,"zip":"93065","column_6":null,"addresss":"660 E Los Angeles","column_7":null,"company name":"Chase 660","geo_score":0.546,"column_8":null,"column_9":null,"value":0,"id":"a6dqq1nkmjz9","geo_precision":"street"},"type":"Feature","geometry":{"type":"Point","coordinates":[-118.823971,34.28735]}},{"properties":{"city":"Ventura","column_10":null,"zip":"93001","column_6":null,"addresss":"101 S Chestnut St","column_7":null,"company name":"Affinity Bank","geo_score":0.85,"column_8":null,"column_9":null,"value":1,"id":"a6dqq1ofqaom","geo_precision":"range"},"type":"Feature","geometry":{"type":"Point","coordinates":[-119.291544,34.27953]}},{"properties":{"city":"Camarillo","column_10":null,"zip":"93010","column_6":null,"addresss":"1656 Arneil Rd","column_7":null,"company name":"Affinity Bank 1656","geo_score":0.799,"column_8":null,"column_9":null,"value":0,"id":"a6dqq1w4ic2y","geo_precision":"range"},"type":"Feature","geometry":{"type":"Point","coordinates":[-119.039095,34.234495]}},{"properties":{"city":"Camarillo","column_10":null,"zip":"93010","column_6":null,"addresss":"1656 Arneil Rd","column_7":null,"company name":"Affinty Bank 1656","geo_score":0.799,"column_8":null,"column_9":null,"value":0,"id":"a6dqq1h9bllb","geo_precision":"range"},"type":"Feature","geometry":{"type":"Point","coordinates":[-119.039095,34.234495]}},{"properties":{"city":"Fillmore","column_10":null,"zip":"93015","column_6":null,"addresss":"606 W Ventura St","column_7":null,"company name":"Bank of America","geo_score":0.817,"column_8":null,"column_9":null,"value":0,"id":"a6dqq1sgo3z4","geo_precision":"range"},"type":"Feature","geometry":{"type":"Point","coordinates":[-118.915541,34.396428]}},{"properties":{"city":"Moorpark","column_10":null,"zip":"93021","column_6":null,"addresss":"4241 Tierra Rejada Rd","column_7":null,"company name":"Bank of America","geo_score":0.812,"column_8":null,"column_9":null,"value":0,"id":"a6dqq1jldk32","geo_precision":"range"},"type":"Feature","geometry":{"type":"Point","coordinates":[-118.877175,34.26324]}},{"properties":{"city":"Moorpark","column_10":null,"zip":"93021","column_6":null,"addresss":"4241 Tierra Rejada Rd","column_7":null,"company name":"Bank of America","geo_score":0.812,"column_8":null,"column_9":null,"value":0,"id":"a6dqq1qqunr4","geo_precision":"range"},"type":"Feature","geometry":{"type":"Point","coordinates":[-118.877175,34.26324]}},{"properties":{"city":"Moorpark","column_10":null,"zip":"93021","column_6":null,"addresss":"730 New Los Angeles Ave","column_7":null,"company name":"Bank of America","geo_score":0.623,"column_8":null,"column_9":null,"value":0,"id":"a6dqq1jnrg89","geo_precision":"street"},"type":"Feature","geometry":{"type":"Point","coordinates":[-118.863028,34.282271]}},{"properties":{"city":"Santa Paula","column_10":null,"zip":"93060","column_6":null,"addresss":"715 E Main St","column_7":null,"company name":"Bank of America","geo_score":0.819,"column_8":null,"column_9":null,"value":0,"id":"a6dqq1hzay1x","geo_precision":"range"},"type":"Feature","geometry":{"type":"Point","coordinates":[-119.065294,34.352315]}},{"properties":{"city":"Port Hueneme","column_10":null,"zip":"93041","column_6":null,"addresss":"755 W Channel Islands","column_7":null,"company name":"Bank of America","geo_score":0.841,"column_8":null,"column_9":null,"value":1,"id":"a6dqq1n77hq3","geo_precision":"range"},"type":"Feature","geometry":{"type":"Point","coordinates":[-119.221235,34.175779]}},{"properties":{"city":"Camarillo","column_10":null,"zip":"93012","column_6":null,"addresss":"500 Santa Rosa Rd","column_7":null,"company name":"Bank of America","geo_score":0.902,"column_8":null,"column_9":null,"value":1,"id":"a6dqq1vg9meb","geo_precision":"range"},"type":"Feature","geometry":{"type":"Point","coordinates":[-119.007607,34.21417]}},{"properties":{"city":"Simi Valley","column_10":null,"zip":"93063","column_6":null,"addresss":"1800 Tapo Canyon Rd","column_7":null,"company name":"Bank of America","geo_score":0.814,"column_8":null,"column_9":null,"value":0,"id":"a6dqq1nxuxnx","geo_precision":"range"},"type":"Feature","geometry":{"type":"Point","coordinates":[-118.716852,34.269885]}},{"properties":{"city":"Westlake","column_10":null,"zip":"91361","column_6":null,"addresss":"954 South Westlake Blvd","column_7":null,"company name":"Bank of America","geo_score":0.821,"column_8":null,"column_9":null,"value":0,"id":"a6dqq1m0tvqg","geo_precision":"range"},"type":"Feature","geometry":{"type":"Point","coordinates":[-118.827783,34.153926]}},{"properties":{"city":"Simi Valley","column_10":null,"zip":"93065","column_6":null,"addresss":"1307 E Los Angeles","column_7":null,"company name":"Bank of America","geo_score":0.449,"column_8":null,"column_9":null,"value":0,"id":"a6dqq1qu6yir","geo_precision":"street"},"type":"Feature","geometry":{"type":"Point","coordinates":[-118.826385,34.287872]}},{"properties":{"city":"Ventura","column_10":null,"zip":"93003","column_6":null,"addresss":"1794 S Victoria Ave","column_7":null,"company name":"Bank of the West","geo_score":0.902,"column_8":null,"column_9":null,"value":1,"id":"a6dqq1ix8lgr","geo_precision":"range"},"type":"Feature","geometry":{"type":"Point","coordinates":[-119.210875,34.25789]}},{"properties":{"city":"Ventura","column_10":null,"zip":"93003","column_6":null,"addresss":"4050 E Main St","column_7":null,"company name":"California National Bank","geo_score":0.902,"column_8":null,"column_9":null,"value":1,"id":"a6dqq1va47ub","geo_precision":"range"},"type":"Feature","geometry":{"type":"Point","coordinates":[-119.23783,34.263102]}},{"properties":{"city":"Simi Valley","column_10":null,"zip":"93065","column_6":null,"addresss":"2655 1st street","column_7":null,"company name":"California United Bank","geo_score":0.707,"column_8":null,"column_9":null,"value":0,"id":"a6dqq1nh8x0l","geo_precision":"range"},"type":"Feature","geometry":{"type":"Point","coordinates":[-118.778828,34.284037]}},{"properties":{"city":"Camarillo","column_10":null,"zip":"93010","column_6":null,"addresss":"1150 Paseso","column_7":null,"company name":"Camarillo Community Bank","geo_score":0.514,"column_8":null,"column_9":null,"value":1,"id":"a6dqq1gzbb5l","geo_precision":"zip"},"type":"Feature","geometry":{"type":"Point","coordinates":[-119.095938,34.22056]}},{"properties":{"city":"Camarillo","column_10":null,"zip":"93101","column_6":null,"addresss":"430 Arneil Rd","column_7":null,"company name":"CitBank","geo_score":0.537,"column_8":null,"column_9":null,"value":0,"id":"a6dqq1so2mqd","geo_precision":"zip"},"type":"Feature","geometry":{"type":"Point","coordinates":[-119.990975,34.5861]}},{"properties":{"city":"Simi Valley","column_10":null,"zip":"93065","column_6":null,"addresss":"2860 Cochran Street","column_7":null,"company name":"Citi Bank 2860","geo_score":0.824,"column_8":null,"column_9":null,"value":0,"id":"a6dqq1r2fs3n","geo_precision":"range"},"type":"Feature","geometry":{"type":"Point","coordinates":[-118.74081,34.279]}},{"properties":{"city":"Westlake","column_10":null,"zip":"91361","column_6":null,"addresss":"974 Westlake Blvd","column_7":null,"company name":"Citi Bank 974","geo_score":0.627,"column_8":null,"column_9":null,"value":0,"id":"a6dqq1w3ca9s","geo_precision":"street"},"type":"Feature","geometry":{"type":"Point","coordinates":[-118.852566,34.12004]}},{"properties":{"city":"Port Hueneme","column_10":null,"zip":"93041","column_6":null,"addresss":"739 W Channel Islands","column_7":null,"company name":"Citibank","geo_score":0.719,"column_8":null,"column_9":null,"value":1,"id":"a6dqq1p2odrk","geo_precision":"range"},"type":"Feature","geometry":{"type":"Point","coordinates":[-119.217433,34.175817]}},{"properties":{"city":"Camarillo","column_10":null,"zip":"93020","column_6":null,"addresss":"520 Las Posas Rd","column_7":null,"company name":"City National Bank","geo_score":0.805,"column_8":null,"column_9":null,"value":1,"id":"a6dqq1irhblm","geo_precision":"range"},"type":"Feature","geometry":{"type":"Point","coordinates":[-119.069765,34.222016]}},{"properties":{"city":"thousand oaks","column_10":null,"zip":"91361","column_6":null,"addresss":"2655 Townsgate Road","column_7":null,"company name":"City National Bank","geo_score":0.813,"column_8":null,"column_9":null,"value":0,"id":"a6dqq1orgele","geo_precision":"range"},"type":"Feature","geometry":{"type":"Point","coordinates":[-118.828658,34.156516]}},{"properties":{"city":"Westlake","column_10":null,"zip":"91361","column_6":null,"addresss":"2915 Townsgate","column_7":null,"company name":"Comerica Bank 2915","geo_score":0.768,"column_8":null,"column_9":null,"value":0,"id":"a6dqq1v9mayp","geo_precision":"range"},"type":"Feature","geometry":{"type":"Point","coordinates":[-118.82195,34.151638]}},{"properties":{"city":"Ventura","column_10":null,"zip":"93003","column_6":null,"addresss":"1463 S Victoria Ave","column_7":null,"company name":"Community West Bank","geo_score":0.902,"column_8":null,"column_9":null,"value":1,"id":"a6dqq1skvkll","geo_precision":"range"},"type":"Feature","geometry":{"type":"Point","coordinates":[-119.211636,34.261267]}},{"properties":{"city":"Westlake","column_10":null,"zip":"91361","column_6":null,"addresss":"951 Westlake Blvd","column_7":null,"company name":"Community West Bank","geo_score":0.53,"column_8":null,"column_9":null,"value":0,"id":"a6dqq1imr9ai","geo_precision":"street"},"type":"Feature","geometry":{"type":"Point","coordinates":[-118.851782,34.119592]}},{"properties":{"city":"Westlake","column_10":null,"zip":"91361","column_6":null,"addresss":"32111 Agoura Road","column_7":null,"company name":"Firat California Bank","geo_score":0.821,"column_8":null,"column_9":null,"value":0,"id":"a6dqq1j1vdg0","geo_precision":"range"},"type":"Feature","geometry":{"type":"Point","coordinates":[-118.819365,34.148136]}},{"properties":{"city":"Westlake","column_10":null,"zip":"91361","column_6":null,"addresss":"2797 Agiur Road","column_7":null,"company name":"First Bank 2797","geo_score":0.504,"column_8":null,"column_9":null,"value":0,"id":"a6dqq1n52d7o","geo_precision":"zip"},"type":"Feature","geometry":{"type":"Point","coordinates":[-118.82193,34.137015]}},{"properties":{"city":"Westlake","column_10":null,"zip":"91361","column_6":null,"addresss":"3027 Townsgate","column_7":null,"company name":"First Californai Bank","geo_score":0.58,"column_8":null,"column_9":null,"value":0,"id":"a6dqq1l4a515","geo_precision":"street"},"type":"Feature","geometry":{"type":"Point","coordinates":[-118.820781,34.15106]}},{"properties":{"city":"Simi Valley","column_10":null,"zip":"93065","column_6":null,"addresss":"1685 Sims Town Center","column_7":null,"company name":"First California Bank","geo_score":0.379,"column_8":null,"column_9":null,"value":0,"id":"a6dqq1uo1d23","geo_precision":"street"},"type":"Feature","geometry":{"type":"Point","coordinates":[-118.759318,34.270115]}},{"properties":{"city":"Moorpark","column_10":null,"zip":"93021","column_6":null,"addresss":"4305 Hitch Blvd","column_7":null,"company name":"First Conejo Funding","geo_score":0.812,"column_8":null,"column_9":null,"value":1,"id":"a6dqq1h0mne6","geo_precision":"range"},"type":"Feature","geometry":{"type":"Point","coordinates":[-118.923027,34.270306]}},{"properties":{"city":"Moorpark","column_10":null,"zip":"93021","column_6":null,"addresss":"5154 Goldman Ave","column_7":null,"company name":"First U.S. Finance","geo_score":0.812,"column_8":null,"column_9":null,"value":0,"id":"a6dqq1hlcmee","geo_precision":"range"},"type":"Feature","geometry":{"type":"Point","coordinates":[-118.893319,34.280342]}},{"properties":{"city":"Westlake","column_10":null,"zip":"91361","column_6":null,"addresss":"2635 Townsgate","column_7":null,"company name":"Hunting National 2635","geo_score":0.768,"column_8":null,"column_9":null,"value":0,"id":"a6dqq1r8638t","geo_precision":"range"},"type":"Feature","geometry":{"type":"Point","coordinates":[-118.828876,34.157265]}},{"properties":{"city":"Westlake","column_10":null,"zip":"91361","column_6":null,"addresss":"968 Westlake Blvd","column_7":null,"company name":"Montecito Bank and Trust","geo_score":0.627,"column_8":null,"column_9":null,"value":0,"id":"a6dqq1rnbhr8","geo_precision":"street"},"type":"Feature","geometry":{"type":"Point","coordinates":[-118.852566,34.12004]}},{"properties":{"city":"Westlake","column_10":null,"zip":"91361","column_6":null,"addresss":"875 Westlake Blvd","column_7":null,"company name":"National Bank of California","geo_score":0.529,"column_8":null,"column_9":null,"value":0,"id":"a6dqq1kg5j6o","geo_precision":"street"},"type":"Feature","geometry":{"type":"Point","coordinates":[-118.851782,34.119592]}},{"properties":{"city":"Camarillo","column_10":null,"zip":"93010","column_6":null,"addresss":"2245 Ventura Blvd","column_7":null,"company name":"One West Bank","geo_score":0.831,"column_8":null,"column_9":null,"value":1,"id":"a6dqq1jl4tyg","geo_precision":"range"},"type":"Feature","geometry":{"type":"Point","coordinates":[-119.039205,34.216519]}},{"properties":{"city":"Camarillo","column_10":null,"zip":"93010","column_6":null,"addresss":"1656 Arneil Rd","column_7":null,"company name":"Pacific Western Bank","geo_score":0.799,"column_8":null,"column_9":null,"value":1,"id":"a6dqq1ivvgv7","geo_precision":"range"},"type":"Feature","geometry":{"type":"Point","coordinates":[-119.039095,34.234495]}},{"properties":{"city":"Simi Valley","column_10":null,"zip":"93065","column_6":null,"addresss":"2760 Tapo Canyon Road","column_7":null,"company name":"PNC Bank 2760","geo_score":0.805,"column_8":null,"column_9":null,"value":0,"id":"a6dqq1saaz6g","geo_precision":"range"},"type":"Feature","geometry":{"type":"Point","coordinates":[-118.717744,34.285619]}},{"properties":{"city":"Simi Valley","column_10":null,"zip":"93063","column_6":null,"addresss":"1368 Madera Road","column_7":null,"company name":"Premier American Credit","geo_score":0.805,"column_8":null,"column_9":null,"value":0,"id":"a6dqq1mpuekw","geo_precision":"range"},"type":"Feature","geometry":{"type":"Point","coordinates":[-118.796283,34.264049]}},{"properties":{"city":"Camarillo","column_10":null,"zip":"93010","column_6":null,"addresss":"470 Arneil Rd","column_7":null,"company name":"Rabobank","geo_score":0.799,"column_8":null,"column_9":null,"value":0,"id":"a6dqq1jossx8","geo_precision":"range"},"type":"Feature","geometry":{"type":"Point","coordinates":[-119.03907,34.221906]}},{"properties":{"city":"Westlake","column_10":null,"zip":"91361","column_6":null,"addresss":"2663 Townsgate","column_7":null,"company name":"Rabobank America 2663","geo_score":0.768,"column_8":null,"column_9":null,"value":0,"id":"a6dqq1qbvnll","geo_precision":"range"},"type":"Feature","geometry":{"type":"Point","coordinates":[-118.828587,34.15621]}},{"properties":{"city":"Ventura","column_10":null,"zip":"93003","column_6":null,"addresss":"300 S Mills Rd","column_7":null,"company name":"Rabobank N.A.","geo_score":0.902,"column_8":null,"column_9":null,"value":1,"id":"a6dqq1sgtfw2","geo_precision":"range"},"type":"Feature","geometry":{"type":"Point","coordinates":[-119.246857,34.268937]}},{"properties":{"city":"Moorpark","column_10":null,"zip":"93021","column_6":null,"addresss":"146 W Los Angeles","column_7":null,"company name":"Rabobank N.A.","geo_score":0.749,"column_8":null,"column_9":null,"value":0,"id":"a6dqq1lc7bum","geo_precision":"range"},"type":"Feature","geometry":{"type":"Point","coordinates":[-118.803867,34.283126]}},{"properties":{"city":"Camarillo","column_10":null,"zip":"93010","column_6":null,"addresss":"2310 Ponderosa Dr","column_7":null,"company name":"Sant Barbara Bank","geo_score":0.637,"column_8":null,"column_9":null,"value":1,"id":"a6dqq1t2wfeq","geo_precision":"street"},"type":"Feature","geometry":{"type":"Point","coordinates":[-119.030065,34.230058]}},{"properties":{"city":"Santa Paula","column_10":null,"zip":"93060","column_6":null,"addresss":"537 W Harvard Blvd","column_7":null,"company name":"Santa Barbara Bank","geo_score":0.819,"column_8":null,"column_9":null,"value":0,"id":"a6dqq1oa1ym9","geo_precision":"range"},"type":"Feature","geometry":{"type":"Point","coordinates":[-119.079946,34.343245]}},{"properties":{"city":"Santa Paula","column_10":null,"zip":"93060","column_6":null,"addresss":"948 E Main St","column_7":null,"company name":"Santa Barbara Bank","geo_score":0.819,"column_8":null,"column_9":null,"value":0,"id":"a6dqq1qe7yvi","geo_precision":"range"},"type":"Feature","geometry":{"type":"Point","coordinates":[-119.060778,34.353714]}},{"properties":{"city":"Port Hueneme","column_10":null,"zip":"93041","column_6":null,"addresss":"585 W Channel Islands","column_7":null,"company name":"Santa Barbara Bank","geo_score":0.841,"column_8":null,"column_9":null,"value":1,"id":"a6dqq1ww1tpf","geo_precision":"range"},"type":"Feature","geometry":{"type":"Point","coordinates":[-119.21333,34.175767]}},{"properties":{"city":"Port Hueneme","column_10":null,"zip":"93041","column_6":null,"addresss":"583 W Channel Islands","column_7":null,"company name":"Santa Barbara Bank","geo_score":0.841,"column_8":null,"column_9":null,"value":0,"id":"a6dqq1oql7yf","geo_precision":"range"},"type":"Feature","geometry":{"type":"Point","coordinates":[-119.213316,34.175767]}},{"properties":{"city":"Camarillo","column_10":null,"zip":"93012","column_6":null,"addresss":"4646 Adolfo Rd","column_7":null,"company name":"Santa Barbara Bank","geo_score":0.902,"column_8":null,"column_9":null,"value":1,"id":"a6dqq1m64kj8","geo_precision":"range"},"type":"Feature","geometry":{"type":"Point","coordinates":[-119.005348,34.21842]}},{"properties":{"city":"Simi Valley","column_10":null,"zip":"93065","column_6":null,"addresss":"2930 Tapo Canyon Rd","column_7":null,"company name":"Santa Barbara Bank","geo_score":0.805,"column_8":null,"column_9":null,"value":0,"id":"a6dqq1snwx07","geo_precision":"range"},"type":"Feature","geometry":{"type":"Point","coordinates":[-118.717681,34.288656]}},{"properties":{"city":"Fillmore","column_10":null,"zip":"93015","column_6":null,"addresss":"527 Sespe Ave","column_7":null,"company name":"Santa Clara Valley","geo_score":0.817,"column_8":null,"column_9":null,"value":0,"id":"a6dqq1vcz7jv","geo_precision":"range"},"type":"Feature","geometry":{"type":"Point","coordinates":[-118.914374,34.400599]}},{"properties":{"city":"Fillmore","column_10":null,"zip":"93015","column_6":null,"addresss":"540 Sespe Ave","column_7":null,"company name":"Santa Clara Valley","geo_score":0.817,"column_8":null,"column_9":null,"value":0,"id":"a6dqq1igx52g","geo_precision":"range"},"type":"Feature","geometry":{"type":"Point","coordinates":[-118.914731,34.400558]}},{"properties":{"city":"Santa Paula","column_10":null,"zip":"93060","column_6":null,"addresss":"901 E Main St","column_7":null,"company name":"Santa Clara Valley","geo_score":0.819,"column_8":null,"column_9":null,"value":0,"id":"a6dqq1i3d9kb","geo_precision":"range"},"type":"Feature","geometry":{"type":"Point","coordinates":[-119.061771,34.35344]}},{"properties":{"city":"Santa Paula","column_10":null,"zip":"93060","column_6":null,"addresss":"915 E Main St","column_7":null,"company name":"Santa Clara Valley","geo_score":0.819,"column_8":null,"column_9":null,"value":0,"id":"a6dqq1lb6yxp","geo_precision":"range"},"type":"Feature","geometry":{"type":"Point","coordinates":[-119.061562,34.353519]}},{"properties":{"city":"Santa Paula","column_10":null,"zip":"93060","column_6":null,"addresss":"121 N Ojai St","column_7":null,"company name":"Santa Paula Community","geo_score":0.819,"column_8":null,"column_9":null,"value":0,"id":"a6dqq1l3vr67","geo_precision":"range"},"type":"Feature","geometry":{"type":"Point","coordinates":[-119.059089,34.354623]}},{"properties":{"city":"Ventura","column_10":null,"zip":"93003","column_6":null,"addresss":"6040 Telegraph Rd","column_7":null,"company name":"U.S. Bank ATM","geo_score":0.902,"column_8":null,"column_9":null,"value":0,"id":"a6dqq1npsvd0","geo_precision":"range"},"type":"Feature","geometry":{"type":"Point","coordinates":[-119.213577,34.278185]}},{"properties":{"city":"Moorpark","column_10":null,"zip":"93021","column_6":null,"addresss":"256 W Los Angeles","column_7":null,"company name":"Union Bank","geo_score":0.749,"column_8":null,"column_9":null,"value":0,"id":"a6dqq1v067a3","geo_precision":"range"},"type":"Feature","geometry":{"type":"Point","coordinates":[-118.806273,34.28534]}},{"properties":{"city":"Santa Paula","column_10":null,"zip":"93060","column_6":null,"addresss":"634 E Main St","column_7":null,"company name":"Union Bank","geo_score":0.819,"column_8":null,"column_9":null,"value":0,"id":"a6dqq1hqetun","geo_precision":"range"},"type":"Feature","geometry":{"type":"Point","coordinates":[-119.066729,34.351853]}},{"properties":{"city":"Simi Valley","column_10":null,"zip":"93065","column_6":null,"addresss":"1475 East Los Angeles","column_7":null,"company name":"Union Bank 1475","geo_score":0.448,"column_8":null,"column_9":null,"value":0,"id":"a6dqq1iphyez","geo_precision":"street"},"type":"Feature","geometry":{"type":"Point","coordinates":[-118.826385,34.287872]}},{"properties":{"city":"Simi Valley","column_10":null,"zip":"93063","column_6":null,"addresss":"2092 Ttapo Street","column_7":null,"company name":"Union Bank 2092","geo_score":0.772,"column_8":null,"column_9":null,"value":0,"id":"a6dqq1kbe059","geo_precision":"range"},"type":"Feature","geometry":{"type":"Point","coordinates":[-118.708943,34.273911]}},{"properties":{"city":"Simi Valley","column_10":null,"zip":"93063","column_6":null,"addresss":"5821 East Los Angeles","column_7":null,"company name":"US Bank 5821","geo_score":0.751,"column_8":null,"column_9":null,"value":0,"id":"a6dqq1tod2n2","geo_precision":"range"},"type":"Feature","geometry":{"type":"Point","coordinates":[-118.678011,34.27173]}},{"properties":{"city":"Camarillo","column_10":null,"zip":"93010","column_6":null,"addresss":"601 e Daily","column_7":null,"company name":"US Bank 601","geo_score":0.636,"column_8":null,"column_9":null,"value":1,"id":"a6dqq1qqsmya","geo_precision":"range"},"type":"Feature","geometry":{"type":"Point","coordinates":[-119.060356,34.2189]}},{"properties":{"city":"Camarillo","column_10":null,"zip":"93010","column_6":null,"addresss":"820 Armeil Road","column_7":null,"company name":"US Bank 820","geo_score":0.514,"column_8":null,"column_9":null,"value":1,"id":"a6dqq1qqxh75","geo_precision":"zip"},"type":"Feature","geometry":{"type":"Point","coordinates":[-119.095938,34.22056]}},{"properties":{"city":"Westlake","column_10":null,"zip":"91361","column_6":null,"addresss":"600 Hampshire","column_7":null,"company name":"Ventura County Bank","geo_score":0.768,"column_8":null,"column_9":null,"value":0,"id":"a6dqq1ua5cdi","geo_precision":"range"},"type":"Feature","geometry":{"type":"Point","coordinates":[-118.83791,34.160913]}},{"properties":{"city":"Ventura","column_10":null,"zip":"93003","column_6":null,"addresss":"2075 S Victoria Ave","column_7":null,"company name":"Washington Mutual Bank","geo_score":0.902,"column_8":null,"column_9":null,"value":0,"id":"a6dqq1vevubj","geo_precision":"range"},"type":"Feature","geometry":{"type":"Point","coordinates":[-119.21035,34.255469]}},{"properties":{"city":"Simi Valley","column_10":null,"zip":"93065","column_6":null,"addresss":"1200 E Los Angeles","column_7":null,"company name":"Wells","geo_score":0.547,"column_8":null,"column_9":null,"value":0,"id":"a6dqq1mwnktq","geo_precision":"street"},"type":"Feature","geometry":{"type":"Point","coordinates":[-118.826385,34.287872]}},{"properties":{"city":"Simi Valley","column_10":null,"zip":"93063","column_6":null,"addresss":"2888 Cochran Street","column_7":null,"company name":"Wells Fargo 2888","geo_score":0.619,"column_8":null,"column_9":null,"value":0,"id":"a6dqq1vlgmc1","geo_precision":"street"},"type":"Feature","geometry":{"type":"Point","coordinates":[-118.730516,34.278982]}},{"properties":{"city":"Santa Paula","column_10":null,"zip":"93060","column_6":null,"addresss":"576 W Main St","column_7":null,"company name":"Wells Fargo Ban","geo_score":0.819,"column_8":null,"column_9":null,"value":0,"id":"a6dqq1q8khxg","geo_precision":"range"},"type":"Feature","geometry":{"type":"Point","coordinates":[-119.083704,34.344383]}},{"properties":{"city":"Fillmore","column_10":null,"zip":"93015","column_6":null,"addresss":"636 W Ventura St","column_7":null,"company name":"Wells Fargo Bank","geo_score":0.817,"column_8":null,"column_9":null,"value":0,"id":"a6dqq1ts7vva","geo_precision":"range"},"type":"Feature","geometry":{"type":"Point","coordinates":[-118.916537,34.396296]}},{"properties":{"city":"Moorpark","column_10":null,"zip":"93021","column_6":null,"addresss":"515 W Los Angeles Ave","column_7":null,"company name":"Wells Fargo Bank","geo_score":0.812,"column_8":null,"column_9":null,"value":0,"id":"a6dqq1mzvdq6","geo_precision":"range"},"type":"Feature","geometry":{"type":"Point","coordinates":[-118.812798,34.285854]}},{"properties":{"city":"Port Hueneme","column_10":null,"zip":"93041","column_6":null,"addresss":"533 W Channel Islands","column_7":null,"company name":"Wells Fargo Bank","geo_score":0.841,"column_8":null,"column_9":null,"value":0,"id":"a6dqq1gmym7i","geo_precision":"range"},"type":"Feature","geometry":{"type":"Point","coordinates":[-119.212982,34.175762]}},{"properties":{"city":"Camarillo","column_10":null,"zip":"93010","column_6":null,"addresss":"11 e ponderosa","column_7":null,"company name":"Wells Fargo Bank","geo_score":0.588,"column_8":null,"column_9":null,"value":1,"id":"a6dqq1v1bjfp","geo_precision":"street"},"type":"Feature","geometry":{"type":"Point","coordinates":[-119.042831,34.223524]}},{"properties":{"city":"Ventura","column_10":null,"zip":"93003","column_6":null,"addresss":"6477 Telephone Rd Ste","column_7":null,"company name":"World Savings &amp; Loan Associations","geo_score":0.819,"column_8":null,"column_9":null,"value":0,"id":"a6dqq1uznyn2","geo_precision":"range"},"type":"Feature","geometry":{"type":"Point","coordinates":[-119.205272,34.266432]}}],"is_temporal":false,"author":{"url":"","metadata":"","contact_name":"","contact_address":"","source":"","contact_phone":""},"source":"","pagination":{"sort":null,"start":0,"total":74,"limit":1000000},"state":"complete","tags":"stca","published":"2014-08-14T17:27:01-04:00","id":222044}