{"type":"FeatureCollection","data_type":"Dataset","url_type":null,"permissions":[{"permissions":{"download":true,"view":true},"group_id":"everyone"}],"classification":null,"title":"Iowa City Flood Recovery Resource Center, Status of Bridges: Closed or Open, Iowa City, 6.19.2008","count":6,"stream_id":2222,"contributor":{"url":"http://geocommons.com/users/139","name":"Burkey"},"data_attributes":null,"calculation_params":null,"icon_link":null,"link":"http://geocommons.com/overlays/2222.json","extent":[-91.5413,41.6508,-91.5337,41.6715],"geometry_types":["point"],"unique_name":null,"name":"Iowa City Flood Recovery Resource Center, Status of Bridges: Closed or Open, Iowa City, 6.19.2008","feature_count":6,"description":"This dataset displays the status of bridges in Iowa City as of 6.19.08. The data comes from the website of Iowa City at icgov.org on their Flood Recovery Resource Center.  The lat/lons were obtained by geocoding visually on google earth.\n","next_feature":null,"is_raster":false,"short_classification":"Y","stats":{"lon":{"max":-91.533659,"mean":-91.5387595,"variance":8.79989510000024e-06,"stdev":0.00296646171389422,"min":-91.541255,"median":-91.538095},"lat":{"max":41.671488,"mean":41.6605566666667,"variance":4.7381652666644e-05,"stdev":0.00688343320347078,"min":41.650837,"median":41.661316}},"features":[{"properties":{"name":"Benton Street Bridge","city":"Iowa City","status":"open","lon":-91.538095,"id":"a6655emsunpc","lat":41.650837,"state":"IA"},"type":"Feature","geometry":{"type":"Point","coordinates":[-91.538095,41.650837]}},{"properties":{"name":"Burlington Street Bridge (span 1)","city":"Iowa City","status":"open","lon":-91.540989,"id":"a6655et5thaz","lat":41.657931,"state":"IA"},"type":"Feature","geometry":{"type":"Point","coordinates":[-91.540989,41.657931]}},{"properties":{"name":"Burlington Street Bridge (span 2)","city":"Iowa City","status":"open","lon":-91.540983,"id":"a6655etj0tea","lat":41.658122,"state":"IA"},"type":"Feature","geometry":{"type":"Point","coordinates":[-91.540983,41.658122]}},{"properties":{"name":"Iowa Avenue Bridge","city":"Iowa City","status":"closed","lon":-91.541255,"id":"a6655etnjhs0","lat":41.661316,"state":"IA"},"type":"Feature","geometry":{"type":"Point","coordinates":[-91.541255,41.661316]}},{"properties":{"name":"Iowa River Power Dam Pedestrian Bridge","city":"Iowa City","status":"closed","lon":-91.537576,"id":"a6655equkkl5","lat":41.663646,"state":"IA"},"type":"Feature","geometry":{"type":"Point","coordinates":[-91.537576,41.663646]}},{"properties":{"name":"Park Road Bridge","city":"Iowa City","status":"closed","lon":-91.533659,"id":"a6655erzh8v1","lat":41.671488,"state":"IA"},"type":"Feature","geometry":{"type":"Point","coordinates":[-91.533659,41.671488]}}],"is_temporal":false,"author":{"url":"http://www.icgov.org/default/fs/?id=1877","metadata":"","contact_name":"","contact_address":"","source":"Iowa City Flood Recovery Resource Center, icgov.org","contact_phone":""},"source":"http://www.icgov.org/default/fs/?id=1877","pagination":{"sort":null,"start":0,"total":6,"limit":1000000},"state":"complete","tags":"bridges,flooding,floods,iowa","published":"2008-06-23T12:00:00Z","id":2222}