{"type":"FeatureCollection","data_type":"Dataset","url_type":null,"permissions":[{"permissions":{"download":true,"view":true},"group_id":"everyone"}],"classification":null,"title":"Locations of Top 100 College Football Recruits 2012","count":100,"stream_id":223175,"contributor":{"url":"http://geocommons.com/users/43088","name":"tislerde"},"data_attributes":null,"calculation_params":null,"icon_link":null,"link":"http://geocommons.com/overlays/223175.json","extent":[-123.618,25.7743,-73.9912,48.152],"geometry_types":["point"],"unique_name":null,"name":"Locations of Top 100 College Football Recruits 2012","feature_count":100,"description":"","next_feature":null,"is_raster":false,"short_classification":"Y","stats":{},"features":[{"properties":{"city":"Springfield","geo_score":0.792,"id":"a632euzq4skh","geo_precision":"city","state":"MO"},"type":"Feature","geometry":{"type":"Point","coordinates":[-91.237925,38.295605]}},{"properties":{"city":"Charlotte","geo_score":0.857,"id":"a632ev1ijmo8","geo_precision":"city","state":"NC"},"type":"Feature","geometry":{"type":"Point","coordinates":[-80.843127,35.227087]}},{"properties":{"city":"Denton","geo_score":0.857,"id":"a632euytfxhd","geo_precision":"city","state":"TX"},"type":"Feature","geometry":{"type":"Point","coordinates":[-99.539522,32.258742]}},{"properties":{"city":"Sacramento","geo_score":0.857,"id":"a632ev24clba","geo_precision":"city","state":"CA"},"type":"Feature","geometry":{"type":"Point","coordinates":[-121.4944,38.581572]}},{"properties":{"city":"Aledo","geo_score":0.8,"id":"a632euvld2e5","geo_precision":"city","state":"TX"},"type":"Feature","geometry":{"type":"Point","coordinates":[-95.142971,31.806668]}},{"properties":{"city":"Shelby","geo_score":0.857,"id":"a632ev13u1mg","geo_precision":"city","state":"NC"},"type":"Feature","geometry":{"type":"Point","coordinates":[-81.556777,35.312012]}},{"properties":{"city":"Washington","geo_score":0.857,"id":"a632ev36au3d","geo_precision":"city","state":"DC"},"type":"Feature","geometry":{"type":"Point","coordinates":[-77.036366,38.895112]}},{"properties":{"city":"Olney","geo_score":0.857,"id":"a632euyw7mfo","geo_precision":"city","state":"MD"},"type":"Feature","geometry":{"type":"Point","coordinates":[-77.066745,39.15522]}},{"properties":{"city":"Harrisburg","geo_score":0.857,"id":"a632ev0gl5ob","geo_precision":"city","state":"PA"},"type":"Feature","geometry":{"type":"Point","coordinates":[-76.884418,40.2737]}},{"properties":{"city":"Hueytown","geo_score":0.786,"id":"a632eutt1mei","geo_precision":"city","state":"AL"},"type":"Feature","geometry":{"type":"Point","coordinates":[-87.340279,33.259005]}},{"properties":{"city":"Ramsey","geo_score":0.857,"id":"a632eur3eun3","geo_precision":"city","state":"NJ"},"type":"Feature","geometry":{"type":"Point","coordinates":[-74.133441,41.059124]}},{"properties":{"city":"Daphne","geo_score":0.857,"id":"a632euqd7fux","geo_precision":"city","state":"AL"},"type":"Feature","geometry":{"type":"Point","coordinates":[-87.6912,30.540328]}},{"properties":{"city":"Miramar","geo_score":0.857,"id":"a632eutgvyey","geo_precision":"city","state":"FL"},"type":"Feature","geometry":{"type":"Point","coordinates":[-80.232271,25.987314]}},{"properties":{"city":"Kansas City","geo_score":0.857,"id":"a632ev0nvkl9","geo_precision":"city","state":"MO"},"type":"Feature","geometry":{"type":"Point","coordinates":[-94.598583,39.102404]}},{"properties":{"city":"Spring","geo_score":0.857,"id":"a632ev209bov","geo_precision":"city","state":"TX"},"type":"Feature","geometry":{"type":"Point","coordinates":[-95.41716,30.079941]}},{"properties":{"city":"Lakewood","geo_score":0.857,"id":"a632euzj4q8f","geo_precision":"city","state":"WA"},"type":"Feature","geometry":{"type":"Point","coordinates":[-122.207366,48.152043]}},{"properties":{"city":"Geismar","geo_score":0.857,"id":"a632euv6exa6","geo_precision":"city","state":"LA"},"type":"Feature","geometry":{"type":"Point","coordinates":[-90.992636,30.205118]}},{"properties":{"city":"Tampa","geo_score":0.857,"id":"a632euu361m9","geo_precision":"city","state":"FL"},"type":"Feature","geometry":{"type":"Point","coordinates":[-82.458428,27.947522]}},{"properties":{"city":"San Clemente","geo_score":0.805,"id":"a632euuewaxj","geo_precision":"city","state":"CA"},"type":"Feature","geometry":{"type":"Point","coordinates":[-121.044252,38.211127]}},{"properties":{"city":"Columbus","geo_score":0.786,"id":"a632eurc8kjd","geo_precision":"city","state":"IN"},"type":"Feature","geometry":{"type":"Point","coordinates":[-85.50042,41.14956]}},{"properties":{"city":"Monrovia","geo_score":0.857,"id":"a632eunwufm5","geo_precision":"city","state":"CA"},"type":"Feature","geometry":{"type":"Point","coordinates":[-118.298662,33.786594]}},{"properties":{"city":"Lakewood","geo_score":0.857,"id":"a632ev0me1ef","geo_precision":"city","state":"OH"},"type":"Feature","geometry":{"type":"Point","coordinates":[-81.637249,41.514849]}},{"properties":{"city":"Jacksonville","geo_score":0.857,"id":"a632ev4362nq","geo_precision":"city","state":"FL"},"type":"Feature","geometry":{"type":"Point","coordinates":[-81.655651,30.332184]}},{"properties":{"city":"Panama City","geo_score":0.857,"id":"a632ev1zmwyj","geo_precision":"city","state":"FL"},"type":"Feature","geometry":{"type":"Point","coordinates":[-85.660206,30.158813]}},{"properties":{"city":"Cincinnati","geo_score":0.857,"id":"a632eur3z5tj","geo_precision":"city","state":"OH"},"type":"Feature","geometry":{"type":"Point","coordinates":[-84.456886,39.162004]}},{"properties":{"city":"Brenham","geo_score":0.857,"id":"a632euxjsbww","geo_precision":"city","state":"TX"},"type":"Feature","geometry":{"type":"Point","coordinates":[-96.385104,30.216516]}},{"properties":{"city":"Atwater","geo_score":0.857,"id":"a632euwpljt5","geo_precision":"city","state":"CA"},"type":"Feature","geometry":{"type":"Point","coordinates":[-120.647347,37.317255]}},{"properties":{"city":"Saint Petersburg","geo_score":0.857,"id":"a632euzt9eng","geo_precision":"city","state":"FL"},"type":"Feature","geometry":{"type":"Point","coordinates":[-82.679266,27.770861]}},{"properties":{"city":"Encino","geo_score":0.857,"id":"a632eutbg0fn","geo_precision":"city","state":"CA"},"type":"Feature","geometry":{"type":"Point","coordinates":[-118.298662,33.786594]}},{"properties":{"city":"Miami","geo_score":0.857,"id":"a632eusbal5w","geo_precision":"city","state":"FL"},"type":"Feature","geometry":{"type":"Point","coordinates":[-80.193659,25.774266]}},{"properties":{"city":"Valdosta","geo_score":0.857,"id":"a632euzq8hxs","geo_precision":"city","state":"GA"},"type":"Feature","geometry":{"type":"Point","coordinates":[-83.332068,30.753904]}},{"properties":{"city":"Tempe","geo_score":0.857,"id":"a632euqe2145","geo_precision":"city","state":"AZ"},"type":"Feature","geometry":{"type":"Point","coordinates":[-111.90931,33.414768]}},{"properties":{"city":"Puyallup","geo_score":0.857,"id":"a632ev1tuhsl","geo_precision":"city","state":"WA"},"type":"Feature","geometry":{"type":"Point","coordinates":[-122.317148,47.212822]}},{"properties":{"city":"Dallas","geo_score":0.857,"id":"a632euzrkpxh","geo_precision":"city","state":"TX"},"type":"Feature","geometry":{"type":"Point","coordinates":[-96.806667,32.783056]}},{"properties":{"city":"Denver","geo_score":0.857,"id":"a632eutb6bku","geo_precision":"city","state":"CO"},"type":"Feature","geometry":{"type":"Point","coordinates":[-104.984703,39.739154]}},{"properties":{"city":"Mobile","geo_score":0.857,"id":"a632euo7d6gh","geo_precision":"city","state":"AL"},"type":"Feature","geometry":{"type":"Point","coordinates":[-88.043054,30.694357]}},{"properties":{"city":"Old Tappan","geo_score":0.857,"id":"a632ev253svx","geo_precision":"city","state":"NJ"},"type":"Feature","geometry":{"type":"Point","coordinates":[-73.991249,41.010653]}},{"properties":{"city":"Cape Coral","geo_score":0.73,"id":"a632euos94np","geo_precision":"city","state":"FL"},"type":"Feature","geometry":{"type":"Point","coordinates":[-82.742879,28.053073]}},{"properties":{"city":"Athens","geo_score":0.857,"id":"a632euua01d8","geo_precision":"city","state":"TX"},"type":"Feature","geometry":{"type":"Point","coordinates":[-95.834688,32.205221]}},{"properties":{"city":"Downey","geo_score":0.786,"id":"a632ev2rxkk9","geo_precision":"city","state":"CA"},"type":"Feature","geometry":{"type":"Point","coordinates":[-123.386711,40.944025]}},{"properties":{"city":"Austin","geo_score":0.857,"id":"a632eux7hrc7","geo_precision":"city","state":"TX"},"type":"Feature","geometry":{"type":"Point","coordinates":[-97.743061,30.267153]}},{"properties":{"city":"Tarboro","geo_score":0.857,"id":"a632ev05pi04","geo_precision":"city","state":"NC"},"type":"Feature","geometry":{"type":"Point","coordinates":[-77.581631,35.928437]}},{"properties":{"city":"Madison","geo_score":0.857,"id":"a632ev0xd9vf","geo_precision":"city","state":"AL"},"type":"Feature","geometry":{"type":"Point","coordinates":[-86.226356,32.423748]}},{"properties":{"city":"Danville","geo_score":0.81,"id":"a632eurd4aiw","geo_precision":"city","state":"CA"},"type":"Feature","geometry":{"type":"Point","coordinates":[-119.09066,36.248561]}},{"properties":{"city":"Miami","geo_score":0.857,"id":"a632euqrsctf","geo_precision":"city","state":"FL"},"type":"Feature","geometry":{"type":"Point","coordinates":[-80.193659,25.774266]}},{"properties":{"city":"Santa Margarita","geo_score":0.745,"id":"a632euvp4ui9","geo_precision":"city","state":"CA"},"type":"Feature","geometry":{"type":"Point","coordinates":[-119.045658,36.114674]}},{"properties":{"city":"Stone Mountain","geo_score":0.857,"id":"a632eura6byt","geo_precision":"city","state":"GA"},"type":"Feature","geometry":{"type":"Point","coordinates":[-84.203419,33.786405]}},{"properties":{"city":"Raleigh","geo_score":0.857,"id":"a632ev2o9cl3","geo_precision":"city","state":"NC"},"type":"Feature","geometry":{"type":"Point","coordinates":[-78.638615,35.772096]}},{"properties":{"city":"Fresno","geo_score":0.857,"id":"a632euwuzi86","geo_precision":"city","state":"CA"},"type":"Feature","geometry":{"type":"Point","coordinates":[-119.772366,36.747727]}},{"properties":{"city":"Virginia Beach","geo_score":0.857,"id":"a632euph276t","geo_precision":"city","state":"VA"},"type":"Feature","geometry":{"type":"Point","coordinates":[-76.076408,36.786299]}},{"properties":{"city":"Aberdeen","geo_score":0.857,"id":"a632eupthha0","geo_precision":"city","state":"MS"},"type":"Feature","geometry":{"type":"Point","coordinates":[-88.514694,33.847638]}},{"properties":{"city":"Corvallis","geo_score":0.857,"id":"a632eupr3ifa","geo_precision":"city","state":"OR"},"type":"Feature","geometry":{"type":"Point","coordinates":[-123.262044,44.564566]}},{"properties":{"city":"Daytona Beach","geo_score":0.81,"id":"a632eux43sgg","geo_precision":"city","state":"FL"},"type":"Feature","geometry":{"type":"Point","coordinates":[-80.982832,29.176093]}},{"properties":{"city":"Land O'Lakes","geo_score":0.757,"id":"a632euodp2sz","geo_precision":"city","state":"FL"},"type":"Feature","geometry":{"type":"Point","coordinates":[-81.647582,29.618303]}},{"properties":{"city":"Aliquippa","geo_score":0.857,"id":"a632eup1dzp9","geo_precision":"city","state":"PA"},"type":"Feature","geometry":{"type":"Point","coordinates":[-80.304178,40.675225]}},{"properties":{"city":"Hamilton","geo_score":0.857,"id":"a632eup0inj6","geo_precision":"city","state":"GA"},"type":"Feature","geometry":{"type":"Point","coordinates":[-84.934906,32.746007]}},{"properties":{"city":"Ashburn","geo_score":0.857,"id":"a632ev1cs4jk","geo_precision":"city","state":"VA"},"type":"Feature","geometry":{"type":"Point","coordinates":[-77.645224,39.085309]}},{"properties":{"city":"Jacksonville","geo_score":0.857,"id":"a632euslcabz","geo_precision":"city","state":"FL"},"type":"Feature","geometry":{"type":"Point","coordinates":[-81.655651,30.332184]}},{"properties":{"city":"Eagle","geo_score":0.857,"id":"a632ev44xlt9","geo_precision":"city","state":"ID"},"type":"Feature","geometry":{"type":"Point","coordinates":[-115.917944,47.643537]}},{"properties":{"city":"Tallahassee","geo_score":0.857,"id":"a632euwq9110","geo_precision":"city","state":"FL"},"type":"Feature","geometry":{"type":"Point","coordinates":[-84.280733,30.438256]}},{"properties":{"city":"Elk Grove","geo_score":0.768,"id":"a632ev2keir5","geo_precision":"city","state":"CA"},"type":"Feature","geometry":{"type":"Point","coordinates":[-123.618031,39.076371]}},{"properties":{"city":"Saint Louis","geo_score":0.857,"id":"a632euxhlxpa","geo_precision":"city","state":"MO"},"type":"Feature","geometry":{"type":"Point","coordinates":[-90.197889,38.627273]}},{"properties":{"city":"Stone Mountain","geo_score":0.857,"id":"a632ev1w0jkm","geo_precision":"city","state":"GA"},"type":"Feature","geometry":{"type":"Point","coordinates":[-84.203419,33.786405]}},{"properties":{"city":"Glen Ellyn","geo_score":0.762,"id":"a632eur37z02","geo_precision":"city","state":"IL"},"type":"Feature","geometry":{"type":"Point","coordinates":[-88.271174,41.294199]}},{"properties":{"city":"San Antonio","geo_score":0.857,"id":"a632euvz83lm","geo_precision":"city","state":"TX"},"type":"Feature","geometry":{"type":"Point","coordinates":[-98.493628,29.424122]}},{"properties":{"city":"Lexington","geo_score":0.857,"id":"a632eux5nar6","geo_precision":"city","state":"SC"},"type":"Feature","geometry":{"type":"Point","coordinates":[-81.248345,33.925183]}},{"properties":{"city":"Pearland","geo_score":0.798,"id":"a632euo5rqyh","geo_precision":"city","state":"TX"},"type":"Feature","geometry":{"type":"Point","coordinates":[-95.489389,28.979971]}},{"properties":{"city":"Oxon Hill","geo_score":0.778,"id":"a632euuyl65k","geo_precision":"city","state":"MD"},"type":"Feature","geometry":{"type":"Point","coordinates":[-76.974994,38.796146]}},{"properties":{"city":"Mesquite","geo_score":0.857,"id":"a632eutcoi4p","geo_precision":"city","state":"TX"},"type":"Feature","geometry":{"type":"Point","coordinates":[-96.599159,32.766796]}},{"properties":{"city":"Melbourne","geo_score":0.857,"id":"a632euqd7du1","geo_precision":"city","state":"FL"},"type":"Feature","geometry":{"type":"Point","coordinates":[-80.608109,28.083627]}},{"properties":{"city":"Scottsdale","geo_score":0.857,"id":"a632eupe79yx","geo_precision":"city","state":"AZ"},"type":"Feature","geometry":{"type":"Point","coordinates":[-111.899033,33.50921]}},{"properties":{"city":"Millen","geo_score":0.786,"id":"a632euo9leuo","geo_precision":"city","state":"GA"},"type":"Feature","geometry":{"type":"Point","coordinates":[-84.436925,33.022288]}},{"properties":{"city":"Wisconsin Rapids","geo_score":0.798,"id":"a632euqyg84k","geo_precision":"city","state":"WI"},"type":"Feature","geometry":{"type":"Point","coordinates":[-88.911228,45.656073]}},{"properties":{"city":"Palm Beach Gardens","geo_score":0.741,"id":"a632eusu6l31","geo_precision":"city","state":"FL"},"type":"Feature","geometry":{"type":"Point","coordinates":[-81.698988,30.440794]}},{"properties":{"city":"Charlotte","geo_score":0.857,"id":"a632eut4bv9u","geo_precision":"city","state":"NC"},"type":"Feature","geometry":{"type":"Point","coordinates":[-80.843127,35.227087]}},{"properties":{"city":"Fresno","geo_score":0.857,"id":"a632euwc693y","geo_precision":"city","state":"CA"},"type":"Feature","geometry":{"type":"Point","coordinates":[-119.772366,36.747727]}},{"properties":{"city":"Leesburg","geo_score":0.857,"id":"a632eus45kvw","geo_precision":"city","state":"FL"},"type":"Feature","geometry":{"type":"Point","coordinates":[-81.877858,28.810823]}},{"properties":{"city":"Carlsbad","geo_score":0.857,"id":"a632eux03x7y","geo_precision":"city","state":"CA"},"type":"Feature","geometry":{"type":"Point","coordinates":[-116.846046,33.016928]}},{"properties":{"city":"Baltimore","geo_score":0.857,"id":"a632euv4fkvw","geo_precision":"city","state":"MD"},"type":"Feature","geometry":{"type":"Point","coordinates":[-76.612189,39.290385]}},{"properties":{"city":"Bradenton","geo_score":0.857,"id":"a632euqpz6ix","geo_precision":"city","state":"FL"},"type":"Feature","geometry":{"type":"Point","coordinates":[-82.574819,27.498928]}},{"properties":{"city":"Bellflower","geo_score":0.857,"id":"a632ev1qg10y","geo_precision":"city","state":"CA"},"type":"Feature","geometry":{"type":"Point","coordinates":[-118.12965,33.888014]}},{"properties":{"city":"Pasadena","geo_score":0.857,"id":"a632ev1rp8el","geo_precision":"city","state":"CA"},"type":"Feature","geometry":{"type":"Point","coordinates":[-118.144516,34.147785]}},{"properties":{"city":"Miami","geo_score":0.857,"id":"a632ev0ccis0","geo_precision":"city","state":"FL"},"type":"Feature","geometry":{"type":"Point","coordinates":[-80.193659,25.774266]}},{"properties":{"city":"Midlothian","geo_score":0.857,"id":"a632euv5nx33","geo_precision":"city","state":"VA"},"type":"Feature","geometry":{"type":"Point","coordinates":[-77.66258,37.454138]}},{"properties":{"city":"Ramsey","geo_score":0.857,"id":"a632eupcwu6v","geo_precision":"city","state":"NJ"},"type":"Feature","geometry":{"type":"Point","coordinates":[-74.133441,41.059124]}},{"properties":{"city":"Dallas","geo_score":0.857,"id":"a632euyvvkkg","geo_precision":"city","state":"TX"},"type":"Feature","geometry":{"type":"Point","coordinates":[-96.806667,32.783056]}},{"properties":{"city":"Los Angeles","geo_score":0.857,"id":"a632euvr4jqx","geo_precision":"city","state":"CA"},"type":"Feature","geometry":{"type":"Point","coordinates":[-118.243685,34.052234]}},{"properties":{"city":"Atlanta","geo_score":0.857,"id":"a632eupf68of","geo_precision":"city","state":"GA"},"type":"Feature","geometry":{"type":"Point","coordinates":[-84.387982,33.748995]}},{"properties":{"city":"Charlotte","geo_score":0.857,"id":"a632ev39flss","geo_precision":"city","state":"NC"},"type":"Feature","geometry":{"type":"Point","coordinates":[-80.843127,35.227087]}},{"properties":{"city":"Tyrone","geo_score":0.857,"id":"a632euyedais","geo_precision":"city","state":"GA"},"type":"Feature","geometry":{"type":"Point","coordinates":[-82.861256,33.672351]}},{"properties":{"city":"Norfolk","geo_score":0.857,"id":"a632euzpfcnw","geo_precision":"city","state":"VA"},"type":"Feature","geometry":{"type":"Point","coordinates":[-76.285218,36.846815]}},{"properties":{"city":"Tampa","geo_score":0.857,"id":"a632euputfjf","geo_precision":"city","state":"FL"},"type":"Feature","geometry":{"type":"Point","coordinates":[-82.458428,27.947522]}},{"properties":{"city":"Westlake Village","geo_score":0.857,"id":"a632eutcaw2m","geo_precision":"city","state":"CA"},"type":"Feature","geometry":{"type":"Point","coordinates":[-118.805647,34.145839]}},{"properties":{"city":"Stone Mountain","geo_score":0.857,"id":"a632euw5iid4","geo_precision":"city","state":"GA"},"type":"Feature","geometry":{"type":"Point","coordinates":[-84.203419,33.786405]}},{"properties":{"city":"Canton","geo_score":0.857,"id":"a632euuht66b","geo_precision":"city","state":"OH"},"type":"Feature","geometry":{"type":"Point","coordinates":[-81.378447,40.798947]}},{"properties":{"city":"DeSoto","geo_score":0.857,"id":"a632ev372mzh","geo_precision":"city","state":"TX"},"type":"Feature","geometry":{"type":"Point","coordinates":[-96.822778,32.620585]}},{"properties":{"city":"Portland","geo_score":0.857,"id":"a632ev41sw75","geo_precision":"city","state":"OR"},"type":"Feature","geometry":{"type":"Point","coordinates":[-122.676207,45.523452]}},{"properties":{"city":"Daphne","geo_score":0.857,"id":"a632euyhdbzs","geo_precision":"city","state":"AL"},"type":"Feature","geometry":{"type":"Point","coordinates":[-87.6912,30.540328]}},{"properties":{"city":"Centerville","geo_score":0.835,"id":"a632ev0nlhlc","geo_precision":"city","state":"OH"},"type":"Feature","geometry":{"type":"Point","coordinates":[-82.807676,40.165341]}},{"properties":{"city":"Boyertown","geo_score":0.857,"id":"a632euz35dca","geo_precision":"city","state":"PA"},"type":"Feature","geometry":{"type":"Point","coordinates":[-75.870971,40.364068]}}],"is_temporal":false,"author":{"url":"http://rivals.yahoo.com/footballrecruiting/football/recruiting/rankings/rank-rivals100/2012","metadata":"","contact_name":"","contact_address":"","source":"Rivals.com","contact_phone":""},"source":"http://rivals.yahoo.com/footballrecruiting/football/recruiting/rankings/rank-rivals100/2012","pagination":{"sort":null,"start":0,"total":100,"limit":1000000},"state":"complete","tags":"100,2012,college,football,locations,recruits,top","published":"2014-08-14T19:03:12-04:00","id":223175}