{"type":"FeatureCollection","data_type":"Dataset","url_type":null,"permissions":[{"permissions":{"download":true,"view":true},"group_id":"everyone"}],"classification":null,"title":"Dec2010 gun","count":66,"stream_id":223219,"contributor":{"url":"http://geocommons.com/users/35381","name":"jherndon"},"data_attributes":null,"calculation_params":null,"icon_link":null,"link":"http://geocommons.com/overlays/223219.json","extent":[-78.9788,35.8976,-78.8206,36.0579],"geometry_types":["point"],"unique_name":null,"name":"Dec2010 gun","feature_count":66,"description":"test of geocommons run through","next_feature":null,"is_raster":false,"short_classification":"Y","stats":{"date":{"max":"2010/12/31 00:00:00 -0500","mean":"2010/12/16 00:21:49 -0500","variance":648760706685.314,"stdev":805456.831050128,"min":"2010/12/01 00:00:00 -0500","median":"2010/12/16 00:00:00 -0500"},"id_no":{"max":10040963,"mean":10039451.7575758,"variance":887302.832634033,"stdev":941.967532685725,"min":10037873,"median":10039530}},"features":[{"properties":{"city":"Durham","category":"Robbery","date":{"end_time":"2010/12/02 00:00:00 -0500","original":"Dec 1 2010","granularity":"day","time":"2010/12/01 00:00:00 -0500"},"geo_score":0.805,"type":"Robbery","id_no":10037873,"id":"a6479j6odkrl","geo_precision":"range","state":"NC","location":"1815 FRONT ST"},"type":"Feature","geometry":{"type":"Point","coordinates":[-78.938198,36.031368]}},{"properties":{"city":"Durham","category":"Robbery","date":{"end_time":"2010/12/02 00:00:00 -0500","original":"Dec 1 2010","granularity":"day","time":"2010/12/01 00:00:00 -0500"},"geo_score":0.805,"type":"Robbery","id_no":10037880,"id":"a6479j4hqxub","geo_precision":"range","state":"NC","location":"2000 AVONDALE DR"},"type":"Feature","geometry":{"type":"Point","coordinates":[-78.88816,36.015111]}},{"properties":{"city":"Durham","category":"Robbery","date":{"end_time":"2010/12/02 00:00:00 -0500","original":"Dec 1 2010","granularity":"day","time":"2010/12/01 00:00:00 -0500"},"geo_score":0.714,"type":"Robbery","id_no":10037876,"id":"a6479j8ks1t8","geo_precision":"street","state":"NC","location":"1299 ROSEWOOD ST/E LAWSON ST"},"type":"Feature","geometry":{"type":"Point","coordinates":[-78.891508,35.976805]}},{"properties":{"city":"Durham","category":"Aggravated Assault","date":{"end_time":"2010/12/02 00:00:00 -0500","original":"Dec 1 2010","granularity":"day","time":"2010/12/01 00:00:00 -0500"},"geo_score":0.805,"type":"Assault Offenses","id_no":10037902,"id":"a6479j5tz3dk","geo_precision":"range","state":"NC","location":"702 CARPENTER FLETCHER RD"},"type":"Feature","geometry":{"type":"Point","coordinates":[-78.909143,35.922592]}},{"properties":{"city":"Durham","category":"Robbery","date":{"end_time":"2010/12/02 00:00:00 -0500","original":"Dec 1 2010","granularity":"day","time":"2010/12/01 00:00:00 -0500"},"geo_score":0.805,"type":"Robbery","id_no":10037901,"id":"a6479j5f4sfo","geo_precision":"range","state":"NC","location":"2920 CHAPEL HILL RD"},"type":"Feature","geometry":{"type":"Point","coordinates":[-78.938816,35.970291]}},{"properties":{"city":"Durham","category":"Aggravated Assault","date":{"end_time":"2010/12/03 00:00:00 -0500","original":"Dec 2 2010","granularity":"day","time":"2010/12/02 00:00:00 -0500"},"geo_score":0.805,"type":"Assault Offenses","id_no":10038014,"id":"a6479j7wjsg0","geo_precision":"range","state":"NC","location":"1803 MOREHEAD AVE"},"type":"Feature","geometry":{"type":"Point","coordinates":[-78.925007,35.992234]}},{"properties":{"city":"Durham","category":"Robbery","date":{"end_time":"2010/12/03 00:00:00 -0500","original":"Dec 2 2010","granularity":"day","time":"2010/12/02 00:00:00 -0500"},"geo_score":0.582,"type":"Robbery","id_no":10038012,"id":"a6479j4avvza","geo_precision":"street","state":"NC","location":"3615 N ROXBORO ST"},"type":"Feature","geometry":{"type":"Point","coordinates":[-78.922651,35.950396]}},{"properties":{"city":"Durham","category":"Robbery","date":{"end_time":"2010/12/04 00:00:00 -0500","original":"Dec 3 2010","granularity":"day","time":"2010/12/03 00:00:00 -0500"},"geo_score":0.805,"type":"Robbery","id_no":10038086,"id":"a6479ixvzve7","geo_precision":"range","state":"NC","location":"1502 LAKELAND ST"},"type":"Feature","geometry":{"type":"Point","coordinates":[-78.89147,35.971947]}},{"properties":{"city":"Durham","category":"Robbery","date":{"end_time":"2010/12/06 00:00:00 -0500","original":"Dec 5 2010","granularity":"day","time":"2010/12/05 00:00:00 -0500"},"geo_score":0.805,"type":"Robbery","id_no":10038314,"id":"a6479jb2ellx","geo_precision":"range","state":"NC","location":"2816 ROSS RD"},"type":"Feature","geometry":{"type":"Point","coordinates":[-78.847058,35.992459]}},{"properties":{"city":"Durham","category":"Robbery","date":{"end_time":"2010/12/06 00:00:00 -0500","original":"Dec 5 2010","granularity":"day","time":"2010/12/05 00:00:00 -0500"},"geo_score":0.714,"type":"Robbery","id_no":10038321,"id":"a6479j2qb8ka","geo_precision":"street","state":"NC","location":"599 N GREGSON ST/W TRINITY AVE"},"type":"Feature","geometry":{"type":"Point","coordinates":[-78.909258,36.000031]}},{"properties":{"city":"Durham","category":"Robbery","date":{"end_time":"2010/12/07 00:00:00 -0500","original":"Dec 6 2010","granularity":"day","time":"2010/12/06 00:00:00 -0500"},"geo_score":0.805,"type":"Robbery","id_no":10038445,"id":"a6479j5gmbgv","geo_precision":"range","state":"NC","location":"301 W TRINITY AVE"},"type":"Feature","geometry":{"type":"Point","coordinates":[-78.898105,36.005476]}},{"properties":{"city":"Durham","category":"Robbery","date":{"end_time":"2010/12/07 00:00:00 -0500","original":"Dec 6 2010","granularity":"day","time":"2010/12/06 00:00:00 -0500"},"geo_score":0.805,"type":"Robbery","id_no":10038446,"id":"a6479j6thejm","geo_precision":"range","state":"NC","location":"600 HORTON RD"},"type":"Feature","geometry":{"type":"Point","coordinates":[-78.905386,36.051158]}},{"properties":{"city":"Durham","category":"Robbery","date":{"end_time":"2010/12/08 00:00:00 -0500","original":"Dec 7 2010","granularity":"day","time":"2010/12/07 00:00:00 -0500"},"geo_score":0.805,"type":"Robbery","id_no":10038542,"id":"a6479jbnbskd","geo_precision":"range","state":"NC","location":"401 E LAKEWOOD AVE"},"type":"Feature","geometry":{"type":"Point","coordinates":[-78.899689,35.986689]}},{"properties":{"city":"Durham","category":"Robbery","date":{"end_time":"2010/12/08 00:00:00 -0500","original":"Dec 7 2010","granularity":"day","time":"2010/12/07 00:00:00 -0500"},"geo_score":0.805,"type":"Robbery","id_no":10038553,"id":"a6479iwjp1m8","geo_precision":"range","state":"NC","location":"115 HONEYSUCKLE LN"},"type":"Feature","geometry":{"type":"Point","coordinates":[-78.820565,35.924288]}},{"properties":{"city":"Durham","category":"Robbery","date":{"end_time":"2010/12/09 00:00:00 -0500","original":"Dec 8 2010","granularity":"day","time":"2010/12/08 00:00:00 -0500"},"geo_score":0.776,"type":"Robbery","id_no":10038588,"id":"a6479j710wr5","geo_precision":"range","state":"NC","location":"3500 N ROXBORO RD"},"type":"Feature","geometry":{"type":"Point","coordinates":[-78.893573,36.035731]}},{"properties":{"city":"Durham","category":"Robbery","date":{"end_time":"2010/12/10 00:00:00 -0500","original":"Dec 9 2010","granularity":"day","time":"2010/12/09 00:00:00 -0500"},"geo_score":0.6,"type":"Robbery","id_no":10038676,"id":"a6479j9egepk","geo_precision":"range","state":"NC","location":"4435 NC 55 HWY"},"type":"Feature","geometry":{"type":"Point","coordinates":[-78.8938,35.90812]}},{"properties":{"city":"Durham","category":"Robbery","date":{"end_time":"2010/12/10 00:00:00 -0500","original":"Dec 9 2010","granularity":"day","time":"2010/12/09 00:00:00 -0500"},"geo_score":0.61,"type":"Robbery","id_no":10038718,"id":"a6479j4kfgoc","geo_precision":"street","state":"NC","location":"608 HARDEE ST"},"type":"Feature","geometry":{"type":"Point","coordinates":[-78.865776,35.991929]}},{"properties":{"city":"Durham","category":"Robbery","date":{"end_time":"2010/12/10 00:00:00 -0500","original":"Dec 9 2010","granularity":"day","time":"2010/12/09 00:00:00 -0500"},"geo_score":0.805,"type":"Robbery","id_no":10038795,"id":"a6479ja1a3wq","geo_precision":"range","state":"NC","location":"2500 ERWIN RD"},"type":"Feature","geometry":{"type":"Point","coordinates":[-78.942641,36.008818]}},{"properties":{"city":"Durham","category":"Robbery","date":{"end_time":"2010/12/10 00:00:00 -0500","original":"Dec 9 2010","granularity":"day","time":"2010/12/09 00:00:00 -0500"},"geo_score":0.805,"type":"Robbery","id_no":10038799,"id":"a6479j2spuu2","geo_precision":"range","state":"NC","location":"2685 DURHAM CHAPEL HILL BLVD"},"type":"Feature","geometry":{"type":"Point","coordinates":[-78.930945,35.974095]}},{"properties":{"city":"Durham","category":"Robbery","date":{"end_time":"2010/12/10 00:00:00 -0500","original":"Dec 9 2010","granularity":"day","time":"2010/12/09 00:00:00 -0500"},"geo_score":0.714,"type":"Robbery","id_no":10038800,"id":"a6479j7tnh7g","geo_precision":"street","state":"NC","location":"1199 MONMOUTH AVE/N BUCHANAN BLVD"},"type":"Feature","geometry":{"type":"Point","coordinates":[-78.898712,36.006589]}},{"properties":{"city":"Durham","category":"Robbery","date":{"end_time":"2010/12/12 00:00:00 -0500","original":"Dec 11 2010","granularity":"day","time":"2010/12/11 00:00:00 -0500"},"geo_score":0.805,"type":"Robbery","id_no":10038912,"id":"a6479j4lz2hh","geo_precision":"range","state":"NC","location":"4835 HOPE VALLEY RD"},"type":"Feature","geometry":{"type":"Point","coordinates":[-78.959807,35.920138]}},{"properties":{"city":"Durham","category":"Robbery","date":{"end_time":"2010/12/12 00:00:00 -0500","original":"Dec 11 2010","granularity":"day","time":"2010/12/11 00:00:00 -0500"},"geo_score":0.805,"type":"Robbery","id_no":10038915,"id":"a6479ja8epr9","geo_precision":"range","state":"NC","location":"2836 CHAPEL HILL RD"},"type":"Feature","geometry":{"type":"Point","coordinates":[-78.937226,35.972984]}},{"properties":{"city":"Durham","category":"Aggravated Assault","date":{"end_time":"2010/12/12 00:00:00 -0500","original":"Dec 11 2010","granularity":"day","time":"2010/12/11 00:00:00 -0500"},"geo_score":0.385,"type":"Assault Offenses","id_no":10038943,"id":"a6479izmq1vf","geo_precision":"street","state":"NC","location":"199 W ENTERPRISE ST/SOUTH ST"},"type":"Feature","geometry":{"type":"Point","coordinates":[-78.902904,35.9836]}},{"properties":{"city":"Durham","category":"Robbery","date":{"end_time":"2010/12/12 00:00:00 -0500","original":"Dec 11 2010","granularity":"day","time":"2010/12/11 00:00:00 -0500"},"geo_score":0.805,"type":"Robbery","id_no":10039012,"id":"a6479j2mtqr5","geo_precision":"range","state":"NC","location":"3908 TOWNSEND ST"},"type":"Feature","geometry":{"type":"Point","coordinates":[-78.918366,36.053714]}},{"properties":{"city":"Durham","category":"Aggravated Assault","date":{"end_time":"2010/12/13 00:00:00 -0500","original":"Dec 12 2010","granularity":"day","time":"2010/12/12 00:00:00 -0500"},"geo_score":0.805,"type":"Assault Offenses","id_no":10039021,"id":"a6479iw3wmde","geo_precision":"range","state":"NC","location":"2627 HILLSBOROUGH RD"},"type":"Feature","geometry":{"type":"Point","coordinates":[-78.929134,36.01095]}},{"properties":{"city":"Durham","category":"Robbery","date":{"end_time":"2010/12/13 00:00:00 -0500","original":"Dec 12 2010","granularity":"day","time":"2010/12/12 00:00:00 -0500"},"geo_score":0.805,"type":"Robbery","id_no":10039043,"id":"a6479j8srf34","geo_precision":"range","state":"NC","location":"1517 GLENN SCHOOL RD"},"type":"Feature","geometry":{"type":"Point","coordinates":[-78.840507,36.027201]}},{"properties":{"city":"Durham","category":"Theft From Motor Vehicle","date":{"end_time":"2010/12/14 00:00:00 -0500","original":"Dec 13 2010","granularity":"day","time":"2010/12/13 00:00:00 -0500"},"geo_score":0.805,"type":"Larceny/Theft Offenses","id_no":10039159,"id":"a6479j1vxbin","geo_precision":"range","state":"NC","location":"1220 RED ASH CIR"},"type":"Feature","geometry":{"type":"Point","coordinates":[-78.920154,36.057873]}},{"properties":{"city":"Durham","category":"Robbery","date":{"end_time":"2010/12/14 00:00:00 -0500","original":"Dec 13 2010","granularity":"day","time":"2010/12/13 00:00:00 -0500"},"geo_score":0.805,"type":"Robbery","id_no":10039194,"id":"a6479jbhg06v","geo_precision":"range","state":"NC","location":"213 N BRIGGS AVE"},"type":"Feature","geometry":{"type":"Point","coordinates":[-78.874947,35.986993]}},{"properties":{"city":"Durham","category":"Robbery","date":{"end_time":"2010/12/14 00:00:00 -0500","original":"Dec 13 2010","granularity":"day","time":"2010/12/13 00:00:00 -0500"},"geo_score":0.805,"type":"Robbery","id_no":10039202,"id":"a6479j84gccl","geo_precision":"range","state":"NC","location":"4001 MERIWETHER DR"},"type":"Feature","geometry":{"type":"Point","coordinates":[-78.890155,36.042201]}},{"properties":{"city":"Durham","category":"Robbery","date":{"end_time":"2010/12/16 00:00:00 -0500","original":"Dec 15 2010","granularity":"day","time":"2010/12/15 00:00:00 -0500"},"geo_score":0.805,"type":"Robbery","id_no":10039335,"id":"a6479j326lsu","geo_precision":"range","state":"NC","location":"3600 N DUKE ST"},"type":"Feature","geometry":{"type":"Point","coordinates":[-78.905819,36.049478]}},{"properties":{"city":"Durham","category":"Robbery","date":{"end_time":"2010/12/16 00:00:00 -0500","original":"Dec 15 2010","granularity":"day","time":"2010/12/15 00:00:00 -0500"},"geo_score":0.805,"type":"Robbery","id_no":10039366,"id":"a6479izktzta","geo_precision":"range","state":"NC","location":"2115 AVONDALE DR"},"type":"Feature","geometry":{"type":"Point","coordinates":[-78.888795,36.015993]}},{"properties":{"city":"Durham","category":"Aggravated Assault","date":{"end_time":"2010/12/16 00:00:00 -0500","original":"Dec 15 2010","granularity":"day","time":"2010/12/15 00:00:00 -0500"},"geo_score":0.805,"type":"Assault Offenses","id_no":10039401,"id":"a6479j3d571i","geo_precision":"range","state":"NC","location":"309 WAKE PL"},"type":"Feature","geometry":{"type":"Point","coordinates":[-78.892025,36.001]}},{"properties":{"city":"Durham","category":"Aggravated Assault","date":{"end_time":"2010/12/17 00:00:00 -0500","original":"Dec 16 2010","granularity":"day","time":"2010/12/16 00:00:00 -0500"},"geo_score":0.805,"type":"Assault Offenses","id_no":10039436,"id":"a6479ivrrm96","geo_precision":"range","state":"NC","location":"614 MIDDLE ST"},"type":"Feature","geometry":{"type":"Point","coordinates":[-78.881264,35.977261]}},{"properties":{"city":"Durham","category":"Robbery","date":{"end_time":"2010/12/17 00:00:00 -0500","original":"Dec 16 2010","granularity":"day","time":"2010/12/16 00:00:00 -0500"},"geo_score":0.6,"type":"Robbery","id_no":10039530,"id":"a6479j7j8jda","geo_precision":"range","state":"NC","location":"4706 NC 55 HWY"},"type":"Feature","geometry":{"type":"Point","coordinates":[-78.895568,35.90238]}},{"properties":{"city":"Durham","category":"Robbery","date":{"end_time":"2010/12/17 00:00:00 -0500","original":"Dec 16 2010","granularity":"day","time":"2010/12/16 00:00:00 -0500"},"geo_score":0.805,"type":"Robbery","id_no":10039534,"id":"a6479jalwshe","geo_precision":"range","state":"NC","location":"544 LIBERTY ST"},"type":"Feature","geometry":{"type":"Point","coordinates":[-78.89338,35.992832]}},{"properties":{"city":"Durham","category":"Robbery","date":{"end_time":"2010/12/18 00:00:00 -0500","original":"Dec 17 2010","granularity":"day","time":"2010/12/17 00:00:00 -0500"},"geo_score":0.805,"type":"Robbery","id_no":10039649,"id":"a6479j2nvkxt","geo_precision":"range","state":"NC","location":"2713 OMAH ST"},"type":"Feature","geometry":{"type":"Point","coordinates":[-78.930997,36.031833]}},{"properties":{"city":"Durham","category":"Robbery","date":{"end_time":"2010/12/19 00:00:00 -0500","original":"Dec 18 2010","granularity":"day","time":"2010/12/18 00:00:00 -0500"},"geo_score":0.805,"type":"Robbery","id_no":10039703,"id":"a6479ixt19zj","geo_precision":"range","state":"NC","location":"1002 W CHAPEL HILL ST"},"type":"Feature","geometry":{"type":"Point","coordinates":[-78.915044,35.996844]}},{"properties":{"city":"Durham","category":"Robbery","date":{"end_time":"2010/12/19 00:00:00 -0500","original":"Dec 18 2010","granularity":"day","time":"2010/12/18 00:00:00 -0500"},"geo_score":0.805,"type":"Robbery","id_no":10039714,"id":"a6479ivd3j54","geo_precision":"range","state":"NC","location":"4640 HILLSBOROUGH RD"},"type":"Feature","geometry":{"type":"Point","coordinates":[-78.978847,36.032957]}},{"properties":{"city":"Durham","category":"Robbery","date":{"end_time":"2010/12/19 00:00:00 -0500","original":"Dec 18 2010","granularity":"day","time":"2010/12/18 00:00:00 -0500"},"geo_score":0.805,"type":"Robbery","id_no":10039717,"id":"a6479j2b4bgw","geo_precision":"range","state":"NC","location":"1816 HILLANDALE RD"},"type":"Feature","geometry":{"type":"Point","coordinates":[-78.935843,36.028886]}},{"properties":{"city":"Durham","category":"Aggravated Assault","date":{"end_time":"2010/12/20 00:00:00 -0500","original":"Dec 19 2010","granularity":"day","time":"2010/12/19 00:00:00 -0500"},"geo_score":0.805,"type":"Assault Offenses","id_no":10039737,"id":"a6479j4vzrgy","geo_precision":"range","state":"NC","location":"1302 JACKSON ST"},"type":"Feature","geometry":{"type":"Point","coordinates":[-78.919527,35.995476]}},{"properties":{"city":"Durham","category":"Forcible Rape","date":{"end_time":"2010/12/20 00:00:00 -0500","original":"Dec 19 2010","granularity":"day","time":"2010/12/19 00:00:00 -0500"},"geo_score":0.237,"type":"Forcible Rape","id_no":10039767,"id":"a6479j6hx7n8","geo_precision":"street","state":"NC","location":"0 TRAIL VIEW LN"},"type":"Feature","geometry":{"type":"Point","coordinates":[-78.82728,35.966423]}},{"properties":{"city":"Durham","category":"Robbery","date":{"end_time":"2010/12/20 00:00:00 -0500","original":"Dec 19 2010","granularity":"day","time":"2010/12/19 00:00:00 -0500"},"geo_score":0.805,"type":"Robbery","id_no":10039780,"id":"a6479j7c3g56","geo_precision":"range","state":"NC","location":"511 MARTHA ST"},"type":"Feature","geometry":{"type":"Point","coordinates":[-78.901248,35.970395]}},{"properties":{"city":"Durham","category":"Robbery","date":{"end_time":"2010/12/21 00:00:00 -0500","original":"Dec 20 2010","granularity":"day","time":"2010/12/20 00:00:00 -0500"},"geo_score":0.805,"type":"Robbery","id_no":10039900,"id":"a6479j93ormf","geo_precision":"range","state":"NC","location":"1058 W CLUB BLVD"},"type":"Feature","geometry":{"type":"Point","coordinates":[-78.908861,36.016911]}},{"properties":{"city":"Durham","category":"Robbery","date":{"end_time":"2010/12/21 00:00:00 -0500","original":"Dec 20 2010","granularity":"day","time":"2010/12/20 00:00:00 -0500"},"geo_score":0.763,"type":"Robbery","id_no":10039908,"id":"a6479jacrnzt","geo_precision":"range","state":"NC","location":"3700 FAYETTEVILLE ST"},"type":"Feature","geometry":{"type":"Point","coordinates":[-78.906199,35.953981]}},{"properties":{"city":"Durham","category":"Robbery","date":{"end_time":"2010/12/22 00:00:00 -0500","original":"Dec 21 2010","granularity":"day","time":"2010/12/21 00:00:00 -0500"},"geo_score":0.805,"type":"Robbery","id_no":10039913,"id":"a6479j6nlh23","geo_precision":"range","state":"NC","location":"405 E PILOT ST"},"type":"Feature","geometry":{"type":"Point","coordinates":[-78.909079,35.966489]}},{"properties":{"city":"Durham","category":"Robbery","date":{"end_time":"2010/12/22 00:00:00 -0500","original":"Dec 21 2010","granularity":"day","time":"2010/12/21 00:00:00 -0500"},"geo_score":0.581,"type":"Robbery","id_no":10039982,"id":"a6479j4yni75","geo_precision":"street","state":"NC","location":"3557 N ROXBORO ST"},"type":"Feature","geometry":{"type":"Point","coordinates":[-78.922651,35.950396]}},{"properties":{"city":"Durham","category":"Robbery","date":{"end_time":"2010/12/23 00:00:00 -0500","original":"Dec 22 2010","granularity":"day","time":"2010/12/22 00:00:00 -0500"},"geo_score":0.805,"type":"Robbery","id_no":10040034,"id":"a6479iwcqbj4","geo_precision":"range","state":"NC","location":"3446 HILLSBOROUGH RD"},"type":"Feature","geometry":{"type":"Point","coordinates":[-78.945487,36.018983]}},{"properties":{"city":"Durham","category":"Robbery","date":{"end_time":"2010/12/23 00:00:00 -0500","original":"Dec 22 2010","granularity":"day","time":"2010/12/22 00:00:00 -0500"},"geo_score":0.805,"type":"Robbery","id_no":10040134,"id":"a6479j6rp0i0","geo_precision":"range","state":"NC","location":"1925 CHAPEL HILL RD"},"type":"Feature","geometry":{"type":"Point","coordinates":[-78.925806,35.987778]}},{"properties":{"city":"Durham","category":"Aggravated Assault","date":{"end_time":"2010/12/23 00:00:00 -0500","original":"Dec 22 2010","granularity":"day","time":"2010/12/22 00:00:00 -0500"},"geo_score":0.611,"type":"Assault Offenses","id_no":10040136,"id":"a6479j8kusly","geo_precision":"street","state":"NC","location":"418 HARDEE ST"},"type":"Feature","geometry":{"type":"Point","coordinates":[-78.865776,35.991929]}},{"properties":{"city":"Durham","category":"Robbery","date":{"end_time":"2010/12/24 00:00:00 -0500","original":"Dec 23 2010","granularity":"day","time":"2010/12/23 00:00:00 -0500"},"geo_score":0.805,"type":"Robbery","id_no":10040230,"id":"a6479j29aems","geo_precision":"range","state":"NC","location":"700 S LASALLE ST"},"type":"Feature","geometry":{"type":"Point","coordinates":[-78.948576,36.009584]}},{"properties":{"city":"Durham","category":"Aggravated Assault","date":{"end_time":"2010/12/25 00:00:00 -0500","original":"Dec 24 2010","granularity":"day","time":"2010/12/24 00:00:00 -0500"},"geo_score":0.805,"type":"Assault Offenses","id_no":10040300,"id":"a6479ixbjfk6","geo_precision":"range","state":"NC","location":"5322 FAYETTEVILLE RD"},"type":"Feature","geometry":{"type":"Point","coordinates":[-78.920531,35.928411]}},{"properties":{"city":"Durham","category":"Aggravated Assault","date":{"end_time":"2010/12/26 00:00:00 -0500","original":"Dec 25 2010","granularity":"day","time":"2010/12/25 00:00:00 -0500"},"geo_score":0.805,"type":"Assault Offenses","id_no":10040335,"id":"a6479j8sod1y","geo_precision":"range","state":"NC","location":"901 CHALK LEVEL RD"},"type":"Feature","geometry":{"type":"Point","coordinates":[-78.912579,36.051176]}},{"properties":{"city":"Durham","category":"Aggravated Assault","date":{"end_time":"2010/12/27 00:00:00 -0500","original":"Dec 26 2010","granularity":"day","time":"2010/12/26 00:00:00 -0500"},"geo_score":0.805,"type":"Assault Offenses","id_no":10040395,"id":"a6479iz9plf5","geo_precision":"range","state":"NC","location":"2836 CHAPEL HILL RD"},"type":"Feature","geometry":{"type":"Point","coordinates":[-78.937226,35.972984]}},{"properties":{"city":"Durham","category":"Robbery","date":{"end_time":"2010/12/27 00:00:00 -0500","original":"Dec 26 2010","granularity":"day","time":"2010/12/26 00:00:00 -0500"},"geo_score":0.805,"type":"Robbery","id_no":10040462,"id":"a6479iwn2t9q","geo_precision":"range","state":"NC","location":"2947 CHAPEL HILL RD"},"type":"Feature","geometry":{"type":"Point","coordinates":[-78.939269,35.969585]}},{"properties":{"city":"Durham","category":"Robbery","date":{"end_time":"2010/12/28 00:00:00 -0500","original":"Dec 27 2010","granularity":"day","time":"2010/12/27 00:00:00 -0500"},"geo_score":0.805,"type":"Robbery","id_no":10040545,"id":"a6479j6chls8","geo_precision":"range","state":"NC","location":"1130 E GEER ST"},"type":"Feature","geometry":{"type":"Point","coordinates":[-78.874659,36.004967]}},{"properties":{"city":"Durham","category":"Robbery","date":{"end_time":"2010/12/29 00:00:00 -0500","original":"Dec 28 2010","granularity":"day","time":"2010/12/28 00:00:00 -0500"},"geo_score":0.805,"type":"Robbery","id_no":10040646,"id":"a6479j7ta6nx","geo_precision":"range","state":"NC","location":"2000 AVONDALE DR"},"type":"Feature","geometry":{"type":"Point","coordinates":[-78.88816,36.015111]}},{"properties":{"city":"Durham","category":"Robbery","date":{"end_time":"2010/12/29 00:00:00 -0500","original":"Dec 28 2010","granularity":"day","time":"2010/12/28 00:00:00 -0500"},"geo_score":0.805,"type":"Robbery","id_no":10040645,"id":"a6479ivzye95","geo_precision":"range","state":"NC","location":"403 PRICE AVE"},"type":"Feature","geometry":{"type":"Point","coordinates":[-78.901091,35.979574]}},{"properties":{"city":"Durham","category":"Aggravated Assault","date":{"end_time":"2010/12/30 00:00:00 -0500","original":"Dec 29 2010","granularity":"day","time":"2010/12/29 00:00:00 -0500"},"geo_score":0.805,"type":"Assault Offenses","id_no":10040729,"id":"a6479j1was5r","geo_precision":"range","state":"NC","location":"1505 GUNTER ST"},"type":"Feature","geometry":{"type":"Point","coordinates":[-78.920979,35.988406]}},{"properties":{"city":"Durham","category":"Robbery","date":{"end_time":"2010/12/30 00:00:00 -0500","original":"Dec 29 2010","granularity":"day","time":"2010/12/29 00:00:00 -0500"},"geo_score":0.683,"type":"Robbery","id_no":10040730,"id":"a6479jbd0smz","geo_precision":"range","state":"NC","location":"225 OLD OXFORD RD"},"type":"Feature","geometry":{"type":"Point","coordinates":[-78.89113,36.035304]}},{"properties":{"city":"Durham","category":"Robbery","date":{"end_time":"2010/12/31 00:00:00 -0500","original":"Dec 30 2010","granularity":"day","time":"2010/12/30 00:00:00 -0500"},"geo_score":0.6,"type":"Robbery","id_no":10040839,"id":"a6479j65ivvl","geo_precision":"range","state":"NC","location":"4904 NC 55 HWY"},"type":"Feature","geometry":{"type":"Point","coordinates":[-78.896932,35.897576]}},{"properties":{"city":"Durham","category":"Robbery","date":{"end_time":"2010/12/31 00:00:00 -0500","original":"Dec 30 2010","granularity":"day","time":"2010/12/30 00:00:00 -0500"},"geo_score":0.805,"type":"Robbery","id_no":10040870,"id":"a6479j7gkhu3","geo_precision":"range","state":"NC","location":"2920 CHAPEL HILL RD"},"type":"Feature","geometry":{"type":"Point","coordinates":[-78.938816,35.970291]}},{"properties":{"city":"Durham","category":"Robbery","date":{"end_time":"2011/01/01 00:00:00 -0500","original":"Dec 31 2010","granularity":"day","time":"2010/12/31 00:00:00 -0500"},"geo_score":0.805,"type":"Robbery","id_no":10040874,"id":"a6479j7bih5w","geo_precision":"range","state":"NC","location":"614 E KNOX ST"},"type":"Feature","geometry":{"type":"Point","coordinates":[-78.885568,36.012605]}},{"properties":{"city":"Durham","category":"Robbery","date":{"end_time":"2011/01/01 00:00:00 -0500","original":"Dec 31 2010","granularity":"day","time":"2010/12/31 00:00:00 -0500"},"geo_score":0.805,"type":"Robbery","id_no":10040876,"id":"a6479jb1k9gq","geo_precision":"range","state":"NC","location":"1917 FIDELITY DR"},"type":"Feature","geometry":{"type":"Point","coordinates":[-78.86728,35.993902]}},{"properties":{"city":"Durham","category":"Robbery","date":{"end_time":"2011/01/01 00:00:00 -0500","original":"Dec 31 2010","granularity":"day","time":"2010/12/31 00:00:00 -0500"},"geo_score":0.581,"type":"Robbery","id_no":10040877,"id":"a6479jbackmo","geo_precision":"street","state":"NC","location":"4604 N ROXBORO ST"},"type":"Feature","geometry":{"type":"Point","coordinates":[-78.934396,35.934774]}},{"properties":{"city":"Durham","category":"Robbery","date":{"end_time":"2011/01/01 00:00:00 -0500","original":"Dec 31 2010","granularity":"day","time":"2010/12/31 00:00:00 -0500"},"geo_score":0.714,"type":"Robbery","id_no":10040882,"id":"a6479j3vz8yc","geo_precision":"street","state":"NC","location":"1699 MOREHEAD AVE/CHAPEL HILL RD"},"type":"Feature","geometry":{"type":"Point","coordinates":[-78.900157,35.988676]}},{"properties":{"city":"Durham","category":"Aggravated Assault","date":{"end_time":"2011/01/01 00:00:00 -0500","original":"Dec 31 2010","granularity":"day","time":"2010/12/31 00:00:00 -0500"},"geo_score":0.61,"type":"Assault Offenses","id_no":10040963,"id":"a6479izdz4n1","geo_precision":"street","state":"NC","location":"650 HARDEE ST"},"type":"Feature","geometry":{"type":"Point","coordinates":[-78.865776,35.991929]}}],"is_temporal":true,"author":{"url":"","metadata":"","contact_name":"","contact_address":"","source":"","contact_phone":""},"source":"","pagination":{"sort":null,"start":0,"total":66,"limit":1000000},"state":"complete","tags":"","published":"2012-04-02T17:55:06Z","id":223219}