{"type":"FeatureCollection","data_type":"Dataset","url_type":null,"permissions":[{"permissions":{"download":true,"view":true},"group_id":"everyone"}],"classification":null,"title":"Guy_-_Banks_-_ran_March_30th_STCA_2","count":498,"stream_id":223385,"contributor":{"url":"http://geocommons.com/users/39447","name":"sam.felipe"},"data_attributes":null,"calculation_params":null,"icon_link":null,"link":"http://geocommons.com/overlays/223385.json","extent":[-117.941,33.4793,-114.574,34.8988],"geometry_types":["point"],"unique_name":null,"name":"Guy_-_Banks_-_ran_March_30th_STCA_2","feature_count":498,"description":"","next_feature":null,"is_raster":false,"short_classification":"Y","stats":{"rep? (1 for yes, 0 for no)":{"max":1,"mean":0.977911646586345,"variance":0.0216439197433597,"stdev":0.147118726691607,"min":0,"median":1}},"features":[{"properties":{"rep? (1 for yes, 0 for no)":1,"city":"Palm Desert","zip":"92211","geo_score":0.429,"street address":"77-900 Fred Waring Drive, Suite 100","id":"a66vnnn41f1o","geo_precision":"street"},"type":"Feature","geometry":{"type":"Point","coordinates":[-116.308243,33.729003]}},{"properties":{"rep? (1 for yes, 0 for no)":1,"city":"Temecula","zip":"92590","geo_score":0.464,"street address":"27645 Jefferson Avenue, Suite 116","id":"a66vnntdkvfj","geo_precision":"street"},"type":"Feature","geometry":{"type":"Point","coordinates":[-117.170356,33.525611]}},{"properties":{"rep? (1 for yes, 0 for no)":1,"city":"Corona","zip":"92879","geo_score":0.756,"street address":"400 So Ramona Ave Suite 212-W","id":"a66vnnyw0x65","geo_precision":"range"},"type":"Feature","geometry":{"type":"Point","coordinates":[-117.564835,33.877347]}},{"properties":{"rep? (1 for yes, 0 for no)":1,"city":"La Quinta","zip":"92253","geo_score":0.479,"street address":"79-440 Corporate Center, Suite 105","id":"a66vnnvdflf6","geo_precision":"street"},"type":"Feature","geometry":{"type":"Point","coordinates":[-116.286184,33.710404]}},{"properties":{"rep? (1 for yes, 0 for no)":1,"city":"Corona","zip":"92879","geo_score":0.902,"street address":"479 North Mckinley Street","id":"a66vnnttxlo3","geo_precision":"range"},"type":"Feature","geometry":{"type":"Point","coordinates":[-117.520644,33.88981]}},{"properties":{"rep? (1 for yes, 0 for no)":1,"city":"Corona","zip":"92881","geo_score":0.471,"street address":"1290 E. Ontario Avenue","id":"a66vno0rwj7l","geo_precision":"street"},"type":"Feature","geometry":{"type":"Point","coordinates":[-117.551289,33.851574]}},{"properties":{"rep? (1 for yes, 0 for no)":1,"city":"Hemet","zip":"92545","geo_score":0.64,"street address":"1231 South Sanderson Road","id":"a66vnnsw5c52","geo_precision":"street"},"type":"Feature","geometry":{"type":"Point","coordinates":[-117.006641,33.732413]}},{"properties":{"rep? (1 for yes, 0 for no)":1,"city":"La Quinta","zip":"92253","geo_score":0.634,"street address":"79-295 Highway 111","id":"a66vnnt9fo2t","geo_precision":"street"},"type":"Feature","geometry":{"type":"Point","coordinates":[-116.299144,33.716218]}},{"properties":{"rep? (1 for yes, 0 for no)":1,"city":"Murrieta","zip":"92562","geo_score":0.902,"street address":"41200 Murrieta Hot Springs Road","id":"a66vno27kh4x","geo_precision":"range"},"type":"Feature","geometry":{"type":"Point","coordinates":[-117.19399,33.554176]}},{"properties":{"rep? (1 for yes, 0 for no)":1,"city":"Temecula","zip":"92592","geo_score":0.902,"street address":"32225 State Highway 79 South","id":"a66vnntq2fdm","geo_precision":"range"},"type":"Feature","geometry":{"type":"Point","coordinates":[-117.097351,33.481442]}},{"properties":{"rep? (1 for yes, 0 for no)":1,"city":"Moreno Valley","zip":"92553","geo_score":0.865,"street address":"25050 Alessandro Boulevard","id":"a66vnnrybn3m","geo_precision":"range"},"type":"Feature","geometry":{"type":"Point","coordinates":[-117.225369,33.917318]}},{"properties":{"rep? (1 for yes, 0 for no)":1,"city":"Riverside","zip":"92503","geo_score":0.805,"street address":"9204 Magnolia Avenue","id":"a66vno08cxnu","geo_precision":"range"},"type":"Feature","geometry":{"type":"Point","coordinates":[-117.441106,33.923448]}},{"properties":{"rep? (1 for yes, 0 for no)":1,"city":"Banning","zip":"92220","geo_score":0.902,"street address":"1374 West Ramsey Street","id":"a66vnnusorgd","geo_precision":"range"},"type":"Feature","geometry":{"type":"Point","coordinates":[-116.891532,33.925422]}},{"properties":{"rep? (1 for yes, 0 for no)":1,"city":"Calimesa","zip":"92320","geo_score":0.902,"street address":"1055 Calimesa Boulevard","id":"a66vnntbcxqy","geo_precision":"range"},"type":"Feature","geometry":{"type":"Point","coordinates":[-117.059927,33.999068]}},{"properties":{"rep? (1 for yes, 0 for no)":1,"city":"Riverside","zip":"92507","geo_score":0.804,"street address":"5225 Canyon Crest Drive","id":"a66vnntrs1mg","geo_precision":"range"},"type":"Feature","geometry":{"type":"Point","coordinates":[-117.330208,33.957669]}},{"properties":{"rep? (1 for yes, 0 for no)":1,"city":"Cathedral City","zip":"92234","geo_score":0.574,"street address":"68-435 Highway 111","id":"a66vnnsfva1k","geo_precision":"street"},"type":"Feature","geometry":{"type":"Point","coordinates":[-116.484407,33.789812]}},{"properties":{"rep? (1 for yes, 0 for no)":1,"city":"Corona","zip":"92879","geo_score":0.805,"street address":"204 East 6th Street","id":"a66vnnyws20n","geo_precision":"range"},"type":"Feature","geometry":{"type":"Point","coordinates":[-117.565121,33.875257]}},{"properties":{"rep? (1 for yes, 0 for no)":1,"city":"Corona","zip":"92881","geo_score":0.468,"street address":"1312 East Ontario Avenue, Suite 101","id":"a66vno1sbi95","geo_precision":"street"},"type":"Feature","geometry":{"type":"Point","coordinates":[-117.544746,33.84895]}},{"properties":{"rep? (1 for yes, 0 for no)":1,"city":"Palm Desert","zip":"92260","geo_score":0.625,"street address":"40101 Monterey Avenue","id":"a66vnnobij5t","geo_precision":"street"},"type":"Feature","geometry":{"type":"Point","coordinates":[-116.391158,33.757904]}},{"properties":{"rep? (1 for yes, 0 for no)":1,"city":"Cathedral City","zip":"92234","geo_score":0.707,"street address":"31-655 Date Palm Drive","id":"a66vnnpb9r9r","geo_precision":"street"},"type":"Feature","geometry":{"type":"Point","coordinates":[-116.458439,33.845024]}},{"properties":{"rep? (1 for yes, 0 for no)":1,"city":"Palm Desert","zip":"92260","geo_score":0.747,"street address":"74590 Us Highway 111","id":"a66vnnnpyfld","geo_precision":"range"},"type":"Feature","geometry":{"type":"Point","coordinates":[-116.364201,33.721364]}},{"properties":{"rep? (1 for yes, 0 for no)":1,"city":"Desert Hot Springs","zip":"92240","geo_score":0.811,"street address":"13210 Palm Drive","id":"a66vnnpqcevo","geo_precision":"range"},"type":"Feature","geometry":{"type":"Point","coordinates":[-116.501343,33.952887]}},{"properties":{"rep? (1 for yes, 0 for no)":1,"city":"Mira Loma","zip":"91752","geo_score":0.902,"street address":"12511 Limonite Avenue","id":"a66vnny9k6km","geo_precision":"range"},"type":"Feature","geometry":{"type":"Point","coordinates":[-117.556019,33.975289]}},{"properties":{"rep? (1 for yes, 0 for no)":1,"city":"Norco","zip":"92860","geo_score":0.805,"street address":"1100 Hamner","id":"a66vno0z0uvy","geo_precision":"range"},"type":"Feature","geometry":{"type":"Point","coordinates":[-117.562738,33.898972]}},{"properties":{"rep? (1 for yes, 0 for no)":1,"city":"Corona","zip":"92881","geo_score":0.462,"street address":"260 W. Foothill Parkway","id":"a66vno1wdnhg","geo_precision":"street"},"type":"Feature","geometry":{"type":"Point","coordinates":[-117.571956,33.843923]}},{"properties":{"rep? (1 for yes, 0 for no)":1,"city":"Corona","zip":"92882","geo_score":0.854,"street address":"2601 Green River Road","id":"a66vnnqcco69","geo_precision":"range"},"type":"Feature","geometry":{"type":"Point","coordinates":[-117.621493,33.87015]}},{"properties":{"rep? (1 for yes, 0 for no)":1,"city":"Hemet","zip":"92544","geo_score":0.902,"street address":"1687 East Florida Avenue","id":"a66vnnxxvof8","geo_precision":"range"},"type":"Feature","geometry":{"type":"Point","coordinates":[-116.954545,33.747649]}},{"properties":{"rep? (1 for yes, 0 for no)":1,"city":"Indio","zip":"92201","geo_score":0.545,"street address":"81-800 Highway 111","id":"a66vnnyr6r28","geo_precision":"street"},"type":"Feature","geometry":{"type":"Point","coordinates":[-116.242607,33.707615]}},{"properties":{"rep? (1 for yes, 0 for no)":1,"city":"Riverside","zip":"92509","geo_score":0.824,"street address":"8310 Limonite Avenue","id":"a66vnntvz4uh","geo_precision":"range"},"type":"Feature","geometry":{"type":"Point","coordinates":[-117.466161,33.975904]}},{"properties":{"rep? (1 for yes, 0 for no)":1,"city":"Riverside","zip":"92505","geo_score":0.672,"street address":"4601 La Sierra Avenue","id":"a66vnnxqpksf","geo_precision":"range"},"type":"Feature","geometry":{"type":"Point","coordinates":[-117.402771,33.949833]}},{"properties":{"rep? (1 for yes, 0 for no)":1,"city":"Lake Elsinore","zip":"92530","geo_score":0.902,"street address":"2495 East Lakeshore Drive","id":"a66vnntixn5q","geo_precision":"range"},"type":"Feature","geometry":{"type":"Point","coordinates":[-117.301367,33.660405]}},{"properties":{"rep? (1 for yes, 0 for no)":1,"city":"Riverside","zip":"92506","geo_score":0.902,"street address":"6370 Magnolia Avenue","id":"a66vno0vhw8f","geo_precision":"range"},"type":"Feature","geometry":{"type":"Point","coordinates":[-117.394924,33.955874]}},{"properties":{"rep? (1 for yes, 0 for no)":1,"city":"Riverside","zip":"92503","geo_score":0.805,"street address":"10297 Magnolia Avenue","id":"a66vnnngqy3e","geo_precision":"range"},"type":"Feature","geometry":{"type":"Point","coordinates":[-117.461237,33.91194]}},{"properties":{"rep? (1 for yes, 0 for no)":1,"city":"Menifee","zip":"92584","geo_score":0.902,"street address":"30187 Antelope Road","id":"a66vnnywxhm7","geo_precision":"range"},"type":"Feature","geometry":{"type":"Point","coordinates":[-117.167227,33.683524]}},{"properties":{"rep? (1 for yes, 0 for no)":1,"city":"Riverside","zip":"92508","geo_score":0.828,"street address":"351 East Alessandro Boulevard","id":"a66vnnta6czn","geo_precision":"range"},"type":"Feature","geometry":{"type":"Point","coordinates":[-117.324304,33.916403]}},{"properties":{"rep? (1 for yes, 0 for no)":1,"city":"Moreno Valley","zip":"92557","geo_score":0.902,"street address":"12350 Perris Boulevard","id":"a66vno0ort7b","geo_precision":"range"},"type":"Feature","geometry":{"type":"Point","coordinates":[-117.226369,33.941551]}},{"properties":{"rep? (1 for yes, 0 for no)":1,"city":"Hemet","zip":"92543","geo_score":0.902,"street address":"869 West Florida Avenue","id":"a66vnny1j1uq","geo_precision":"range"},"type":"Feature","geometry":{"type":"Point","coordinates":[-116.980034,33.747512]}},{"properties":{"rep? (1 for yes, 0 for no)":1,"city":"Palm Desert","zip":"92260","geo_score":0.541,"street address":"73-820 El Paseo","id":"a66vnnuv0vah","geo_precision":"street"},"type":"Feature","geometry":{"type":"Point","coordinates":[-116.39862,33.72306]}},{"properties":{"rep? (1 for yes, 0 for no)":1,"city":"Palm Springs","zip":"92262","geo_score":0.709,"street address":"588 South Palm Canyon Drive","id":"a66vnnsby265","geo_precision":"street"},"type":"Feature","geometry":{"type":"Point","coordinates":[-116.546786,33.815838]}},{"properties":{"rep? (1 for yes, 0 for no)":1,"city":"Perris","zip":"92570","geo_score":0.805,"street address":"181 East 4th Street","id":"a66vno1r4dy9","geo_precision":"range"},"type":"Feature","geometry":{"type":"Point","coordinates":[-117.226352,33.78237]}},{"properties":{"rep? (1 for yes, 0 for no)":1,"city":"Moreno Valley","zip":"92557","geo_score":0.902,"street address":"11875 Pigeon Pass Road","id":"a66vnnxn0t0k","geo_precision":"range"},"type":"Feature","geometry":{"type":"Point","coordinates":[-117.261469,33.948957]}},{"properties":{"rep? (1 for yes, 0 for no)":1,"city":"La Quinta","zip":"92253","geo_score":0.634,"street address":"78-400 Highway 111","id":"a66vnnxqp8aa","geo_precision":"street"},"type":"Feature","geometry":{"type":"Point","coordinates":[-116.299144,33.716218]}},{"properties":{"rep? (1 for yes, 0 for no)":1,"city":"Rancho Mirage","zip":"92270","geo_score":0.707,"street address":"71-799 Highway 111","id":"a66vnny2go0j","geo_precision":"street"},"type":"Feature","geometry":{"type":"Point","coordinates":[-116.407963,33.735671]}},{"properties":{"rep? (1 for yes, 0 for no)":1,"city":"Rancho Mirage","zip":"92270","geo_score":0.482,"street address":"39700 Bob Hope Drive, Suite 100","id":"a66vnnyhpkie","geo_precision":"street"},"type":"Feature","geometry":{"type":"Point","coordinates":[-116.428957,33.780678]}},{"properties":{"rep? (1 for yes, 0 for no)":1,"city":"Temecula","zip":"92592","geo_score":0.732,"street address":"31960 Highway 79 South","id":"a66vnnx7i53u","geo_precision":"range"},"type":"Feature","geometry":{"type":"Point","coordinates":[-117.100455,33.480604]}},{"properties":{"rep? (1 for yes, 0 for no)":1,"city":"Riverside","zip":"92501","geo_score":0.805,"street address":"3650 Fourteenth Street","id":"a66vnntjj216","geo_precision":"range"},"type":"Feature","geometry":{"type":"Point","coordinates":[-117.377703,33.975889]}},{"properties":{"rep? (1 for yes, 0 for no)":1,"city":"Palm Springs","zip":"92262","geo_score":0.88,"street address":"1801 East Palm Canyon Drive","id":"a66vno1kog46","geo_precision":"range"},"type":"Feature","geometry":{"type":"Point","coordinates":[-116.546781,33.846211]}},{"properties":{"rep? (1 for yes, 0 for no)":1,"city":"Sun City","zip":"92586","geo_score":0.902,"street address":"26800 Cherry Hills Boulevard","id":"a66vnnwe59c2","geo_precision":"range"},"type":"Feature","geometry":{"type":"Point","coordinates":[-117.192381,33.71013]}},{"properties":{"rep? (1 for yes, 0 for no)":1,"city":"Palm Springs","zip":"92262","geo_score":0.468,"street address":"1751-Bb N. Sunrise Way","id":"a66vnntjiqis","geo_precision":"street"},"type":"Feature","geometry":{"type":"Point","coordinates":[-116.528227,33.824858]}},{"properties":{"rep? (1 for yes, 0 for no)":1,"city":"Riverside","zip":"92507","geo_score":0.827,"street address":"1680 University Avenue","id":"a66vnnswqzb6","geo_precision":"range"},"type":"Feature","geometry":{"type":"Point","coordinates":[-117.348017,33.975687]}},{"properties":{"rep? (1 for yes, 0 for no)":1,"city":"Palm Desert","zip":"92261","geo_score":0.805,"street address":"42095 Washington Street","id":"a66vnnu1tevc","geo_precision":"range"},"type":"Feature","geometry":{"type":"Point","coordinates":[-116.303854,33.742994]}},{"properties":{"rep? (1 for yes, 0 for no)":1,"city":"Hemet","zip":"92545","geo_score":0.902,"street address":"2498 West Florida Avenue","id":"a66vnnpjdrmu","geo_precision":"range"},"type":"Feature","geometry":{"type":"Point","coordinates":[-116.997776,33.747398]}},{"properties":{"rep? (1 for yes, 0 for no)":1,"city":"Murrieta","zip":"92562","geo_score":0.902,"street address":"23781 Washington Avenue","id":"a66vno13fbd7","geo_precision":"range"},"type":"Feature","geometry":{"type":"Point","coordinates":[-117.235132,33.572933]}},{"properties":{"rep? (1 for yes, 0 for no)":1,"city":"Wildomar","zip":"92595","geo_score":0.902,"street address":"23805 Clinton Keith Road","id":"a66vnnyvzc2z","geo_precision":"range"},"type":"Feature","geometry":{"type":"Point","coordinates":[-117.243732,33.596724]}},{"properties":{"rep? (1 for yes, 0 for no)":1,"city":"Murrieta","zip":"92563","geo_score":0.655,"street address":"39168 Winchester Road","id":"a66vnnp9n892","geo_precision":"street"},"type":"Feature","geometry":{"type":"Point","coordinates":[-117.140653,33.551482]}},{"properties":{"rep? (1 for yes, 0 for no)":1,"city":"Indio","zip":"92201","geo_score":0.545,"street address":"81-703 Highway 111","id":"a66vnnmlhuhz","geo_precision":"street"},"type":"Feature","geometry":{"type":"Point","coordinates":[-116.242607,33.707615]}},{"properties":{"rep? (1 for yes, 0 for no)":1,"city":"La Quinta","zip":"92253","geo_score":0.707,"street address":"51-290 Avenida Bermudas","id":"a66vnnreum0g","geo_precision":"street"},"type":"Feature","geometry":{"type":"Point","coordinates":[-116.303707,33.678168]}},{"properties":{"rep? (1 for yes, 0 for no)":1,"city":"Indio","zip":"92201","geo_score":0.74,"street address":"81701 Highway 111","id":"a66vnnxfh076","geo_precision":"range"},"type":"Feature","geometry":{"type":"Point","coordinates":[-116.239675,33.709659]}},{"properties":{"rep? (1 for yes, 0 for no)":1,"city":"Moreno Valley","zip":"92553","geo_score":0.865,"street address":"12625 Frederick Street","id":"a66vnnzc7ikp","geo_precision":"range"},"type":"Feature","geometry":{"type":"Point","coordinates":[-117.261422,33.936758]}},{"properties":{"rep? (1 for yes, 0 for no)":1,"city":"Palm Desert","zip":"92260","geo_score":0.82,"street address":"73301 Highway 111","id":"a66vno2bd09n","geo_precision":"range"},"type":"Feature","geometry":{"type":"Point","coordinates":[-116.386038,33.721404]}},{"properties":{"rep? (1 for yes, 0 for no)":1,"city":"Temecula","zip":"92591","geo_score":0.902,"street address":"30580 Rancho California Road","id":"a66vnnp242jb","geo_precision":"range"},"type":"Feature","geometry":{"type":"Point","coordinates":[-117.127022,33.508405]}},{"properties":{"rep? (1 for yes, 0 for no)":1,"city":"Temecula","zip":"92590","geo_score":0.902,"street address":"41615 Winchester Road","id":"a66vnnrcf4mw","geo_precision":"range"},"type":"Feature","geometry":{"type":"Point","coordinates":[-117.166465,33.519824]}},{"properties":{"rep? (1 for yes, 0 for no)":1,"city":"Palm Springs","zip":"92264","geo_score":0.902,"street address":"1711 East Palm Canyon Drive","id":"a66vnnxc5l4x","geo_precision":"range"},"type":"Feature","geometry":{"type":"Point","coordinates":[-116.528202,33.801433]}},{"properties":{"rep? (1 for yes, 0 for no)":1,"city":"Palm Desert","zip":"92260","geo_score":0.82,"street address":"74 - 150 Country Club Drive","id":"a66vnnoe8smi","geo_precision":"range"},"type":"Feature","geometry":{"type":"Point","coordinates":[-116.40707,33.686957]}},{"properties":{"rep? (1 for yes, 0 for no)":1,"city":"Palm Springs","zip":"92262","geo_score":0.513,"street address":"901 East Taqhuitz Canyon Way","id":"a66vnnwi3w0x","geo_precision":"street"},"type":"Feature","geometry":{"type":"Point","coordinates":[-116.553057,33.833759]}},{"properties":{"rep? (1 for yes, 0 for no)":1,"city":"Calimesa","zip":"92320","geo_score":0.902,"street address":"1139 Calimesa Blvd","id":"a66vnnmvpcon","geo_precision":"range"},"type":"Feature","geometry":{"type":"Point","coordinates":[-117.058441,33.996005]}},{"properties":{"rep? (1 for yes, 0 for no)":1,"city":"Riverside","zip":"92507","geo_score":0.827,"street address":"1651 University Avenue","id":"a66vnnq1cryk","geo_precision":"range"},"type":"Feature","geometry":{"type":"Point","coordinates":[-117.347039,33.975687]}},{"properties":{"rep? (1 for yes, 0 for no)":1,"city":"Banning","zip":"92220","geo_score":0.902,"street address":"3170 West Ramsey Street","id":"a66vnnodat3a","geo_precision":"range"},"type":"Feature","geometry":{"type":"Point","coordinates":[-116.911428,33.92572]}},{"properties":{"rep? (1 for yes, 0 for no)":1,"city":"Riverside","zip":"92503","geo_score":0.805,"street address":"3580 Tyler Street","id":"a66vnnv6njky","geo_precision":"range"},"type":"Feature","geometry":{"type":"Point","coordinates":[-117.458609,33.908513]}},{"properties":{"rep? (1 for yes, 0 for no)":1,"city":"Riverside","zip":"92506","geo_score":0.902,"street address":"3605 Central Ave","id":"a66vnnpr1zk9","geo_precision":"range"},"type":"Feature","geometry":{"type":"Point","coordinates":[-117.391317,33.953575]}},{"properties":{"rep? (1 for yes, 0 for no)":1,"city":"Corona","zip":"92880","geo_score":0.902,"street address":"408 N Main St","id":"a66vnnulh30n","geo_precision":"range"},"type":"Feature","geometry":{"type":"Point","coordinates":[-117.564865,33.884988]}},{"properties":{"rep? (1 for yes, 0 for no)":1,"city":"Palm Desert","zip":"92260","geo_score":0.625,"street address":"44-480 Town Center Way","id":"a66vno2bzrrn","geo_precision":"street"},"type":"Feature","geometry":{"type":"Point","coordinates":[-116.398321,33.728654]}},{"properties":{"rep? (1 for yes, 0 for no)":1,"city":"Beaumont","zip":"92223","geo_score":0.813,"street address":"777 Beaumont Avenue","id":"a66vnnzl3oln","geo_precision":"range"},"type":"Feature","geometry":{"type":"Point","coordinates":[-116.977164,33.932124]}},{"properties":{"rep? (1 for yes, 0 for no)":1,"city":"Palm Springs","zip":"92264","geo_score":0.902,"street address":"1675 East Palm Canyon Drive","id":"a66vnnn01g4f","geo_precision":"range"},"type":"Feature","geometry":{"type":"Point","coordinates":[-116.529184,33.801427]}},{"properties":{"rep? (1 for yes, 0 for no)":1,"city":"Norco","zip":"92860","geo_score":0.902,"street address":"2900 Hamner Avenue","id":"a66vnnsqlqbn","geo_precision":"range"},"type":"Feature","geometry":{"type":"Point","coordinates":[-117.558849,33.924277]}},{"properties":{"rep? (1 for yes, 0 for no)":1,"city":"Hemet","zip":"92544","geo_score":0.902,"street address":"1700 East Florida Avenue","id":"a66vnnuyoj3f","geo_precision":"range"},"type":"Feature","geometry":{"type":"Point","coordinates":[-116.95429,33.747651]}},{"properties":{"rep? (1 for yes, 0 for no)":1,"city":"Sun City","zip":"92586","geo_score":0.902,"street address":"27190 Sun City Boulevard","id":"a66vnnwr7rvv","geo_precision":"range"},"type":"Feature","geometry":{"type":"Point","coordinates":[-117.193692,33.712214]}},{"properties":{"rep? (1 for yes, 0 for no)":1,"city":"Temecula","zip":"92591","geo_score":0.902,"street address":"26480 Ynez Road","id":"a66vnnnsgrvt","geo_precision":"range"},"type":"Feature","geometry":{"type":"Point","coordinates":[-117.158405,33.52306]}},{"properties":{"rep? (1 for yes, 0 for no)":1,"city":"Hemet","zip":"92545","geo_score":0.902,"street address":"1745 West Florida Avenue","id":"a66vnnr0ilod","geo_precision":"range"},"type":"Feature","geometry":{"type":"Point","coordinates":[-116.98956,33.747458]}},{"properties":{"rep? (1 for yes, 0 for no)":1,"city":"Corona","zip":"92882","geo_score":0.805,"street address":"225 West Sixth Street","id":"a66vnnoxs1dn","geo_precision":"range"},"type":"Feature","geometry":{"type":"Point","coordinates":[-117.567836,33.875562]}},{"properties":{"rep? (1 for yes, 0 for no)":1,"city":"Riverside","zip":"92501","geo_score":0.902,"street address":"3695 Main Street","id":"a66vnnz43vor","geo_precision":"range"},"type":"Feature","geometry":{"type":"Point","coordinates":[-117.373736,33.983017]}},{"properties":{"rep? (1 for yes, 0 for no)":1,"city":"Riverside","zip":"92502","geo_score":0.805,"street address":"3484 Central Avenue","id":"a66vnnncupyd","geo_precision":"range"},"type":"Feature","geometry":{"type":"Point","coordinates":[-117.386984,33.953609]}},{"properties":{"rep? (1 for yes, 0 for no)":1,"city":"Palm Springs","zip":"92262","geo_score":0.902,"street address":"499 South Palm Canyon Drive","id":"a66vno2ro9wv","geo_precision":"range"},"type":"Feature","geometry":{"type":"Point","coordinates":[-116.546786,33.815838]}},{"properties":{"rep? (1 for yes, 0 for no)":1,"city":"Blythe","zip":"92225","geo_score":0.546,"street address":"201 East Hobson Way","id":"a66vnnyirea6","geo_precision":"zip"},"type":"Feature","geometry":{"type":"Point","coordinates":[-114.573845,33.61058]}},{"properties":{"rep? (1 for yes, 0 for no)":1,"city":"Corona","zip":"92880","geo_score":0.902,"street address":"1611 Pomona Road","id":"a66vno0smru4","geo_precision":"range"},"type":"Feature","geometry":{"type":"Point","coordinates":[-117.595212,33.881933]}},{"properties":{"rep? (1 for yes, 0 for no)":1,"city":"Riverside","zip":"92506","geo_score":0.5,"street address":"6529 Riverside Avenue, Suite 153","id":"a66vno2qt6vl","geo_precision":"street"},"type":"Feature","geometry":{"type":"Point","coordinates":[-117.382029,33.97014]}},{"properties":{"rep? (1 for yes, 0 for no)":1,"city":"Corona","zip":"92877","geo_score":0.464,"street address":"255 East Rincon Street, Ste. 312","id":"a66vnnur7vq6","geo_precision":"street"},"type":"Feature","geometry":{"type":"Point","coordinates":[-117.90215,33.93194]}},{"properties":{"rep? (1 for yes, 0 for no)":1,"city":"Murrieta","zip":"92562","geo_score":0.62,"street address":"41381 Kalmia Avenue","id":"a66vnnues2bo","geo_precision":"street"},"type":"Feature","geometry":{"type":"Point","coordinates":[-117.208954,33.562716]}},{"properties":{"rep? (1 for yes, 0 for no)":1,"city":"Temecula","zip":"92591","geo_score":0.78,"street address":"27541 Ynez Road","id":"a66vnnygn7pq","geo_precision":"range"},"type":"Feature","geometry":{"type":"Point","coordinates":[-117.150158,33.506418]}},{"properties":{"rep? (1 for yes, 0 for no)":1,"city":"Riverside","zip":"92509","geo_score":0.824,"street address":"7710 Limonite Avenue","id":"a66vnnwnot7m","geo_precision":"range"},"type":"Feature","geometry":{"type":"Point","coordinates":[-117.451824,33.978472]}},{"properties":{"rep? (1 for yes, 0 for no)":1,"city":"Palm Desert","zip":"92260","geo_score":0.572,"street address":"44-701 Village Court Drive","id":"a66vnnrn46mo","geo_precision":"street"},"type":"Feature","geometry":{"type":"Point","coordinates":[-116.36121,33.724834]}},{"properties":{"rep? (1 for yes, 0 for no)":1,"city":"Cathedral City","zip":"92234","geo_score":0.769,"street address":"69036 Highway 111","id":"a66vnnnsk3r5","geo_precision":"range"},"type":"Feature","geometry":{"type":"Point","coordinates":[-116.460023,33.778596]}},{"properties":{"rep? (1 for yes, 0 for no)":1,"city":"Palm Springs","zip":"92264","geo_score":0.902,"street address":"1793 E Palm Canyon Drive","id":"a66vnnt60gns","geo_precision":"range"},"type":"Feature","geometry":{"type":"Point","coordinates":[-116.527423,33.801423]}},{"properties":{"rep? (1 for yes, 0 for no)":1,"city":"North Palm Springs","zip":"92258","geo_score":0.61,"street address":"78-435 Highway 111","id":"a66vnnv4x8yj","geo_precision":"street"},"type":"Feature","geometry":{"type":"Point","coordinates":[-116.087612,33.580311]}},{"properties":{"rep? (1 for yes, 0 for no)":1,"city":"Banning","zip":"92220","geo_score":0.902,"street address":"300 South Highland Springs Avenue","id":"a66vnno0bexe","geo_precision":"range"},"type":"Feature","geometry":{"type":"Point","coordinates":[-116.946776,33.923781]}},{"properties":{"rep? (1 for yes, 0 for no)":1,"city":"Murrieta","zip":"92562","geo_score":0.902,"street address":"40545 California Oaks Road","id":"a66vnnp2zvgb","geo_precision":"range"},"type":"Feature","geometry":{"type":"Point","coordinates":[-117.201248,33.575681]}},{"properties":{"rep? (1 for yes, 0 for no)":1,"city":"Indio","zip":"92202","geo_score":0.61,"street address":"81-020 Highway 111","id":"a66vnny6ybz4","geo_precision":"street"},"type":"Feature","geometry":{"type":"Point","coordinates":[-116.087612,33.580311]}},{"properties":{"rep? (1 for yes, 0 for no)":1,"city":"Moreno Valley","zip":"92553","geo_score":0.865,"street address":"14930 Perris Boulevard","id":"a66vno1anm55","geo_precision":"range"},"type":"Feature","geometry":{"type":"Point","coordinates":[-117.226304,33.903576]}},{"properties":{"rep? (1 for yes, 0 for no)":1,"city":"Murrieta","zip":"92563","geo_score":0.848,"street address":"40473 Murrieta Hot Springs Road","id":"a66vnnudlf2j","geo_precision":"range"},"type":"Feature","geometry":{"type":"Point","coordinates":[-117.178887,33.556377]}},{"properties":{"rep? (1 for yes, 0 for no)":1,"city":"Murrieta","zip":"92562","geo_score":0.902,"street address":"40545 California Oaks Road","id":"a66vno0ves1z","geo_precision":"range"},"type":"Feature","geometry":{"type":"Point","coordinates":[-117.201248,33.575681]}},{"properties":{"rep? (1 for yes, 0 for no)":1,"city":"Palm Desert","zip":"92260","geo_score":0.736,"street address":"State Hwy 111","id":"a66vnnonnf3v","geo_precision":"street"},"type":"Feature","geometry":{"type":"Point","coordinates":[-116.403467,33.729416]}},{"properties":{"rep? (1 for yes, 0 for no)":1,"city":"Riverside","zip":"92506","geo_score":0.685,"street address":"2008 North Riverside Avenue","id":"a66vnnrt4blb","geo_precision":"street"},"type":"Feature","geometry":{"type":"Point","coordinates":[-117.381373,33.971115]}},{"properties":{"rep? (1 for yes, 0 for no)":1,"city":"Riverside","zip":"92506","geo_score":0.429,"street address":"7000 Indiana Avenue, Ste 122","id":"a66vnnqrjhic","geo_precision":"street"},"type":"Feature","geometry":{"type":"Point","coordinates":[-117.387304,33.946311]}},{"properties":{"rep? (1 for yes, 0 for no)":1,"city":"Mira Loma","zip":"91752","geo_score":0.902,"street address":"11010 Limonite Avenue","id":"a66vnnrbw546","geo_precision":"range"},"type":"Feature","geometry":{"type":"Point","coordinates":[-117.523462,33.975457]}},{"properties":{"rep? (1 for yes, 0 for no)":1,"city":"Riverside","zip":"92509","geo_score":0.824,"street address":"7710 Limonite Avenue","id":"a66vnnvw7m2v","geo_precision":"range"},"type":"Feature","geometry":{"type":"Point","coordinates":[-117.451824,33.978472]}},{"properties":{"rep? (1 for yes, 0 for no)":1,"city":"Indian Wells","zip":"92210","geo_score":0.707,"street address":"74-750 Highway 111","id":"a66vnno9nli0","geo_precision":"street"},"type":"Feature","geometry":{"type":"Point","coordinates":[-116.361368,33.721363]}},{"properties":{"rep? (1 for yes, 0 for no)":1,"city":"Palm Desert","zip":"92211","geo_score":0.707,"street address":"42-035 Washington Street","id":"a66vnnzm2s30","geo_precision":"street"},"type":"Feature","geometry":{"type":"Point","coordinates":[-116.301228,33.803855]}},{"properties":{"rep? (1 for yes, 0 for no)":1,"city":"La Quinta","zip":"92253","geo_score":0.707,"street address":"46-100 Washington Street","id":"a66vnnnyiby2","geo_precision":"street"},"type":"Feature","geometry":{"type":"Point","coordinates":[-116.294918,33.715129]}},{"properties":{"rep? (1 for yes, 0 for no)":1,"city":"Palm Desert","zip":"92260","geo_score":0.625,"street address":"73-000 Highway 111","id":"a66vnnrziyqa","geo_precision":"street"},"type":"Feature","geometry":{"type":"Point","coordinates":[-116.404938,33.73148]}},{"properties":{"rep? (1 for yes, 0 for no)":1,"city":"Temecula","zip":"92591","geo_score":0.902,"street address":"27576 Ynez Rd","id":"a66vno2dmmco","geo_precision":"range"},"type":"Feature","geometry":{"type":"Point","coordinates":[-117.15007,33.506069]}},{"properties":{"rep? (1 for yes, 0 for no)":1,"city":"Palm Desert","zip":"92260","geo_score":0.653,"street address":"74175 El Paseo Drive","id":"a66vnnpfygjd","geo_precision":"range"},"type":"Feature","geometry":{"type":"Point","coordinates":[-116.370815,33.720965]}},{"properties":{"rep? (1 for yes, 0 for no)":1,"city":"Beaumont","zip":"92223","geo_score":0.715,"street address":"499 East Sixth Street","id":"a66vnntboopv","geo_precision":"range"},"type":"Feature","geometry":{"type":"Point","coordinates":[-116.975774,33.929404]}},{"properties":{"rep? (1 for yes, 0 for no)":1,"city":"San Jacinto","zip":"92583","geo_score":0.352,"street address":"1479 S. San Jacinto Street","id":"a66vnnoz540c","geo_precision":"street"},"type":"Feature","geometry":{"type":"Point","coordinates":[-116.958895,33.787801]}},{"properties":{"rep? (1 for yes, 0 for no)":1,"city":"Sun City","zip":"92586","geo_score":0.902,"street address":"28031 Bradley Road","id":"a66vnnyi6pie","geo_precision":"range"},"type":"Feature","geometry":{"type":"Point","coordinates":[-117.189636,33.718692]}},{"properties":{"rep? (1 for yes, 0 for no)":1,"city":"Hemet","zip":"92544","geo_score":0.876,"street address":"3013 West Florida Avenue","id":"a66vnny49aim","geo_precision":"range"},"type":"Feature","geometry":{"type":"Point","coordinates":[-116.941234,33.747713]}},{"properties":{"rep? (1 for yes, 0 for no)":1,"city":"Rancho Mirage","zip":"92270","geo_score":0.902,"street address":"39800 Bob Hope Dr","id":"a66vnnoit4pr","geo_precision":"range"},"type":"Feature","geometry":{"type":"Point","coordinates":[-116.408169,33.75787]}},{"properties":{"rep? (1 for yes, 0 for no)":1,"city":"Palm Springs","zip":"92262","geo_score":0.902,"street address":"420 South Palm Canyon Dr","id":"a66vnnnlt0do","geo_precision":"range"},"type":"Feature","geometry":{"type":"Point","coordinates":[-116.546783,33.817274]}},{"properties":{"rep? (1 for yes, 0 for no)":1,"city":"Riverside","zip":"92504","geo_score":0.805,"street address":"5242 Arlington Avenue","id":"a66vnnmyp7hj","geo_precision":"range"},"type":"Feature","geometry":{"type":"Point","coordinates":[-117.416716,33.946073]}},{"properties":{"rep? (1 for yes, 0 for no)":1,"city":"Riverside","zip":"92507","geo_score":0.804,"street address":"5395 Canyon Crest Dr","id":"a66vnnr4p0pb","geo_precision":"range"},"type":"Feature","geometry":{"type":"Point","coordinates":[-117.328996,33.955122]}},{"properties":{"rep? (1 for yes, 0 for no)":1,"city":"Idyllwild","zip":"92549","geo_score":0.58,"street address":"54245 North Circle Rd","id":"a66vnnn2qxqu","geo_precision":"street"},"type":"Feature","geometry":{"type":"Point","coordinates":[-116.713599,33.74536]}},{"properties":{"rep? (1 for yes, 0 for no)":1,"city":"Desert Hot Springs","zip":"92240","geo_score":0.811,"street address":"66565 Pierson Blvd.","id":"a66vnnw9bvwz","geo_precision":"range"},"type":"Feature","geometry":{"type":"Point","coordinates":[-116.500309,33.961476]}},{"properties":{"rep? (1 for yes, 0 for no)":1,"city":"Cathedral City","zip":"92234","geo_score":0.769,"street address":"68325 Hwy 111","id":"a66vnnrof8qj","geo_precision":"range"},"type":"Feature","geometry":{"type":"Point","coordinates":[-116.46927,33.781176]}},{"properties":{"rep? (1 for yes, 0 for no)":1,"city":"Murrieta","zip":"92563","geo_score":0.848,"street address":"40461 Murrieta Hot Springs Rd.","id":"a66vnnpcy9a9","geo_precision":"range"},"type":"Feature","geometry":{"type":"Point","coordinates":[-117.178737,33.55639]}},{"properties":{"rep? (1 for yes, 0 for no)":1,"city":"Sun City","zip":"92587","geo_score":0.705,"street address":"31740 Railroad Canyon Road","id":"a66vnnti6t0s","geo_precision":"range"},"type":"Feature","geometry":{"type":"Point","coordinates":[-117.253761,33.673355]}},{"properties":{"rep? (1 for yes, 0 for no)":1,"city":"Hemet","zip":"92543","geo_score":0.49,"street address":"1111 S. State Street","id":"a66vnnogx19r","geo_precision":"street"},"type":"Feature","geometry":{"type":"Point","coordinates":[-116.971679,33.747887]}},{"properties":{"rep? (1 for yes, 0 for no)":1,"city":"Hemet","zip":"92543","geo_score":0.471,"street address":"210 E. Stetson Avenue","id":"a66vnnp33mne","geo_precision":"street"},"type":"Feature","geometry":{"type":"Point","coordinates":[-116.971538,33.729411]}},{"properties":{"rep? (1 for yes, 0 for no)":1,"city":"Riverside","zip":"92503","geo_score":0.805,"street address":"3600 Tyler Street","id":"a66vnnv90c88","geo_precision":"range"},"type":"Feature","geometry":{"type":"Point","coordinates":[-117.458931,33.908905]}},{"properties":{"rep? (1 for yes, 0 for no)":1,"city":"Temecula","zip":"92591","geo_score":0.902,"street address":"40355 Winchester Road","id":"a66vnnpvbur0","geo_precision":"range"},"type":"Feature","geometry":{"type":"Point","coordinates":[-117.153888,33.529357]}},{"properties":{"rep? (1 for yes, 0 for no)":1,"city":"Hemet","zip":"92543","geo_score":0.902,"street address":"445 East Florida Ave","id":"a66vnnwakpm6","geo_precision":"range"},"type":"Feature","geometry":{"type":"Point","coordinates":[-116.96796,33.747566]}},{"properties":{"rep? (1 for yes, 0 for no)":1,"city":"Riverside","zip":"92501","geo_score":0.857,"street address":"3737 Main Street, Suite 104","id":"a66vnnmjmi0o","geo_precision":"street"},"type":"Feature","geometry":{"type":"Point","coordinates":[-117.364197,34.001681]}},{"properties":{"rep? (1 for yes, 0 for no)":1,"city":"Riverside","zip":"92506","geo_score":0.902,"street address":"3727 Arlington Avenue","id":"a66vnnxsz42o","geo_precision":"range"},"type":"Feature","geometry":{"type":"Point","coordinates":[-117.397736,33.946246]}},{"properties":{"rep? (1 for yes, 0 for no)":1,"city":"Indian Wells","zip":"92210","geo_score":0.902,"street address":"74990 Hwy 111","id":"a66vnnpq8cg1","geo_precision":"range"},"type":"Feature","geometry":{"type":"Point","coordinates":[-116.356583,33.721401]}},{"properties":{"rep? (1 for yes, 0 for no)":0,"city":"Blythe","zip":"92226","geo_score":0.585,"street address":"1111 West Hobson Way","id":"a66vnnsk9qf7","geo_precision":"zip"},"type":"Feature","geometry":{"type":"Point","coordinates":[-114.652517,33.59869]}},{"properties":{"rep? (1 for yes, 0 for no)":1,"city":"Riverside","zip":"92506","geo_score":0.902,"street address":"6814 Magnolia Avenue","id":"a66vnnyzmz0k","geo_precision":"range"},"type":"Feature","geometry":{"type":"Point","coordinates":[-117.398574,33.950119]}},{"properties":{"rep? (1 for yes, 0 for no)":1,"city":"Temecula","zip":"92590","geo_score":0.49,"street address":"41530 Enterprise Circle South, Suite 100","id":"a66vnnthwz2n","geo_precision":"street"},"type":"Feature","geometry":{"type":"Point","coordinates":[-117.167772,33.516339]}},{"properties":{"rep? (1 for yes, 0 for no)":1,"city":"Temecula","zip":"92592","geo_score":0.854,"street address":"31709 Highway 79 South","id":"a66vnntq09lv","geo_precision":"range"},"type":"Feature","geometry":{"type":"Point","coordinates":[-117.105352,33.479327]}},{"properties":{"rep? (1 for yes, 0 for no)":1,"city":"Indian Wells","zip":"92210","geo_score":0.707,"street address":"74-900 Highway 111","id":"a66vnnn7lg2m","geo_precision":"street"},"type":"Feature","geometry":{"type":"Point","coordinates":[-116.361368,33.721363]}},{"properties":{"rep? (1 for yes, 0 for no)":1,"city":"Riverside","zip":"92503","geo_score":0.805,"street address":"8200 Arlington Avenue","id":"a66vnnzrgfls","geo_precision":"range"},"type":"Feature","geometry":{"type":"Point","coordinates":[-117.460028,33.946404]}},{"properties":{"rep? (1 for yes, 0 for no)":1,"city":"Riverside","zip":"92504","geo_score":0.805,"street address":"5030 Arlington Avenue","id":"a66vnns2vm5e","geo_precision":"range"},"type":"Feature","geometry":{"type":"Point","coordinates":[-117.413,33.946106]}},{"properties":{"rep? (1 for yes, 0 for no)":1,"city":"Temecula","zip":"92591","geo_score":0.902,"street address":"27425 Ynez Road","id":"a66vnnxzio8z","geo_precision":"range"},"type":"Feature","geometry":{"type":"Point","coordinates":[-117.150076,33.506094]}},{"properties":{"rep? (1 for yes, 0 for no)":1,"city":"Cathedral City","zip":"92234","geo_score":0.707,"street address":"30-855 Date Palm Drive","id":"a66vnnv0sny1","geo_precision":"street"},"type":"Feature","geometry":{"type":"Point","coordinates":[-116.458386,33.846813]}},{"properties":{"rep? (1 for yes, 0 for no)":1,"city":"Indian Wells","zip":"92210","geo_score":0.707,"street address":"74-750 Highway 111","id":"a66vnnrkd4lo","geo_precision":"street"},"type":"Feature","geometry":{"type":"Point","coordinates":[-116.361368,33.721363]}},{"properties":{"rep? (1 for yes, 0 for no)":1,"city":"La Quinta","zip":"92253","geo_score":0.707,"street address":"80-111 Avenue 52","id":"a66vnnu171bb","geo_precision":"street"},"type":"Feature","geometry":{"type":"Point","coordinates":[-116.301283,33.672854]}},{"properties":{"rep? (1 for yes, 0 for no)":1,"city":"Palm Springs","zip":"92262","geo_score":0.61,"street address":"601 East Tahquitz Way","id":"a66vnnwovh1x","geo_precision":"street"},"type":"Feature","geometry":{"type":"Point","coordinates":[-116.553381,33.819456]}},{"properties":{"rep? (1 for yes, 0 for no)":1,"city":"Palm Desert","zip":"92260","geo_score":0.458,"street address":"73-745 El Paseo Drive","id":"a66vnnt40cxl","geo_precision":"street"},"type":"Feature","geometry":{"type":"Point","coordinates":[-116.39862,33.72306]}},{"properties":{"rep? (1 for yes, 0 for no)":1,"city":"Palm Desert","zip":"92260","geo_score":0.541,"street address":"73-745 El Paseo","id":"a66vnnmj7tvo","geo_precision":"street"},"type":"Feature","geometry":{"type":"Point","coordinates":[-116.39862,33.72306]}},{"properties":{"rep? (1 for yes, 0 for no)":1,"city":"La Quinta","zip":"92253","geo_score":0.659,"street address":"47-020 Washington","id":"a66vnnytajw8","geo_precision":"street"},"type":"Feature","geometry":{"type":"Point","coordinates":[-116.294918,33.715129]}},{"properties":{"rep? (1 for yes, 0 for no)":1,"city":"Rancho Mirage","zip":"92270","geo_score":0.707,"street address":"70-390 Highway 111","id":"a66vnnx88sb9","geo_precision":"street"},"type":"Feature","geometry":{"type":"Point","coordinates":[-116.407963,33.735671]}},{"properties":{"rep? (1 for yes, 0 for no)":1,"city":"Palm Springs","zip":"92262","geo_score":0.902,"street address":"441 South Palm Canyon Drive","id":"a66vnnywoo0a","geo_precision":"range"},"type":"Feature","geometry":{"type":"Point","coordinates":[-116.546783,33.816905]}},{"properties":{"rep? (1 for yes, 0 for no)":1,"city":"Palm Springs","zip":"92262","geo_score":0.902,"street address":"420 South Palm Canyon Dr","id":"a66vnnywh5d3","geo_precision":"range"},"type":"Feature","geometry":{"type":"Point","coordinates":[-116.546783,33.817274]}},{"properties":{"rep? (1 for yes, 0 for no)":1,"city":"Cathedral City","zip":"92234","geo_score":0.707,"street address":"35-950 Date Palm Drive","id":"a66vnnt0jinw","geo_precision":"street"},"type":"Feature","geometry":{"type":"Point","coordinates":[-116.458439,33.845024]}},{"properties":{"rep? (1 for yes, 0 for no)":1,"city":"Palm Desert","zip":"92260","geo_score":0.541,"street address":"74-010 El Paseo","id":"a66vnnu9vqid","geo_precision":"street"},"type":"Feature","geometry":{"type":"Point","coordinates":[-116.39862,33.72306]}},{"properties":{"rep? (1 for yes, 0 for no)":1,"city":"La Quinta","zip":"92253","geo_score":0.482,"street address":"78752 U.S. Highway 111","id":"a66vnnmdzds1","geo_precision":"street"},"type":"Feature","geometry":{"type":"Point","coordinates":[-116.298551,33.716155]}},{"properties":{"rep? (1 for yes, 0 for no)":1,"city":"Riverside","zip":"92506","geo_score":0.5,"street address":"3637 Arlington Avenue, Suite B","id":"a66vnns1xnxg","geo_precision":"street"},"type":"Feature","geometry":{"type":"Point","coordinates":[-117.354342,33.944683]}},{"properties":{"rep? (1 for yes, 0 for no)":1,"city":"Riverside","zip":"92506","geo_score":0.5,"street address":"3637 Arlington Avenue, Suite B","id":"a66vnnnud677","geo_precision":"street"},"type":"Feature","geometry":{"type":"Point","coordinates":[-117.354342,33.944683]}},{"properties":{"rep? (1 for yes, 0 for no)":1,"city":"Corona","zip":"92879","geo_score":0.805,"street address":"102 East Sixth Street","id":"a66vnnvd16q1","geo_precision":"range"},"type":"Feature","geometry":{"type":"Point","coordinates":[-117.567498,33.875517]}},{"properties":{"rep? (1 for yes, 0 for no)":1,"city":"Riverside","zip":"92506","geo_score":0.902,"street address":"3756 Central Avenue","id":"a66vno1m0cw9","geo_precision":"range"},"type":"Feature","geometry":{"type":"Point","coordinates":[-117.395206,33.953532]}},{"properties":{"rep? (1 for yes, 0 for no)":1,"city":"Moreno Valley","zip":"92553","geo_score":0.865,"street address":"12460 Heacock St","id":"a66vno2hf6us","geo_precision":"range"},"type":"Feature","geometry":{"type":"Point","coordinates":[-117.24378,33.939599]}},{"properties":{"rep? (1 for yes, 0 for no)":1,"city":"Hemet","zip":"92544","geo_score":0.902,"street address":"1690 E Florida Ave","id":"a66vnnwtinfl","geo_precision":"range"},"type":"Feature","geometry":{"type":"Point","coordinates":[-116.954509,33.747649]}},{"properties":{"rep? (1 for yes, 0 for no)":0,"city":"Blythe","zip":"92225","geo_score":0.546,"street address":"201 East Hobson Way","id":"a66vnnuhldhy","geo_precision":"zip"},"type":"Feature","geometry":{"type":"Point","coordinates":[-114.573845,33.61058]}},{"properties":{"rep? (1 for yes, 0 for no)":1,"city":"Riverside","zip":"92501","geo_score":0.902,"street address":"4001 Main Street","id":"a66vnnrojbgu","geo_precision":"range"},"type":"Feature","geometry":{"type":"Point","coordinates":[-117.375782,33.980005]}},{"properties":{"rep? (1 for yes, 0 for no)":1,"city":"Riverside","zip":"92507","geo_score":0.804,"street address":"5225 Canyon Crest Dr","id":"a66vno01p280","geo_precision":"range"},"type":"Feature","geometry":{"type":"Point","coordinates":[-117.330208,33.957669]}},{"properties":{"rep? (1 for yes, 0 for no)":1,"city":"Rancho Mirage","zip":"92270","geo_score":0.707,"street address":"71-991 Highway 111","id":"a66vnnt2x7gm","geo_precision":"street"},"type":"Feature","geometry":{"type":"Point","coordinates":[-116.407963,33.735671]}},{"properties":{"rep? (1 for yes, 0 for no)":1,"city":"Corona","zip":"92879","geo_score":0.429,"street address":"487 Magnolia Avenue, Suite 101","id":"a66vnnokvdkn","geo_precision":"street"},"type":"Feature","geometry":{"type":"Point","coordinates":[-117.561323,33.855031]}},{"properties":{"rep? (1 for yes, 0 for no)":1,"city":"Temecula","zip":"92591","geo_score":0.902,"street address":"40325 Winchester Road","id":"a66vnnnq2ube","geo_precision":"range"},"type":"Feature","geometry":{"type":"Point","coordinates":[-117.153524,33.52954]}},{"properties":{"rep? (1 for yes, 0 for no)":0,"city":"Blythe","zip":"92225","geo_score":0.546,"street address":"149 East Hobson Way","id":"a66vno1z5res","geo_precision":"zip"},"type":"Feature","geometry":{"type":"Point","coordinates":[-114.573845,33.61058]}},{"properties":{"rep? (1 for yes, 0 for no)":1,"city":"Coachella","zip":"92236","geo_score":0.727,"street address":"1491 South Sixth Street","id":"a66vno1i2vfp","geo_precision":"range"},"type":"Feature","geometry":{"type":"Point","coordinates":[-116.176651,33.678738]}},{"properties":{"rep? (1 for yes, 0 for no)":1,"city":"Palm Desert","zip":"92260","geo_score":0.541,"street address":"One El Paseo Plaza,74-199 El Paseo","id":"a66vno09mr0c","geo_precision":"street"},"type":"Feature","geometry":{"type":"Point","coordinates":[-116.39862,33.72306]}},{"properties":{"rep? (1 for yes, 0 for no)":1,"city":"Hemet","zip":"92545","geo_score":0.902,"street address":"2091 West Florida Avenue","id":"a66vnnsxk70a","geo_precision":"range"},"type":"Feature","geometry":{"type":"Point","coordinates":[-116.993303,33.747442]}},{"properties":{"rep? (1 for yes, 0 for no)":1,"city":"Indio","zip":"92201","geo_score":0.545,"street address":"81-790 Highway 111","id":"a66vnnu2wun0","geo_precision":"street"},"type":"Feature","geometry":{"type":"Point","coordinates":[-116.242607,33.707615]}},{"properties":{"rep? (1 for yes, 0 for no)":1,"city":"La Quinta","zip":"92253","geo_score":0.707,"street address":"51-290 Avenida Bermudas","id":"a66vnnyag202","geo_precision":"street"},"type":"Feature","geometry":{"type":"Point","coordinates":[-116.303707,33.678168]}},{"properties":{"rep? (1 for yes, 0 for no)":1,"city":"Palm Desert","zip":"92260","geo_score":0.593,"street address":"42-005 Cook, Suite 310","id":"a66vnnmkph57","geo_precision":"street"},"type":"Feature","geometry":{"type":"Point","coordinates":[-116.356319,33.739806]}},{"properties":{"rep? (1 for yes, 0 for no)":1,"city":"Palm Springs","zip":"92262","geo_score":0.902,"street address":"1111 East Tahquitz Canyon Way","id":"a66vnnq1y2zu","geo_precision":"range"},"type":"Feature","geometry":{"type":"Point","coordinates":[-116.534697,33.823159]}},{"properties":{"rep? (1 for yes, 0 for no)":1,"city":"Thousand Palms","zip":"92276","geo_score":0.707,"street address":"72-885 Ramon Road","id":"a66vnny6jz97","geo_precision":"street"},"type":"Feature","geometry":{"type":"Point","coordinates":[-116.401241,33.816389]}},{"properties":{"rep? (1 for yes, 0 for no)":1,"city":"Riverside","zip":"92502","geo_score":0.805,"street address":"3484 Central Avenue","id":"a66vnnofauk8","geo_precision":"range"},"type":"Feature","geometry":{"type":"Point","coordinates":[-117.386984,33.953609]}},{"properties":{"rep? (1 for yes, 0 for no)":1,"city":"Riverside","zip":"92502","geo_score":0.805,"street address":"3985 University Ave","id":"a66vnnyv4d4l","geo_precision":"range"},"type":"Feature","geometry":{"type":"Point","coordinates":[-117.37784,33.983513]}},{"properties":{"rep? (1 for yes, 0 for no)":1,"city":"Riverside","zip":"92501","geo_score":0.714,"street address":"3403 Tenth Street, Suite 100","id":"a66vnnwzx88f","geo_precision":"street"},"type":"Feature","geometry":{"type":"Point","coordinates":[-117.371749,33.978139]}},{"properties":{"rep? (1 for yes, 0 for no)":1,"city":"Riverside","zip":"92506","geo_score":0.902,"street address":"3692 Sunnyside Drive","id":"a66vno2mgjsi","geo_precision":"range"},"type":"Feature","geometry":{"type":"Point","coordinates":[-117.393696,33.954585]}},{"properties":{"rep? (1 for yes, 0 for no)":1,"city":"Murrieta","zip":"92562","geo_score":0.5,"street address":"26755 Jefferson Avenue, Suite C","id":"a66vno1a6zq3","geo_precision":"street"},"type":"Feature","geometry":{"type":"Point","coordinates":[-117.212898,33.553289]}},{"properties":{"rep? (1 for yes, 0 for no)":1,"city":"Temecula","zip":"92590","geo_score":0.464,"street address":"27710 Jefferson Avenue, Suites #a100 And #a200","id":"a66vnnsg6hhd","geo_precision":"street"},"type":"Feature","geometry":{"type":"Point","coordinates":[-117.170356,33.525611]}},{"properties":{"rep? (1 for yes, 0 for no)":1,"city":"Corona","zip":"92879","geo_score":0.464,"street address":"1120 El Camino Avenue","id":"a66vnnoqte1m","geo_precision":"street"},"type":"Feature","geometry":{"type":"Point","coordinates":[-117.934217,33.882025]}},{"properties":{"rep? (1 for yes, 0 for no)":1,"city":"Corona","zip":"92879","geo_score":0.464,"street address":"1120 El Camino Avenue","id":"a66vnnr07kqt","geo_precision":"street"},"type":"Feature","geometry":{"type":"Point","coordinates":[-117.934217,33.882025]}},{"properties":{"rep? (1 for yes, 0 for no)":1,"city":"Temecula","zip":"92593","geo_score":0.429,"street address":"27710 Jefferson Avenue, Suite A100","id":"a66vno2lr8sc","geo_precision":"street"},"type":"Feature","geometry":{"type":"Point","coordinates":[-117.234773,33.783398]}},{"properties":{"rep? (1 for yes, 0 for no)":1,"city":"Murrieta","zip":"92562","geo_score":0.902,"street address":"41500 Ivy Street","id":"a66vnnpdax4b","geo_precision":"range"},"type":"Feature","geometry":{"type":"Point","coordinates":[-117.204745,33.555956]}},{"properties":{"rep? (1 for yes, 0 for no)":1,"city":"Temecula","zip":"92591","geo_score":0.476,"street address":"40820 Winchester Road, Suite 1160","id":"a66vnnx41633","geo_precision":"street"},"type":"Feature","geometry":{"type":"Point","coordinates":[-117.143694,33.5483]}},{"properties":{"rep? (1 for yes, 0 for no)":1,"city":"Hemet","zip":"92544","geo_score":0.902,"street address":"1600 East Florida Avenue","id":"a66vnnr2hgh7","geo_precision":"range"},"type":"Feature","geometry":{"type":"Point","coordinates":[-116.955549,33.747632]}},{"properties":{"rep? (1 for yes, 0 for no)":1,"city":"Anza","zip":"92539","geo_score":0.769,"street address":"56525 Highway 371","id":"a66vno2e7j7r","geo_precision":"range"},"type":"Feature","geometry":{"type":"Point","coordinates":[-116.674379,33.555125]}},{"properties":{"rep? (1 for yes, 0 for no)":1,"city":"Riverside","zip":"92506","geo_score":0.902,"street address":"3715 Sunnyside Drive","id":"a66vnnpg7l63","geo_precision":"range"},"type":"Feature","geometry":{"type":"Point","coordinates":[-117.394145,33.954584]}},{"properties":{"rep? (1 for yes, 0 for no)":1,"city":"Hemet","zip":"92543","geo_score":0.902,"street address":"1555 West Florida Avenue","id":"a66vnnnaz1o5","geo_precision":"range"},"type":"Feature","geometry":{"type":"Point","coordinates":[-116.987197,33.747469]}},{"properties":{"rep? (1 for yes, 0 for no)":1,"city":"Mira Loma","zip":"91752","geo_score":0.902,"street address":"6170 Hamner Avenue","id":"a66vnnzyxgkf","geo_precision":"range"},"type":"Feature","geometry":{"type":"Point","coordinates":[-117.558344,33.976309]}},{"properties":{"rep? (1 for yes, 0 for no)":1,"city":"Corona","zip":"92879","geo_score":0.902,"street address":"369 Magnolia Avenue","id":"a66vno2t5uu3","geo_precision":"range"},"type":"Feature","geometry":{"type":"Point","coordinates":[-117.560797,33.855362]}},{"properties":{"rep? (1 for yes, 0 for no)":1,"city":"Murrieta","zip":"92563","geo_score":0.385,"street address":"38995-A Sky Cannon Drive","id":"a66vnnmrb023","geo_precision":"street"},"type":"Feature","geometry":{"type":"Point","coordinates":[-117.165946,33.548206]}},{"properties":{"rep? (1 for yes, 0 for no)":1,"city":"Murrieta","zip":"92562","geo_score":0.902,"street address":"23801 Washington Avenue","id":"a66vno17kq0b","geo_precision":"range"},"type":"Feature","geometry":{"type":"Point","coordinates":[-117.234643,33.572524]}},{"properties":{"rep? (1 for yes, 0 for no)":1,"city":"Perris","zip":"92571","geo_score":0.429,"street address":"2560 North Perris Boulevard, H","id":"a66vnnnm8ywt","geo_precision":"street"},"type":"Feature","geometry":{"type":"Point","coordinates":[-117.226124,33.786581]}},{"properties":{"rep? (1 for yes, 0 for no)":1,"city":"Riverside","zip":"92506","geo_score":0.707,"street address":"3520 Riverside Avenue","id":"a66vnnyuvx0h","geo_precision":"street"},"type":"Feature","geometry":{"type":"Point","coordinates":[-117.381373,33.971115]}},{"properties":{"rep? (1 for yes, 0 for no)":1,"city":"Murrieta","zip":"92563","geo_score":0.655,"street address":"39140 Winchester Road","id":"a66vnns7n93r","geo_precision":"street"},"type":"Feature","geometry":{"type":"Point","coordinates":[-117.140653,33.551482]}},{"properties":{"rep? (1 for yes, 0 for no)":1,"city":"Riverside","zip":"92503","geo_score":0.805,"street address":"9811 Magnolia Avenue","id":"a66vnnw0idps","geo_precision":"range"},"type":"Feature","geometry":{"type":"Point","coordinates":[-117.452191,33.917131]}},{"properties":{"rep? (1 for yes, 0 for no)":0,"city":"Blythe","zip":"92225","geo_score":0.546,"street address":"100 West Hobson Way","id":"a66vnnwd5gcl","geo_precision":"zip"},"type":"Feature","geometry":{"type":"Point","coordinates":[-114.573845,33.61058]}},{"properties":{"rep? (1 for yes, 0 for no)":1,"city":"Palm Desert","zip":"92260","geo_score":0.82,"street address":"74-884 Country Club Drive","id":"a66vnnw3kl49","geo_precision":"range"},"type":"Feature","geometry":{"type":"Point","coordinates":[-116.407436,33.686775]}},{"properties":{"rep? (1 for yes, 0 for no)":1,"city":"Corona","zip":"92881","geo_score":0.805,"street address":"1212 Magnolia Avenue","id":"a66vnnu5cboy","geo_precision":"range"},"type":"Feature","geometry":{"type":"Point","coordinates":[-117.544463,33.864666]}},{"properties":{"rep? (1 for yes, 0 for no)":1,"city":"Corona","zip":"92879","geo_score":0.714,"street address":"391 Main Street, Suite 100","id":"a66vno1gqanj","geo_precision":"street"},"type":"Feature","geometry":{"type":"Point","coordinates":[-117.940875,33.77126]}},{"properties":{"rep? (1 for yes, 0 for no)":1,"city":"Riverside","zip":"92509","geo_score":0.824,"street address":"9103 Mission Boulevard","id":"a66vno29n3z1","geo_precision":"range"},"type":"Feature","geometry":{"type":"Point","coordinates":[-117.481826,34.011797]}},{"properties":{"rep? (1 for yes, 0 for no)":1,"city":"Palm Springs","zip":"92262","geo_score":0.902,"street address":"425 South Sunrise Way","id":"a66vnnwmnqjo","geo_precision":"range"},"type":"Feature","geometry":{"type":"Point","coordinates":[-116.528219,33.817324]}},{"properties":{"rep? (1 for yes, 0 for no)":1,"city":"Menifee","zip":"92584","geo_score":0.902,"street address":"30125 Antelope Road","id":"a66vnnz8wnb5","geo_precision":"range"},"type":"Feature","geometry":{"type":"Point","coordinates":[-117.167222,33.684034]}},{"properties":{"rep? (1 for yes, 0 for no)":1,"city":"Riverside","zip":"92508","geo_score":0.828,"street address":"315 East Alessandro Boulevard","id":"a66vnntmpsri","geo_precision":"range"},"type":"Feature","geometry":{"type":"Point","coordinates":[-117.324389,33.916402]}},{"properties":{"rep? (1 for yes, 0 for no)":1,"city":"Moreno Valley","zip":"92553","geo_score":0.865,"street address":"12625 Frederick Street","id":"a66vno2istvk","geo_precision":"range"},"type":"Feature","geometry":{"type":"Point","coordinates":[-117.261422,33.936758]}},{"properties":{"rep? (1 for yes, 0 for no)":1,"city":"Palm Desert","zip":"92260","geo_score":0.478,"street address":"73-785 El Paseo Avenue","id":"a66vnnx801nh","geo_precision":"street"},"type":"Feature","geometry":{"type":"Point","coordinates":[-116.39862,33.72306]}},{"properties":{"rep? (1 for yes, 0 for no)":1,"city":"Palm Springs","zip":"92264","geo_score":0.902,"street address":"500 South Indian Canyon Drive","id":"a66vnnmv351p","geo_precision":"range"},"type":"Feature","geometry":{"type":"Point","coordinates":[-116.545581,33.815844]}},{"properties":{"rep? (1 for yes, 0 for no)":1,"city":"Rancho Mirage","zip":"92270","geo_score":0.857,"street address":"71-950 Highway 111, Suite A","id":"a66vnnt3sbep","geo_precision":"street"},"type":"Feature","geometry":{"type":"Point","coordinates":[-116.407037,33.734384]}},{"properties":{"rep? (1 for yes, 0 for no)":1,"city":"Riverside","zip":"92501","geo_score":0.805,"street address":"3403 Tenth Street","id":"a66vnnzvnaai","geo_precision":"range"},"type":"Feature","geometry":{"type":"Point","coordinates":[-117.37232,33.978398]}},{"properties":{"rep? (1 for yes, 0 for no)":1,"city":"Corona","zip":"92882","geo_score":0.854,"street address":"2661 Green River Road","id":"a66vnnz9l5ov","geo_precision":"range"},"type":"Feature","geometry":{"type":"Point","coordinates":[-117.622292,33.870576]}},{"properties":{"rep? (1 for yes, 0 for no)":1,"city":"Moreno Valley","zip":"92553","geo_score":0.565,"street address":"2375 Sunnymead Ranch","id":"a66vnnugpw9z","geo_precision":"street"},"type":"Feature","geometry":{"type":"Point","coordinates":[-117.267844,33.940666]}},{"properties":{"rep? (1 for yes, 0 for no)":1,"city":"Temecula","zip":"92591","geo_score":0.902,"street address":"26407 Ynez Road","id":"a66vnnqzrrft","geo_precision":"range"},"type":"Feature","geometry":{"type":"Point","coordinates":[-117.159886,33.524369]}},{"properties":{"rep? (1 for yes, 0 for no)":1,"city":"Hemet","zip":"92543","geo_score":0.902,"street address":"800 East Florida Avenue","id":"a66vno08tk0c","geo_precision":"range"},"type":"Feature","geometry":{"type":"Point","coordinates":[-116.964064,33.747595]}},{"properties":{"rep? (1 for yes, 0 for no)":1,"city":"Moreno Valley","zip":"92553","geo_score":0.865,"street address":"24010 Sunnymead Boulevard","id":"a66vnnu3v2iz","geo_precision":"range"},"type":"Feature","geometry":{"type":"Point","coordinates":[-117.243639,33.939096]}},{"properties":{"rep? (1 for yes, 0 for no)":1,"city":"Riverside","zip":"92504","geo_score":0.805,"street address":"16920 Van Buren Boulevard","id":"a66vnnmmdhqd","geo_precision":"range"},"type":"Feature","geometry":{"type":"Point","coordinates":[-117.367907,33.882374]}},{"properties":{"rep? (1 for yes, 0 for no)":1,"city":"Hemet","zip":"92543","geo_score":0.902,"street address":"800 East Florida Avenue","id":"a66vnnzaqpxa","geo_precision":"range"},"type":"Feature","geometry":{"type":"Point","coordinates":[-116.964064,33.747595]}},{"properties":{"rep? (1 for yes, 0 for no)":1,"city":"Corona","zip":"92878","geo_score":0.714,"street address":"200 South Main Street, Suite 150","id":"a66vnnw0zkq7","geo_precision":"street"},"type":"Feature","geometry":{"type":"Point","coordinates":[-117.565594,33.880137]}},{"properties":{"rep? (1 for yes, 0 for no)":1,"city":"Corona","zip":"92879","geo_score":0.756,"street address":"1260 Corona Pointe Court","id":"a66vnntt8paa","geo_precision":"range"},"type":"Feature","geometry":{"type":"Point","coordinates":[-117.555322,33.896544]}},{"properties":{"rep? (1 for yes, 0 for no)":1,"city":"Hemet","zip":"92545","geo_score":0.876,"street address":"105 North Cawston Avenue","id":"a66vno0lcc7c","geo_precision":"range"},"type":"Feature","geometry":{"type":"Point","coordinates":[-117.015258,33.745268]}},{"properties":{"rep? (1 for yes, 0 for no)":1,"city":"Banning","zip":"92220","geo_score":0.902,"street address":"1118 W Ramsey St","id":"a66vnnuq0dir","geo_precision":"range"},"type":"Feature","geometry":{"type":"Point","coordinates":[-116.888831,33.925433]}},{"properties":{"rep? (1 for yes, 0 for no)":1,"city":"Desert Hot Springs","zip":"92240","geo_score":0.811,"street address":"13000 Palm Dr.","id":"a66vnntdhrx8","geo_precision":"range"},"type":"Feature","geometry":{"type":"Point","coordinates":[-116.501329,33.954177]}},{"properties":{"rep? (1 for yes, 0 for no)":1,"city":"Riverside","zip":"92506","geo_score":0.902,"street address":"3590 Central Ave","id":"a66vnnw5vi16","geo_precision":"range"},"type":"Feature","geometry":{"type":"Point","coordinates":[-117.390674,33.953583]}},{"properties":{"rep? (1 for yes, 0 for no)":1,"city":"Palm Springs","zip":"92262","geo_score":0.902,"street address":"499 S Palm Canyon Dr","id":"a66vnnmhbtn5","geo_precision":"range"},"type":"Feature","geometry":{"type":"Point","coordinates":[-116.546786,33.815838]}},{"properties":{"rep? (1 for yes, 0 for no)":1,"city":"Palm Desert","zip":"92260","geo_score":0.625,"street address":"72-705 State Hwy 111","id":"a66vnnpq0rxx","geo_precision":"street"},"type":"Feature","geometry":{"type":"Point","coordinates":[-116.402942,33.72868]}},{"properties":{"rep? (1 for yes, 0 for no)":0,"city":"Indio","zip":"92201","geo_score":0.545,"street address":"82-462 Highway 111","id":"a66vnnqzqg4b","geo_precision":"street"},"type":"Feature","geometry":{"type":"Point","coordinates":[-116.242607,33.707615]}},{"properties":{"rep? (1 for yes, 0 for no)":1,"city":"Calimesa","zip":"92320","geo_score":0.902,"street address":"1195 Calimesa Boulevard","id":"a66vnns296ty","geo_precision":"range"},"type":"Feature","geometry":{"type":"Point","coordinates":[-117.057994,33.995018]}},{"properties":{"rep? (1 for yes, 0 for no)":1,"city":"Corona","zip":"92879","geo_score":0.514,"street address":"360 North Mckinley Street, Suite 101","id":"a66vnnt4jdju","geo_precision":"street"},"type":"Feature","geometry":{"type":"Point","coordinates":[-117.515071,33.88292]}},{"properties":{"rep? (1 for yes, 0 for no)":1,"city":"Hemet","zip":"92544","geo_score":0.902,"street address":"1800 East Florida Avenue","id":"a66vnnxmitmg","geo_precision":"range"},"type":"Feature","geometry":{"type":"Point","coordinates":[-116.953,33.747648]}},{"properties":{"rep? (1 for yes, 0 for no)":1,"city":"Lake Elsinore","zip":"92530","geo_score":0.902,"street address":"31960 Mission Trail","id":"a66vnnqr6wph","geo_precision":"range"},"type":"Feature","geometry":{"type":"Point","coordinates":[-117.296869,33.653638]}},{"properties":{"rep? (1 for yes, 0 for no)":1,"city":"Moreno Valley","zip":"92553","geo_score":0.802,"street address":"12625 Frederick St Bl 6","id":"a66vnnttd7dm","geo_precision":"range"},"type":"Feature","geometry":{"type":"Point","coordinates":[-117.261422,33.936758]}},{"properties":{"rep? (1 for yes, 0 for no)":1,"city":"Murrieta","zip":"92563","geo_score":0.726,"street address":"40655 California Oaks Road","id":"a66vnnus35mz","geo_precision":"range"},"type":"Feature","geometry":{"type":"Point","coordinates":[-117.171484,33.601416]}},{"properties":{"rep? (1 for yes, 0 for no)":1,"city":"Riverside","zip":"92509","geo_score":0.824,"street address":"7800 Limonite Avenue","id":"a66vnnp6xsyc","geo_precision":"range"},"type":"Feature","geometry":{"type":"Point","coordinates":[-117.454709,33.978441]}},{"properties":{"rep? (1 for yes, 0 for no)":1,"city":"San Jacinto","zip":"92583","geo_score":0.829,"street address":"102 West Main Street","id":"a66vnnopogzf","geo_precision":"range"},"type":"Feature","geometry":{"type":"Point","coordinates":[-116.958884,33.783907]}},{"properties":{"rep? (1 for yes, 0 for no)":1,"city":"Sun City","zip":"92586","geo_score":0.902,"street address":"26750 Mccall Boulevard","id":"a66vnnolj3cc","geo_precision":"range"},"type":"Feature","geometry":{"type":"Point","coordinates":[-117.192464,33.71521]}},{"properties":{"rep? (1 for yes, 0 for no)":1,"city":"Temecula","zip":"92591","geo_score":0.902,"street address":"26411 Ynez Road","id":"a66vnntir570","geo_precision":"range"},"type":"Feature","geometry":{"type":"Point","coordinates":[-117.159727,33.524194]}},{"properties":{"rep? (1 for yes, 0 for no)":1,"city":"Corona","zip":"92882","geo_score":0.805,"street address":"1130 West 6th Street","id":"a66vnnrrdm29","geo_precision":"range"},"type":"Feature","geometry":{"type":"Point","coordinates":[-117.583903,33.877321]}},{"properties":{"rep? (1 for yes, 0 for no)":1,"city":"Riverside","zip":"92508","geo_score":0.828,"street address":"8938 Trautwein Road","id":"a66vnnqphtvr","geo_precision":"range"},"type":"Feature","geometry":{"type":"Point","coordinates":[-117.324125,33.888462]}},{"properties":{"rep? (1 for yes, 0 for no)":1,"city":"Banning","zip":"92220","geo_score":0.902,"street address":"300 South Highland Springs Avenue","id":"a66vnnv8mf44","geo_precision":"range"},"type":"Feature","geometry":{"type":"Point","coordinates":[-116.946776,33.923781]}},{"properties":{"rep? (1 for yes, 0 for no)":1,"city":"Menifee","zip":"92584","geo_score":0.902,"street address":"26100 Newport Road","id":"a66vnnw0k9ue","geo_precision":"range"},"type":"Feature","geometry":{"type":"Point","coordinates":[-117.204288,33.685035]}},{"properties":{"rep? (1 for yes, 0 for no)":1,"city":"Banning","zip":"92220","geo_score":0.902,"street address":"1735 West Ramsey Street","id":"a66vno1exmi0","geo_precision":"range"},"type":"Feature","geometry":{"type":"Point","coordinates":[-116.895501,33.925421]}},{"properties":{"rep? (1 for yes, 0 for no)":1,"city":"Beaumont","zip":"92223","geo_score":0.715,"street address":"499 East Sixth Street","id":"a66vnnyw6t3f","geo_precision":"range"},"type":"Feature","geometry":{"type":"Point","coordinates":[-116.975774,33.929404]}},{"properties":{"rep? (1 for yes, 0 for no)":1,"city":"Murrieta","zip":"92562","geo_score":0.902,"street address":"41000 California Oaks Road","id":"a66vno0ljxy3","geo_precision":"range"},"type":"Feature","geometry":{"type":"Point","coordinates":[-117.205894,33.567671]}},{"properties":{"rep? (1 for yes, 0 for no)":1,"city":"Cathedral City","zip":"92234","geo_score":0.902,"street address":"69255 Ramon Road","id":"a66vnnqzxbgb","geo_precision":"range"},"type":"Feature","geometry":{"type":"Point","coordinates":[-116.453752,33.815971]}},{"properties":{"rep? (1 for yes, 0 for no)":1,"city":"Corona","zip":"92882","geo_score":0.805,"street address":"1111 West Sixth Street","id":"a66vnnyklibn","geo_precision":"range"},"type":"Feature","geometry":{"type":"Point","coordinates":[-117.583446,33.877266]}},{"properties":{"rep? (1 for yes, 0 for no)":1,"city":"Corona","zip":"92883","geo_score":0.585,"street address":"3877 Bedford Canyon Road","id":"a66vno1i3f32","geo_precision":"street"},"type":"Feature","geometry":{"type":"Point","coordinates":[-117.524206,33.823977]}},{"properties":{"rep? (1 for yes, 0 for no)":1,"city":"Palm Springs","zip":"92264","geo_score":0.902,"street address":"1733 East Palm Canyon Drive","id":"a66vnnvrta47","geo_precision":"range"},"type":"Feature","geometry":{"type":"Point","coordinates":[-116.52802,33.80143]}},{"properties":{"rep? (1 for yes, 0 for no)":1,"city":"Hemet","zip":"92543","geo_score":0.902,"street address":"1100 East Florida Avenue","id":"a66vnnog575t","geo_precision":"range"},"type":"Feature","geometry":{"type":"Point","coordinates":[-116.960811,33.747599]}},{"properties":{"rep? (1 for yes, 0 for no)":1,"city":"Temecula","zip":"92592","geo_score":0.672,"street address":"31813 Highway 79 South","id":"a66vnnryerg3","geo_precision":"street"},"type":"Feature","geometry":{"type":"Point","coordinates":[-117.10149,33.480326]}},{"properties":{"rep? (1 for yes, 0 for no)":1,"city":"La Quinta","zip":"92253","geo_score":0.482,"street address":"78630 U.S. Highway 111","id":"a66vnns8e702","geo_precision":"street"},"type":"Feature","geometry":{"type":"Point","coordinates":[-116.298551,33.716155]}},{"properties":{"rep? (1 for yes, 0 for no)":1,"city":"Indio","zip":"92201","geo_score":0.813,"street address":"46020 Monroe Street","id":"a66vnnoqye5k","geo_precision":"range"},"type":"Feature","geometry":{"type":"Point","coordinates":[-116.23382,33.714514]}},{"properties":{"rep? (1 for yes, 0 for no)":1,"city":"Riverside","zip":"92509","geo_score":0.824,"street address":"8844 Limonite Avenue","id":"a66vnnt4erbr","geo_precision":"range"},"type":"Feature","geometry":{"type":"Point","coordinates":[-117.476419,33.975682]}},{"properties":{"rep? (1 for yes, 0 for no)":1,"city":"Riverside","zip":"92506","geo_score":0.902,"street address":"6189 Magnolia Avenue","id":"a66vnnznfnae","geo_precision":"range"},"type":"Feature","geometry":{"type":"Point","coordinates":[-117.393285,33.958452]}},{"properties":{"rep? (1 for yes, 0 for no)":1,"city":"Moreno Valley","zip":"92551","geo_score":0.708,"street address":"25900 Iris Avenue","id":"a66vnnmd1sjy","geo_precision":"street"},"type":"Feature","geometry":{"type":"Point","coordinates":[-117.217416,33.888313]}},{"properties":{"rep? (1 for yes, 0 for no)":1,"city":"Murrieta","zip":"92562","geo_score":0.902,"street address":"41232 Murrieta Hot Springs Road","id":"a66vnnym91db","geo_precision":"range"},"type":"Feature","geometry":{"type":"Point","coordinates":[-117.194564,33.553835]}},{"properties":{"rep? (1 for yes, 0 for no)":1,"city":"Norco","zip":"92860","geo_score":0.429,"street address":"120 Hidden Valley Parkway #a","id":"a66vnnrehjp7","geo_precision":"street"},"type":"Feature","geometry":{"type":"Point","coordinates":[-117.528153,33.954727]}},{"properties":{"rep? (1 for yes, 0 for no)":1,"city":"Palm Desert","zip":"92260","geo_score":0.541,"street address":"74-105 El Paseo","id":"a66vnnyol8x2","geo_precision":"street"},"type":"Feature","geometry":{"type":"Point","coordinates":[-116.39862,33.72306]}},{"properties":{"rep? (1 for yes, 0 for no)":1,"city":"Palm Desert","zip":"92260","geo_score":0.736,"street address":"74199 El Paseo","id":"a66vnnrzj8r0","geo_precision":"range"},"type":"Feature","geometry":{"type":"Point","coordinates":[-116.370826,33.721318]}},{"properties":{"rep? (1 for yes, 0 for no)":1,"city":"Palm Springs","zip":"92264","geo_score":0.902,"street address":"543 South Palm Canyon Drive","id":"a66vnnvbu7ah","geo_precision":"range"},"type":"Feature","geometry":{"type":"Point","coordinates":[-116.546474,33.815034]}},{"properties":{"rep? (1 for yes, 0 for no)":1,"city":"Perris","zip":"92571","geo_score":0.902,"street address":"2560 N Perris Blvd.","id":"a66vno2i89s4","geo_precision":"range"},"type":"Feature","geometry":{"type":"Point","coordinates":[-117.226107,33.818517]}},{"properties":{"rep? (1 for yes, 0 for no)":1,"city":"Rancho Mirage","zip":"92270","geo_score":0.707,"street address":"42-350 Bob Hope Drive","id":"a66vnnrcgifv","geo_precision":"street"},"type":"Feature","geometry":{"type":"Point","coordinates":[-116.41051,33.81633]}},{"properties":{"rep? (1 for yes, 0 for no)":1,"city":"Palm Springs","zip":"92264","geo_score":0.902,"street address":"4733 East Palm Canyon Drive","id":"a66vnnwzetbg","geo_precision":"range"},"type":"Feature","geometry":{"type":"Point","coordinates":[-116.498872,33.794253]}},{"properties":{"rep? (1 for yes, 0 for no)":1,"city":"Riverside","zip":"92501","geo_score":0.902,"street address":"3750 University Avenue","id":"a66vno1ia2xi","geo_precision":"range"},"type":"Feature","geometry":{"type":"Point","coordinates":[-117.375042,33.982236]}},{"properties":{"rep? (1 for yes, 0 for no)":1,"city":"Murrieta","zip":"92563","geo_score":0.848,"street address":"38995 Sky Canyon Drive","id":"a66vno2fm2wi","geo_precision":"range"},"type":"Feature","geometry":{"type":"Point","coordinates":[-117.131083,33.577019]}},{"properties":{"rep? (1 for yes, 0 for no)":1,"city":"Riverside","zip":"92503","geo_score":0.805,"street address":"3765 Tyler Street","id":"a66vnnmreg7v","geo_precision":"range"},"type":"Feature","geometry":{"type":"Point","coordinates":[-117.460947,33.911402]}},{"properties":{"rep? (1 for yes, 0 for no)":1,"city":"Moreno Valley","zip":"92553","geo_score":0.496,"street address":"12625 Frederick Street, Ste U","id":"a66vnnms0ej0","geo_precision":"street"},"type":"Feature","geometry":{"type":"Point","coordinates":[-117.255877,33.923076]}},{"properties":{"rep? (1 for yes, 0 for no)":1,"city":"Palm Desert","zip":"92211","geo_score":0.902,"street address":"77952 Country Club Dr","id":"a66vnnn4dahd","geo_precision":"range"},"type":"Feature","geometry":{"type":"Point","coordinates":[-116.305068,33.758221]}},{"properties":{"rep? (1 for yes, 0 for no)":1,"city":"Riverside","zip":"92503","geo_score":0.805,"street address":"4250 Van Buren Boulevard","id":"a66vnnstqjs5","geo_precision":"range"},"type":"Feature","geometry":{"type":"Point","coordinates":[-117.452235,33.927381]}},{"properties":{"rep? (1 for yes, 0 for no)":1,"city":"Palm Springs","zip":"92262","geo_score":0.902,"street address":"1717 East Vista Chino","id":"a66vnnmvamra","geo_precision":"range"},"type":"Feature","geometry":{"type":"Point","coordinates":[-116.528028,33.844856]}},{"properties":{"rep? (1 for yes, 0 for no)":1,"city":"Corona","zip":"92879","geo_score":0.902,"street address":"535 North Mckinley Street","id":"a66vnnrzk50o","geo_precision":"range"},"type":"Feature","geometry":{"type":"Point","coordinates":[-117.521302,33.890617]}},{"properties":{"rep? (1 for yes, 0 for no)":1,"city":"Lake Elsinore","zip":"92532","geo_score":0.591,"street address":"31564 Grape Street","id":"a66vnnmdwkn6","geo_precision":"street"},"type":"Feature","geometry":{"type":"Point","coordinates":[-117.297763,33.663515]}},{"properties":{"rep? (1 for yes, 0 for no)":1,"city":"Sun City","zip":"92586","geo_score":0.902,"street address":"27220 Sun City Boulevard","id":"a66vnnsgygdz","geo_precision":"range"},"type":"Feature","geometry":{"type":"Point","coordinates":[-117.193825,33.712643]}},{"properties":{"rep? (1 for yes, 0 for no)":1,"city":"Temecula","zip":"92590","geo_score":0.902,"street address":"28751 Rancho California Rd","id":"a66vnnpzv6g3","geo_precision":"range"},"type":"Feature","geometry":{"type":"Point","coordinates":[-117.155738,33.498405]}},{"properties":{"rep? (1 for yes, 0 for no)":1,"city":"Temecula","zip":"92591","geo_score":0.902,"street address":"27630 Ynez Road","id":"a66vnnzqmr30","geo_precision":"range"},"type":"Feature","geometry":{"type":"Point","coordinates":[-117.149831,33.505243]}},{"properties":{"rep? (1 for yes, 0 for no)":1,"city":"Riverside","zip":"92504","geo_score":0.805,"street address":"3501 Adams St","id":"a66vnnxv7mwy","geo_precision":"range"},"type":"Feature","geometry":{"type":"Point","coordinates":[-117.4201,33.927894]}},{"properties":{"rep? (1 for yes, 0 for no)":1,"city":"Indio","zip":"92203","geo_score":0.902,"street address":"42420 Washington Street","id":"a66vnnv5xyyo","geo_precision":"range"},"type":"Feature","geometry":{"type":"Point","coordinates":[-116.303865,33.740974]}},{"properties":{"rep? (1 for yes, 0 for no)":1,"city":"Desert Hot Springs","zip":"92240","geo_score":0.811,"street address":"14000 Palm Drive","id":"a66vnnmwc7el","geo_precision":"range"},"type":"Feature","geometry":{"type":"Point","coordinates":[-116.50132,33.946818]}},{"properties":{"rep? (1 for yes, 0 for no)":1,"city":"Hemet","zip":"92544","geo_score":0.902,"street address":"1701 East Florida Avenue","id":"a66vnnz3ehon","geo_precision":"range"},"type":"Feature","geometry":{"type":"Point","coordinates":[-116.95429,33.747651]}},{"properties":{"rep? (1 for yes, 0 for no)":1,"city":"Hemet","zip":"92543","geo_score":0.902,"street address":"103 East Stetson Avenue","id":"a66vnnvlua5e","geo_precision":"range"},"type":"Feature","geometry":{"type":"Point","coordinates":[-116.97152,33.729411]}},{"properties":{"rep? (1 for yes, 0 for no)":1,"city":"Lake Elsinore","zip":"92532","geo_score":0.78,"street address":"31600 Grape Street","id":"a66vnnrni6uf","geo_precision":"street"},"type":"Feature","geometry":{"type":"Point","coordinates":[-117.297763,33.663515]}},{"properties":{"rep? (1 for yes, 0 for no)":1,"city":"Sun City","zip":"92586","geo_score":0.902,"street address":"27386 Sun City Boulevard","id":"a66vnns0pfgb","geo_precision":"range"},"type":"Feature","geometry":{"type":"Point","coordinates":[-117.193977,33.715062]}},{"properties":{"rep? (1 for yes, 0 for no)":1,"city":"Apple Valley","zip":"92307","geo_score":0.479,"street address":"19181 Town Center Drive","id":"a66vnnz92pbv","geo_precision":"street"},"type":"Feature","geometry":{"type":"Point","coordinates":[-117.228437,34.520258]}},{"properties":{"rep? (1 for yes, 0 for no)":1,"city":"Apple Valley","zip":"92307","geo_score":0.674,"street address":"21777 Highway 18","id":"a66vnnnub16g","geo_precision":"range"},"type":"Feature","geometry":{"type":"Point","coordinates":[-117.188684,34.500539]}},{"properties":{"rep? (1 for yes, 0 for no)":1,"city":"Barstow","zip":"92311","geo_score":0.631,"street address":"524 East Main Street","id":"a66vnnwg7gsx","geo_precision":"street"},"type":"Feature","geometry":{"type":"Point","coordinates":[-117.02297,34.89874]}},{"properties":{"rep? (1 for yes, 0 for no)":1,"city":"Big Bear Lake","zip":"92315","geo_score":0.823,"street address":"41969 Big Bear Blvd","id":"a66vnny1ucb5","geo_precision":"range"},"type":"Feature","geometry":{"type":"Point","coordinates":[-116.886833,34.243384]}},{"properties":{"rep? (1 for yes, 0 for no)":1,"city":"Chino","zip":"91710","geo_score":0.529,"street address":"3943 Grand Avenue","id":"a66vnnnt4t9d","geo_precision":"street"},"type":"Feature","geometry":{"type":"Point","coordinates":[-117.698611,34.016115]}},{"properties":{"rep? (1 for yes, 0 for no)":1,"city":"Chino","zip":"91710","geo_score":0.529,"street address":"4100 Chino Hills Parkway","id":"a66vnnrvkp78","geo_precision":"street"},"type":"Feature","geometry":{"type":"Point","coordinates":[-117.711081,33.982696]}},{"properties":{"rep? (1 for yes, 0 for no)":1,"city":"Chino","zip":"91710","geo_score":0.821,"street address":"12747 Central Avenue","id":"a66vnnza0zpo","geo_precision":"range"},"type":"Feature","geometry":{"type":"Point","coordinates":[-117.689346,34.021965]}},{"properties":{"rep? (1 for yes, 0 for no)":1,"city":"Chino","zip":"91710","geo_score":0.821,"street address":"12545 Central Avenue","id":"a66vno1nsub6","geo_precision":"range"},"type":"Feature","geometry":{"type":"Point","coordinates":[-117.689394,34.025604]}},{"properties":{"rep? (1 for yes, 0 for no)":1,"city":"Chino","zip":"91710","geo_score":0.821,"street address":"14345 Pipeline Avenue","id":"a66vnnxza1kb","geo_precision":"range"},"type":"Feature","geometry":{"type":"Point","coordinates":[-117.715144,33.993481]}},{"properties":{"rep? (1 for yes, 0 for no)":1,"city":"Chino Hills","zip":"91709","geo_score":0.814,"street address":"3650 Grand Avenue","id":"a66vnnp8e2os","geo_precision":"range"},"type":"Feature","geometry":{"type":"Point","coordinates":[-117.726138,34.00106]}},{"properties":{"rep? (1 for yes, 0 for no)":1,"city":"Chino Hills","zip":"91709","geo_score":0.814,"street address":"15970 Los Serranos Country Club Drive","id":"a66vnnzonknk","geo_precision":"range"},"type":"Feature","geometry":{"type":"Point","coordinates":[-117.694815,33.962931]}},{"properties":{"rep? (1 for yes, 0 for no)":1,"city":"Chino Hills","zip":"91709","geo_score":0.716,"street address":"14808 Pipeline Ave","id":"a66vno0yzjag","geo_precision":"range"},"type":"Feature","geometry":{"type":"Point","coordinates":[-117.715041,33.984628]}},{"properties":{"rep? (1 for yes, 0 for no)":1,"city":"Colton","zip":"92324","geo_score":0.397,"street address":"395 North La Cadena Drive","id":"a66vnnw4lhwd","geo_precision":"street"},"type":"Feature","geometry":{"type":"Point","coordinates":[-117.029528,34.054407]}},{"properties":{"rep? (1 for yes, 0 for no)":1,"city":"Colton","zip":"92324","geo_score":0.618,"street address":"22377 Barton Road","id":"a66vnnuw8kws","geo_precision":"street"},"type":"Feature","geometry":{"type":"Point","coordinates":[-117.328637,34.033893]}},{"properties":{"rep? (1 for yes, 0 for no)":1,"city":"Colton","zip":"92324","geo_score":0.553,"street address":"1080 S. Mt. Vernon Ave. #100","id":"a66vnnmbh052","geo_precision":"range"},"type":"Feature","geometry":{"type":"Point","coordinates":[-117.309527,34.064548]}},{"properties":{"rep? (1 for yes, 0 for no)":1,"city":"Colton","zip":"92324","geo_score":0.397,"street address":"615 North La Cadena Drive","id":"a66vnnwcd1pp","geo_precision":"street"},"type":"Feature","geometry":{"type":"Point","coordinates":[-117.029528,34.054407]}},{"properties":{"rep? (1 for yes, 0 for no)":1,"city":"Fontana","zip":"92335","geo_score":0.862,"street address":"16860 Arrow Boulevard","id":"a66vnnnxcse1","geo_precision":"range"},"type":"Feature","geometry":{"type":"Point","coordinates":[-117.436742,34.099295]}},{"properties":{"rep? (1 for yes, 0 for no)":1,"city":"Fontana","zip":"92335","geo_score":0.862,"street address":"16055 Foothill Boulevard","id":"a66vnny769zz","geo_precision":"range"},"type":"Feature","geometry":{"type":"Point","coordinates":[-117.454817,34.106556]}},{"properties":{"rep? (1 for yes, 0 for no)":1,"city":"Fontana","zip":"92336","geo_score":0.902,"street address":"15092 Summit Avenue","id":"a66vnnv7rtz8","geo_precision":"range"},"type":"Feature","geometry":{"type":"Point","coordinates":[-117.474534,34.150522]}},{"properties":{"rep? (1 for yes, 0 for no)":1,"city":"Fontana","zip":"92335","geo_score":0.732,"street address":"10048 South Sierra","id":"a66vnnqzkzgy","geo_precision":"range"},"type":"Feature","geometry":{"type":"Point","coordinates":[-117.435678,34.07128]}},{"properties":{"rep? (1 for yes, 0 for no)":1,"city":"Fontana","zip":"92337","geo_score":0.547,"street address":"24525 Alessandro Boulevard","id":"a66vno2shgw3","geo_precision":"street"},"type":"Feature","geometry":{"type":"Point","coordinates":[-117.181899,34.011789]}},{"properties":{"rep? (1 for yes, 0 for no)":1,"city":"Fontana","zip":"92335","geo_score":0.862,"street address":"8501 Sierra Avenue","id":"a66vnnq4o9ak","geo_precision":"range"},"type":"Feature","geometry":{"type":"Point","coordinates":[-117.435775,34.099306]}},{"properties":{"rep? (1 for yes, 0 for no)":1,"city":"Fontana","zip":"92335","geo_score":0.862,"street address":"9885 Sierra Ave.","id":"a66vno2o45rl","geo_precision":"range"},"type":"Feature","geometry":{"type":"Point","coordinates":[-117.435681,34.074234]}},{"properties":{"rep? (1 for yes, 0 for no)":1,"city":"Fort Irwin","zip":"92310","geo_score":0.286,"street address":"Building P918","id":"a66vnnoghl42","geo_precision":"street"},"type":"Feature","geometry":{"type":"Point","coordinates":[-114.61639,34.84847]}},{"properties":{"rep? (1 for yes, 0 for no)":1,"city":"Hesperia","zip":"92345","geo_score":0.805,"street address":"17291 Main Street","id":"a66vnnp90h3l","geo_precision":"range"},"type":"Feature","geometry":{"type":"Point","coordinates":[-117.285714,34.419187]}},{"properties":{"rep? (1 for yes, 0 for no)":1,"city":"Highland","zip":"92346","geo_score":0.82,"street address":"7201 Boulder Avenue","id":"a66vno0br3ab","geo_precision":"range"},"type":"Feature","geometry":{"type":"Point","coordinates":[-117.195543,34.122794]}},{"properties":{"rep? (1 for yes, 0 for no)":1,"city":"Highland","zip":"92346","geo_score":0.82,"street address":"4120 East Highland Avenue","id":"a66vnnysigxn","geo_precision":"range"},"type":"Feature","geometry":{"type":"Point","coordinates":[-117.197113,34.135753]}},{"properties":{"rep? (1 for yes, 0 for no)":1,"city":"Lake Arrowhead","zip":"92352","geo_score":0.709,"street address":"28200 State Highway 189","id":"a66vnnn2psfk","geo_precision":"street"},"type":"Feature","geometry":{"type":"Point","coordinates":[-117.190909,34.250291]}},{"properties":{"rep? (1 for yes, 0 for no)":1,"city":"Loma Linda","zip":"92354","geo_score":0.902,"street address":"11195 Anderson Street","id":"a66vnnvmaemq","geo_precision":"range"},"type":"Feature","geometry":{"type":"Point","coordinates":[-117.261135,34.050318]}},{"properties":{"rep? (1 for yes, 0 for no)":1,"city":"Loma Linda","zip":"92354","geo_score":0.902,"street address":"25487 Barton Road","id":"a66vnnydntq3","geo_precision":"range"},"type":"Feature","geometry":{"type":"Point","coordinates":[-117.248383,34.048376]}},{"properties":{"rep? (1 for yes, 0 for no)":0,"city":"Needles","zip":"92363","geo_score":0.761,"street address":"1001 West Broadway","id":"a66vnnonnd5e","geo_precision":"range"},"type":"Feature","geometry":{"type":"Point","coordinates":[-114.6069,34.839749]}},{"properties":{"rep? (1 for yes, 0 for no)":1,"city":"Ontario","zip":"91762","geo_score":0.536,"street address":"130 West 'G' Street","id":"a66vnnwqf313","geo_precision":"street"},"type":"Feature","geometry":{"type":"Point","coordinates":[-117.651014,34.065802]}},{"properties":{"rep? (1 for yes, 0 for no)":1,"city":"Ontario","zip":"91761","geo_score":0.902,"street address":"2522 South Grove Avenue","id":"a66vno2iu0v7","geo_precision":"range"},"type":"Feature","geometry":{"type":"Point","coordinates":[-117.628419,34.027864]}},{"properties":{"rep? (1 for yes, 0 for no)":1,"city":"Ontario","zip":"91764","geo_score":0.805,"street address":"735 North Euclid Avenue","id":"a66vnnpcha37","geo_precision":"range"},"type":"Feature","geometry":{"type":"Point","coordinates":[-117.661003,34.157575]}},{"properties":{"rep? (1 for yes, 0 for no)":1,"city":"Ontario","zip":"91762","geo_score":0.902,"street address":"910 North Mountain Avenue","id":"a66vno0yaiew","geo_precision":"range"},"type":"Feature","geometry":{"type":"Point","coordinates":[-117.670092,34.07438]}},{"properties":{"rep? (1 for yes, 0 for no)":1,"city":"Rancho Cucamonga","zip":"91727","geo_score":0.0,"street address":"8700 Baseline Road","id":"a66vnnu5wo3z","geo_precision":"unmatched"},"type":"Feature","geometry":null},{"properties":{"rep? (1 for yes, 0 for no)":1,"city":"Rancho Cucamonga","zip":"91730","geo_score":0.902,"street address":"9719 Foothill Boulevard","id":"a66vnnv4rvk3","geo_precision":"range"},"type":"Feature","geometry":{"type":"Point","coordinates":[-117.593144,34.106623]}},{"properties":{"rep? (1 for yes, 0 for no)":1,"city":"Rancho Cucamonga","zip":"91737","geo_score":0.831,"street address":"6351 Haven Avenue","id":"a66vnnqna7ar","geo_precision":"range"},"type":"Feature","geometry":{"type":"Point","coordinates":[-117.575841,34.139105]}},{"properties":{"rep? (1 for yes, 0 for no)":1,"city":"Rancho Cucamonga","zip":"91730","geo_score":0.902,"street address":"8311 Haven Avenue","id":"a66vnnuiozta","geo_precision":"range"},"type":"Feature","geometry":{"type":"Point","coordinates":[-117.575827,34.103414]}},{"properties":{"rep? (1 for yes, 0 for no)":1,"city":"Redlands","zip":"92373","geo_score":0.82,"street address":"218 East State Street","id":"a66vnnr7uhv0","geo_precision":"range"},"type":"Feature","geometry":{"type":"Point","coordinates":[-117.185854,34.056467]}},{"properties":{"rep? (1 for yes, 0 for no)":1,"city":"Redlands","zip":"92373","geo_score":0.857,"street address":"700 Redlands Boulevard","id":"a66vnnvqacg0","geo_precision":"range"},"type":"Feature","geometry":{"type":"Point","coordinates":[-117.171007,34.04996]}},{"properties":{"rep? (1 for yes, 0 for no)":1,"city":"Redlands","zip":"92373","geo_score":0.723,"street address":"305 East State Street","id":"a66vnns3mk4m","geo_precision":"range"},"type":"Feature","geometry":{"type":"Point","coordinates":[-117.186395,34.056466]}},{"properties":{"rep? (1 for yes, 0 for no)":1,"city":"Redlands","zip":"92373","geo_score":0.857,"street address":"200 East Citrus Avenue","id":"a66vnnn7xtij","geo_precision":"range"},"type":"Feature","geometry":{"type":"Point","coordinates":[-117.181097,34.055554]}},{"properties":{"rep? (1 for yes, 0 for no)":1,"city":"Redlands","zip":"92373","geo_score":0.82,"street address":"300 East State Street","id":"a66vnnynlz3z","geo_precision":"range"},"type":"Feature","geometry":{"type":"Point","coordinates":[-117.186372,34.056466]}},{"properties":{"rep? (1 for yes, 0 for no)":1,"city":"Rialto","zip":"92376","geo_score":0.849,"street address":"170 East Base Line","id":"a66vnnmts0ci","geo_precision":"range"},"type":"Feature","geometry":{"type":"Point","coordinates":[-117.368999,34.121382]}},{"properties":{"rep? (1 for yes, 0 for no)":1,"city":"Rialto","zip":"92376","geo_score":0.78,"street address":"409 East Foothill Boulevard","id":"a66vnnyn2sej","geo_precision":"range"},"type":"Feature","geometry":{"type":"Point","coordinates":[-117.363877,34.106785]}},{"properties":{"rep? (1 for yes, 0 for no)":1,"city":"San Bernardino","zip":"92412","geo_score":0.805,"street address":"250 North G Street","id":"a66vnnqdi1s1","geo_precision":"range"},"type":"Feature","geometry":{"type":"Point","coordinates":[-117.298778,34.103452]}},{"properties":{"rep? (1 for yes, 0 for no)":1,"city":"San Bernardino","zip":"92408","geo_score":0.812,"street address":"301 Vanderbilt Way","id":"a66vnnu3fqu7","geo_precision":"range"},"type":"Feature","geometry":{"type":"Point","coordinates":[-117.278778,34.068725]}},{"properties":{"rep? (1 for yes, 0 for no)":1,"city":"San Bernardino","zip":"92406","geo_score":0.805,"street address":"245 East Highland Avenue","id":"a66vnns0myhl","geo_precision":"range"},"type":"Feature","geometry":{"type":"Point","coordinates":[-117.281278,34.135938]}},{"properties":{"rep? (1 for yes, 0 for no)":1,"city":"San Bernardino","zip":"92401","geo_score":0.902,"street address":"303 North D Street","id":"a66vnnn7i09y","geo_precision":"range"},"type":"Feature","geometry":{"type":"Point","coordinates":[-117.291902,34.104616]}},{"properties":{"rep? (1 for yes, 0 for no)":1,"city":"San Bernardino","zip":"92407","geo_score":0.746,"street address":"130 40th Street","id":"a66vnnur5aml","geo_precision":"range"},"type":"Feature","geometry":{"type":"Point","coordinates":[-117.285476,34.164913]}},{"properties":{"rep? (1 for yes, 0 for no)":1,"city":"San Bernardino","zip":"92404","geo_score":0.698,"street address":"2011 East Highland Avenue","id":"a66vnnxzn3lk","geo_precision":"range"},"type":"Feature","geometry":{"type":"Point","coordinates":[-117.243478,34.135865]}},{"properties":{"rep? (1 for yes, 0 for no)":1,"city":"San Bernardino","zip":"92401","geo_score":0.805,"street address":"505 West Second Street","id":"a66vnnz8cccp","geo_precision":"range"},"type":"Feature","geometry":{"type":"Point","coordinates":[-117.294219,34.102735]}},{"properties":{"rep? (1 for yes, 0 for no)":1,"city":"San Bernardino","zip":"92412","geo_score":0.805,"street address":"250 North G Street","id":"a66vno2d4ctd","geo_precision":"range"},"type":"Feature","geometry":{"type":"Point","coordinates":[-117.298778,34.103452]}},{"properties":{"rep? (1 for yes, 0 for no)":1,"city":"San Bernardino","zip":"92408","geo_score":0.902,"street address":"794 South E Street","id":"a66vnnpf5cea","geo_precision":"range"},"type":"Feature","geometry":{"type":"Point","coordinates":[-117.293843,34.086349]}},{"properties":{"rep? (1 for yes, 0 for no)":1,"city":"Upland","zip":"91786","geo_score":0.719,"street address":"123 East Ninth Street","id":"a66vno1v1beq","geo_precision":"range"},"type":"Feature","geometry":{"type":"Point","coordinates":[-117.64939,34.096109]}},{"properties":{"rep? (1 for yes, 0 for no)":1,"city":"Upland","zip":"91786","geo_score":0.374,"street address":"123 E. Ninth Street","id":"a66vnns2s96m","geo_precision":"street"},"type":"Feature","geometry":{"type":"Point","coordinates":[-117.649664,34.096106]}},{"properties":{"rep? (1 for yes, 0 for no)":1,"city":"Upland","zip":"91786","geo_score":0.816,"street address":"1211 West Foothill Boulevard","id":"a66vnnws8ryg","geo_precision":"range"},"type":"Feature","geometry":{"type":"Point","coordinates":[-117.671356,34.10696]}},{"properties":{"rep? (1 for yes, 0 for no)":1,"city":"Upland","zip":"91786","geo_score":0.794,"street address":"40 Foothill Boulevard","id":"a66vnnozxcko","geo_precision":"range"},"type":"Feature","geometry":{"type":"Point","coordinates":[-117.650758,34.106996]}},{"properties":{"rep? (1 for yes, 0 for no)":1,"city":"Upland","zip":"91786","geo_score":0.816,"street address":"160 West Foothill Boulevard","id":"a66vno0ey8q1","geo_precision":"range"},"type":"Feature","geometry":{"type":"Point","coordinates":[-117.652992,34.106997]}},{"properties":{"rep? (1 for yes, 0 for no)":1,"city":"Victorville","zip":"92392","geo_score":0.826,"street address":"13792 Bear Valley Road","id":"a66vnnrout4j","geo_precision":"range"},"type":"Feature","geometry":{"type":"Point","coordinates":[-117.362391,34.470426]}},{"properties":{"rep? (1 for yes, 0 for no)":1,"city":"Victorville","zip":"92392","geo_score":0.632,"street address":"16990 Bear Valley Road","id":"a66vnnyh7kbb","geo_precision":"street"},"type":"Feature","geometry":{"type":"Point","coordinates":[-117.29012,34.470971]}},{"properties":{"rep? (1 for yes, 0 for no)":1,"city":"Victorville","zip":"92392","geo_score":0.826,"street address":"12682 Amargosa Road","id":"a66vnntsy9e8","geo_precision":"range"},"type":"Feature","geometry":{"type":"Point","coordinates":[-117.339272,34.479891]}},{"properties":{"rep? (1 for yes, 0 for no)":1,"city":"Victorville","zip":"92392","geo_score":0.515,"street address":"14723 Seventh Street","id":"a66vnnphg4aw","geo_precision":"street"},"type":"Feature","geometry":{"type":"Point","coordinates":[-117.314363,34.515315]}},{"properties":{"rep? (1 for yes, 0 for no)":1,"city":"Wrightwood","zip":"92397","geo_score":0.902,"street address":"6074 Park Drive","id":"a66vnntuct7s","geo_precision":"range"},"type":"Feature","geometry":{"type":"Point","coordinates":[-117.63319,34.361092]}},{"properties":{"rep? (1 for yes, 0 for no)":1,"city":"Yucaipa","zip":"92399","geo_score":0.805,"street address":"33500 Yucaipa Blvd","id":"a66vnnq1ko9k","geo_precision":"range"},"type":"Feature","geometry":{"type":"Point","coordinates":[-117.075172,34.033916]}},{"properties":{"rep? (1 for yes, 0 for no)":1,"city":"Yucaipa","zip":"92399","geo_score":0.805,"street address":"34580 Yucaipa Blvd","id":"a66vnnuu35ch","geo_precision":"range"},"type":"Feature","geometry":{"type":"Point","coordinates":[-117.050265,34.033879]}},{"properties":{"rep? (1 for yes, 0 for no)":0,"city":"Yucca Valley","zip":"92284","geo_score":0.659,"street address":"57155 Twenty-Nine Palms Outer Hwy S.","id":"a66vnns1qkve","geo_precision":"street"},"type":"Feature","geometry":{"type":"Point","coordinates":[-116.391996,34.130241]}},{"properties":{"rep? (1 for yes, 0 for no)":1,"city":"Adelanto","zip":"92301","geo_score":0.805,"street address":"10474 Rancho Road","id":"a66vnnvbj6n8","geo_precision":"range"},"type":"Feature","geometry":{"type":"Point","coordinates":[-117.436575,34.557602]}},{"properties":{"rep? (1 for yes, 0 for no)":1,"city":"Apple Valley","zip":"92307","geo_score":0.82,"street address":"16003 Quantico Road","id":"a66vnnxaw1r6","geo_precision":"range"},"type":"Feature","geometry":{"type":"Point","coordinates":[-117.27077,34.541751]}},{"properties":{"rep? (1 for yes, 0 for no)":1,"city":"Apple Valley","zip":"92307","geo_score":0.674,"street address":"20220 Highway 18","id":"a66vnnoftj65","geo_precision":"range"},"type":"Feature","geometry":{"type":"Point","coordinates":[-117.221103,34.526437]}},{"properties":{"rep? (1 for yes, 0 for no)":1,"city":"Apple Valley","zip":"92307","geo_score":0.674,"street address":"20261 Highway 18","id":"a66vnnvwd96o","geo_precision":"range"},"type":"Feature","geometry":{"type":"Point","coordinates":[-117.219555,34.525457]}},{"properties":{"rep? (1 for yes, 0 for no)":1,"city":"Barstow","zip":"92311","geo_score":0.786,"street address":"945 East Armory Road","id":"a66vnnyqhhgk","geo_precision":"range"},"type":"Feature","geometry":{"type":"Point","coordinates":[-117.014079,34.884045]}},{"properties":{"rep? (1 for yes, 0 for no)":1,"city":"Chino","zip":"91710","geo_score":0.821,"street address":"12808 Central Avenue","id":"a66vnny5z3a4","geo_precision":"range"},"type":"Feature","geometry":{"type":"Point","coordinates":[-117.689331,34.020716]}},{"properties":{"rep? (1 for yes, 0 for no)":1,"city":"Chino Hills","zip":"91709","geo_score":0.814,"street address":"2959 Chino Avenue","id":"a66vno1204w6","geo_precision":"range"},"type":"Feature","geometry":{"type":"Point","coordinates":[-117.741491,34.010737]}},{"properties":{"rep? (1 for yes, 0 for no)":1,"city":"Colton","zip":"92324","geo_score":0.397,"street address":"308 North La Cadena Drive","id":"a66vnnohequ9","geo_precision":"street"},"type":"Feature","geometry":{"type":"Point","coordinates":[-117.029528,34.054407]}},{"properties":{"rep? (1 for yes, 0 for no)":1,"city":"Fontana","zip":"92335","geo_score":0.862,"street address":"9244 Sierra Avenue","id":"a66vnnv9w2aw","geo_precision":"range"},"type":"Feature","geometry":{"type":"Point","coordinates":[-117.435711,34.085861]}},{"properties":{"rep? (1 for yes, 0 for no)":1,"city":"Fontana","zip":"92335","geo_score":0.862,"street address":"9699 Sierra Avenue","id":"a66vnnuuy7hd","geo_precision":"range"},"type":"Feature","geometry":{"type":"Point","coordinates":[-117.435685,34.077594]}},{"properties":{"rep? (1 for yes, 0 for no)":1,"city":"Hesperia","zip":"92345","geo_score":0.805,"street address":"15479 Main Street","id":"a66vnnshu0mk","geo_precision":"range"},"type":"Feature","geometry":{"type":"Point","coordinates":[-117.325496,34.425233]}},{"properties":{"rep? (1 for yes, 0 for no)":1,"city":"Hesperia","zip":"92345","geo_score":0.805,"street address":"16832 Main St.","id":"a66vnnqdub4m","geo_precision":"range"},"type":"Feature","geometry":{"type":"Point","coordinates":[-117.296433,34.420794]}},{"properties":{"rep? (1 for yes, 0 for no)":1,"city":"Montclair","zip":"91763","geo_score":0.902,"street address":"9585 Central Avenue","id":"a66vnnybdzrd","geo_precision":"range"},"type":"Feature","geometry":{"type":"Point","coordinates":[-117.689548,34.079811]}},{"properties":{"rep? (1 for yes, 0 for no)":1,"city":"Ontario","zip":"91764","geo_score":0.87,"street address":"701 Haven Avenue","id":"a66vnnqc173w","geo_precision":"range"},"type":"Feature","geometry":{"type":"Point","coordinates":[-117.575782,34.071901]}},{"properties":{"rep? (1 for yes, 0 for no)":1,"city":"Ontario","zip":"91762","geo_score":0.902,"street address":"255 North Euclid Avenue","id":"a66vnnw28l1f","geo_precision":"range"},"type":"Feature","geometry":{"type":"Point","coordinates":[-117.651016,34.065259]}},{"properties":{"rep? (1 for yes, 0 for no)":1,"city":"Ontario","zip":"91764","geo_score":0.902,"street address":"3633 Inland Empire Boulevard","id":"a66vno1sxkr6","geo_precision":"range"},"type":"Feature","geometry":{"type":"Point","coordinates":[-117.571725,34.069997]}},{"properties":{"rep? (1 for yes, 0 for no)":1,"city":"Ontario","zip":"91764","geo_score":0.476,"street address":"800 N. Haven Avenue","id":"a66vno266wi7","geo_precision":"street"},"type":"Feature","geometry":{"type":"Point","coordinates":[-117.575782,34.071901]}},{"properties":{"rep? (1 for yes, 0 for no)":1,"city":"Ontario","zip":"91764","geo_score":0.829,"street address":"430 N Vineyard","id":"a66vnnreb2eq","geo_precision":"range"},"type":"Feature","geometry":{"type":"Point","coordinates":[-117.610992,34.067296]}},{"properties":{"rep? (1 for yes, 0 for no)":1,"city":"Ontario","zip":"91761","geo_score":0.902,"street address":"3075 South Archibald Avenue","id":"a66vnnywjyqg","geo_precision":"range"},"type":"Feature","geometry":{"type":"Point","coordinates":[-117.593177,34.017749]}},{"properties":{"rep? (1 for yes, 0 for no)":1,"city":"Ontario","zip":"91764","geo_score":0.902,"street address":"800 North Haven Avenue","id":"a66vnnmcyaq4","geo_precision":"range"},"type":"Feature","geometry":{"type":"Point","coordinates":[-117.575782,34.071883]}},{"properties":{"rep? (1 for yes, 0 for no)":1,"city":"Rancho Cucamonga","zip":"91701","geo_score":0.831,"street address":"10590 Baseline Rd.","id":"a66vnnr14a3w","geo_precision":"range"},"type":"Feature","geometry":{"type":"Point","coordinates":[-117.574249,34.121514]}},{"properties":{"rep? (1 for yes, 0 for no)":1,"city":"Redlands","zip":"92373","geo_score":0.857,"street address":"200 East Citrus Avenue","id":"a66vnnqq8dlk","geo_precision":"range"},"type":"Feature","geometry":{"type":"Point","coordinates":[-117.181097,34.055554]}},{"properties":{"rep? (1 for yes, 0 for no)":1,"city":"Redlands","zip":"92374","geo_score":0.902,"street address":"640 Orange St","id":"a66vnnxocz6w","geo_precision":"range"},"type":"Feature","geometry":{"type":"Point","coordinates":[-117.182551,34.06122]}},{"properties":{"rep? (1 for yes, 0 for no)":1,"city":"Rialto","zip":"92376","geo_score":0.727,"street address":"2008 North Riverside Avenue","id":"a66vnnpm5oqe","geo_precision":"street"},"type":"Feature","geometry":{"type":"Point","coordinates":[-117.37048,34.135932]}},{"properties":{"rep? (1 for yes, 0 for no)":1,"city":"San Bernardino","zip":"92404","geo_score":0.82,"street address":"1555 East Highland Avenue","id":"a66vnnv4z2th","geo_precision":"range"},"type":"Feature","geometry":{"type":"Point","coordinates":[-117.254414,34.135862]}},{"properties":{"rep? (1 for yes, 0 for no)":1,"city":"San Bernardino","zip":"92408","geo_score":0.812,"street address":"301 Vanderbilt Way","id":"a66vnnpma2mc","geo_precision":"range"},"type":"Feature","geometry":{"type":"Point","coordinates":[-117.278778,34.068725]}},{"properties":{"rep? (1 for yes, 0 for no)":1,"city":"San Bernardino","zip":"92407","geo_score":0.805,"street address":"4444 University Parkway","id":"a66vnnt2g9nu","geo_precision":"range"},"type":"Feature","geometry":{"type":"Point","coordinates":[-117.332316,34.167654]}},{"properties":{"rep? (1 for yes, 0 for no)":1,"city":"Upland","zip":"91786","geo_score":0.816,"street address":"818 North Mountain Avenue","id":"a66vnnstwlzp","geo_precision":"range"},"type":"Feature","geometry":{"type":"Point","coordinates":[-117.670192,34.103736]}},{"properties":{"rep? (1 for yes, 0 for no)":1,"city":"Victorville","zip":"92395","geo_score":0.0,"street address":"12380 Hesperia Road","id":"a66vnnqxc6av","geo_precision":"unmatched"},"type":"Feature","geometry":null},{"properties":{"rep? (1 for yes, 0 for no)":1,"city":"Victorville","zip":"92392","geo_score":0.728,"street address":"12530 Hesperia Road","id":"a66vno1q35gg","geo_precision":"range"},"type":"Feature","geometry":{"type":"Point","coordinates":[-117.291009,34.478701]}},{"properties":{"rep? (1 for yes, 0 for no)":1,"city":"Victorville","zip":"92392","geo_score":0.422,"street address":"12022 Dunia Road","id":"a66vnnzzjh75","geo_precision":"street"},"type":"Feature","geometry":{"type":"Point","coordinates":[-117.303483,34.534482]}},{"properties":{"rep? (1 for yes, 0 for no)":1,"city":"Victorville","zip":"92392","geo_score":0.401,"street address":"14800 La Paz Drive","id":"a66vnnq141j2","geo_precision":"street"},"type":"Feature","geometry":{"type":"Point","coordinates":[-117.563634,34.413565]}},{"properties":{"rep? (1 for yes, 0 for no)":1,"city":"Victorville","zip":"92392","geo_score":0.728,"street address":"12113 Hesperia Road","id":"a66vnnwsjvrn","geo_precision":"range"},"type":"Feature","geometry":{"type":"Point","coordinates":[-117.291969,34.470989]}},{"properties":{"rep? (1 for yes, 0 for no)":1,"city":"Victorville","zip":"92392","geo_score":0.514,"street address":"14821 Seventh Street","id":"a66vnnvuqqxx","geo_precision":"street"},"type":"Feature","geometry":{"type":"Point","coordinates":[-117.314363,34.515315]}},{"properties":{"rep? (1 for yes, 0 for no)":1,"city":"Wrightwood","zip":"92397","geo_score":0.61,"street address":"1261 Highway 2","id":"a66vnny2pey3","geo_precision":"street"},"type":"Feature","geometry":{"type":"Point","coordinates":[-117.597373,34.380072]}},{"properties":{"rep? (1 for yes, 0 for no)":1,"city":"Yucaipa","zip":"92399","geo_score":0.805,"street address":"34299 Yucaipa Boulevard","id":"a66vnnnvjhf5","geo_precision":"range"},"type":"Feature","geometry":{"type":"Point","coordinates":[-117.056224,34.033889]}},{"properties":{"rep? (1 for yes, 0 for no)":1,"city":"Yucca Valley","zip":"92284","geo_score":0.513,"street address":"57550 Twentynine Palms Highway","id":"a66vnnvj7gdk","geo_precision":"street"},"type":"Feature","geometry":{"type":"Point","coordinates":[-116.391996,34.130241]}},{"properties":{"rep? (1 for yes, 0 for no)":1,"city":"Apple Valley","zip":"92307","geo_score":0.82,"street address":"14880 Dale Evans Parkway","id":"a66vnnw375ys","geo_precision":"range"},"type":"Feature","geometry":{"type":"Point","coordinates":[-117.216427,34.52441]}},{"properties":{"rep? (1 for yes, 0 for no)":1,"city":"Apple Valley","zip":"92308","geo_score":0.902,"street address":"20801 Bear Valley Road","id":"a66vnnyzru1g","geo_precision":"range"},"type":"Feature","geometry":{"type":"Point","coordinates":[-117.209875,34.47143]}},{"properties":{"rep? (1 for yes, 0 for no)":1,"city":"Barstow","zip":"92311","geo_score":0.627,"street address":"239 East Main Street","id":"a66vnnum1yx2","geo_precision":"street"},"type":"Feature","geometry":{"type":"Point","coordinates":[-117.02445,34.898749]}},{"properties":{"rep? (1 for yes, 0 for no)":1,"city":"Barstow","zip":"92311","geo_score":0.628,"street address":"1291 East Main Street","id":"a66vnnzei2ty","geo_precision":"street"},"type":"Feature","geometry":{"type":"Point","coordinates":[-117.00719,34.89617]}},{"properties":{"rep? (1 for yes, 0 for no)":1,"city":"Big Bear Lake","zip":"92315","geo_score":0.823,"street address":"40865 Big Bear Boulevard","id":"a66vnnv4w0dh","geo_precision":"range"},"type":"Feature","geometry":{"type":"Point","coordinates":[-116.910407,34.243657]}},{"properties":{"rep? (1 for yes, 0 for no)":1,"city":"Big Bear Lake","zip":"92315","geo_score":0.701,"street address":"42142 Big Bear Boulevard","id":"a66vnnnbxok3","geo_precision":"range"},"type":"Feature","geometry":{"type":"Point","coordinates":[-116.883874,34.244701]}},{"properties":{"rep? (1 for yes, 0 for no)":1,"city":"Big Bear Lake","zip":"92315","geo_score":0.701,"street address":"42138 Big Bear Boulevard","id":"a66vnntg0csb","geo_precision":"range"},"type":"Feature","geometry":{"type":"Point","coordinates":[-116.883915,34.244652]}},{"properties":{"rep? (1 for yes, 0 for no)":1,"city":"Blue Jay","zip":"92317","geo_score":0.587,"street address":"27321 North Bay Road","id":"a66vno041rx3","geo_precision":"street"},"type":"Feature","geometry":{"type":"Point","coordinates":[-117.199101,34.255537]}},{"properties":{"rep? (1 for yes, 0 for no)":1,"city":"Chino","zip":"91710","geo_score":0.529,"street address":"4012 Grand Avenue","id":"a66vnnxtm4up","geo_precision":"street"},"type":"Feature","geometry":{"type":"Point","coordinates":[-117.698611,34.016115]}},{"properties":{"rep? (1 for yes, 0 for no)":1,"city":"Chino","zip":"91710","geo_score":0.821,"street address":"12474 Central Avenue","id":"a66vnnpwbohm","geo_precision":"range"},"type":"Feature","geometry":{"type":"Point","coordinates":[-117.689385,34.026781]}},{"properties":{"rep? (1 for yes, 0 for no)":1,"city":"Chino","zip":"91710","geo_score":0.821,"street address":"12801 Central Ave","id":"a66vnnsp3fhj","geo_precision":"range"},"type":"Feature","geometry":{"type":"Point","coordinates":[-117.689336,34.021033]}},{"properties":{"rep? (1 for yes, 0 for no)":1,"city":"Chino","zip":"91710","geo_score":0.529,"street address":"4061 Grand Avenue","id":"a66vno2ert6f","geo_precision":"street"},"type":"Feature","geometry":{"type":"Point","coordinates":[-117.698611,34.016115]}},{"properties":{"rep? (1 for yes, 0 for no)":1,"city":"Chino","zip":"91710","geo_score":0.821,"street address":"12488 Central Ave","id":"a66vnnovubei","geo_precision":"range"},"type":"Feature","geometry":{"type":"Point","coordinates":[-117.689384,34.026523]}},{"properties":{"rep? (1 for yes, 0 for no)":1,"city":"Chino Hills","zip":"91709","geo_score":0.814,"street address":"13225 Peyton Drive","id":"a66vnnxnad84","geo_precision":"range"},"type":"Feature","geometry":{"type":"Point","coordinates":[-117.744468,34.013548]}},{"properties":{"rep? (1 for yes, 0 for no)":1,"city":"Chino Hills","zip":"91709","geo_score":0.814,"street address":"2569 Chino Hills Parkway","id":"a66vnnog4shf","geo_precision":"range"},"type":"Feature","geometry":{"type":"Point","coordinates":[-117.74704,33.984786]}},{"properties":{"rep? (1 for yes, 0 for no)":1,"city":"Chino Hills","zip":"91709","geo_score":0.814,"street address":"13011 Peyton Drive","id":"a66vnnprbr2t","geo_precision":"range"},"type":"Feature","geometry":{"type":"Point","coordinates":[-117.745801,34.016615]}},{"properties":{"rep? (1 for yes, 0 for no)":1,"city":"Chino Hills","zip":"91709","geo_score":0.814,"street address":"4200 Chino Hills Parkway","id":"a66vnns68hfo","geo_precision":"range"},"type":"Feature","geometry":{"type":"Point","coordinates":[-117.71324,33.982677]}},{"properties":{"rep? (1 for yes, 0 for no)":1,"city":"Chino Hills","zip":"91709","geo_score":0.814,"street address":"3289 Grand Avenue","id":"a66vno015a2b","geo_precision":"range"},"type":"Feature","geometry":{"type":"Point","coordinates":[-117.73308,34.002331]}},{"properties":{"rep? (1 for yes, 0 for no)":1,"city":"Chino Hills","zip":"91709","geo_score":0.619,"street address":"4200 Chino Hills Parkway #400","id":"a66vnnuwn1d4","geo_precision":"street"},"type":"Feature","geometry":{"type":"Point","coordinates":[-117.764312,33.999168]}},{"properties":{"rep? (1 for yes, 0 for no)":1,"city":"Colton","zip":"92324","geo_score":0.397,"street address":"615 North La Cadena Drive","id":"a66vnnypsvst","geo_precision":"street"},"type":"Feature","geometry":{"type":"Point","coordinates":[-117.029528,34.054407]}},{"properties":{"rep? (1 for yes, 0 for no)":1,"city":"Fontana","zip":"92335","geo_score":0.862,"street address":"9244 Sierra Avenue","id":"a66vnnxrtbdp","geo_precision":"range"},"type":"Feature","geometry":{"type":"Point","coordinates":[-117.435711,34.085861]}},{"properties":{"rep? (1 for yes, 0 for no)":1,"city":"Fontana","zip":"92335","geo_score":0.755,"street address":"9844 'A' Sierra Avenue","id":"a66vnnzmep64","geo_precision":"street"},"type":"Feature","geometry":{"type":"Point","coordinates":[-117.435787,34.104862]}},{"properties":{"rep? (1 for yes, 0 for no)":1,"city":"Fontana","zip":"92336","geo_score":0.805,"street address":"7400 Cherry Avenue","id":"a66vno2ltcqe","geo_precision":"range"},"type":"Feature","geometry":{"type":"Point","coordinates":[-117.488548,34.120002]}},{"properties":{"rep? (1 for yes, 0 for no)":1,"city":"Fontana","zip":"92336","geo_score":0.805,"street address":"7390 Cherry Avenue","id":"a66vnnmzfhpg","geo_precision":"range"},"type":"Feature","geometry":{"type":"Point","coordinates":[-117.488546,34.120147]}},{"properties":{"rep? (1 for yes, 0 for no)":1,"city":"Fontana","zip":"92336","geo_score":0.902,"street address":"14518 Baseline Ave.","id":"a66vnnnis0d9","geo_precision":"range"},"type":"Feature","geometry":{"type":"Point","coordinates":[-117.488182,34.121453]}},{"properties":{"rep? (1 for yes, 0 for no)":1,"city":"Fontana","zip":"92336","geo_score":0.708,"street address":"14307 Baseline Ave","id":"a66vnnnauzfx","geo_precision":"street"},"type":"Feature","geometry":{"type":"Point","coordinates":[-117.488523,34.121457]}},{"properties":{"rep? (1 for yes, 0 for no)":1,"city":"Helendale","zip":"92342","geo_score":0.527,"street address":"15055 Vista Rd","id":"a66vno1hcb21","geo_precision":"street"},"type":"Feature","geometry":{"type":"Point","coordinates":[-117.328885,34.732829]}},{"properties":{"rep? (1 for yes, 0 for no)":1,"city":"Hesperia","zip":"92340","geo_score":0.805,"street address":"17071 Main Street","id":"a66vnnrepkwt","geo_precision":"range"},"type":"Feature","geometry":{"type":"Point","coordinates":[-117.290472,34.419908]}},{"properties":{"rep? (1 for yes, 0 for no)":1,"city":"Hesperia","zip":"92345","geo_score":0.805,"street address":"17123 Main Street","id":"a66vnnmdymn4","geo_precision":"range"},"type":"Feature","geometry":{"type":"Point","coordinates":[-117.289418,34.419738]}},{"properties":{"rep? (1 for yes, 0 for no)":1,"city":"Hesperia","zip":"92345","geo_score":0.763,"street address":"17317 East Main Street","id":"a66vnnrztjvd","geo_precision":"range"},"type":"Feature","geometry":{"type":"Point","coordinates":[-117.285018,34.419103]}},{"properties":{"rep? (1 for yes, 0 for no)":1,"city":"Hesperia","zip":"92345","geo_score":0.805,"street address":"17390 Main Street","id":"a66vnnud9z7w","geo_precision":"range"},"type":"Feature","geometry":{"type":"Point","coordinates":[-117.283387,34.418842]}},{"properties":{"rep? (1 for yes, 0 for no)":1,"city":"Hesperia","zip":"92345","geo_score":0.805,"street address":"17442 Main Street","id":"a66vnnrw52ck","geo_precision":"range"},"type":"Feature","geometry":{"type":"Point","coordinates":[-117.282416,34.418699]}},{"properties":{"rep? (1 for yes, 0 for no)":1,"city":"Highland","zip":"92346","geo_score":0.82,"street address":"26529 East Highland Avenue","id":"a66vnnxlmql5","geo_precision":"range"},"type":"Feature","geometry":{"type":"Point","coordinates":[-117.223373,34.135819]}},{"properties":{"rep? (1 for yes, 0 for no)":1,"city":"Loma Linda","zip":"92354","geo_score":0.863,"street address":"11175 Mountain View Avenue","id":"a66vnnu7edwl","geo_precision":"range"},"type":"Feature","geometry":{"type":"Point","coordinates":[-117.243662,34.050916]}},{"properties":{"rep? (1 for yes, 0 for no)":1,"city":"Lucerne Valley","zip":"92356","geo_score":0.756,"street address":"32946-D Highway 18","id":"a66vnnv9s7au","geo_precision":"range"},"type":"Feature","geometry":{"type":"Point","coordinates":[-116.944937,34.439387]}},{"properties":{"rep? (1 for yes, 0 for no)":1,"city":"Montclair","zip":"91763","geo_score":0.902,"street address":"9090 Central Ave","id":"a66vnns0ck73","geo_precision":"range"},"type":"Feature","geometry":{"type":"Point","coordinates":[-117.689603,34.088786]}},{"properties":{"rep? (1 for yes, 0 for no)":1,"city":"Montclair","zip":"91763","geo_score":0.902,"street address":"9133 Central Ave","id":"a66vno2c73jk","geo_precision":"range"},"type":"Feature","geometry":{"type":"Point","coordinates":[-117.689598,34.087983]}},{"properties":{"rep? (1 for yes, 0 for no)":1,"city":"Montclair","zip":"91763","geo_score":0.902,"street address":"5120 Moreno Street","id":"a66vnnmh1ebp","geo_precision":"range"},"type":"Feature","geometry":{"type":"Point","coordinates":[-117.693608,34.08864]}},{"properties":{"rep? (1 for yes, 0 for no)":1,"city":"Needles","zip":"92363","geo_score":0.815,"street address":"1019 West Broadway Street","id":"a66vno0armvp","geo_precision":"range"},"type":"Feature","geometry":{"type":"Point","coordinates":[-114.607056,34.839851]}},{"properties":{"rep? (1 for yes, 0 for no)":1,"city":"Ontario","zip":"91761","geo_score":0.805,"street address":"437 North Euclid Avenue","id":"a66vno0o9zh4","geo_precision":"range"},"type":"Feature","geometry":{"type":"Point","coordinates":[-117.651147,34.098782]}},{"properties":{"rep? (1 for yes, 0 for no)":1,"city":"Ontario","zip":"91761","geo_score":0.902,"street address":"2401 South Grove Avenue","id":"a66vnnpimtll","geo_precision":"range"},"type":"Feature","geometry":{"type":"Point","coordinates":[-117.628427,34.030386]}},{"properties":{"rep? (1 for yes, 0 for no)":1,"city":"Ontario","zip":"91764","geo_score":0.88,"street address":"730 North Archiball Avenue","id":"a66vno1alm61","geo_precision":"range"},"type":"Feature","geometry":{"type":"Point","coordinates":[-117.593366,34.070671]}},{"properties":{"rep? (1 for yes, 0 for no)":1,"city":"Ontario","zip":"91761","geo_score":0.902,"street address":"3281 East Guasti Road","id":"a66vnnncxl6r","geo_precision":"range"},"type":"Feature","geometry":{"type":"Point","coordinates":[-117.580911,34.064975]}},{"properties":{"rep? (1 for yes, 0 for no)":1,"city":"Ontario","zip":"91764","geo_score":0.785,"street address":"430 N Vineyard Ave Suite 210","id":"a66vnnsv56yg","geo_precision":"range"},"type":"Feature","geometry":{"type":"Point","coordinates":[-117.610992,34.067296]}},{"properties":{"rep? (1 for yes, 0 for no)":1,"city":"Ontario","zip":"91761","geo_score":0.805,"street address":"333 N Euclid Avenue","id":"a66vnnqsgb1s","geo_precision":"range"},"type":"Feature","geometry":{"type":"Point","coordinates":[-117.651013,34.066196]}},{"properties":{"rep? (1 for yes, 0 for no)":1,"city":"Ontario","zip":"91761","geo_score":0.738,"street address":"3257 Guasti Road Suite 110","id":"a66vnnw7y0w8","geo_precision":"range"},"type":"Feature","geometry":{"type":"Point","coordinates":[-117.581365,34.065272]}},{"properties":{"rep? (1 for yes, 0 for no)":1,"city":"Ontario","zip":"91762","geo_score":0.471,"street address":"333 N. Euclid Ave","id":"a66vnnnb4yka","geo_precision":"street"},"type":"Feature","geometry":{"type":"Point","coordinates":[-117.651018,34.064593]}},{"properties":{"rep? (1 for yes, 0 for no)":1,"city":"Ontario","zip":"91762","geo_score":0.805,"street address":"1 Mills Circle","id":"a66vnnx5yug2","geo_precision":"range"},"type":"Feature","geometry":{"type":"Point","coordinates":[-117.555332,34.076381]}},{"properties":{"rep? (1 for yes, 0 for no)":1,"city":"Ontario","zip":"91762","geo_score":0.902,"street address":"845 North Euclid Avenue","id":"a66vnnq5u7rp","geo_precision":"range"},"type":"Feature","geometry":{"type":"Point","coordinates":[-117.651124,34.073362]}},{"properties":{"rep? (1 for yes, 0 for no)":1,"city":"Ontario","zip":"91764","geo_score":0.65,"street address":"4261 Inland Empire","id":"a66vnnwtsila","geo_precision":"street"},"type":"Feature","geometry":{"type":"Point","coordinates":[-117.563379,34.06889]}},{"properties":{"rep? (1 for yes, 0 for no)":1,"city":"Ontario","zip":"91764","geo_score":0.902,"street address":"3998 Inland Empire Boulevard","id":"a66vnnmkwm2a","geo_precision":"range"},"type":"Feature","geometry":{"type":"Point","coordinates":[-117.571522,34.069737]}},{"properties":{"rep? (1 for yes, 0 for no)":1,"city":"Ontario","zip":"91762","geo_score":0.902,"street address":"1000 North Mountain Avenue","id":"a66vnnuib77g","geo_precision":"range"},"type":"Feature","geometry":{"type":"Point","coordinates":[-117.670095,34.075623]}},{"properties":{"rep? (1 for yes, 0 for no)":1,"city":"Ontario","zip":"91764","geo_score":0.902,"street address":"4141 Inland Empire Boulevard","id":"a66vnnyx9xcd","geo_precision":"range"},"type":"Feature","geometry":{"type":"Point","coordinates":[-117.560144,34.071604]}},{"properties":{"rep? (1 for yes, 0 for no)":1,"city":"Ontario","zip":"91762","geo_score":0.902,"street address":"240 North Euclid Avenue","id":"a66vnno4bobv","geo_precision":"range"},"type":"Feature","geometry":{"type":"Point","coordinates":[-117.651016,34.065086]}},{"properties":{"rep? (1 for yes, 0 for no)":1,"city":"Ontario","zip":"91761","geo_score":0.835,"street address":"3401 Centerlake Drive","id":"a66vnnrjbdba","geo_precision":"range"},"type":"Feature","geometry":{"type":"Point","coordinates":[-117.579144,34.066205]}},{"properties":{"rep? (1 for yes, 0 for no)":1,"city":"Ontario","zip":"91761","geo_score":0.902,"street address":"2500 South Grove Avenue","id":"a66vnnot1t0y","geo_precision":"range"},"type":"Feature","geometry":{"type":"Point","coordinates":[-117.628423,34.028194]}},{"properties":{"rep? (1 for yes, 0 for no)":1,"city":"Ontario","zip":"91762","geo_score":0.902,"street address":"521 North Euclid Avenue","id":"a66vnnpvss8o","geo_precision":"range"},"type":"Feature","geometry":{"type":"Point","coordinates":[-117.651016,34.068481]}},{"properties":{"rep? (1 for yes, 0 for no)":1,"city":"Phelan","zip":"92371","geo_score":0.902,"street address":"4022 Phelan Road","id":"a66vno2orc1h","geo_precision":"range"},"type":"Feature","geometry":{"type":"Point","coordinates":[-117.574238,34.426328]}},{"properties":{"rep? (1 for yes, 0 for no)":1,"city":"Rancho Cucamonga","zip":"91730","geo_score":0.902,"street address":"9709 Baseline Road","id":"a66vnnzaum60","geo_precision":"range"},"type":"Feature","geometry":{"type":"Point","coordinates":[-117.593333,34.121531]}},{"properties":{"rep? (1 for yes, 0 for no)":1,"city":"Rancho Cucamonga","zip":"91730","geo_score":0.902,"street address":"11343 Baseline Rd","id":"a66vnnw2ims5","geo_precision":"range"},"type":"Feature","geometry":{"type":"Point","coordinates":[-117.559417,34.121483]}},{"properties":{"rep? (1 for yes, 0 for no)":1,"city":"Rancho Cucamonga","zip":"91701","geo_score":0.831,"street address":"6644 Carnelian St","id":"a66vnnvbtao6","geo_precision":"range"},"type":"Feature","geometry":{"type":"Point","coordinates":[-117.616209,34.134152]}},{"properties":{"rep? (1 for yes, 0 for no)":1,"city":"Rancho Cucamonga","zip":"91701","geo_score":0.831,"street address":"9696 Baseline Road","id":"a66vnnzxhu72","geo_precision":"range"},"type":"Feature","geometry":{"type":"Point","coordinates":[-117.593637,34.121531]}},{"properties":{"rep? (1 for yes, 0 for no)":1,"city":"Rancho Cucamonga","zip":"91730","geo_score":0.551,"street address":"12201 Highland","id":"a66vno1lvz4j","geo_precision":"street"},"type":"Feature","geometry":{"type":"Point","coordinates":[-117.694812,34.089473]}},{"properties":{"rep? (1 for yes, 0 for no)":1,"city":"Rancho Cucamonga","zip":"91701","geo_score":0.733,"street address":"8730 19th St.","id":"a66vnnudndv4","geo_precision":"range"},"type":"Feature","geometry":{"type":"Point","coordinates":[-117.615668,34.132622]}},{"properties":{"rep? (1 for yes, 0 for no)":1,"city":"Rancho Cucamonga","zip":"91730","geo_score":0.902,"street address":"9775 Baseline Road","id":"a66vnnulhmtu","geo_precision":"range"},"type":"Feature","geometry":{"type":"Point","coordinates":[-117.592002,34.121532]}},{"properties":{"rep? (1 for yes, 0 for no)":1,"city":"Rancho Cucamonga","zip":"91739","geo_score":0.63,"street address":"12273 Highland Avenue","id":"a66vno1rte8i","geo_precision":"street"},"type":"Feature","geometry":{"type":"Point","coordinates":[-117.520631,34.134816]}},{"properties":{"rep? (1 for yes, 0 for no)":1,"city":"Rancho Cucamonga","zip":"91730","geo_score":0.902,"street address":"10540 Foothill Boulevard","id":"a66vno2rnra5","geo_precision":"range"},"type":"Feature","geometry":{"type":"Point","coordinates":[-117.574929,34.106498]}},{"properties":{"rep? (1 for yes, 0 for no)":1,"city":"Redlands","zip":"92373","geo_score":0.628,"street address":"128 East State Street","id":"a66vnnuqwhic","geo_precision":"street"},"type":"Feature","geometry":{"type":"Point","coordinates":[-117.185749,34.056467]}},{"properties":{"rep? (1 for yes, 0 for no)":1,"city":"Redlands","zip":"92373","geo_score":0.857,"street address":"125 East Citrus Avenue","id":"a66vnnpn8v13","geo_precision":"range"},"type":"Feature","geometry":{"type":"Point","coordinates":[-117.181182,34.055555]}},{"properties":{"rep? (1 for yes, 0 for no)":1,"city":"Redlands","zip":"92373","geo_score":0.82,"street address":"300 East State Street","id":"a66vno042fow","geo_precision":"range"},"type":"Feature","geometry":{"type":"Point","coordinates":[-117.186372,34.056466]}},{"properties":{"rep? (1 for yes, 0 for no)":1,"city":"Redlands","zip":"92374","geo_score":0.87,"street address":"522 North Orange Street","id":"a66vnnzpm626","geo_precision":"range"},"type":"Feature","geometry":{"type":"Point","coordinates":[-117.182556,34.059896]}},{"properties":{"rep? (1 for yes, 0 for no)":1,"city":"Redlands","zip":"92373","geo_score":0.82,"street address":"220 East State Street","id":"a66vnnq7hi96","geo_precision":"range"},"type":"Feature","geometry":{"type":"Point","coordinates":[-117.185865,34.056467]}},{"properties":{"rep? (1 for yes, 0 for no)":1,"city":"Rialto","zip":"92376","geo_score":0.902,"street address":"255 South Riverside Avenue","id":"a66vnnohxlj3","geo_precision":"range"},"type":"Feature","geometry":{"type":"Point","coordinates":[-117.370276,34.097348]}},{"properties":{"rep? (1 for yes, 0 for no)":1,"city":"Rialto","zip":"92376","geo_score":0.902,"street address":"101 East Foothill Boulevard","id":"a66vnnp3q76t","geo_precision":"range"},"type":"Feature","geometry":{"type":"Point","coordinates":[-117.370264,34.106768]}},{"properties":{"rep? (1 for yes, 0 for no)":1,"city":"Rialto","zip":"92376","geo_score":0.902,"street address":"190 West Foothill Boulevard","id":"a66vnnyiofqh","geo_precision":"range"},"type":"Feature","geometry":{"type":"Point","coordinates":[-117.372681,34.106783]}},{"properties":{"rep? (1 for yes, 0 for no)":1,"city":"Running Springs","zip":"92382","geo_score":0.819,"street address":"2625 Whispering Pines Drive","id":"a66vno1k6uqo","geo_precision":"range"},"type":"Feature","geometry":{"type":"Point","coordinates":[-117.105973,34.206086]}},{"properties":{"rep? (1 for yes, 0 for no)":1,"city":"San Bernardino","zip":"92408","geo_score":0.902,"street address":"650 East Hospitality Lane","id":"a66vnnqw3nc8","geo_precision":"range"},"type":"Feature","geometry":{"type":"Point","coordinates":[-117.271443,34.065815]}},{"properties":{"rep? (1 for yes, 0 for no)":1,"city":"San Bernardino","zip":"92404","geo_score":0.82,"street address":"1598 East Highland Avenue","id":"a66vno1x37ae","geo_precision":"range"},"type":"Feature","geometry":{"type":"Point","coordinates":[-117.252395,34.135861]}},{"properties":{"rep? (1 for yes, 0 for no)":1,"city":"San Bernardino","zip":"92401","geo_score":0.902,"street address":"599 North E Street","id":"a66vnnmcnfiq","geo_precision":"range"},"type":"Feature","geometry":{"type":"Point","coordinates":[-117.294163,34.110192]}},{"properties":{"rep? (1 for yes, 0 for no)":1,"city":"San Bernardino","zip":"92401","geo_score":0.805,"street address":"505 West Second Street","id":"a66vnnmr8qqr","geo_precision":"range"},"type":"Feature","geometry":{"type":"Point","coordinates":[-117.294219,34.102735]}},{"properties":{"rep? (1 for yes, 0 for no)":1,"city":"San Bernardino","zip":"92413","geo_score":0.805,"street address":"1380 East Highland Avenue","id":"a66vnnn4wcd4","geo_precision":"range"},"type":"Feature","geometry":{"type":"Point","coordinates":[-117.258562,34.135868]}},{"properties":{"rep? (1 for yes, 0 for no)":1,"city":"San Bernardino","zip":"92401","geo_score":0.902,"street address":"330 North D Street","id":"a66vnnycb93h","geo_precision":"range"},"type":"Feature","geometry":{"type":"Point","coordinates":[-117.29191,34.105172]}},{"properties":{"rep? (1 for yes, 0 for no)":1,"city":"San Bernardino","zip":"92405","geo_score":0.805,"street address":"315 West Highland Avenue","id":"a66vnnp2awgk","geo_precision":"range"},"type":"Feature","geometry":{"type":"Point","coordinates":[-117.289941,34.135968]}},{"properties":{"rep? (1 for yes, 0 for no)":1,"city":"San Bernardino","zip":"92408","geo_score":0.902,"street address":"998 South E Street","id":"a66vno1luf8t","geo_precision":"range"},"type":"Feature","geometry":{"type":"Point","coordinates":[-117.29413,34.082269]}},{"properties":{"rep? (1 for yes, 0 for no)":1,"city":"San Bernardino","zip":"92405","geo_score":0.805,"street address":"296 West Highland Avenue","id":"a66vnnp57pb6","geo_precision":"range"},"type":"Feature","geometry":{"type":"Point","coordinates":[-117.289598,34.135968]}},{"properties":{"rep? (1 for yes, 0 for no)":1,"city":"San Bernardino","zip":"92401","geo_score":0.805,"street address":"334 West Third Street","id":"a66vnnwrfude","geo_precision":"range"},"type":"Feature","geometry":{"type":"Point","coordinates":[-117.290394,34.104578]}},{"properties":{"rep? (1 for yes, 0 for no)":1,"city":"San Bernardino","zip":"92404","geo_score":0.747,"street address":"1565 East Highland","id":"a66vnnnmaqju","geo_precision":"range"},"type":"Feature","geometry":{"type":"Point","coordinates":[-117.254095,34.135861]}},{"properties":{"rep? (1 for yes, 0 for no)":1,"city":"Twentynine Palms","zip":"92277","geo_score":0.844,"street address":"73700 Gorgonio Road","id":"a66vnnpnhk4k","geo_precision":"range"},"type":"Feature","geometry":{"type":"Point","coordinates":[-116.054337,34.139289]}},{"properties":{"rep? (1 for yes, 0 for no)":1,"city":"Twentynine Palms","zip":"92277","geo_score":0.902,"street address":"6325 Adobe Road","id":"a66vnnndc6p5","geo_precision":"range"},"type":"Feature","geometry":{"type":"Point","coordinates":[-116.054324,34.139642]}},{"properties":{"rep? (1 for yes, 0 for no)":1,"city":"Twentynine Palms","zip":"92278","geo_score":0.47,"street address":"Building 1515 Brown Street","id":"a66vnnphb4rw","geo_precision":"street"},"type":"Feature","geometry":{"type":"Point","coordinates":[-116.055734,34.229568]}},{"properties":{"rep? (1 for yes, 0 for no)":1,"city":"Upland","zip":"91786","geo_score":0.816,"street address":"569 North Mountain Avenue","id":"a66vno24vkoj","geo_precision":"range"},"type":"Feature","geometry":{"type":"Point","coordinates":[-117.670183,34.102577]}},{"properties":{"rep? (1 for yes, 0 for no)":1,"city":"Upland","zip":"91786","geo_score":0.816,"street address":"1060 West Foothill Boulevard","id":"a66vnnwfurnl","geo_precision":"range"},"type":"Feature","geometry":{"type":"Point","coordinates":[-117.665658,34.106979]}},{"properties":{"rep? (1 for yes, 0 for no)":1,"city":"Upland","zip":"91786","geo_score":0.816,"street address":"100 North Euclid Avenue","id":"a66vnnppjpn3","geo_precision":"range"},"type":"Feature","geometry":{"type":"Point","coordinates":[-117.651138,34.09521]}},{"properties":{"rep? (1 for yes, 0 for no)":1,"city":"Upland","zip":"91786","geo_score":0.338,"street address":"1669 N. Mountain Ave.","id":"a66vnnwk80pc","geo_precision":"street"},"type":"Feature","geometry":{"type":"Point","coordinates":[-117.670148,34.094397]}},{"properties":{"rep? (1 for yes, 0 for no)":1,"city":"Upland","zip":"91786","geo_score":0.816,"street address":"20 E Foothill Blvd","id":"a66vnnrgmutp","geo_precision":"range"},"type":"Feature","geometry":{"type":"Point","coordinates":[-117.650994,34.106994]}},{"properties":{"rep? (1 for yes, 0 for no)":1,"city":"Upland","zip":"91786","geo_score":0.816,"street address":"2009 West Foothill Boulevard","id":"a66vno2qgk1h","geo_precision":"range"},"type":"Feature","geometry":{"type":"Point","coordinates":[-117.689844,34.106775]}},{"properties":{"rep? (1 for yes, 0 for no)":1,"city":"Upland","zip":"91786","geo_score":0.816,"street address":"81 West Foothill Boulevard","id":"a66vno2obrhr","geo_precision":"range"},"type":"Feature","geometry":{"type":"Point","coordinates":[-117.652188,34.106995]}},{"properties":{"rep? (1 for yes, 0 for no)":1,"city":"Upland","zip":"91786","geo_score":0.816,"street address":"31 West Foothill Boulevard","id":"a66vno2h0zhr","geo_precision":"range"},"type":"Feature","geometry":{"type":"Point","coordinates":[-117.651511,34.106993]}},{"properties":{"rep? (1 for yes, 0 for no)":1,"city":"Upland","zip":"91784","geo_score":0.902,"street address":"1919 N Campus Ave","id":"a66vnnrji9xr","geo_precision":"range"},"type":"Feature","geometry":{"type":"Point","coordinates":[-117.643028,34.132726]}},{"properties":{"rep? (1 for yes, 0 for no)":1,"city":"Upland","zip":"91786","geo_score":0.816,"street address":"1028 North Mountain Avenue","id":"a66vnnvjxb7v","geo_precision":"range"},"type":"Feature","geometry":{"type":"Point","coordinates":[-117.670229,34.107806]}},{"properties":{"rep? (1 for yes, 0 for no)":1,"city":"Upland","zip":"91786","geo_score":0.338,"street address":"300 N. Mountain Ave.","id":"a66vnnx7x2z8","geo_precision":"street"},"type":"Feature","geometry":{"type":"Point","coordinates":[-117.670148,34.094397]}},{"properties":{"rep? (1 for yes, 0 for no)":1,"city":"Victorville","zip":"92392","geo_score":0.728,"street address":"12690 Hesperia Road","id":"a66vnnrbcnl1","geo_precision":"range"},"type":"Feature","geometry":{"type":"Point","coordinates":[-117.29056,34.482324]}},{"properties":{"rep? (1 for yes, 0 for no)":1,"city":"Victorville","zip":"92392","geo_score":0.826,"street address":"14528 Palmdale Road","id":"a66vnnrp7fw7","geo_precision":"range"},"type":"Feature","geometry":{"type":"Point","coordinates":[-117.346297,34.506734]}},{"properties":{"rep? (1 for yes, 0 for no)":1,"city":"Victorville","zip":"92395","geo_score":0.0,"street address":"12527 Hesperia Road","id":"a66vnnmevqd7","geo_precision":"unmatched"},"type":"Feature","geometry":null},{"properties":{"rep? (1 for yes, 0 for no)":1,"city":"Victorville","zip":"92392","geo_score":0.728,"street address":"12595 Hesperia Road","id":"a66vnnqh9ooh","geo_precision":"range"},"type":"Feature","geometry":{"type":"Point","coordinates":[-117.290884,34.479738]}},{"properties":{"rep? (1 for yes, 0 for no)":1,"city":"Yucaipa","zip":"92399","geo_score":0.805,"street address":"34488 Yucaipa Boulevard","id":"a66vnnqwhjib","geo_precision":"range"},"type":"Feature","geometry":{"type":"Point","coordinates":[-117.052206,34.033881]}},{"properties":{"rep? (1 for yes, 0 for no)":1,"city":"Yucaipa","zip":"92399","geo_score":0.805,"street address":"34318 Yucaipa Boulevard","id":"a66vnnqo0ye4","geo_precision":"range"},"type":"Feature","geometry":{"type":"Point","coordinates":[-117.055896,34.033889]}},{"properties":{"rep? (1 for yes, 0 for no)":1,"city":"Yucaipa","zip":"92399","geo_score":0.805,"street address":"33644 Yucaipa Boulevard","id":"a66vno0ziv7l","geo_precision":"range"},"type":"Feature","geometry":{"type":"Point","coordinates":[-117.073932,34.033925]}},{"properties":{"rep? (1 for yes, 0 for no)":0,"city":"Yucca Valley","zip":"92284","geo_score":0.902,"street address":"7272 Joshua Lane","id":"a66vnnzu15w4","geo_precision":"range"},"type":"Feature","geometry":{"type":"Point","coordinates":[-116.415005,34.121145]}},{"properties":{"rep? (1 for yes, 0 for no)":0,"city":"Yucca Valley","zip":"92284","geo_score":0.634,"street address":"57271 Twentynine Palms Highway","id":"a66vnnofz5kt","geo_precision":"street"},"type":"Feature","geometry":{"type":"Point","coordinates":[-116.391996,34.130241]}},{"properties":{"rep? (1 for yes, 0 for no)":0,"city":"Yucca Valley","zip":"92284","geo_score":0.501,"street address":"57297 29 Palms Highway","id":"a66vnnsfvwfw","geo_precision":"street"},"type":"Feature","geometry":{"type":"Point","coordinates":[-116.24167,33.636787]}},{"properties":{"rep? (1 for yes, 0 for no)":0,"city":"Yucca Valley","zip":"92284","geo_score":0.508,"street address":"57125-29 Palms Highway","id":"a66vno20ld2r","geo_precision":"street"},"type":"Feature","geometry":{"type":"Point","coordinates":[-116.24167,33.636787]}}],"is_temporal":false,"author":{"url":"","metadata":null,"contact_name":null,"contact_address":null,"source":null,"contact_phone":null},"source":"","pagination":{"sort":null,"start":0,"total":498,"limit":1000000},"state":"complete","tags":"","published":"2014-08-14T19:17:11-04:00","id":223385}