{"type":"FeatureCollection","data_type":"Dataset","url_type":null,"permissions":[{"permissions":{"download":true,"view":true},"group_id":"everyone"}],"classification":null,"title":"lsr_201204031100_201204040559","count":30,"stream_id":223596,"contributor":{"url":"http://geocommons.com/users/28467","name":"bheberto"},"data_attributes":null,"calculation_params":null,"icon_link":null,"link":"http://geocommons.com/overlays/223596.json","extent":[-107.67,37.05,-103.35,39.99],"geometry_types":["point"],"unique_name":null,"name":"lsr_201204031100_201204040559","feature_count":30,"description":"","next_feature":null,"is_raster":false,"short_classification":"Y","stats":{"MAG":{"max":71.0,"mean":8.19,"variance":177.048517241379,"stdev":13.3059579603041,"min":0.8,"median":4.3},"VALID":{"max":201204031441,"mean":201204031342.8,"variance":10216.8551724139,"stdev":101.078460477067,"min":201204031143,"median":201204031400}},"features":[{"properties":{"CITY":"7 NNE Colorado Springs","TYPETEXT":"NON-TSTM WND GST","TYPECODE":"N","WFO":"PUB","REMARK":"measured at 222am.","MAG":71.0,"id":"a62fqwvg5nt9","SOURCE":"trained spotter","COUNTY":"El Paso","VALID":201204031143},"type":"Feature","geometry":{"type":"Point","coordinates":[-104.77,38.92]}},{"properties":{"CITY":"Alamosa","TYPETEXT":"SNOW","TYPECODE":"S","WFO":"PUB","REMARK":"still lightly snowing.","MAG":1.0,"id":"a62fqwti1e81","SOURCE":"trained spotter","COUNTY":"Alamosa","VALID":201204031144},"type":"Feature","geometry":{"type":"Point","coordinates":[-105.87,37.47]}},{"properties":{"CITY":"1 SSW RYE","TYPETEXT":"SNOW","TYPECODE":"S","WFO":"PUB","REMARK":"still snowing.","MAG":7.0,"id":"a62fqwve54nx","SOURCE":"nws employee","COUNTY":"Pueblo","VALID":201204031144},"type":"Feature","geometry":{"type":"Point","coordinates":[-104.94,37.91]}},{"properties":{"CITY":"Beulah","TYPETEXT":"SNOW","TYPECODE":"S","WFO":"PUB","REMARK":"heavy snow still falling","MAG":7.0,"id":"a62fqwvhxjt6","SOURCE":"trained spotter","COUNTY":"Pueblo","VALID":201204031148},"type":"Feature","geometry":{"type":"Point","coordinates":[-104.98,38.08]}},{"properties":{"CITY":"1 SSE Alamosa","TYPETEXT":"SNOW","TYPECODE":"S","WFO":"PUB","REMARK":null,"MAG":1.0,"id":"a62fqwsn8rm1","SOURCE":"co-op observer","COUNTY":"Alamosa","VALID":201204031159},"type":"Feature","geometry":{"type":"Point","coordinates":[-105.87,37.46]}},{"properties":{"CITY":"3 N Conifer","TYPETEXT":"SNOW","TYPECODE":"S","WFO":"BOU","REMARK":null,"MAG":3.0,"id":"a62fqwwctjxs","SOURCE":"trained spotter","COUNTY":"Jefferson","VALID":201204031258},"type":"Feature","geometry":{"type":"Point","coordinates":[-105.31,39.57]}},{"properties":{"CITY":"3 NW Idledale","TYPETEXT":"SNOW","TYPECODE":"S","WFO":"BOU","REMARK":null,"MAG":2.5,"id":"a62fqwwop6u9","SOURCE":"trained spotter","COUNTY":"Jefferson","VALID":201204031301},"type":"Feature","geometry":{"type":"Point","coordinates":[-105.28,39.7]}},{"properties":{"CITY":"Ouray","TYPETEXT":"SNOW","TYPECODE":"S","WFO":"GJT","REMARK":"24 hour snowfall...water equivalent of 0.32 inches","MAG":7.9,"id":"a62fqwta0g5t","SOURCE":"co-op observer","COUNTY":"Ouray","VALID":201204031310},"type":"Feature","geometry":{"type":"Point","coordinates":[-107.67,38.03]}},{"properties":{"CITY":"Maysville","TYPETEXT":"SNOW","TYPECODE":"S","WFO":"PUB","REMARK":null,"MAG":1.7,"id":"a62fqwn24838","SOURCE":"trained spotter","COUNTY":"Chaffee","VALID":201204031329},"type":"Feature","geometry":{"type":"Point","coordinates":[-106.22,38.54]}},{"properties":{"CITY":"4 ENE Nederland","TYPETEXT":"SNOW","TYPECODE":"S","WFO":"BOU","REMARK":null,"MAG":2.0,"id":"a62fqwtgjwr6","SOURCE":"trained spotter","COUNTY":"Boulder","VALID":201204031330},"type":"Feature","geometry":{"type":"Point","coordinates":[-105.45,39.99]}},{"properties":{"CITY":"NW Denver","TYPETEXT":"SNOW","TYPECODE":"S","WFO":"BOU","REMARK":null,"MAG":1.6,"id":"a62fqwl2yy1a","SOURCE":"nws employee","COUNTY":"Denver","VALID":201204031331},"type":"Feature","geometry":{"type":"Point","coordinates":[-104.87,39.77]}},{"properties":{"CITY":"3 W Conifer","TYPETEXT":"SNOW","TYPECODE":"S","WFO":"BOU","REMARK":null,"MAG":5.0,"id":"a62fqwzj7bbc","SOURCE":"trained spotter","COUNTY":"Jefferson","VALID":201204031331},"type":"Feature","geometry":{"type":"Point","coordinates":[-105.36,39.51]}},{"properties":{"CITY":"1 NW Louviers","TYPETEXT":"SNOW","TYPECODE":"S","WFO":"BOU","REMARK":null,"MAG":1.8,"id":"a62fqwlai9my","SOURCE":"trained spotter","COUNTY":"Douglas","VALID":201204031343},"type":"Feature","geometry":{"type":"Point","coordinates":[-105.01,39.48]}},{"properties":{"CITY":"1 S Beulah","TYPETEXT":"SNOW","TYPECODE":"S","WFO":"PUB","REMARK":"still snowing.","MAG":9.0,"id":"a62fqx00j5rr","SOURCE":"trained spotter","COUNTY":"Pueblo","VALID":201204031346},"type":"Feature","geometry":{"type":"Point","coordinates":[-104.98,38.07]}},{"properties":{"CITY":"Trinidad","TYPETEXT":"SNOW","TYPECODE":"S","WFO":"PUB","REMARK":"12 inches overnight.","MAG":12.0,"id":"a62fqwyetvnb","SOURCE":"trained spotter","COUNTY":"Las Animas","VALID":201204031350},"type":"Feature","geometry":{"type":"Point","coordinates":[-104.51,37.17]}},{"properties":{"CITY":"1 SSW RYE","TYPETEXT":"SNOW","TYPECODE":"S","WFO":"PUB","REMARK":"1.29 liquid","MAG":11.1,"id":"a62fqwtd6g9d","SOURCE":"nws employee","COUNTY":"Pueblo","VALID":201204031400},"type":"Feature","geometry":{"type":"Point","coordinates":[-104.94,37.91]}},{"properties":{"CITY":"2 SSE Breckenridge","TYPETEXT":"SNOW","TYPECODE":"S","WFO":"BOU","REMARK":null,"MAG":0.8,"id":"a62fqwsci9ap","SOURCE":"trained spotter","COUNTY":"Summit","VALID":201204031401},"type":"Feature","geometry":{"type":"Point","coordinates":[-106.03,39.47]}},{"properties":{"CITY":"2 ENE Monument","TYPETEXT":"SNOW","TYPECODE":"S","WFO":"PUB","REMARK":"blowing snow.","MAG":1.5,"id":"a62fqwlpy8rm","SOURCE":"trained spotter","COUNTY":"El Paso","VALID":201204031405},"type":"Feature","geometry":{"type":"Point","coordinates":[-104.84,39.11]}},{"properties":{"CITY":"1 SW Evergreen","TYPETEXT":"SNOW","TYPECODE":"S","WFO":"BOU","REMARK":null,"MAG":3.0,"id":"a62fqwmkhn5p","SOURCE":"trained spotter","COUNTY":"Jefferson","VALID":201204031405},"type":"Feature","geometry":{"type":"Point","coordinates":[-105.36,39.62]}},{"properties":{"CITY":"8 S Westcliffe","TYPETEXT":"SNOW","TYPECODE":"S","WFO":"PUB","REMARK":"began at 1 am.","MAG":8.0,"id":"a62fqwxusigk","SOURCE":"trained spotter","COUNTY":"Custer","VALID":201204031410},"type":"Feature","geometry":{"type":"Point","coordinates":[-105.47,38.01]}},{"properties":{"CITY":"18 WSW Aguilar","TYPETEXT":"SNOW","TYPECODE":"S","WFO":"PUB","REMARK":"1.25 liquid.","MAG":17.0,"id":"a62fqwyu5fet","SOURCE":"co-op observer","COUNTY":"Las Animas","VALID":201204031414},"type":"Feature","geometry":{"type":"Point","coordinates":[-104.96,37.3]}},{"properties":{"CITY":"KIM","TYPETEXT":"SNOW","TYPECODE":"S","WFO":"PUB","REMARK":null,"MAG":2.0,"id":"a62fqwwo0fns","SOURCE":"trained spotter","COUNTY":"Las Animas","VALID":201204031422},"type":"Feature","geometry":{"type":"Point","coordinates":[-103.35,37.25]}},{"properties":{"CITY":"1 SSW Cuchara","TYPETEXT":"SNOW","TYPECODE":"S","WFO":"PUB","REMARK":"cuchara sanitation water district","MAG":30.0,"id":"a62fqwr62jpa","SOURCE":"public","COUNTY":"Huerfano","VALID":201204031423},"type":"Feature","geometry":{"type":"Point","coordinates":[-105.11,37.37]}},{"properties":{"CITY":"2 WSW Rosita","TYPETEXT":"SNOW","TYPECODE":"S","WFO":"PUB","REMARK":null,"MAG":7.5,"id":"a62fqwm0iuf6","SOURCE":"trained spotter","COUNTY":"Custer","VALID":201204031426},"type":"Feature","geometry":{"type":"Point","coordinates":[-105.36,38.09]}},{"properties":{"CITY":"4 S Manila Village","TYPETEXT":"SNOW","TYPECODE":"S","WFO":"BOU","REMARK":null,"MAG":2.5,"id":"a62fqwlo3kl6","SOURCE":"trained spotter","COUNTY":"Arapahoe","VALID":201204031429},"type":"Feature","geometry":{"type":"Point","coordinates":[-104.52,39.7]}},{"properties":{"CITY":"Trinchera","TYPETEXT":"SNOW","TYPECODE":"S","WFO":"PUB","REMARK":null,"MAG":11.0,"id":"a62fqwlp3mxu","SOURCE":"public","COUNTY":"Las Animas","VALID":201204031432},"type":"Feature","geometry":{"type":"Point","coordinates":[-104.03,37.05]}},{"properties":{"CITY":"3 NW Idledale","TYPETEXT":"SNOW","TYPECODE":"S","WFO":"BOU","REMARK":"additional 1.8 since previous report at 701 am","MAG":4.3,"id":"a62fqwzrxq1q","SOURCE":"trained spotter","COUNTY":"Jefferson","VALID":201204031435},"type":"Feature","geometry":{"type":"Point","coordinates":[-105.28,39.7]}},{"properties":{"CITY":"11 NNE Branson","TYPETEXT":"SNOW","TYPECODE":"S","WFO":"PUB","REMARK":null,"MAG":4.0,"id":"a62fqx0ukn5l","SOURCE":"public","COUNTY":"Las Animas","VALID":201204031437},"type":"Feature","geometry":{"type":"Point","coordinates":[-103.8,37.16]}},{"properties":{"CITY":"1 NNE Walsenburg","TYPETEXT":"SNOW","TYPECODE":"S","WFO":"PUB","REMARK":null,"MAG":7.0,"id":"a62fqwyxi9xs","SOURCE":"trained spotter","COUNTY":"Huerfano","VALID":201204031437},"type":"Feature","geometry":{"type":"Point","coordinates":[-104.78,37.63]}},{"properties":{"CITY":"2 ENE Bergen Park","TYPETEXT":"SNOW","TYPECODE":"S","WFO":"BOU","REMARK":null,"MAG":2.5,"id":"a62fqwpwr3e8","SOURCE":"trained spotter","COUNTY":"Jefferson","VALID":201204031441},"type":"Feature","geometry":{"type":"Point","coordinates":[-105.32,39.71]}}],"is_temporal":false,"author":{"url":"","metadata":null,"contact_name":null,"contact_address":null,"source":null,"contact_phone":null},"source":"","pagination":{"sort":null,"start":0,"total":30,"limit":1000000},"state":"complete","tags":"","published":"2014-08-14T19:31:12-04:00","id":223596}