{"type":"FeatureCollection","data_type":"Dataset","url_type":null,"permissions":[{"permissions":{"download":true,"view":true},"group_id":"everyone"}],"classification":null,"title":"World_Golf_Ranking","count":25,"stream_id":223692,"contributor":{"url":"http://geocommons.com/users/42462","name":"tycanne18"},"data_attributes":null,"calculation_params":null,"icon_link":null,"link":"http://geocommons.com/overlays/223692.json","extent":[-121.494,26.0112,-72.5128,43.6313],"geometry_types":["point"],"unique_name":null,"name":"World_Golf_Ranking","feature_count":25,"description":"","next_feature":null,"is_raster":false,"short_classification":"Y","stats":{"rank":{"max":25,"mean":13.0,"variance":54.1666666666667,"stdev":7.35980072193987,"min":1,"median":13}},"features":[{"properties":{"city":"Hempstead","name":"Luke Donald","geo_score":0.652,"country":"United Kingdom","zip code":null,"rank":1,"id":"a67h9g0llubx","geo_precision":"city","state":null},"type":"Feature","geometry":{"type":"Point","coordinates":[-73.645129,40.696491]}},{"properties":{"city":"Holywood","name":"Rory McIlroy","geo_score":0.698,"country":"United Kingdom","zip code":null,"rank":2,"id":"a67h9fyqjnv1","geo_precision":"city","state":null},"type":"Feature","geometry":{"type":"Point","coordinates":[-80.14949,26.011201]}},{"properties":{"city":"Worksop","name":"Lee Westwood","geo_score":0.0,"country":"United Kingdom","zip code":null,"rank":3,"id":"a67h9fvjpb8w","geo_precision":"unmatched","state":null},"type":"Feature","geometry":null},{"properties":{"city":"Orange","name":"Hunter Mahan","geo_score":0.857,"country":"United States","zip code":null,"rank":4,"id":"a67h9fyas7oz","geo_precision":"city","state":"California"},"type":"Feature","geometry":{"type":"Point","coordinates":[-117.853112,33.787795]}},{"properties":{"city":"Edgerton","name":"Steve Stricker","geo_score":0.857,"country":"United States","zip code":null,"rank":5,"id":"a67h9fqkwnxl","geo_precision":"city","state":"Wisconsin"},"type":"Feature","geometry":{"type":"Point","coordinates":[-89.101389,42.803797]}},{"properties":{"city":"Dusseldorf","name":"Martin Kaymer","geo_score":0.0,"country":"Germany","zip code":null,"rank":6,"id":"a67h9fpph504","geo_precision":"unmatched","state":null},"type":"Feature","geometry":null},{"properties":{"city":"Cypress","name":"Tiger Woods","geo_score":0.857,"country":"United States","zip code":null,"rank":7,"id":"a67h9g0w4ot1","geo_precision":"city","state":"California"},"type":"Feature","geometry":{"type":"Point","coordinates":[-117.769442,33.640302]}},{"properties":{"city":"Johannesburg","name":"Charl Schwartzel","geo_score":0.702,"country":"South Africa","zip code":null,"rank":8,"id":"a67h9fr8a7lt","geo_precision":"city","state":null},"type":"Feature","geometry":{"type":"Point","coordinates":[-89.65315,38.384494]}},{"properties":{"city":"Johannesburg","name":"Justin Rose","geo_score":0.702,"country":"South Africa","zip code":null,"rank":9,"id":"a67h9g2vhqqf","geo_precision":"city","state":null},"type":"Feature","geometry":{"type":"Point","coordinates":[-89.65315,38.384494]}},{"properties":{"city":"Raleigh","name":"Webb Simpson","geo_score":0.857,"country":"United States","zip code":null,"rank":10,"id":"a67h9fwakape","geo_precision":"city","state":"North Carolina"},"type":"Feature","geometry":{"type":"Point","coordinates":[-78.638615,35.772096]}},{"properties":{"city":"Beaudesert","name":"Jason Day","geo_score":0.0,"country":"Australia","zip code":null,"rank":11,"id":"a67h9fuzvwf1","geo_precision":"unmatched","state":null},"type":"Feature","geometry":null},{"properties":{"city":"Columbia","name":"Dustin Johnson","geo_score":0.857,"country":"United States","zip code":null,"rank":12,"id":"a67h9frn60en","geo_precision":"city","state":"South Carolina"},"type":"Feature","geometry":{"type":"Point","coordinates":[-81.024864,33.987454]}},{"properties":{"city":"Adelaide","name":"Adam Scott","geo_score":0.696,"country":"Australia","zip code":null,"rank":13,"id":"a67h9g3pmvdc","geo_precision":"city","state":null},"type":"Feature","geometry":{"type":"Point","coordinates":[-120.873514,35.645526]}},{"properties":{"city":"San Diego","name":"Phil Mickelson","geo_score":0.857,"country":"United States","zip code":null,"rank":14,"id":"a67h9fxlaxb1","geo_precision":"city","state":"California"},"type":"Feature","geometry":{"type":"Point","coordinates":[-117.157255,32.715329]}},{"properties":{"city":"Port Rush","name":"Graeme McDowell","geo_score":0.625,"country":"United Kingdom","zip code":null,"rank":15,"id":"a67h9fwpna39","geo_precision":"city","state":null},"type":"Feature","geometry":{"type":"Point","coordinates":[-93.244612,33.242351]}},{"properties":{"city":"Bagdad","name":"Bubba Watson","geo_score":0.875,"country":"United States","zip code":"32530","rank":16,"id":"a67h9frufgcl","geo_precision":"zip","state":"Florida"},"type":"Feature","geometry":{"type":"Point","coordinates":[-87.058022,30.589361]}},{"properties":{"city":"Charlotte","name":"Bill Haas","geo_score":0.857,"country":"United States","zip code":null,"rank":17,"id":"a67h9g28v3on","geo_precision":"city","state":"North Carolina"},"type":"Feature","geometry":{"type":"Point","coordinates":[-80.843127,35.227087]}},{"properties":{"city":"Winter Park","name":"Matt Kuchar","geo_score":0.857,"country":"United States","zip code":null,"rank":18,"id":"a67h9fwtlktd","geo_precision":"city","state":"Florida"},"type":"Feature","geometry":{"type":"Point","coordinates":[-81.35874,28.602327]}},{"properties":{"city":"Woodstock","name":"Keegan Bradley","geo_score":0.857,"country":"United States","zip code":null,"rank":19,"id":"a67h9for0rdg","geo_precision":"city","state":"Vermont"},"type":"Feature","geometry":{"type":"Point","coordinates":[-72.512835,43.631348]}},{"properties":{"city":"Sacramento","name":"Nick Watney","geo_score":0.857,"country":"United States","zip code":null,"rank":20,"id":"a67h9g3bqrxa","geo_precision":"city","state":"California"},"type":"Feature","geometry":{"type":"Point","coordinates":[-121.4944,38.581572]}},{"properties":{"city":"Castellon","name":"Sergio Garcia","geo_score":0.683,"country":"Spain","zip code":null,"rank":21,"id":"a67h9frxn4im","geo_precision":"city","state":null},"type":"Feature","geometry":{"type":"Point","coordinates":[-103.514347,29.133258]}},{"properties":{"city":"Nashville","name":"Brandt Snedeker","geo_score":0.857,"country":"United States","zip code":null,"rank":22,"id":"a67h9ftx0f0g","geo_precision":"city","state":"Tennessee"},"type":"Feature","geometry":{"type":"Point","coordinates":[-86.784443,36.16589]}},{"properties":{"city":"Wando","name":"K.J. Choi","geo_score":0.657,"country":"South Korea","zip code":null,"rank":23,"id":"a67h9g2i6hoo","geo_precision":"city","state":null},"type":"Feature","geometry":{"type":"Point","coordinates":[-85.339386,32.257648]}},{"properties":{"city":"Stevenage","name":"Ian Poulter","geo_score":0.651,"country":"United Kingdom","zip code":null,"rank":24,"id":"a67h9fokx9vm","geo_precision":"city","state":null},"type":"Feature","geometry":{"type":"Point","coordinates":[-88.613961,41.398643]}},{"properties":{"city":"Trelleborg","name":"Peter Hanson","geo_score":0.0,"country":"Sweden","zip code":null,"rank":25,"id":"a67h9g08ve8g","geo_precision":"unmatched","state":null},"type":"Feature","geometry":null}],"is_temporal":false,"author":{"url":"","metadata":null,"contact_name":null,"contact_address":null,"source":null,"contact_phone":null},"source":"","pagination":{"sort":null,"start":0,"total":25,"limit":1000000},"state":"complete","tags":"","published":"2014-08-14T19:37:17-04:00","id":223692}