{"type":"FeatureCollection","data_type":"Dataset","url_type":null,"permissions":[{"permissions":{"download":true,"view":true},"group_id":"everyone"}],"classification":null,"title":"Top 10 Tourist Destinations in US","count":10,"stream_id":223658,"contributor":{"url":"http://geocommons.com/users/42459","name":"vanettje"},"data_attributes":null,"calculation_params":null,"icon_link":null,"link":"http://geocommons.com/overlays/223658.json","extent":[-122.417,28.3936,-71.1024,43.0898],"geometry_types":["point"],"unique_name":null,"name":"Top 10 Tourist Destinations in US","feature_count":10,"description":"","next_feature":null,"is_raster":false,"short_classification":"Y","stats":{"number of tourists":{"max":37600000,"mean":18834000.0,"variance":89386226666666.7,"stdev":9454428.94450356,"min":8600000,"median":17100000}},"features":[{"properties":{"place":"New York City","city":"New York","geo_score":1.0,"zip code":"10036","number of tourists":37600000,"id":"a6oeec919zyk","geo_precision":"zip","state":"New York"},"type":"Feature","geometry":{"type":"Point","coordinates":[-73.989847,40.75953]}},{"properties":{"place":"Las Vegas Strip","city":"Las Vegas","geo_score":1.0,"zip code":"89103","number of tourists":30000000,"id":"a6oeec7g2p3g","geo_precision":"zip","state":"Nevada"},"type":"Feature","geometry":{"type":"Point","coordinates":[-114.891987,36.33689]}},{"properties":{"place":"National Mall and Memorial Parks","city":"Washington","geo_score":0.857,"zip code":"20000","number of tourists":25000000,"id":"a6oeec7qjfet","geo_precision":"zip","state":"District of Colombia"},"type":"Feature","geometry":{"type":"Point","coordinates":[-77.036366,38.895112]}},{"properties":{"place":"Faneuil Hall","city":"Boston","geo_score":1.0,"zip code":"2108","number of tourists":20000000,"id":"a6oeeciw4200","geo_precision":"zip","state":"Massachusetts"},"type":"Feature","geometry":{"type":"Point","coordinates":[-71.102446,42.353806]}},{"properties":{"place":"Disney World's Magic Kingdom","city":"Lake Buena Vista","geo_score":1.0,"zip code":"32830","number of tourists":17100000,"id":"a6oeecjfjk1s","geo_precision":"zip","state":"Florida"},"type":"Feature","geometry":{"type":"Point","coordinates":[-81.538684,28.393619]}},{"properties":{"place":"Disneyland Park","city":"Anaheim","geo_score":1.0,"zip code":"92801","number of tourists":14900000,"id":"a6oeecd45u0k","geo_precision":"zip","state":"California"},"type":"Feature","geometry":{"type":"Point","coordinates":[-117.769442,33.640302]}},{"properties":{"place":"Fisherman's Wharf/Golden Gate National Recreation Area","city":"San Francisco","geo_score":1.0,"zip code":"94102","number of tourists":14100000,"id":"a6oeecev3hap","geo_precision":"zip","state":"California"},"type":"Feature","geometry":{"type":"Point","coordinates":[-122.416582,37.779278]}},{"properties":{"place":"Niagara Falls","city":"Niagara Falls","geo_score":1.0,"zip code":"14301","number of tourists":12000000,"id":"a6oeecf0iehx","geo_precision":"zip","state":"New York"},"type":"Feature","geometry":{"type":"Point","coordinates":[-79.009414,43.089805]}},{"properties":{"place":"Great Smokey Mountain National Park","city":"Gatlinburg","geo_score":0.879,"zip code":"37738","number of tourists":9040000,"id":"a6oeec4ltmac","geo_precision":"zip","state":"Tennessee"},"type":"Feature","geometry":{"type":"Point","coordinates":[-83.395992,35.759261]}},{"properties":{"place":"Navy Pier","city":"Chicago","geo_score":1.0,"zip code":"60601","number of tourists":8600000,"id":"a6oeecemob9e","geo_precision":"zip","state":"Illinois"},"type":"Feature","geometry":{"type":"Point","coordinates":[-87.68732,41.811929]}}],"is_temporal":false,"author":{"url":"","metadata":"","contact_name":"","contact_address":"","source":"","contact_phone":""},"source":"","pagination":{"sort":null,"start":0,"total":10,"limit":1000000},"state":"complete","tags":"","published":"2014-08-14T19:35:42-04:00","id":223658}