{"type":"FeatureCollection","data_type":"Dataset","url_type":null,"permissions":[{"permissions":{"download":true,"view":true},"group_id":"everyone"}],"classification":null,"title":"3-30on6pm-intl-removed","count":292,"stream_id":223747,"contributor":{"url":"http://geocommons.com/users/42862","name":"mnahmed"},"data_attributes":null,"calculation_params":null,"icon_link":null,"link":"http://geocommons.com/overlays/223747.json","extent":[-157.859,18.4384,-66.2824,47.9839],"geometry_types":["point"],"unique_name":null,"name":"3-30on6pm-intl-removed","feature_count":292,"description":"","next_feature":null,"is_raster":false,"short_classification":"Y","stats":{"students at university":{"max":8,"mean":3.26712328767123,"variance":5.42668173045238,"stdev":2.32952392785573,"min":1,"median":2}},"features":[{"properties":{"city":"Hoffman Estates","zip":"60192","domestic office or overseas post":"Calgary","university":"American InterContinental University, Hoffman Estates, IL","geo_score":0.83,"university country":null,"country":"Canada","university address":"5550 Prairie Stone Parkway Ste 130","participation year":"2010-2011","project  code":"C1","students at university":1,"id":"a622wbmzgq45","geo_precision":"range","state":"Illinois","project description":"Review and create content for US Consulate General Calgary and North of Sixty Virtual Presence Posts websites."},"type":"Feature","geometry":{"type":"Point","coordinates":[-88.218971,42.069465]}},{"properties":{"city":"Manassas","zip":"20109","domestic office or overseas post":"Surabaya","university":"American Military University, Manassas, VA","geo_score":0.894,"university country":null,"country":"Indonesia","university address":"10110 Battleview Parkway Suite 114","participation year":"2010-2011","project  code":"I5","students at university":1,"id":"a622wbvd0trs","geo_precision":"range","state":"VA","project description":"Create a program that shares a US perspective on higher education opportunities, answers Indonesian student questions, and promotes studying in the US."},"type":"Feature","geometry":{"type":"Point","coordinates":[-77.511526,38.806204]}},{"properties":{"city":"Washington","zip":"20016","domestic office or overseas post":"Canberra","university":"American University (The)","geo_score":0.78,"university country":null,"country":"Australia","university address":"4400 Massachusetts Ave NW","participation year":"2011-2012","project  code":"A6","students at university":6,"id":"a622wbzr3gh9","geo_precision":"street","state":"D.C.","project description":"Engage Australian youth, young professionals, and media through content posted on Twitter to increase understanding of the United States and help showcase partnerships on issues such as climate change and innovation."},"type":"Feature","geometry":{"type":"Point","coordinates":[-77.085585,38.937661]}},{"properties":{"city":"Washington","zip":"20016","domestic office or overseas post":"Office of English Language Programs - Education and Cultural Affairs Bureau","university":"American University (The)","geo_score":0.78,"university country":null,"country":"Domestic Office","university address":"4400 Massachusetts Ave NW","participation year":"2011-2012","project  code":"DC13","students at university":6,"id":"a622wbyx2l33","geo_precision":"street","state":"D.C.","project description":"Conduct online research and support the social media platform of the English Access Microscholarship Program to better understand and strengthen the programs online presence."},"type":"Feature","geometry":{"type":"Point","coordinates":[-77.085585,38.937661]}},{"properties":{"city":"Washington","zip":"20016","domestic office or overseas post":"African Affairs - Public Diplomacy/Public Affairs","university":"American University (The)","geo_score":0.78,"university country":null,"country":"Domestic Office","university address":"4400 Massachusetts Ave NW","participation year":"2011-2012","project  code":"DC4","students at university":6,"id":"a622wbylpg9e","geo_precision":"street","state":"D.C.","project description":"Assist in tracking the Bureau of African Affairs' social media engagement."},"type":"Feature","geometry":{"type":"Point","coordinates":[-77.085585,38.937661]}},{"properties":{"city":"Washington","zip":"20016","domestic office or overseas post":"European and Eurasian Affairs - Office of Press and Public Diplomacy","university":"American University (The)","geo_score":0.78,"university country":null,"country":"Domestic Office","university address":"4400 Massachusetts Ave NW","participation year":"2011-2012","project  code":"DC9","students at university":6,"id":"a622wbzvwav6","geo_precision":"street","state":"D.C.","project description":"Develop 2-minute Spanish-language videos explaining explaining U.S. government and history concepts to Spanish-speaking youth."},"type":"Feature","geometry":{"type":"Point","coordinates":[-77.085585,38.937661]}},{"properties":{"city":"Washington","zip":"20016","domestic office or overseas post":"Asmara","university":"American University (The)","geo_score":0.78,"university country":null,"country":"Eritrea","university address":"4400 Massachusetts Ave NW","participation year":"2010-2011","project  code":"E3","students at university":6,"id":"a622wby50t4x","geo_precision":"street","state":"D.C.","project description":"Provide post with valuable research on the Eritrean Diaspora."},"type":"Feature","geometry":{"type":"Point","coordinates":[-77.085585,38.937661]}},{"properties":{"city":"Washington","zip":"20016","domestic office or overseas post":"New Delhi","university":"American University (The)","geo_score":0.78,"university country":null,"country":"India","university address":"4400 Massachusetts Ave NW","participation year":"2011-2012","project  code":"I5","students at university":6,"id":"a622wbqi1ng2","geo_precision":"street","state":"D.C.","project description":"Help Consular Team India analyze the Indian American Diaspora by researching past immigration patterns, characterizing current socioeconomic conditions, and predicting future actions."},"type":"Feature","geometry":{"type":"Point","coordinates":[-77.085585,38.937661]}},{"properties":{"city":"Amherst","zip":"1002","domestic office or overseas post":"Beijing","university":"Amherst College","geo_score":0.871,"university country":null,"country":"China","university address":"Boltwood Avenue","participation year":"2011-2012","project  code":"C2","students at university":6,"id":"a622wbwkpiy8","geo_precision":"street","state":"Massachusetts","project description":"Develop captioned photos, short videos, and blog-length texts describing the lives of undergraduate and graduate American and Chinese students studying in the United States, to stimulate interactive engagement on Mission Chinas blogs and micro-blogs."},"type":"Feature","geometry":{"type":"Point","coordinates":[-72.518929,42.374794]}},{"properties":{"city":"Amherst","zip":"1002","domestic office or overseas post":"Bogota","university":"Amherst College","geo_score":0.871,"university country":null,"country":"Colombia","university address":"Boltwood Avenue","participation year":"2011-2012","project  code":"C5","students at university":6,"id":"a622wbry50mi","geo_precision":"street","state":"Massachusetts","project description":"To design a virtual Foto-Museo webpage that also integrates with sections Facebook page, in both English and Spanish."},"type":"Feature","geometry":{"type":"Point","coordinates":[-72.518929,42.374794]}},{"properties":{"city":"Amherst","zip":"1002","domestic office or overseas post":"Bogota","university":"Amherst College","geo_score":0.871,"university country":null,"country":"Colombia","university address":"Boltwood Avenue","participation year":"2011-2012","project  code":"C6","students at university":6,"id":"a622wbrumwr0","geo_precision":"street","state":"Massachusetts","project description":"To keep the conversation going on the Facebook page of our nationwide photo contest, Colombia, Pais de Contrastes."},"type":"Feature","geometry":{"type":"Point","coordinates":[-72.518929,42.374794]}},{"properties":{"city":"Amherst","zip":"1002","domestic office or overseas post":"Bogota","university":"Amherst College","geo_score":0.871,"university country":null,"country":"Colombia","university address":"Boltwood Avenue","participation year":"2011-2012","project  code":"C6","students at university":6,"id":"a622wbuaji4x","geo_precision":"street","state":"Massachusetts","project description":"To keep the conversation going on the Facebook page of our nationwide photo contest, Colombia, Pais de Contrastes."},"type":"Feature","geometry":{"type":"Point","coordinates":[-72.518929,42.374794]}},{"properties":{"city":"Amherst","zip":"1002","domestic office or overseas post":"New Delhi","university":"Amherst College","geo_score":0.871,"university country":null,"country":"India","university address":"Boltwood Avenue","participation year":"2011-2012","project  code":"I5","students at university":6,"id":"a622wbvq5iko","geo_precision":"street","state":"Massachusetts","project description":"Help Consular Team India analyze the Indian American Diaspora by researching past immigration patterns, characterizing current socioeconomic conditions, and predicting future actions."},"type":"Feature","geometry":{"type":"Point","coordinates":[-72.518929,42.374794]}},{"properties":{"city":"Amherst","zip":"1002","domestic office or overseas post":"Astana","university":"Amherst College","geo_score":0.871,"university country":null,"country":"Kazakhstan","university address":"Boltwood Avenue","participation year":"2011-2012","project  code":"K1","students at university":6,"id":"a622wbsqxl2g","geo_precision":"street","state":"Massachusetts","project description":"Promote the celebration of the 100th anniversary of scientist Lev Nikolayevich to include assisting in translating books from English to Russianand from Russian to English and digitizing materials including books, magazines, articles, and personal letters."},"type":"Feature","geometry":{"type":"Point","coordinates":[-72.518929,42.374794]}},{"properties":{"city":"Tempe","zip":null,"domestic office or overseas post":"Wellington","university":"Arizona State University","geo_score":0.805,"university country":null,"country":"New Zealand","university address":"699 S Mill Ave","participation year":"2011-2012","project  code":"Wellington","students at university":3,"id":"a622wbqsb0fj","geo_precision":"range","state":"AZ","project description":"Ambassador's social media coordinator/specialist/assistant"},"type":"Feature","geometry":{"type":"Point","coordinates":[-111.940007,33.423211]}},{"properties":{"city":"Tempe","zip":null,"domestic office or overseas post":"Asmara","university":"Arizona State University","geo_score":0.805,"university country":null,"country":"Eritrea","university address":"699 S Mill Ave","participation year":"2010-2011","project  code":"E4","students at university":3,"id":"a622wbof0n1x","geo_precision":"range","state":"AZ","project description":"Provide research and practical materials toenhance post's presence online and engage new audiences via social media."},"type":"Feature","geometry":{"type":"Point","coordinates":[-111.940007,33.423211]}},{"properties":{"city":"Tempe","zip":null,"domestic office or overseas post":"Wellington","university":"Arizona State University","geo_score":0.805,"university country":null,"country":"New Zealand","university address":"699 S Mill Ave","participation year":"2010-2011","project  code":"N1","students at university":3,"id":"a622wbrrgjuc","geo_precision":"range","state":"AZ","project description":"Create and maintain web and social media-based platforms to connect New Zealanders and Americans in the lead-up to, and during, the 2011 Rugby World Cup."},"type":"Feature","geometry":{"type":"Point","coordinates":[-111.940007,33.423211]}},{"properties":{"city":"New York City","zip":"10010","domestic office or overseas post":"Office of Innovative Engagement - IIP","university":"Bernard M Baruch College, City University of New York","geo_score":0.867,"university country":null,"country":"Domestic Office","university address":"One Bernard Baruch Way (55 Lexington at 24th St)","participation year":"2010-2011","project  code":"U4","students at university":2,"id":"a622wbkh45vh","geo_precision":"range","state":"New York","project description":"Work onApp Development Project which will enable U.S. Embassies and Consulates to generate their own apps for mobile phones, Facebook, and SMS."},"type":"Feature","geometry":{"type":"Point","coordinates":[-73.983996,40.740653]}},{"properties":{"city":"New York City","zip":"10010","domestic office or overseas post":"New Delhi","university":"Bernard M Baruch College, City University of New York","geo_score":0.867,"university country":null,"country":"India","university address":"One Bernard Baruch Way (55 Lexington at 24th St)","participation year":"2011-2012","project  code":"I5","students at university":2,"id":"a622wbwjqjub","geo_precision":"range","state":"New York","project description":"Help Consular Team India analyze the Indian American Diaspora by researching past immigration patterns, characterizing current socioeconomic conditions, and predicting future actions."},"type":"Feature","geometry":{"type":"Point","coordinates":[-73.983996,40.740653]}},{"properties":{"city":"Binghamton","zip":"13850","domestic office or overseas post":"Berlin","university":"Binghamton, Binghamton, New York","geo_score":0.676,"university country":null,"country":"Germany","university address":"67 Washington Street","participation year":"2011-2012","project  code":"G3","students at university":1,"id":"a622wbl4e11k","geo_precision":"street","state":"New York","project description":"Engage German students and young professionals through social media to increase understanding of the United States and interest in American study and exchange opportunities."},"type":"Feature","geometry":{"type":"Point","coordinates":[-75.959717,42.082432]}},{"properties":{"city":"Boston","zip":"2215","domestic office or overseas post":"Bogota","university":"Boston University","geo_score":1.0,"university country":null,"country":"Colombia","university address":"One Silber Way","participation year":"2011-2012","project  code":"C6","students at university":2,"id":"a622wbo6c1oh","geo_precision":"zip","state":"Massachusetts","project description":"To keep the conversation going on the Facebook page of our nationwide photo contest, Colombia, Pais de Contrastes."},"type":"Feature","geometry":{"type":"Point","coordinates":[-71.107653,42.345079]}},{"properties":{"city":"Boston","zip":"2215","domestic office or overseas post":"Kolonia","university":"Boston University","geo_score":1.0,"university country":null,"country":"Micronesia","university address":"One Silber Way","participation year":"2010-2011","project  code":"M3","students at university":2,"id":"a622wbrp5nij","geo_precision":"zip","state":"Massachusetts","project description":"Promote Embassy's public diplomacyefforts and U.S. higher education opportunities for Micronesians via facebook and blogging."},"type":"Feature","geometry":{"type":"Point","coordinates":[-71.107653,42.345079]}},{"properties":{"city":"Peoria","zip":"61625","domestic office or overseas post":"Conakry","university":"Bradley University","geo_score":0.805,"university country":null,"country":"Guinea","university address":"1501 W Bradley Ave","participation year":"2011-2012","project  code":"G4","students at university":1,"id":"a622wbyglnd4","geo_precision":"range","state":"Illinois","project description":"Use social networking tools and online research to identify, engage, and mobilize professional Guinean diaspora; identify donors/foundations working to enhance access to, and the use of, new technologies in African countries"},"type":"Feature","geometry":{"type":"Point","coordinates":[-89.615968,40.696386]}},{"properties":{"city":"Provo","zip":"84602","domestic office or overseas post":"Brasilia","university":"Brigham Young University","geo_score":0.707,"university country":null,"country":"Brazil","university address":"1 University Hill","participation year":"2010-2011","project  code":"B2","students at university":6,"id":"a622wbzat2y9","geo_precision":"range","state":"UT","project description":"Work with anothereIntern to collaboratively develop and launch a matchmaking website to connect U.S. and Brazilian schools in order to foster sustained dialogue about global challenges, beginning with climate change."},"type":"Feature","geometry":{"type":"Point","coordinates":[-111.658597,40.25579]}},{"properties":{"city":"Provo","zip":"84602","domestic office or overseas post":"European and Eurasian Affairs - Office of Press and Public Diplomacy","university":"Brigham Young University","geo_score":0.707,"university country":null,"country":"Domestic Office","university address":"1 University Hill","participation year":"2011-2012","project  code":"DC8","students at university":6,"id":"a622wbz4qs0p","geo_precision":"range","state":"UT","project description":"Develop 2-minute French-language videos explaining U.S. government and history concepts to Francophone youth"},"type":"Feature","geometry":{"type":"Point","coordinates":[-111.658597,40.25579]}},{"properties":{"city":"Provo","zip":"84602","domestic office or overseas post":"Santo Domingo","university":"Brigham Young University","geo_score":0.707,"university country":null,"country":"Dominican Republic","university address":"1 University Hill","participation year":"2010-2011","project  code":"D2","students at university":6,"id":"a622wbxl8fkb","geo_precision":"range","state":"UT","project description":"Analyze and improveSanto Domingo'swebsite and other online resources."},"type":"Feature","geometry":{"type":"Point","coordinates":[-111.658597,40.25579]}},{"properties":{"city":"Provo","zip":"84602","domestic office or overseas post":"Dublin","university":"Brigham Young University","geo_score":0.707,"university country":null,"country":"Ireland","university address":"1 University Hill","participation year":"2010-2011","project  code":"I7","students at university":6,"id":"a622wbsqax3y","geo_precision":"range","state":"UT","project description":"Assistwith public affairs outreach programs by using social media tools to connect with and inform various target groups."},"type":"Feature","geometry":{"type":"Point","coordinates":[-111.658597,40.25579]}},{"properties":{"city":"Provo","zip":"84602","domestic office or overseas post":"Riga","university":"Brigham Young University","geo_score":0.707,"university country":null,"country":"Latvia","university address":"1 University Hill","participation year":"2011-2012","project  code":"L1","students at university":6,"id":"a622wbvpa0j3","geo_precision":"range","state":"UT","project description":"Support the daily work of the Latvian National Commission for UNESCO including events surrounding the 20th anniversary of Latvia joining UNESCO, editing English language materials, and helping improve the English language skills of Commission staff, research."},"type":"Feature","geometry":{"type":"Point","coordinates":[-111.658597,40.25579]}},{"properties":{"city":"Provo","zip":"84602","domestic office or overseas post":"Matamoros","university":"Brigham Young University","geo_score":0.707,"university country":null,"country":"Mexico","university address":"1 University Hill","participation year":"2011-2012","project  code":"M4","students at university":6,"id":"a622wbznkhn1","geo_precision":"range","state":"UT","project description":"Develop web, social media, print, and video content to help connect with and provide information to both Mexican and American citizens living in post's district."},"type":"Feature","geometry":{"type":"Point","coordinates":[-111.658597,40.25579]}},{"properties":{"city":"San Luis Obispo","zip":"93407","domestic office or overseas post":"Guadalajara","university":"Cal Poly, San Luis Obispo, CA","geo_score":0.805,"university country":null,"country":"Mexico","university address":"1 Grand Ave","participation year":"2011-2012","project  code":"M1","students at university":1,"id":"a622wbspxjeb","geo_precision":"range","state":"CA","project description":"Via social media platforms, facilitate an exchange of information about the university application process and college life in the U.S. with prospective Mexican exchange students"},"type":"Feature","geometry":{"type":"Point","coordinates":[-120.630383,35.122012]}},{"properties":{"city":"Cleveland","zip":"44106","domestic office or overseas post":"Dublin","university":"Case Western Reserve University","geo_score":1.0,"university country":null,"country":"Ireland","university address":"10900 Euclid Ave","participation year":"2011-2012","project  code":"I8","students at university":1,"id":"a622wbxvfeiq","geo_precision":"range","state":"Ohio","project description":"Participate in social networks with minority youth audiences in Ireland."},"type":"Feature","geometry":{"type":"Point","coordinates":[-81.610058,41.505144]}},{"properties":{"city":"Washington","zip":"20064","domestic office or overseas post":"African Affairs - Public Diplomacy/Public Affairs","university":"Catholic University of America (The)","geo_score":0.902,"university country":null,"country":"Domestic Office","university address":"620 Michigan Avenue NE","participation year":"2011-2012","project  code":"DC2","students at university":1,"id":"a622wbk9rri3","geo_precision":"range","state":"D.C.","project description":"Create content about the African Diaspora community for digital outreach."},"type":"Feature","geometry":{"type":"Point","coordinates":[-76.996256,38.933152]}},{"properties":{"city":"Mount Pleasant","zip":"48859","domestic office or overseas post":"Baku","university":"Central Michigan University, Mt Pleasant, MI","geo_score":1.0,"university country":null,"country":"Azerbaijan","university address":null,"participation year":"2011-2012","project  code":"A12","students at university":1,"id":"a622wbmh4kc5","geo_precision":"zip","state":"Michigan","project description":"Design andmanage virtual English-language discussion program forpublic diplomacyoutreach."},"type":"Feature","geometry":{"type":"Point","coordinates":[-84.847297,43.564736]}},{"properties":{"city":"Burlington","zip":"5401","domestic office or overseas post":"Kathmandu","university":"Champlain College, Burlington, VT","geo_score":0.567,"university country":null,"country":"Nepal","university address":"163 S. Willard St","participation year":"2011-2012","project  code":"N1","students at university":1,"id":"a622wbxhnctn","geo_precision":"street","state":"Vermont","project description":"Provide assistance to the Public Affairs section within the framework of the Embassy's social media platforms in the following three key areas: education and youth; blogging; and, diaspora."},"type":"Feature","geometry":{"type":"Point","coordinates":[-73.205749,44.481337]}},{"properties":{"city":"Claremont","zip":"91711","domestic office or overseas post":"Shanghai","university":"Claremont McKenna College, Claremont, CA","geo_score":0.902,"university country":null,"country":"China","university address":"500 E 9th St","participation year":"2011-2012","project  code":"C4","students at university":2,"id":"a622wbywla5f","geo_precision":"range","state":"California","project description":"Conduct online research and monitor social media sites for information about Anhui, Jiangsu and Zhejiang provinces and blog/microblog to contrast and compare experiences in China and the U.S."},"type":"Feature","geometry":{"type":"Point","coordinates":[-117.707103,34.102706]}},{"properties":{"city":"Claremont","zip":"91711","domestic office or overseas post":"Office of the United States Special Representative to Muslim Communities","university":"Claremont McKenna College, Claremont, CA","geo_score":0.902,"university country":null,"country":"Domestic Office","university address":"500 E 9th St","participation year":"2011-2012","project  code":"DC24","students at university":2,"id":"a622wbjyznb3","geo_precision":"range","state":"California","project description":"Maintain a running list of NGOs and young Muslim leaders, communicate with these groups and people about Special Representative to Muslim Communities' campaigns, maintain activity on a regional Facebook group webpage, serve as a liaison to generation changers and 2011 HAH pledgers, and facilitatethe creation and implementation of campaign events."},"type":"Feature","geometry":{"type":"Point","coordinates":[-117.707103,34.102706]}},{"properties":{"city":"Vancouver","zip":"98663","domestic office or overseas post":"Berlin","university":"Clark College, Vancouver, WA","geo_score":0.902,"university country":null,"country":"Germany","university address":"1933 Fort Vancouver Way","participation year":"2011-2012","project  code":"G3","students at university":1,"id":"a622wby2vrgh","geo_precision":"range","state":"Washington","project description":"Engage German students and young professionals through social media to increase understanding of the United States and interest in American study and exchange opportunities."},"type":"Feature","geometry":{"type":"Point","coordinates":[-122.654218,45.635785]}},{"properties":{"city":"New York City","zip":"10027","domestic office or overseas post":"New Dehli","university":"Columbia University","geo_score":0.965,"university country":null,"country":"India","university address":"2920 Broadway","participation year":"2010-2011","project  code":"I2","students at university":1,"id":"a622wbpucllb","geo_precision":"range","state":"New York","project description":"Carry out a research project that will provide comprehensive information about opportunities for expanded virtual outreach in India."},"type":"Feature","geometry":{"type":"Point","coordinates":[-73.963814,40.808165]}},{"properties":{"city":"Ithaca","zip":"14853","domestic office or overseas post":"Beijing","university":"Cornell University","geo_score":1.0,"university country":null,"country":"China","university address":null,"participation year":"2010-2011","project  code":"C8","students at university":1,"id":"a622wbzbg16v","geo_precision":"zip","state":"New York","project description":"Augment the consular section's outreach efforts with Chinese audiences to facilitate student travel to the U.S."},"type":"Feature","geometry":{"type":"Point","coordinates":[-76.483703,42.447373]}},{"properties":{"city":"The Bronx","zip":"10468","domestic office or overseas post":"Kingston","university":"CUNYLehman College, Bronx, NY","geo_score":0.963,"university country":null,"country":"Jamaica","university address":"250 Bedford Park Boulevard West","participation year":"2010-2011","project  code":"J1","students at university":1,"id":"a622wbsecrwd","geo_precision":"range","state":"New York","project description":"Identify content forEmbassy's website and Facebook pageby trending topics on studying and living in the U.S. for Jamaican audiences between the ages of 15 to 30 years old."},"type":"Feature","geometry":{"type":"Point","coordinates":[-73.891634,40.874477]}},{"properties":{"city":"Davidson","zip":"28035","domestic office or overseas post":"African Affairs - Public Diplomacy/Public Affairs","university":"Davidson College","geo_score":0.393,"university country":null,"country":"Domestic Office","university address":"102 N. Main Street","participation year":"2011-2012","project  code":"DC2","students at university":1,"id":"a622wbs9d4yo","geo_precision":"street","state":"North Carolina","project description":"Create content about the African Diaspora community for digital outreach."},"type":"Feature","geometry":{"type":"Point","coordinates":[-82.34379,35.597284]}},{"properties":{"city":"Dover","zip":"19901","domestic office or overseas post":"Office of the Haiti Special Coordinator","university":"Delaware State University","geo_score":0.508,"university country":null,"country":"Domestic Office","university address":"1200 N. DuPont Highway","participation year":"2011-2012","project  code":"DC23","students at university":1,"id":"a622wbxmtfu6","geo_precision":"street","state":"Delaware","project description":"Help the Haiti Special Coordinator's Public Affairs team jump into the 21st century by defining, monitoring, analyzing, and engaging Haitians and Haitian-Americans via social media sites, blogs, websites, and news feeds to determine public opinions on US earthquake reconstruction assistance projects as well as overall opinions on the political, economic and social situation of Haiti."},"type":"Feature","geometry":{"type":"Point","coordinates":[-75.498068,39.156863]}},{"properties":{"city":"Philadelphia","zip":"19104","domestic office or overseas post":"Dusseldorf","university":"Drexel University","geo_score":1.0,"university country":null,"country":"Germany","university address":"3141 Chestnut St","participation year":"2010-2011","project  code":"G1","students at university":1,"id":"a622wbqtsck0","geo_precision":"range","state":"Pennsylvania","project description":"Work with Consulate staff on youth outreach, student advising via social media, and on other small research projects involving political and economic developments in North Rhine-Westphalia."},"type":"Feature","geometry":{"type":"Point","coordinates":[-75.186286,39.953672]}},{"properties":{"city":"Daytona Beach","zip":"32114","domestic office or overseas post":"European and Eurasian Affairs - Office of Press and Public Diplomacy","university":"Embry-Riddle Aeronautical University","geo_score":0.625,"university country":null,"country":"Domestic Office","university address":"600 S. Clyde Morris Blvd.","participation year":"2011-2012","project  code":"DC10","students at university":1,"id":"a622wbzlkgms","geo_precision":"street","state":"Florida","project description":"Develop 2-minute Portuguese-language videos explaining explaining U.S. government and history concepts to Portuguese-speaking youth."},"type":"Feature","geometry":{"type":"Point","coordinates":[-81.034056,29.183598]}},{"properties":{"city":"Atlanta","zip":"30322","domestic office or overseas post":"Shenyang","university":"Emory University","geo_score":0.427,"university country":null,"country":"China","university address":"201 Dowman Drive","participation year":"2010-2011","project  code":"C10","students at university":2,"id":"a622wblpbbdc","geo_precision":"street","state":"Georgia","project description":"Catalog, monitor, and design a database ofprovincial- and city-level government websites in Northeast China."},"type":"Feature","geometry":{"type":"Point","coordinates":[-84.32304,33.945744]}},{"properties":{"city":"Atlanta","zip":"30322","domestic office or overseas post":"New Delhi","university":"Emory University","geo_score":0.427,"university country":null,"country":"India","university address":"201 Dowman Drive","participation year":"2011-2012","project  code":"I5","students at university":2,"id":"a622wbyg3hy7","geo_precision":"street","state":"Georgia","project description":"Help Consular Team India analyze the Indian American Diaspora by researching past immigration patterns, characterizing current socioeconomic conditions, and predicting future actions."},"type":"Feature","geometry":{"type":"Point","coordinates":[-84.32304,33.945744]}},{"properties":{"city":"Fairfield","zip":"6824","domestic office or overseas post":"Guadalajara","university":"Fairfield University","geo_score":0.577,"university country":null,"country":"Mexico","university address":"1073 N Benson Rd","participation year":"2011-2012","project  code":"M1","students at university":1,"id":"a622wbw8anm9","geo_precision":"street","state":"Connecticut","project description":"Via social media platforms, facilitate an exchange of information about the university application process and college life in the U.S. with prospective Mexican exchange students"},"type":"Feature","geometry":{"type":"Point","coordinates":[-73.14237,41.488365]}},{"properties":{"city":"Miami","zip":"33174","domestic office or overseas post":"Havana","university":"Florida International University","geo_score":0.659,"university country":null,"country":"Cuba","university address":"11200 SW 8th St","participation year":"2010-2011","project  code":"C12","students at university":4,"id":"a622wbyuyaob","geo_precision":"street","state":"FL","project description":"Perform research, communication, and outreach centered around exchange programs, community libraries, and the arts."},"type":"Feature","geometry":{"type":"Point","coordinates":[-80.363925,25.760786]}},{"properties":{"city":"Miami","zip":"33174","domestic office or overseas post":"European and Eurasian Affairs - Office of Press and Public Diplomacy","university":"Florida International University","geo_score":0.659,"university country":null,"country":"Domestic Office","university address":"11200 SW 8th St","participation year":"2011-2012","project  code":"DC9","students at university":4,"id":"a622wbzo2vrz","geo_precision":"street","state":"FL","project description":"Develop 2-minute Spanish-language videos explaining explaining U.S. government and history concepts to Spanish-speaking youth."},"type":"Feature","geometry":{"type":"Point","coordinates":[-80.363925,25.760786]}},{"properties":{"city":"Miami","zip":"33174","domestic office or overseas post":"European and Eurasian Affairs - Office of Press and Public Diplomacy","university":"Florida International University","geo_score":0.659,"university country":null,"country":"Domestic Office","university address":"11200 SW 8th St","participation year":"2011-2012","project  code":"DC9","students at university":4,"id":"a622wbzhh76c","geo_precision":"street","state":"FL","project description":"Develop 2-minute Spanish-language videos explaining explaining U.S. government and history concepts to Spanish-speaking youth."},"type":"Feature","geometry":{"type":"Point","coordinates":[-80.363925,25.760786]}},{"properties":{"city":"Miami","zip":"33174","domestic office or overseas post":"Kolkata","university":"Florida International University","geo_score":0.659,"university country":null,"country":"India","university address":"11200 SW 8th St","participation year":"2011-2012","project  code":"I3","students at university":4,"id":"a622wbsttqaa","geo_precision":"street","state":"FL","project description":"Produce a bi-monthly newsletter to increase interaction between the Consulate and American citizens in their district."},"type":"Feature","geometry":{"type":"Point","coordinates":[-80.363925,25.760786]}},{"properties":{"city":"Tallahassee","zip":"32301","domestic office or overseas post":"European and Eurasian Affairs - Office of Press and Public Diplomacy","university":"Florida State University","geo_score":0.87,"university country":null,"country":"Domestic Office","university address":null,"participation year":"2011-2012","project  code":"DC9","students at university":2,"id":"a622wboz22x6","geo_precision":"zip","state":"FL","project description":"Develop 2-minute Spanish-language videos explaining explaining U.S. government and history concepts to Spanish-speaking youth."},"type":"Feature","geometry":{"type":"Point","coordinates":[-84.065726,30.505201]}},{"properties":{"city":"Tallahassee","zip":"32301","domestic office or overseas post":"Santo Domingo","university":"Florida State University","geo_score":0.87,"university country":null,"country":"Dominican Republic","university address":null,"participation year":"2011-2012","project  code":"D1","students at university":2,"id":"a622wbsimrcg","geo_precision":"zip","state":"FL","project description":"Monitor news stories on Human Rights, Labor and Trafficking in Persons in the Dominican Republic for the Annual Human Rights and Trafficking in Persons Reports."},"type":"Feature","geometry":{"type":"Point","coordinates":[-84.065726,30.505201]}},{"properties":{"city":"Bronx","zip":"10458","domestic office or overseas post":"European and Eurasian Affairs - Office of Press and Public Diplomacy","university":"Fordham University","geo_score":0.819,"university country":null,"country":"Domestic Office","university address":"441 E Fordham Rd","participation year":"2011-2012","project  code":"DC9","students at university":1,"id":"a622wboxe3kr","geo_precision":"range","state":"New York City","project description":"Develop 2-minute Spanish-language videos explaining explaining U.S. government and history concepts to Spanish-speaking youth."},"type":"Feature","geometry":{"type":"Point","coordinates":[-73.890422,40.861144]}},{"properties":{"city":"Lancaster","zip":"17604","domestic office or overseas post":"European and Eurasian Affairs - Office of Press and Public Diplomacy","university":"Franklin &amp; Marshall College","geo_score":0.917,"university country":null,"country":"Domestic Office","university address":"College Ave","participation year":"2011-2012","project  code":"DC8","students at university":1,"id":"a622wbonekng","geo_precision":"street","state":"Pennsylvania","project description":"Develop 2-minute French-language videos explaining U.S. government and history concepts to Francophone youth"},"type":"Feature","geometry":{"type":"Point","coordinates":[-76.318159,40.047826]}},{"properties":{"city":"Winter Park","zip":"32792","domestic office or overseas post":"Belize City","university":"FULL SAIL UNIVERSITY","geo_score":0.912,"university country":null,"country":"Belize","university address":"3300 University Blvd","participation year":"2011-2012","project  code":"B1","students at university":1,"id":"a622wbzxw0bz","geo_precision":"range","state":"Florida","project description":"Design, establish and maintain an official website for the Belize National Commission for UNESCO (NATCOM)."},"type":"Feature","geometry":{"type":"Point","coordinates":[-81.301098,28.597353]}},{"properties":{"city":"Fairfax","zip":"22030","domestic office or overseas post":"Office of eDiplomacy - Information Resource Management","university":"George Mason University","geo_score":0.91,"university country":null,"country":"Domestic Office","university address":"4400 University Drive","participation year":"2011-2012","project  code":"DC16","students at university":5,"id":"a622wbxrlji9","geo_precision":"range","state":"Virginia","project description":"Develop creative marketing tactics and strategy (using video, print, and graphics) to encourage State Department personnel to use internal social media products."},"type":"Feature","geometry":{"type":"Point","coordinates":[-77.30661,38.835578]}},{"properties":{"city":"Fairfax","zip":"22030","domestic office or overseas post":"Office of the United States Special Representative to Muslim Communities","university":"George Mason University","geo_score":0.91,"university country":null,"country":"Domestic Office","university address":"4400 University Drive","participation year":"2011-2012","project  code":"DC24","students at university":5,"id":"a622wbo0hkfo","geo_precision":"range","state":"Virginia","project description":"Maintain a running list of NGOs and young Muslim leaders, communicate with these groups and people about Special Representative to Muslim Communities' campaigns, maintain activity on a regional Facebook group webpage, serve as a liaison to generation changers and 2011 HAH pledgers, and facilitatethe creation and implementation of campaign events."},"type":"Feature","geometry":{"type":"Point","coordinates":[-77.30661,38.835578]}},{"properties":{"city":"Fairfax","zip":"22030","domestic office or overseas post":"European and Eurasian Affairs - Office of Press and Public Diplomacy","university":"George Mason University","geo_score":0.91,"university country":null,"country":"Domestic Office","university address":"4400 University Drive","participation year":"2011-2012","project  code":"DC9","students at university":5,"id":"a622wbl03m6w","geo_precision":"range","state":"Virginia","project description":"Develop 2-minute Spanish-language videos explaining explaining U.S. government and history concepts to Spanish-speaking youth."},"type":"Feature","geometry":{"type":"Point","coordinates":[-77.30661,38.835578]}},{"properties":{"city":"Fairfax","zip":"22030","domestic office or overseas post":"Naples","university":"George Mason University","geo_score":0.91,"university country":null,"country":"Italy","university address":"4400 University Drive","participation year":"2010-2011","project  code":"I12","students at university":5,"id":"a622wbsqv4g9","geo_precision":"range","state":"Virginia","project description":"Support young entrepreneur outreach activities in Southern Italy by researching new media networking trends and best practices in the US and Italy and by helping stimulate discussion on the LinkedIn Group Giovani Imprenditori e Professionisti del Sud (translation: Young Entrepreneurs and Professionals of the South )"},"type":"Feature","geometry":{"type":"Point","coordinates":[-77.30661,38.835578]}},{"properties":{"city":"Fairfax","zip":"22030","domestic office or overseas post":"African Affairs - Public Diplomacy/Public Affairs","university":"George Mason University","geo_score":0.91,"university country":null,"country":"Domestic Office","university address":"4400 University Drive","participation year":"2011-2012","project  code":"DC2","students at university":5,"id":"a622wbuitr1m","geo_precision":"range","state":"Virginia","project description":"Create content about the African Diaspora community for digital outreach."},"type":"Feature","geometry":{"type":"Point","coordinates":[-77.30661,38.835578]}},{"properties":{"city":"Washington","zip":"20052","domestic office or overseas post":"Office of Innovative Engagement - International Information Programs Bureau","university":"George Washington University","geo_score":0.902,"university country":null,"country":"Domestic Office","university address":"2121 I Street NW","participation year":"2011-2012","project  code":"DC17","students at university":8,"id":"a622wbl5umut","geo_precision":"range","state":"D.C.","project description":"Develop \"How To\" guides for the use of emerging technologies, such as social media, by State Department employees."},"type":"Feature","geometry":{"type":"Point","coordinates":[-77.046749,38.900694]}},{"properties":{"city":"Washington","zip":"20052","domestic office or overseas post":"Office of Policy, Regional and Functional Organizations - Bureau of International Organization Affairs","university":"George Washington University","geo_score":0.902,"university country":null,"country":"Domestic Office","university address":"2121 I Street NW","participation year":"2011-2012","project  code":"DC20","students at university":8,"id":"a622wbqkjpts","geo_precision":"range","state":"D.C.","project description":"Conduct research to document United Nation cooperation with regional organizations."},"type":"Feature","geometry":{"type":"Point","coordinates":[-77.046749,38.900694]}},{"properties":{"city":"Washington","zip":"20052","domestic office or overseas post":"New Delhi","university":"George Washington University","geo_score":0.902,"university country":null,"country":"India","university address":"2121 I Street NW","participation year":"2011-2012","project  code":"I5","students at university":8,"id":"a622wbulgeqq","geo_precision":"range","state":"D.C.","project description":"Help Consular Team India analyze the Indian American Diaspora by researching past immigration patterns, characterizing current socioeconomic conditions, and predicting future actions."},"type":"Feature","geometry":{"type":"Point","coordinates":[-77.046749,38.900694]}},{"properties":{"city":"Washington","zip":"20052","domestic office or overseas post":"Ciudad Juarez","university":"George Washington University","geo_score":0.902,"university country":null,"country":"Mexico","university address":"2121 I Street NW","participation year":"2010-2011","project  code":"M1","students at university":8,"id":"a622wbnnehi0","geo_precision":"range","state":"D.C.","project description":"Develop and implement a public relations campaign using social media sites like Facebook, Twitter, MySpace, YouTube, etc. to communicate and reach out to youth in Mexico."},"type":"Feature","geometry":{"type":"Point","coordinates":[-77.046749,38.900694]}},{"properties":{"city":"Washington","zip":"20052","domestic office or overseas post":"Asuncin","university":"George Washington University","geo_score":0.902,"university country":null,"country":"Paraguay","university address":"2121 I Street NW","participation year":"2010-2011","project  code":"P1","students at university":8,"id":"a622wbmflogo","geo_precision":"range","state":"D.C.","project description":"Write and contribute biweekly articles, to the Embassy's Facebook page on topics such as internet, computer science/technology, history, and literature."},"type":"Feature","geometry":{"type":"Point","coordinates":[-77.046749,38.900694]}},{"properties":{"city":"Washington","zip":"20052","domestic office or overseas post":"Kigali","university":"George Washington University","geo_score":0.902,"university country":null,"country":"Rwanda","university address":"2121 I Street NW","participation year":"2010-2011","project  code":"R4","students at university":8,"id":"a622wbu92o8y","geo_precision":"range","state":"D.C.","project description":"Work with the Embassys political team to tap open source material to track the worldwide actions of FDLR rebel leaders and to identify opportunities to advance international efforts against them."},"type":"Feature","geometry":{"type":"Point","coordinates":[-77.046749,38.900694]}},{"properties":{"city":"Washington","zip":"20052","domestic office or overseas post":"El Salvador","university":"George Washington University","geo_score":0.902,"university country":null,"country":"San Salvador","university address":"2121 I Street NW","participation year":"2010-2011","project  code":"E2","students at university":8,"id":"a622wbpzhhtm","geo_precision":"range","state":"D.C.","project description":"Assist to create content for the recently launched Embassy Facebookpage to engage youth in El Salvador."},"type":"Feature","geometry":{"type":"Point","coordinates":[-77.046749,38.900694]}},{"properties":{"city":"Washington","zip":"20052","domestic office or overseas post":"Dushanbe","university":"George Washington University","geo_score":0.902,"university country":null,"country":"Tajikistan","university address":"2121 I Street NW","participation year":"2011-2012","project  code":"T1","students at university":8,"id":"a622wbwgotk0","geo_precision":"range","state":"D.C.","project description":"Utilize web technology to connect credible voices in the United States to targeted audiences in Tajikistan."},"type":"Feature","geometry":{"type":"Point","coordinates":[-77.046749,38.900694]}},{"properties":{"city":"Washington","zip":"20057","domestic office or overseas post":"Addis Ababa","university":"Georgetown University","geo_score":0.829,"university country":null,"country":"Ethiopia","university address":"37th and O St NW","participation year":"2011-2012","project  code":"E4","students at university":5,"id":"a622wbkqlt44","geo_precision":"street","state":"DC","project description":"Support embassy operations by researching and meeting with government agencies and organizations in Washington, such as OPIC and the Export-Import Bank, to provide the embassy with a better understanding of specific ways in which we can encourage the development of a business environment friendly to engagement by U.S. companies."},"type":"Feature","geometry":{"type":"Point","coordinates":[-77.071508,38.905473]}},{"properties":{"city":"Washington","zip":"20057","domestic office or overseas post":"Tegucigalpa","university":"Georgetown University","geo_score":0.829,"university country":null,"country":"Honduras","university address":"37th and O St NW","participation year":"2010-2011","project  code":"H1","students at university":5,"id":"a622wbz86x34","geo_precision":"street","state":"DC","project description":"Conduct research on the economic situation, prepare graphic representations ofeconomic data, and prepare informational material for Embassy website and Virtual Presence Post in San Pedro Sula"},"type":"Feature","geometry":{"type":"Point","coordinates":[-77.071508,38.905473]}},{"properties":{"city":"Washington","zip":"20057","domestic office or overseas post":"Guadalajara","university":"Georgetown University","geo_score":0.829,"university country":null,"country":"Mexico","university address":"37th and O St NW","participation year":"2011-2012","project  code":"M1","students at university":5,"id":"a622wbwqcvs1","geo_precision":"street","state":"DC","project description":"Via social media platforms, facilitate an exchange of information about the university application process and college life in the U.S. with prospective Mexican exchange students"},"type":"Feature","geometry":{"type":"Point","coordinates":[-77.071508,38.905473]}},{"properties":{"city":"Washington","zip":"20057","domestic office or overseas post":"Nuku'alofa","university":"Georgetown University","geo_score":0.829,"university country":null,"country":"Tonga","university address":"37th and O St NW","participation year":"2011-2012","project  code":"T3","students at university":5,"id":"a622wbvylocv","geo_precision":"street","state":"DC","project description":"Improve the research and IT skills of Trainee Teachers at the Tonga Institute of Education and Secondary Students in remote islands; target secondary and tertiary levels of education by engaging in cultural exchanges relating to research techniques and IT and social media skills; and help improve the English skills of secondary school students."},"type":"Feature","geometry":{"type":"Point","coordinates":[-77.071508,38.905473]}},{"properties":{"city":"Washington","zip":"20057","domestic office or overseas post":"Kampala","university":"Georgetown University","geo_score":0.829,"university country":null,"country":"Uganda","university address":"37th and O St NW","participation year":"2011-2012","project  code":"U1","students at university":5,"id":"a622wbrmnhjr","geo_precision":"street","state":"DC","project description":"Strengthen the youth services of the National Commission for UNESCO by sharing experiences and addressing the needs of the youth; engage in joint projects with ASPnet schools in such areas as development, peace and human rights, HIV/AIDS, and intercultural dialogue."},"type":"Feature","geometry":{"type":"Point","coordinates":[-77.071508,38.905473]}},{"properties":{"city":"Atlanta","zip":"30332","domestic office or overseas post":"Asuncin","university":"Georgia Institute of Technology","geo_score":0.824,"university country":null,"country":"Paraguay","university address":"225 North Avenue","participation year":"2010-2011","project  code":"P1","students at university":1,"id":"a622wbzh4azn","geo_precision":"range","state":"GA","project description":"Write and contribute biweekly articles, to the Embassy's Facebook page on topics such as internet, computer science/technology, history, and literature."},"type":"Feature","geometry":{"type":"Point","coordinates":[-84.419555,33.76891]}},{"properties":{"city":"Atlanta","zip":"30303","domestic office or overseas post":"Calgary","university":"Georgia State University","geo_score":0.941,"university country":null,"country":"Canada","university address":"33 Gilmer St","participation year":"2011-2012","project  code":"C1","students at university":2,"id":"a622wbs5opjh","geo_precision":"range","state":"Georgia","project description":"Review and create content for US Consulate General Calgary and North of Sixty Virtual Presence Posts websites."},"type":"Feature","geometry":{"type":"Point","coordinates":[-84.38585,33.753787]}},{"properties":{"city":"Atlanta","zip":"30303","domestic office or overseas post":"Havana","university":"Georgia State University","geo_score":0.941,"university country":null,"country":"Cuba","university address":"33 Gilmer St","participation year":"2010-2011","project  code":"C12","students at university":2,"id":"a622wbmm0xju","geo_precision":"range","state":"Georgia","project description":"Perform research, communication, and outreach centered around exchange programs, community libraries, and the arts."},"type":"Feature","geometry":{"type":"Point","coordinates":[-84.38585,33.753787]}},{"properties":{"city":"Clinton","zip":"13323","domestic office or overseas post":"Kampala","university":"Hamilton College","geo_score":0.911,"university country":null,"country":"Uganda","university address":"198 College Hill Road","participation year":"2011-2012","project  code":"U1","students at university":1,"id":"a622wbkuzlhe","geo_precision":"range","state":"NY","project description":"Strengthen the youth services of the National Commission for UNESCO by sharing experiences and addressing the needs of the youth; engage in joint projects with ASPnet schools in such areas as development, peace and human rights, HIV/AIDS, and intercultural dialogue."},"type":"Feature","geometry":{"type":"Point","coordinates":[-75.395966,43.048502]}},{"properties":{"city":"Amherst","zip":"1002","domestic office or overseas post":"Bogota","university":"Hampshire College","geo_score":0.668,"university country":null,"country":"Colombia","university address":"893 West St","participation year":"2011-2012","project  code":"C6","students at university":1,"id":"a622wbl7zcqi","geo_precision":"street","state":"Massachusetts","project description":"To keep the conversation going on the Facebook page of our nationwide photo contest, Colombia, Pais de Contrastes."},"type":"Feature","geometry":{"type":"Point","coordinates":[-72.524633,42.32369]}},{"properties":{"city":"Cambridge","zip":"2138","domestic office or overseas post":"African Affairs - Office of Economic Policy Staff","university":"Harvard University","geo_score":0.924,"university country":null,"country":"Domestic Office","university address":"Massachusetts Hall","participation year":"2011-2012","project  code":"DC1","students at university":2,"id":"a622wbzsievp","geo_precision":"street","state":"Massachusetts","project description":"Develop public outreach tools such as websites, chat forums, etc., to help U.S. businesses identify and participate in trade and investment opportunities in Africa"},"type":"Feature","geometry":{"type":"Point","coordinates":[-71.110264,42.369003]}},{"properties":{"city":"Cambridge","zip":"2138","domestic office or overseas post":"European and Eurasian Affairs - Office of Press and Public Diplomacy","university":"Harvard University","geo_score":0.924,"university country":null,"country":"Domestic Office","university address":"Massachusetts Hall","participation year":"2011-2012","project  code":"DC8","students at university":2,"id":"a622wbl924iz","geo_precision":"street","state":"Massachusetts","project description":"Develop 2-minute French-language videos explaining U.S. government and history concepts to Francophone youth"},"type":"Feature","geometry":{"type":"Point","coordinates":[-71.110264,42.369003]}},{"properties":{"city":"Honolulu","zip":"96813","domestic office or overseas post":"Bogota","university":"Hawaii Pacific University","geo_score":1.0,"university country":null,"country":"Colombia","university address":"1164 Bishop St.","participation year":"2011-2012","project  code":"C6","students at university":1,"id":"a622wbzc6py6","geo_precision":"range","state":"Hawaii","project description":"To keep the conversation going on the Facebook page of our nationwide photo contest, Colombia, Pais de Contrastes."},"type":"Feature","geometry":{"type":"Point","coordinates":[-157.859333,21.310064]}},{"properties":{"city":"Manchester","zip":"3103","domestic office or overseas post":"New Delhi","university":"Hesser College, Portsmouth, NH","geo_score":1.0,"university country":null,"country":"India","university address":"3 Sundial Ave","participation year":"2011-2012","project  code":"I5","students at university":1,"id":"a622wbsq8drx","geo_precision":"range","state":"New Hampshire","project description":"Help Consular Team India analyze the Indian American Diaspora by researching past immigration patterns, characterizing current socioeconomic conditions, and predicting future actions."},"type":"Feature","geometry":{"type":"Point","coordinates":[-71.468204,42.973247]}},{"properties":{"city":"Bloomington","zip":"47405","domestic office or overseas post":"Zagreb","university":"Indiana University Bloomington","geo_score":1.0,"university country":null,"country":"Croatia","university address":"107 South Indiana Ave.","participation year":"2011-2012","project  code":"C7","students at university":2,"id":"a622wbydtvsp","geo_precision":"range","state":"Indiana","project description":"Research and compile analytical reports on the likely impact on Croatia of European Union accession."},"type":"Feature","geometry":{"type":"Point","coordinates":[-86.526924,39.166482]}},{"properties":{"city":"Bloomington","zip":"47405","domestic office or overseas post":"Moscow","university":"Indiana University Bloomington","geo_score":1.0,"university country":null,"country":"Russia","university address":"107 South Indiana Ave.","participation year":"2011-2012","project  code":"R2","students at university":2,"id":"a622wc0cz68x","geo_precision":"range","state":"Indiana","project description":"Assist Russian students interested in studying in the U.S. and assist with public diplomacy efforts in Russia by supporting EducationUSA's mission through peer advising, maintaining social media outlets, creating video materials and providing research support."},"type":"Feature","geometry":{"type":"Point","coordinates":[-86.526924,39.166482]}},{"properties":{"city":"Washington","zip":"20036","domestic office or overseas post":"African Affairs - Public Diplomacy/Public Affairs","university":"Institute of World Politics, Washington, DC","geo_score":0.634,"university country":null,"country":"Domestic Office","university address":"1521 16th St NW # 1","participation year":"2011-2012","project  code":"DC3","students at university":1,"id":"a622wbwq2a32","geo_precision":"street","state":"DC","project description":"Continue and expand outreach to young African leaders."},"type":"Feature","geometry":{"type":"Point","coordinates":[-77.036554,38.9002]}},{"properties":{"city":"Ames","zip":"50011","domestic office or overseas post":"Jeddah","university":"Iowa State University","geo_score":0.38,"university country":null,"country":"Saudi Arabia","university address":"3410 Beardshear Hall","participation year":"2010-2011","project  code":"S1","students at university":2,"id":"a622wbt7x9vq","geo_precision":"street","state":"Iowa","project description":"Newswatcher needed to monitorcurrent and up-to-date information on religious, human rights and trafficking in persons news stories in the Western region of Saudi Arabia"},"type":"Feature","geometry":{"type":"Point","coordinates":[-93.527789,40.689401]}},{"properties":{"city":"Ames","zip":"50011","domestic office or overseas post":"Freetown","university":"Iowa State University","geo_score":0.38,"university country":null,"country":"Sierra Leone","university address":"3410 Beardshear Hall","participation year":"2011-2012","project  code":"S2","students at university":2,"id":"a622wbk2zi39","geo_precision":"street","state":"Iowa","project description":"Work closely with the embassy to establish a social media platform to assist Diaspora Sierra Leoneans in the U.S. to network and support academic, economic, and social development in Sierra Leone."},"type":"Feature","geometry":{"type":"Point","coordinates":[-93.527789,40.689401]}},{"properties":{"city":"Baltimore","zip":"21218","domestic office or overseas post":"Brasilia","university":"John Hopkins University","geo_score":0.924,"university country":null,"country":"Brazil","university address":"3400 North Charles Street","participation year":"2010-2011","project  code":"B3","students at university":6,"id":"a622wbv6ojqc","geo_precision":"range","state":"MD","project description":"Research backgrounds ofnew economicleaders and expand U.S. commercial opportunities in target areas and regions."},"type":"Feature","geometry":{"type":"Point","coordinates":[-76.617764,39.329161]}},{"properties":{"city":"Baltimore","zip":"21218","domestic office or overseas post":"Shanghai","university":"John Hopkins University","geo_score":0.924,"university country":null,"country":"China","university address":"3400 North Charles Street","participation year":"2011-2012","project  code":"C4","students at university":6,"id":"a622wbn6xz65","geo_precision":"range","state":"MD","project description":"Conduct online research and monitor social media sites for information about Anhui, Jiangsu and Zhejiang provinces and blog/microblog to contrast and compare experiences in China and the U.S."},"type":"Feature","geometry":{"type":"Point","coordinates":[-76.617764,39.329161]}},{"properties":{"city":"Baltimore","zip":"21218","domestic office or overseas post":"Shanghai","university":"John Hopkins University","geo_score":0.924,"university country":null,"country":"China","university address":"3400 North Charles Street","participation year":"2011-2012","project  code":"C4","students at university":6,"id":"a622wbwivgy9","geo_precision":"range","state":"MD","project description":"Conduct online research and monitor social media sites for information about Anhui, Jiangsu and Zhejiang provinces and blog/microblog to contrast and compare experiences in China and the U.S."},"type":"Feature","geometry":{"type":"Point","coordinates":[-76.617764,39.329161]}},{"properties":{"city":"Baltimore","zip":"21218","domestic office or overseas post":"NEA/PI (MEPI) . PI/Outreach","university":"John Hopkins University","geo_score":0.924,"university country":null,"country":"Domestic Office","university address":"3400 North Charles Street","participation year":"2010-2011","project  code":"U9","students at university":6,"id":"a622wbrcx17n","geo_precision":"range","state":"MD","project description":"The Middle East Partnership Initiative (MEPI) seeks qualified Virtual Student Foreign Service (VSFS) e-interns to assist with MEPIs online outreach efforts utilizing online media, including Facebook, Twitter and YouTube."},"type":"Feature","geometry":{"type":"Point","coordinates":[-76.617764,39.329161]}},{"properties":{"city":"Baltimore","zip":"21218","domestic office or overseas post":"Conakry","university":"John Hopkins University","geo_score":0.924,"university country":null,"country":"Guinea","university address":"3400 North Charles Street","participation year":"2011-2012","project  code":"G4","students at university":6,"id":"a622wbqsod1i","geo_precision":"range","state":"MD","project description":"Use social networking tools and online research to identify, engage, and mobilize professional Guinean diaspora; identify donors/foundations working to enhance access to, and the use of, new technologies in African countries"},"type":"Feature","geometry":{"type":"Point","coordinates":[-76.617764,39.329161]}},{"properties":{"city":"Baltimore","zip":"21218","domestic office or overseas post":"Tunis","university":"John Hopkins University","geo_score":0.924,"university country":null,"country":"Tunisia","university address":"3400 North Charles Street","participation year":"2010-2011","project  code":"T2","students at university":6,"id":"a622wbxaq0p9","geo_precision":"range","state":"MD","project description":"TheeIntern willconduct research on the more than 200 years of shared history between Tunisia and the United States, a project which will contribute to a bound, illustrated, multi-lingual pamphlet or book which the Embassy could use as a representational gift when visiting prominent Tunisians."},"type":"Feature","geometry":{"type":"Point","coordinates":[-76.617764,39.329161]}},{"properties":{"city":"Miramar","zip":"33027","domestic office or overseas post":"Bogota","university":"Keller Graduate School of Management, Miramar, FL","geo_score":0.902,"university country":null,"country":"Colombia","university address":"2300 SW 145th Avenue","participation year":"2011-2012","project  code":"C6","students at university":1,"id":"a622wbyqt1o6","geo_precision":"range","state":"Florida","project description":"To keep the conversation going on the Facebook page of our nationwide photo contest, Colombia, Pais de Contrastes."},"type":"Feature","geometry":{"type":"Point","coordinates":[-80.336666,25.989873]}},{"properties":{"city":"Galesburg","zip":"61401","domestic office or overseas post":"Tbilisi","university":"Knox College","geo_score":0.777,"university country":null,"country":"Georgia","university address":"2 E South St","participation year":"2011-2012","project  code":"G2","students at university":1,"id":"a622wbn99ceb","geo_precision":"range","state":"Illinois","project description":"One Tbilisi virtual intern will collaborate with our Georgian, bi-lingual social media person to come up with material, surveys, quizzes, stories and videos that will stimulate Georgian youth (16-30) to frequent the Embassy Facebook page; the other intern will focus on policy research to be used in weekly mailings to policy makers and opinion shapers in Georgia."},"type":"Feature","geometry":{"type":"Point","coordinates":[-90.371114,40.943843]}},{"properties":{"city":"Baton Rouge","zip":"70803","domestic office or overseas post":"International Information Programs - Office of Information Resources","university":"Louisiana State University, Baton Rouge","geo_score":1.0,"university country":null,"country":"Domestic Office","university address":null,"participation year":"2011-2012","project  code":"DC12","students at university":1,"id":"a622wby4wgf3","geo_precision":"zip","state":"Louisiana","project description":"Help create an interactive map-based portal of nearly 1,000 public libraries, cultural centers, and English-language learning spaces located around the world."},"type":"Feature","geometry":{"type":"Point","coordinates":[-91.186834,30.405002]}},{"properties":{"city":"New York City","zip":"10023","domestic office or overseas post":"Office of the Historian","university":"Macaulay Honors College at CUNY City College, New York, NY","geo_score":0.965,"university country":null,"country":"Domestic Office","university address":"35 West 67th Street","participation year":"2011-2012","project  code":"Historian","students at university":1,"id":"a622wbnuwnah","geo_precision":"range","state":"New York","project description":"Serve as research assistants for the Office of the Historians Ambassadorial Historical Briefing Program."},"type":"Feature","geometry":{"type":"Point","coordinates":[-73.979025,40.773445]}},{"properties":{"city":"Huntington","zip":"25755","domestic office or overseas post":"Dushanbe","university":"Marshall University, Huntington, WV","geo_score":0.61,"university country":null,"country":"Tajikistan","university address":"1 John Marshall Dr","participation year":"2011-2012","project  code":"T2","students at university":1,"id":"a622wbyqvewl","geo_precision":"street","state":"West Virginia","project description":"Develop virtual relationships between US and Tajik high school students to promote awareness of Muslim and American culture."},"type":"Feature","geometry":{"type":"Point","coordinates":[-82.429698,38.421783]}},{"properties":{"city":"Fredericksburg","zip":"22401","domestic office or overseas post":"Yekaterinburg","university":"Mary Washington College","geo_score":0.916,"university country":null,"country":"Russia","university address":"1301 College Ave","participation year":"2010-2011","project  code":"R1","students at university":2,"id":"a622wbouyhoc","geo_precision":"range","state":"VA","project description":"Use new media to extend the impact of the public diplomacy efforts to include blogging, interviewing, conversation exchanges, and identifying content for Facebook."},"type":"Feature","geometry":{"type":"Point","coordinates":[-77.47493,38.299975]}},{"properties":{"city":"Fredericksburg","zip":"22401","domestic office or overseas post":"Montevideo","university":"Mary Washington College","geo_score":0.916,"university country":null,"country":"Uruguay","university address":"1301 College Ave","participation year":"2010-2011","project  code":"U3","students at university":2,"id":"a622wbz15kri","geo_precision":"range","state":"VA","project description":"Create - with anothereIntern - collaborative US news webcast for Montevideos Facebook Fans."},"type":"Feature","geometry":{"type":"Point","coordinates":[-77.47493,38.299975]}},{"properties":{"city":"East Lansing","zip":"48824","domestic office or overseas post":"Nuku'alofa","university":"Michigan State University","geo_score":0.565,"university country":null,"country":"Tonga","university address":"150 Administration Building","participation year":"2011-2012","project  code":"T3","students at university":2,"id":"a622wbk19a4f","geo_precision":"range","state":"Michigan","project description":"Improve the research and IT skills of Trainee Teachers at the Tonga Institute of Education and Secondary Students in remote islands; target secondary and tertiary levels of education by engaging in cultural exchanges relating to research techniques and IT and social media skills; and help improve the English skills of secondary school students."},"type":"Feature","geometry":{"type":"Point","coordinates":[-84.915427,43.258273]}},{"properties":{"city":"East Lansing","zip":"48824","domestic office or overseas post":"Tashkent","university":"Michigan State University","geo_score":0.565,"university country":null,"country":"Uzbekistan","university address":"150 Administration Building","participation year":"2011-2012","project  code":"U6","students at university":2,"id":"a622wboajhd9","geo_precision":"range","state":"Michigan","project description":"Expand Embassy Tashkent's Public Diplomacy efforts, particularly to Uzbek students who plan to study in the U.S."},"type":"Feature","geometry":{"type":"Point","coordinates":[-84.915427,43.258273]}},{"properties":{"city":"Middlebury","zip":"5753","domestic office or overseas post":"Berlin","university":"Middlebury College","geo_score":0.801,"university country":null,"country":"Germany","university address":"Old Chapel","participation year":"2010-2011","project  code":"G2","students at university":1,"id":"a622wbqyy7mv","geo_precision":"street","state":"Vermont","project description":"Increase interest in study opportunities in the U.S. through online opportunities and social media."},"type":"Feature","geometry":{"type":"Point","coordinates":[-73.175016,44.007335]}},{"properties":{"city":"Sarasota","zip":"34243","domestic office or overseas post":"African Affairs - Public Diplomacy/Public Affairs","university":"New College of Florida","geo_score":0.902,"university country":null,"country":"Domestic Office","university address":"5800 Bay Shore Road","participation year":"2011-2012","project  code":"DC2","students at university":1,"id":"a622wbkeq5u3","geo_precision":"range","state":"Florida","project description":"Create content about the African Diaspora community for digital outreach."},"type":"Feature","geometry":{"type":"Point","coordinates":[-82.559124,27.386384]}},{"properties":{"city":"New York City","zip":"10011","domestic office or overseas post":"Sarajevo","university":"New School University, New York, NY","geo_score":0.965,"university country":null,"country":"Bosnia and Herzegovina","university address":"66 W 12th Street","participation year":"2010-2011","project  code":"B1","students at university":1,"id":"a622wbp0h2jr","geo_precision":"range","state":"New York","project description":"Expand Embassy Sarajevo's web outreach and overall social media engagement with citizens of Bosnia and Herzegovina."},"type":"Feature","geometry":{"type":"Point","coordinates":[-73.996212,40.735578]}},{"properties":{"city":"Old Westbury","zip":null,"domestic office or overseas post":"Chennai","university":"New York Inst of Technology,Old Westbury, NY","geo_score":0.537,"university country":null,"country":"India","university address":"250 Valentines Lane","participation year":"2010-2011","project  code":"I3","students at university":1,"id":"a622wbvxoeml","geo_precision":"street","state":"NY","project description":"Redesign the Bangalore virtual Consulate, develop a quarterly Warden newsletter, updateChennai's web presence, and strategize new social media ways of engaging with American citizens."},"type":"Feature","geometry":{"type":"Point","coordinates":[-76.471055,42.820445]}},{"properties":{"city":"New York City","zip":"10012","domestic office or overseas post":"Shanghai","university":"New York University","geo_score":0.965,"university country":null,"country":"China","university address":"70 Washington Sq South","participation year":"2011-2012","project  code":"C4","students at university":5,"id":"a622wbrou7yl","geo_precision":"range","state":"New York","project description":"Conduct online research and monitor social media sites for information about Anhui, Jiangsu and Zhejiang provinces and blog/microblog to contrast and compare experiences in China and the U.S."},"type":"Feature","geometry":{"type":"Point","coordinates":[-73.997121,40.729785]}},{"properties":{"city":"New York City","zip":"10012","domestic office or overseas post":"Dili","university":"New York University","geo_score":0.965,"university country":null,"country":"Timor Liste","university address":"70 Washington Sq South","participation year":"2011-2012","project  code":"Dili","students at university":5,"id":"a622wbpcuqsp","geo_precision":"range","state":"New York","project description":"Teach low income Timorese youth to maximize the use of free software programs with the support of Google and Facebook consultants from neighboring Indonesia."},"type":"Feature","geometry":{"type":"Point","coordinates":[-73.997121,40.729785]}},{"properties":{"city":"New York City","zip":"10012","domestic office or overseas post":"Jakarta","university":"New York University","geo_score":0.965,"university country":null,"country":"Indonesia","university address":"70 Washington Sq South","participation year":"2010-2011","project  code":"I6","students at university":5,"id":"a622wbt8xlbx","geo_precision":"range","state":"New York","project description":"Survey social media efforts of diplomatic missions, NGOs and private companies around the world to help establish best practicesin our social outreach business plan."},"type":"Feature","geometry":{"type":"Point","coordinates":[-73.997121,40.729785]}},{"properties":{"city":"New York City","zip":"10012","domestic office or overseas post":"Seoul","university":"New York University","geo_score":0.965,"university country":null,"country":"Republic of Korea","university address":"70 Washington Sq South","participation year":"2010-2011","project  code":"K3","students at university":5,"id":"a622wbu93yv4","geo_precision":"range","state":"New York","project description":"Research, identify, and analyzepopular social media sites in the Republic of Koreato assist withpublic diplomacy outreach."},"type":"Feature","geometry":{"type":"Point","coordinates":[-73.997121,40.729785]}},{"properties":{"city":"New York City","zip":"10012","domestic office or overseas post":"Montevideo","university":"New York University","geo_score":0.965,"university country":null,"country":"Uruguay","university address":"70 Washington Sq South","participation year":"2011-2012","project  code":"U4","students at university":5,"id":"a622wbm84d6e","geo_precision":"range","state":"New York","project description":"Design and implement a best practices guide to improve the operations of Uruguayan NGOs fighting domestic violence."},"type":"Feature","geometry":{"type":"Point","coordinates":[-73.997121,40.729785]}},{"properties":{"city":"Norwich","zip":null,"domestic office or overseas post":"Matamoros","university":"Norwich University","geo_score":0.585,"university country":null,"country":"Mexico","university address":"158 Harmon Dr","participation year":"2011-2012","project  code":"M5","students at university":1,"id":"a622wbyv7tqd","geo_precision":"city","state":"Vermont","project description":"Monitor, analyze, and report on how governments and private citizens use social media to disseminate information about the security situation in Tamaulipas and help to develop a sustainable social media monitoring and analysis plan for the Political section."},"type":"Feature","geometry":{"type":"Point","coordinates":[-72.3612,43.717918]}},{"properties":{"city":"Los Angeles","zip":"90041","domestic office or overseas post":"Baku","university":"Occidental College","geo_score":0.912,"university country":null,"country":"Azerbaijan","university address":"1600 Campus Rd","participation year":"2011-2012","project  code":"A12","students at university":1,"id":"a622wbn0n2ta","geo_precision":"range","state":"California","project description":"Design andmanage virtual English-language discussion program forpublic diplomacyoutreach."},"type":"Feature","geometry":{"type":"Point","coordinates":[-118.214175,34.126083]}},{"properties":{"city":"Atlanta","zip":"30319","domestic office or overseas post":"European and Eurasian Affairs - Office of Press and Public Diplomacy","university":"Oglethorpe University","geo_score":0.959,"university country":null,"country":"Domestic Office","university address":"4484 Peachtree Rd NE","participation year":"2011-2012","project  code":"DC9","students at university":1,"id":"a622wbyvk6xt","geo_precision":"range","state":"Georgia","project description":"Develop 2-minute Spanish-language videos explaining explaining U.S. government and history concepts to Spanish-speaking youth."},"type":"Feature","geometry":{"type":"Point","coordinates":[-84.330398,33.873719]}},{"properties":{"city":"Columbus","zip":"43210","domestic office or overseas post":"European and Eurasian Affairs - Office of Press and Public Diplomacy","university":"Ohio State University","geo_score":0.927,"university country":null,"country":"Domestic Office","university address":"154 W 12th Avenue","participation year":"2011-2012","project  code":"DC8","students at university":1,"id":"a622wbwgxxn9","geo_precision":"range","state":"Ohio","project description":"Develop 2-minute French-language videos explaining U.S. government and history concepts to Francophone youth"},"type":"Feature","geometry":{"type":"Point","coordinates":[-83.011125,39.996817]}},{"properties":{"city":"Athens","zip":"45701","domestic office or overseas post":"Dakar","university":"Ohio University","geo_score":0.629,"university country":null,"country":"Senegal","university address":"1 Park Place","participation year":"2011-2012","project  code":"S1","students at university":2,"id":"a622wbv45244","geo_precision":"range","state":"Ohio","project description":"Research, design, pilot, and evaluate an online language exchange program that matches Senegalese university business students, who are learning English, with American university students, who are studying French, so that both groups of students have the opportunity to improve their respective language skills and to discuss international topics of mutual interest."},"type":"Feature","geometry":{"type":"Point","coordinates":[-82.110495,39.334613]}},{"properties":{"city":"Athens","zip":"45701","domestic office or overseas post":"Tokya","university":"Ohio University","geo_score":0.629,"university country":null,"country":"Japan","university address":"1 Park Place","participation year":"2010-2011","project  code":"J2","students at university":2,"id":"a622wbwlqa37","geo_precision":"range","state":"Ohio","project description":"Publish a blog that highlights the positive experiences of Japanese students studying in U.S. universities."},"type":"Feature","geometry":{"type":"Point","coordinates":[-82.110495,39.334613]}},{"properties":{"city":"New York City","zip":"10038","domestic office or overseas post":"Shanghai","university":"Pace University - New York","geo_score":0.647,"university country":null,"country":"China","university address":"1 Pace Plaza","participation year":"2011-2012","project  code":"C4","students at university":1,"id":"a622wbwc39u9","geo_precision":"zip","state":"New York","project description":"Conduct online research and monitor social media sites for information about Anhui, Jiangsu and Zhejiang provinces and blog/microblog to contrast and compare experiences in China and the U.S."},"type":"Feature","geometry":{"type":"Point","coordinates":[-74.003368,40.710223]}},{"properties":{"city":"State College","zip":"16803","domestic office or overseas post":"Kuwait City","university":"Pennsylvania State University, University Park, PA","geo_score":1.0,"university country":null,"country":"Kuwait","university address":"600 East Park Avenue","participation year":"2010-2011","project  code":"K4","students at university":1,"id":"a622wblc75bb","geo_precision":"range","state":"PA","project description":"Blog about student life and engage with Kuwaiti youth through social media."},"type":"Feature","geometry":{"type":"Point","coordinates":[-77.86635,40.803915]}},{"properties":{"city":"Claremont","zip":"91711","domestic office or overseas post":"Shanghai","university":"Pomona College","geo_score":1.0,"university country":null,"country":"China","university address":"550 North College Ave","participation year":"2011-2012","project  code":"C4","students at university":2,"id":"a622wbqhh1ds","geo_precision":"range","state":"CA","project description":"Conduct online research and monitor social media sites for information about Anhui, Jiangsu and Zhejiang provinces and blog/microblog to contrast and compare experiences in China and the U.S."},"type":"Feature","geometry":{"type":"Point","coordinates":[-117.714918,34.099154]}},{"properties":{"city":"Claremont","zip":"91711","domestic office or overseas post":"Moscow","university":"Pomona College","geo_score":1.0,"university country":null,"country":"Russia","university address":"550 North College Ave","participation year":"2011-2012","project  code":"R1","students at university":2,"id":"a622wbxea7zr","geo_precision":"range","state":"CA","project description":"Provide primary open source research assistance for Political Section Moscow biography and additional country-specific external relations research projects."},"type":"Feature","geometry":{"type":"Point","coordinates":[-117.714918,34.099154]}},{"properties":{"city":"Portland","zip":"97201","domestic office or overseas post":"Guadalajara","university":"Portland State University","geo_score":0.764,"university country":null,"country":"Mexico","university address":"724 SW Harrison","participation year":"2011-2012","project  code":"M1","students at university":1,"id":"a622wc089oli","geo_precision":"street","state":"Oregon","project description":"Via social media platforms, facilitate an exchange of information about the university application process and college life in the U.S. with prospective Mexican exchange students"},"type":"Feature","geometry":{"type":"Point","coordinates":[-122.683954,45.511348]}},{"properties":{"city":"Princeton","zip":null,"domestic office or overseas post":"Beijing","university":"Princeton University","geo_score":0.806,"university country":null,"country":"China","university address":"Faculty Road","participation year":"2011-2012","project  code":"C2","students at university":1,"id":"a622wbqen2w1","geo_precision":"street","state":"New Jersey","project description":"Develop captioned photos, short videos, and blog-length texts describing the lives of undergraduate and graduate American and Chinese students studying in the United States, to stimulate interactive engagement on Mission Chinas blogs and micro-blogs."},"type":"Feature","geometry":{"type":"Point","coordinates":[-74.656948,40.337896]}},{"properties":{"city":"Elsah","zip":null,"domestic office or overseas post":"EAP/ANP","university":"Principia College","geo_score":0.771,"university country":null,"country":"Domestic Office","university address":null,"participation year":"2011-2012","project  code":"EAP/ANP","students at university":1,"id":"a622wbplfary","geo_precision":"city","state":"Illinois","project description":"Assistance with producing a logo and brochure from the Ausmin dialogues. Intern will work with the Australia desk in developing the appropriate theme."},"type":"Feature","geometry":{"type":"Point","coordinates":[-90.967645,41.295864]}},{"properties":{"city":"Hamden","zip":"6518","domestic office or overseas post":"Canberra","university":"Quinnipiac University","geo_score":0.92,"university country":null,"country":"Australia","university address":"275 Mount Carmel Ave","participation year":"2011-2012","project  code":"A5","students at university":1,"id":"a622wbxvk8zt","geo_precision":"range","state":"CT","project description":"Engage Australian youth and young professionals through content posted on Facebook to increase understanding of the United States and help showcase partnerships on issues such as climate change and transnational business."},"type":"Feature","geometry":{"type":"Point","coordinates":[-72.894731,41.421618]}},{"properties":{"city":"Ashland","zip":"23005","domestic office or overseas post":"European and Eurasian Affairs - Office of Press and Public Diplomacy","university":"Randolph - Macon College","geo_score":0.902,"university country":null,"country":"Domestic Office","university address":"204 Henry St","participation year":"2011-2012","project  code":"DC8","students at university":1,"id":"a622wbkofdte","geo_precision":"range","state":"Virginia","project description":"Develop 2-minute French-language videos explaining U.S. government and history concepts to Francophone youth"},"type":"Feature","geometry":{"type":"Point","coordinates":[-77.478037,37.760001]}},{"properties":{"city":"Houston","zip":"77005","domestic office or overseas post":"Baku","university":"Rice University","geo_score":0.834,"university country":null,"country":"Azerbaijan","university address":"6100 S Main","participation year":"2011-2012","project  code":"A11","students at university":2,"id":"a622wbpbfl3s","geo_precision":"range","state":"Texas","project description":"Create and coordinate an 8-part virtual guest lecture series on conflict resolution in American history where guest lecturers will participate via DVC with American Studies students in Azerbaijan."},"type":"Feature","geometry":{"type":"Point","coordinates":[-95.393655,29.720637]}},{"properties":{"city":"Houston","zip":"77005","domestic office or overseas post":"Shanghai","university":"Rice University","geo_score":0.834,"university country":null,"country":"China","university address":"6100 S Main","participation year":"2010-2011","project  code":"C6","students at university":2,"id":"a622wblqks72","geo_precision":"range","state":"Texas","project description":"Carry out a research project that will provide comprehensive information about opportunities for expanded in-person and virtual outreach in Anhui, Jiangsu and Zhejiang provinces."},"type":"Feature","geometry":{"type":"Point","coordinates":[-95.393655,29.720637]}},{"properties":{"city":"New Brunswick","zip":null,"domestic office or overseas post":"New Delhi","university":"Rutgers New Brunswick","geo_score":0.805,"university country":null,"country":"India","university address":"83 Somerset St","participation year":"2011-2012","project  code":"I5","students at university":1,"id":"a622wbzp2q41","geo_precision":"range","state":"New Jersey","project description":"Help Consular Team India analyze the Indian American Diaspora by researching past immigration patterns, characterizing current socioeconomic conditions, and predicting future actions."},"type":"Feature","geometry":{"type":"Point","coordinates":[-74.445924,40.497914]}},{"properties":{"city":"Annapolis","zip":null,"domestic office or overseas post":"Hyderabad","university":"Saint John's College","geo_score":0.805,"university country":null,"country":"India","university address":"60 College Avenue","participation year":"2011-2012","project  code":"I2","students at university":1,"id":"a622wc0dag2a","geo_precision":"range","state":"Maryland","project description":"Facilitate an exchange of information about college life with Indian college students who are headed to the USA for university studies."},"type":"Feature","geometry":{"type":"Point","coordinates":[-76.489457,38.98196]}},{"properties":{"city":"Queens","zip":"11439","domestic office or overseas post":"New Delhi","university":"Saint John's University","geo_score":0.581,"university country":null,"country":"India","university address":"8000 Utopia Pky","participation year":"2011-2012","project  code":"I5","students at university":2,"id":"a622wbqre3p1","geo_precision":"street","state":"New York","project description":"Help Consular Team India analyze the Indian American Diaspora by researching past immigration patterns, characterizing current socioeconomic conditions, and predicting future actions."},"type":"Feature","geometry":{"type":"Point","coordinates":[-73.7903,40.72092]}},{"properties":{"city":"Queens","zip":"11439","domestic office or overseas post":"Adis Ababa","university":"Saint John's University","geo_score":0.581,"university country":null,"country":"Ethiopia","university address":"8000 Utopia Pky","participation year":"2010-2011","project  code":"E5","students at university":2,"id":"a622wbzf1qax","geo_precision":"street","state":"New York","project description":"Research IT-based interventions that have been successful in higher education, particularly in teacher training."},"type":"Feature","geometry":{"type":"Point","coordinates":[-73.7903,40.72092]}},{"properties":{"city":"Moraga","zip":"94556","domestic office or overseas post":"Rome","university":"Saint Mary's College","geo_score":0.902,"university country":null,"country":"Italy","university address":"1928 Saint Marys Rd","participation year":"2011-2012","project  code":"I10","students at university":1,"id":"a622wbtf7nna","geo_precision":"street","state":"CA","project description":"Work on a variety of new media projects to aid in Consular work, particularly concerning outreach to American students."},"type":"Feature","geometry":{"type":"Point","coordinates":[-122.110257,37.845275]}},{"properties":{"city":"Newport","zip":"2840","domestic office or overseas post":"Sydney","university":"Salve Regina University","geo_score":0.799,"university country":null,"country":"Australia","university address":"100 Ochre Point Avenue","participation year":"2011-2012","project  code":"A8","students at university":1,"id":"a622wbn4alec","geo_precision":"street","state":"Rhode Island","project description":"Collaboratively conduct research with U.S. Consulate General Sydney employees and initiate an interactive Facebook page that provides information to Foreign National Student Internship applicants on opportunities to intern in the U.S."},"type":"Feature","geometry":{"type":"Point","coordinates":[-71.300238,41.473091]}},{"properties":{"city":"Birmingham","zip":"35229","domestic office or overseas post":"European and Eurasian Affairs - Office of Press and Public Diplomacy","university":"Samford University","geo_score":0.805,"university country":null,"country":"Domestic Office","university address":"800 Lakeshore Drive","participation year":"2011-2012","project  code":"DC8","students at university":1,"id":"a622wblh3qhn","geo_precision":"range","state":"Alabama","project description":"Develop 2-minute French-language videos explaining U.S. government and history concepts to Francophone youth"},"type":"Feature","geometry":{"type":"Point","coordinates":[-86.790641,33.462938]}},{"properties":{"city":"San Francisco","zip":"94132","domestic office or overseas post":"Kolonia","university":"San Francisco State University","geo_score":1.0,"university country":null,"country":"Micronesia","university address":"1600 Holloway Ave","participation year":"2011-2012","project  code":"M6","students at university":1,"id":"a622wbyd3gu0","geo_precision":"range","state":"California","project description":"Assist in online promotion of the Embassy-supported EducationUSA Advising Center at the College of Micronesia-FSM through blogging, website design and management, and Skype and/or videos."},"type":"Feature","geometry":{"type":"Point","coordinates":[-122.476468,37.720839]}},{"properties":{"city":"San Jose","zip":"95192","domestic office or overseas post":"Yekaterinburg","university":"San Jose State University","geo_score":0.587,"university country":null,"country":"Russia","university address":"1 Washington Square","participation year":"2011-2012","project  code":"R3","students at university":3,"id":"a622wbzlsh0q","geo_precision":"street","state":"California","project description":"eIntern will be an \"American Student Guest Intern\" representative who will use new media tools to increase mutual understanding between the United States and Russia by promoting dialogue about university life, culture and current events that will help fill information voids on topics and issues thatare of interest to young adults in Russia (ages 18-30)"},"type":"Feature","geometry":{"type":"Point","coordinates":[-121.892231,37.344139]}},{"properties":{"city":"San Jose","zip":"95192","domestic office or overseas post":"Yekaterinburg","university":"San Jose State University","geo_score":0.587,"university country":null,"country":"Russia","university address":"1 Washington Square","participation year":"2011-2012","project  code":"R3","students at university":3,"id":"a622wbnuwu5z","geo_precision":"street","state":"California","project description":"eIntern will be an \"American Student Guest Intern\" representative who will use new media tools to increase mutual understanding between the United States and Russia by promoting dialogue about university life, culture and current events that will help fill information voids on topics and issues thatare of interest to young adults in Russia (ages 18-30)"},"type":"Feature","geometry":{"type":"Point","coordinates":[-121.892231,37.344139]}},{"properties":{"city":"San Jose","zip":"95192","domestic office or overseas post":"Yekaterinburg","university":"San Jose State University","geo_score":0.587,"university country":null,"country":"Russia","university address":"1 Washington Square","participation year":"2011-2012","project  code":"R3","students at university":3,"id":"a622wbsixk1i","geo_precision":"street","state":"California","project description":"eIntern will be an \"American Student Guest Intern\" representative who will use new media tools to increase mutual understanding between the United States and Russia by promoting dialogue about university life, culture and current events that will help fill information voids on topics and issues thatare of interest to young adults in Russia (ages 18-30)"},"type":"Feature","geometry":{"type":"Point","coordinates":[-121.892231,37.344139]}},{"properties":{"city":"Savannah","zip":"31402","domestic office or overseas post":"EAP/ANP","university":"Savannah College of Art and Design","geo_score":0.805,"university country":null,"country":"Domestic Office","university address":"342 Bull St","participation year":"2011-2012","project  code":"EAP/ANP","students at university":1,"id":"a622wbwg7505","geo_precision":"range","state":"Georgia","project description":"Assistance with producing a logo and brochure from the Ausmin dialogues. Intern will work with the Australia desk in developing the appropriate theme."},"type":"Feature","geometry":{"type":"Point","coordinates":[-81.0942,32.072864]}},{"properties":{"city":"South Orange","zip":"7079","domestic office or overseas post":"Santo Domingo","university":"Seton Hall University","geo_score":1.0,"university country":null,"country":"Dominican Republic","university address":"400 South Orange Ave","participation year":"2010-2011","project  code":"D1","students at university":5,"id":"a622wbwt8nei","geo_precision":"range","state":"New Jersey","project description":"Utilize technologyto complete projects in relation to public diplomacy and environmental initiatives by blogging, creating a podcast, and promoting events."},"type":"Feature","geometry":{"type":"Point","coordinates":[-74.24839,40.744655]}},{"properties":{"city":"South Orange","zip":"7079","domestic office or overseas post":"Moscow","university":"Seton Hall University","geo_score":1.0,"university country":null,"country":"Russia","university address":"400 South Orange Ave","participation year":"2010-2011","project  code":"R2","students at university":5,"id":"a622wbsxgk95","geo_precision":"range","state":"New Jersey","project description":"Research and stay informed of Russia's economic and political scope."},"type":"Feature","geometry":{"type":"Point","coordinates":[-74.24839,40.744655]}},{"properties":{"city":"South Orange","zip":"7079","domestic office or overseas post":"Yekaterinburg","university":"Seton Hall University","geo_score":1.0,"university country":null,"country":"Russia","university address":"400 South Orange Ave","participation year":"2010-2011","project  code":"R1","students at university":5,"id":"a622wbwqig26","geo_precision":"range","state":"New Jersey","project description":"Use new media to extend the impact of the public diplomacy efforts to include blogging, interviewing, conversation exchanges, and identifying content for Facebook."},"type":"Feature","geometry":{"type":"Point","coordinates":[-74.24839,40.744655]}},{"properties":{"city":"South Orange","zip":"7079","domestic office or overseas post":"Kigali","university":"Seton Hall University","geo_score":1.0,"university country":null,"country":"Rwanda","university address":"400 South Orange Ave","participation year":"2010-2011","project  code":"R6","students at university":5,"id":"a622wbrf8gna","geo_precision":"range","state":"New Jersey","project description":"Work with the Embassys Economic and Commercial section to create a virtual hub linking, as mentors, U.S. private sector organizations, with experience in export promotion and fostering entrepreneurship, to Rwandan organizations and private companies."},"type":"Feature","geometry":{"type":"Point","coordinates":[-74.24839,40.744655]}},{"properties":{"city":"South Orange","zip":"7079","domestic office or overseas post":"Caracas","university":"Seton Hall University","geo_score":1.0,"university country":null,"country":"Venezuela","university address":"400 South Orange Ave","participation year":"2010-2011","project  code":"V1","students at university":5,"id":"a622wc00ka72","geo_precision":"range","state":"New Jersey","project description":"Create a system to gather and analyze comments and press about the U.S. government and its officials."},"type":"Feature","geometry":{"type":"Point","coordinates":[-74.24839,40.744655]}},{"properties":{"city":"Saratoga Springs","zip":"12866","domestic office or overseas post":"Wellington","university":"Skidmore College","geo_score":0.495,"university country":null,"country":"New Zealand","university address":"815 N. Broadway","participation year":"2011-2012","project  code":"wellington","students at university":1,"id":"a622wbsth86p","geo_precision":"street","state":"New York","project description":"Conduct online research on the presence of U.S. service personnel in New Zealand."},"type":"Feature","geometry":{"type":"Point","coordinates":[-73.782781,43.088118]}},{"properties":{"city":"Atlanta","zip":"30314","domestic office or overseas post":"Lagos","university":"Spelman College","geo_score":1.0,"university country":null,"country":"Nigeria","university address":"350 Spelman Lane Southwest","participation year":"2011-2012","project  code":"N4","students at university":1,"id":"a622wbyz52w7","geo_precision":"range","state":"GA","project description":"Use social media to help explain the process of researching, applying to, enrolling in, and attending a college or university to Nigerian students who are applying to study in the U.S."},"type":"Feature","geometry":{"type":"Point","coordinates":[-84.40901,33.745384]}},{"properties":{"city":"Stanford","zip":"94305","domestic office or overseas post":"Ordino","university":"Stanford University","geo_score":0.676,"university country":null,"country":"Andorra","university address":"450 Serra Mall","participation year":"2011-2012","project  code":"A3","students at university":4,"id":"a622wc0dmi5m","geo_precision":"street","state":"CA","project description":"Study resources (sports, nature, leisure) of Ordino valley so as to determine how best to promote them online; analyze existing tourism offers, evaluate communication channels, propose improvements, and create new marketing campaigns ."},"type":"Feature","geometry":{"type":"Point","coordinates":[-122.16264,37.42746]}},{"properties":{"city":"Stanford","zip":"94305","domestic office or overseas post":"Gaborone","university":"Stanford University","geo_score":0.676,"university country":null,"country":"Botswana","university address":"450 Serra Mall","participation year":"2011-2012","project  code":"B3","students at university":4,"id":"a622wbxtah47","geo_precision":"street","state":"CA","project description":"Research and write a report on how to improve Botswanas business registration process."},"type":"Feature","geometry":{"type":"Point","coordinates":[-122.16264,37.42746]}},{"properties":{"city":"Stanford","zip":"94305","domestic office or overseas post":"Santo Domingo","university":"Stanford University","geo_score":0.676,"university country":null,"country":"Dominican Republic","university address":"450 Serra Mall","participation year":"2010-2011","project  code":"D1","students at university":4,"id":"a622wby468q6","geo_precision":"street","state":"CA","project description":"Utilize technologyto complete projects in relation to public diplomacy and environmental initiatives by blogging, creating a podcast, and promoting events."},"type":"Feature","geometry":{"type":"Point","coordinates":[-122.16264,37.42746]}},{"properties":{"city":"Stanford","zip":"94305","domestic office or overseas post":"Surabaya","university":"Stanford University","geo_score":0.676,"university country":null,"country":"Indonesia","university address":"450 Serra Mall","participation year":"2010-2011","project  code":"I4","students at university":4,"id":"a622wbxscosi","geo_precision":"street","state":"CA","project description":"Develop virtual relationships between Muslim students in the US and Indonesia to promote education in the US and mutual understanding."},"type":"Feature","geometry":{"type":"Point","coordinates":[-122.16264,37.42746]}},{"properties":{"city":"New York","zip":"10012","domestic office or overseas post":"Chennai","university":"Stern School of Business, NYU, NY","geo_score":1.0,"university country":null,"country":"India","university address":"44 West Fourth Street","participation year":"2011-2012","project  code":"I1","students at university":1,"id":"a622wbk1ofxz","geo_precision":"range","state":"New York","project description":"Write the quarterly Warden newsletter, update Chennai's web presence, strategize new social media ways of engaging with American citizens, and connect Indian students at U.S. colleges with prospective students in India"},"type":"Feature","geometry":{"type":"Point","coordinates":[-73.995504,40.729098]}},{"properties":{"city":"Gulfport","zip":"33707","domestic office or overseas post":"Dublin","university":"Stetson Univ. College of Law","geo_score":0.819,"university country":null,"country":"Ireland","university address":"1401 61st Street South","participation year":"2010-2011","project  code":"I7","students at university":1,"id":"a622wbmu351u","geo_precision":"range","state":"FL","project description":"Assistwith public affairs outreach programs by using social media tools to connect with and inform various target groups."},"type":"Feature","geometry":{"type":"Point","coordinates":[-82.718187,27.757312]}},{"properties":{"city":"DeLand","zip":"32723","domestic office or overseas post":"Manila","university":"Stetson University","geo_score":0.805,"university country":null,"country":"Phillippines","university address":"421 North Woodland Boulevard","participation year":"2010-2011","project  code":"P2","students at university":1,"id":"a622wbliwiwz","geo_precision":"range","state":"Florida","project description":"Research and design a graphic novel (or on-line variation) which dramatizes the career and achievements of one or more vanguard women diplomats in the US Foreign Service for possible use as a recruitment tool"},"type":"Feature","geometry":{"type":"Point","coordinates":[-81.303582,29.033868]}},{"properties":{"city":"Old Westbury","zip":"11568","domestic office or overseas post":"European and Eurasian Affairs - Office of Press and Public Diplomacy","university":"SUNY at Old Westbury","geo_score":0.929,"university country":null,"country":"Domestic Office","university address":"223 Store Hill Road","participation year":"2011-2012","project  code":"DC9","students at university":1,"id":"a622wbxm2ptl","geo_precision":"range","state":"NY","project description":"Develop 2-minute Spanish-language videos explaining explaining U.S. government and history concepts to Spanish-speaking youth."},"type":"Feature","geometry":{"type":"Point","coordinates":[-73.579899,40.780443]}},{"properties":{"city":"Syracuse","zip":"13244","domestic office or overseas post":"Tirana","university":"Syracuse University","geo_score":0.805,"university country":null,"country":"Albania","university address":"805 South Crouse Avenue","participation year":"2010-2011","project  code":"A1","students at university":6,"id":"a622wbuqcqlx","geo_precision":"range","state":"NY","project description":"Create and contribute content to various social media outreach tools used by the Consular Section."},"type":"Feature","geometry":{"type":"Point","coordinates":[-76.136649,43.041549]}},{"properties":{"city":"Syracuse","zip":"13244","domestic office or overseas post":"Office of Policy, Planning, and Resources for the Under Secretary of Public Diplomacy and Public Affairs","university":"Syracuse University","geo_score":0.805,"university country":null,"country":"Domestic Office","university address":"805 South Crouse Avenue","participation year":"2011-2012","project  code":"DC19","students at university":6,"id":"a622wbz0rf5n","geo_precision":"range","state":"NY","project description":"Analyze a social media survey creating statistics and visuals"},"type":"Feature","geometry":{"type":"Point","coordinates":[-76.136649,43.041549]}},{"properties":{"city":"Syracuse","zip":"13244","domestic office or overseas post":"European and Eurasian Affairs - Office of Press and Public Diplomacy","university":"Syracuse University","geo_score":0.805,"university country":null,"country":"Domestic Office","university address":"805 South Crouse Avenue","participation year":"2011-2012","project  code":"DC8","students at university":6,"id":"a622wbxexz9t","geo_precision":"range","state":"NY","project description":"Develop 2-minute French-language videos explaining U.S. government and history concepts to Francophone youth"},"type":"Feature","geometry":{"type":"Point","coordinates":[-76.136649,43.041549]}},{"properties":{"city":"Syracuse","zip":"13244","domestic office or overseas post":"Guadalajara","university":"Syracuse University","geo_score":0.805,"university country":null,"country":"Mexico","university address":"805 South Crouse Avenue","participation year":"2010-2011","project  code":"M2","students at university":6,"id":"a622wbnlm6wx","geo_precision":"range","state":"NY","project description":"Helpresearch the consular district's past and present in order to build an action plan for the future."},"type":"Feature","geometry":{"type":"Point","coordinates":[-76.136649,43.041549]}},{"properties":{"city":"Syracuse","zip":"13244","domestic office or overseas post":"Dushanbe","university":"Syracuse University","geo_score":0.805,"university country":null,"country":"Tajikistan","university address":"805 South Crouse Avenue","participation year":"2011-2012","project  code":"T1","students at university":6,"id":"a622wc0186eq","geo_precision":"range","state":"NY","project description":"Utilize web technology to connect credible voices in the United States to targeted audiences in Tajikistan."},"type":"Feature","geometry":{"type":"Point","coordinates":[-76.136649,43.041549]}},{"properties":{"city":"Syracuse","zip":"13244","domestic office or overseas post":"Tunis","university":"Syracuse University","geo_score":0.805,"university country":null,"country":"Tunisia","university address":"805 South Crouse Avenue","participation year":"2010-2011","project  code":"T3","students at university":6,"id":"a622wbtcstho","geo_precision":"range","state":"NY","project description":"S/he will use new media tools (including Facebook and Twitter) in innovative ways to increase mutual understanding between the United States and Tunisia by promoting dialogue about university life and culture in both countries."},"type":"Feature","geometry":{"type":"Point","coordinates":[-76.136649,43.041549]}},{"properties":{"city":"Philadelphia","zip":"19122","domestic office or overseas post":"Athens","university":"Temple University","geo_score":1.0,"university country":null,"country":"Greece","university address":"1801 North Broad Street","participation year":"2010-2011","project  code":"G3","students at university":1,"id":"a622wbtrwgzg","geo_precision":"range","state":"Pennsylvania","project description":"AssistConsular Section with a comprehensive e-outreach program to include identifying and writing content for Facebook, Twitter, and blogs."},"type":"Feature","geometry":{"type":"Point","coordinates":[-75.157581,39.980222]}},{"properties":{"city":"College Station","zip":"77843","domestic office or overseas post":"Shanghai","university":"Texas A&amp;M University College Station","geo_score":0.611,"university country":null,"country":"China","university address":"401 Joe Routt Blvd.","participation year":"2011-2012","project  code":"C4","students at university":1,"id":"a622wbzlbswq","geo_precision":"street","state":"Texas","project description":"Conduct online research and monitor social media sites for information about Anhui, Jiangsu and Zhejiang provinces and blog/microblog to contrast and compare experiences in China and the U.S."},"type":"Feature","geometry":{"type":"Point","coordinates":[-96.341867,30.611243]}},{"properties":{"city":"Towson","zip":"21252","domestic office or overseas post":"European and Eurasian Affairs - Office of Press and Public Diplomacy","university":"Towson U","geo_score":0.707,"university country":null,"country":"Domestic Office","university address":"8000 York Rd","participation year":"2011-2012","project  code":"DC10","students at university":2,"id":"a622wbuxglzx","geo_precision":"street","state":"Maryland","project description":"Develop 2-minute Portuguese-language videos explaining explaining U.S. government and history concepts to Portuguese-speaking youth."},"type":"Feature","geometry":{"type":"Point","coordinates":[-76.611886,39.413415]}},{"properties":{"city":"Towson","zip":"21252","domestic office or overseas post":"London","university":"Towson U","geo_score":0.707,"university country":null,"country":"UK","university address":"8000 York Rd","participation year":"2011-2012","project  code":"U2","students at university":2,"id":"a622wbvmo7jm","geo_precision":"street","state":"Maryland","project description":"Create and design a branded look for U.S. Embassy Londons social media platforms."},"type":"Feature","geometry":{"type":"Point","coordinates":[-76.611886,39.413415]}},{"properties":{"city":"Medford","zip":"2155","domestic office or overseas post":"Vienna","university":"Tufts University","geo_score":0.912,"university country":null,"country":"Austria","university address":"28 Sawyer Avenue","participation year":"2010-2011","project  code":"A3","students at university":1,"id":"a622wbtqoux2","geo_precision":"range","state":"Massachusetts","project description":"Expand Embassy's social media presence and generate ideas for post-produced videos."},"type":"Feature","geometry":{"type":"Point","coordinates":[-71.122893,42.40632]}},{"properties":{"city":"New Orleans","zip":"70118","domestic office or overseas post":"European and Eurasian Affairs - Office of Press and Public Diplomacy","university":"Tulane University","geo_score":0.333,"university country":null,"country":"Domestic Office","university address":"6823 St. Charles Avenue","participation year":"2011-2012","project  code":"DC11","students at university":1,"id":"a622wbu9pzh3","geo_precision":"street","state":"Louisiana","project description":"Develop 2-minute Italian-language videos explaining U.S. government and history concepts to Italian-speaking youth."},"type":"Feature","geometry":{"type":"Point","coordinates":[-90.107379,29.992544]}},{"properties":{"city":"Tuscaloosa","zip":"35487","domestic office or overseas post":"New Delhi","university":"University of Alabama","geo_score":0.805,"university country":null,"country":"India","university address":"739 University Blvd","participation year":"2011-2012","project  code":"I5","students at university":2,"id":"a622wbk43219","geo_precision":"range","state":"Alabama","project description":"Help Consular Team India analyze the Indian American Diaspora by researching past immigration patterns, characterizing current socioeconomic conditions, and predicting future actions."},"type":"Feature","geometry":{"type":"Point","coordinates":[-87.546307,33.209597]}},{"properties":{"city":"Tuscaloosa","zip":"35487","domestic office or overseas post":"Nicosia","university":"University of Alabama School of Law","geo_score":0.408,"university country":null,"country":"Cyprus","university address":"101 Paul W. Bryant Drive East","participation year":"2011-2012","project  code":"Nicosia","students at university":1,"id":"a622wbxam3u1","geo_precision":"street","state":"Alabama","project description":"Assist with outreach through social media sites."},"type":"Feature","geometry":{"type":"Point","coordinates":[-87.452049,33.077455]}},{"properties":{"city":"Tuscaloosa","zip":"35487","domestic office or overseas post":"Office of eDiplomacy","university":"University of Alabama","geo_score":0.805,"university country":null,"country":"Domestic Office","university address":"739 University Blvd","participation year":"2010-2011","project  code":"U6","students at university":2,"id":"a622wbuzf48k","geo_precision":"range","state":"Alabama","project description":"Assist to further develop the Virtual Student Foreign Service program by engaging with social media and communicating with VSFS eInterns."},"type":"Feature","geometry":{"type":"Point","coordinates":[-87.546307,33.209597]}},{"properties":{"city":"Fayetteville","zip":"72701","domestic office or overseas post":"Bogota","university":"University of Arkansas","geo_score":0.911,"university country":null,"country":"Colombia","university address":"1125 W Maple ST","participation year":"2011-2012","project  code":"C6","students at university":2,"id":"a622wbzc531q","geo_precision":"range","state":"AR","project description":"To keep the conversation going on the Facebook page of our nationwide photo contest, Colombia, Pais de Contrastes."},"type":"Feature","geometry":{"type":"Point","coordinates":[-94.175985,36.070354]}},{"properties":{"city":"Fayetteville","zip":"72701","domestic office or overseas post":"European and Eurasian Affairs - Office of Press and Public Diplomacy","university":"University of Arkansas","geo_score":0.911,"university country":null,"country":"Domestic Office","university address":"1125 W Maple ST","participation year":"2011-2012","project  code":"DC11","students at university":2,"id":"a622wblwrrnx","geo_precision":"range","state":"AR","project description":"Develop 2-minute Italian-language videos explaining U.S. government and history concepts to Italian-speaking youth."},"type":"Feature","geometry":{"type":"Point","coordinates":[-94.175985,36.070354]}},{"properties":{"city":"Davis","zip":"95616","domestic office or overseas post":"Taipei","university":"University of California Davis","geo_score":0.688,"university country":null,"country":"Taiwan","university address":"One Shields Avenue","participation year":"2010-2011","project  code":"T1","students at university":1,"id":"a622wbuvijyn","geo_precision":"street","state":"California","project description":"Research and track materials for a high-profile exhibit on the life of Sun Yat-sen in America."},"type":"Feature","geometry":{"type":"Point","coordinates":[-121.747162,38.540767]}},{"properties":{"city":"Berkeley","zip":"94720","domestic office or overseas post":"Shanghai","university":"University of California Berkeley","geo_score":0.376,"university country":null,"country":"China","university address":"110 Sproul Hall","participation year":"2011-2012","project  code":"C4","students at university":4,"id":"a622wbt9a1w7","geo_precision":"street","state":"California","project description":"Conduct online research and monitor social media sites for information about Anhui, Jiangsu and Zhejiang provinces and blog/microblog to contrast and compare experiences in China and the U.S."},"type":"Feature","geometry":{"type":"Point","coordinates":[-122.281864,37.879315]}},{"properties":{"city":"Berkeley","zip":"94720","domestic office or overseas post":"European and Eurasian Affairs - Office of Press and Public Diplomacy","university":"University of California Berkeley","geo_score":0.376,"university country":null,"country":"Domestic Office","university address":"110 Sproul Hall","participation year":"2011-2012","project  code":"DC8","students at university":4,"id":"a622wbygpuxj","geo_precision":"street","state":"California","project description":"Develop 2-minute French-language videos explaining U.S. government and history concepts to Francophone youth"},"type":"Feature","geometry":{"type":"Point","coordinates":[-122.281864,37.879315]}},{"properties":{"city":"Berkeley","zip":"94720","domestic office or overseas post":"European and Eurasian Affairs - Office of Press and Public Diplomacy","university":"University of California Berkeley","geo_score":0.376,"university country":null,"country":"Domestic Office","university address":"110 Sproul Hall","participation year":"2011-2012","project  code":"DC8","students at university":4,"id":"a622wbr4dpoe","geo_precision":"street","state":"California","project description":"Develop 2-minute French-language videos explaining U.S. government and history concepts to Francophone youth"},"type":"Feature","geometry":{"type":"Point","coordinates":[-122.281864,37.879315]}},{"properties":{"city":"Berkeley","zip":"94720","domestic office or overseas post":"Berlin","university":"University of California Berkeley","geo_score":0.376,"university country":null,"country":"Germany","university address":"110 Sproul Hall","participation year":"2011-2012","project  code":"G3","students at university":4,"id":"a622wbyl0xyq","geo_precision":"street","state":"California","project description":"Engage German students and young professionals through social media to increase understanding of the United States and interest in American study and exchange opportunities."},"type":"Feature","geometry":{"type":"Point","coordinates":[-122.281864,37.879315]}},{"properties":{"city":"La Jolla","zip":"92093","domestic office or overseas post":"Beijing","university":"University of California San Diego","geo_score":0.805,"university country":null,"country":"China","university address":"9500 Gilman Dr","participation year":"2010-2011","project  code":"C11","students at university":5,"id":"a622wbu2t9e8","geo_precision":"range","state":"California","project description":"Monitor politically significant pieces and emerging trends in the Chinese Internet landscape that includes blogs, microblogs, Twitter, chatrooms, and bulletin board services."},"type":"Feature","geometry":{"type":"Point","coordinates":[-117.233286,32.876857]}},{"properties":{"city":"La Jolla","zip":"92093","domestic office or overseas post":"Manila","university":"University of California San Diego","geo_score":0.805,"university country":null,"country":"Phillippines","university address":"9500 Gilman Dr","participation year":"2010-2011","project  code":"P2","students at university":5,"id":"a622wblqvjxw","geo_precision":"range","state":"California","project description":"Research and design a graphic novel (or on-line variation) which dramatizes the career and achievements of one or more vanguard women diplomats in the US Foreign Service for possible use as a recruitment tool"},"type":"Feature","geometry":{"type":"Point","coordinates":[-117.233286,32.876857]}},{"properties":{"city":"La Jolla","zip":"92093","domestic office or overseas post":"Tegucigalpa","university":"University of California San Diego","geo_score":0.805,"university country":null,"country":"Honduras","university address":"9500 Gilman Dr","participation year":"2011-2012","project  code":"H1","students at university":5,"id":"a622wbuyfbep","geo_precision":"range","state":"California","project description":"Develop social media strategies for the embassy."},"type":"Feature","geometry":{"type":"Point","coordinates":[-117.233286,32.876857]}},{"properties":{"city":"La Jolla","zip":"92093","domestic office or overseas post":"Niamey","university":"University of California San Diego","geo_score":0.805,"university country":null,"country":"Niger","university address":"9500 Gilman Dr","participation year":"2011-2012","project  code":"N3","students at university":5,"id":"a622wbn2awra","geo_precision":"range","state":"California","project description":"Increase the electronic development of Niger by helping staff of National Commission for UNESCO and students working in UNESCO fields to gain knowledge of Internet resources and global information; design and implement a website pertaining to cultural exchange with students, improving knowledge of American culture, teaching IT skills, protecting the environment and raising awareness about HIV/AIDS."},"type":"Feature","geometry":{"type":"Point","coordinates":[-117.233286,32.876857]}},{"properties":{"city":"La Jolla","zip":"92093","domestic office or overseas post":"Dushanbe","university":"University of California San Diego","geo_score":0.805,"university country":null,"country":"Tajikistan","university address":"9500 Gilman Dr","participation year":"2011-2012","project  code":"T2","students at university":5,"id":"a622wbx25hvi","geo_precision":"range","state":"California","project description":"Develop virtual relationships between US and Tajik high school students to promote awareness of Muslim and American culture."},"type":"Feature","geometry":{"type":"Point","coordinates":[-117.233286,32.876857]}},{"properties":{"city":"Santa Barbara","zip":"93106","domestic office or overseas post":"Berlin","university":"University of California Santa Barbara","geo_score":0.561,"university country":null,"country":"Germany","university address":"552 University Road","participation year":"2011-2012","project  code":"G3","students at university":1,"id":"a622wbtclr3m","geo_precision":"street","state":"California","project description":"Engage German students and young professionals through social media to increase understanding of the United States and interest in American study and exchange opportunities."},"type":"Feature","geometry":{"type":"Point","coordinates":[-119.797062,34.445136]}},{"properties":{"city":"Orlando","zip":"32816","domestic office or overseas post":"Sydney","university":"University of Central Florida","geo_score":1.0,"university country":null,"country":"Australia","university address":"4000 Central Florida Blvd","participation year":"2010-2011","project  code":"A2","students at university":5,"id":"a622wbw9477y","geo_precision":"range","state":"Florida","project description":"Promote and regenerate public support for Australia-U.S. alliance by using social media tobuild understanding and trust among Australian youth."},"type":"Feature","geometry":{"type":"Point","coordinates":[-81.20315,28.598647]}},{"properties":{"city":"Orlando","zip":"32816","domestic office or overseas post":"Canberra","university":"University of Central Florida","geo_score":1.0,"university country":null,"country":"Australia","university address":"4000 Central Florida Blvd","participation year":"2011-2012","project  code":"A5","students at university":5,"id":"a622wbk0xnye","geo_precision":"range","state":"Florida","project description":"Engage Australian youth and young professionals through content posted on Facebook to increase understanding of the United States and help showcase partnerships on issues such as climate change and transnational business."},"type":"Feature","geometry":{"type":"Point","coordinates":[-81.20315,28.598647]}},{"properties":{"city":"Orlando","zip":"32816","domestic office or overseas post":"Brasilia","university":"University of Central Florida","geo_score":1.0,"university country":null,"country":"Brazil","university address":"4000 Central Florida Blvd","participation year":"2010-2011","project  code":"B3","students at university":5,"id":"a622wblzamlf","geo_precision":"range","state":"Florida","project description":"Research backgrounds ofnew economicleaders and expand U.S. commercial opportunities in target areas and regions."},"type":"Feature","geometry":{"type":"Point","coordinates":[-81.20315,28.598647]}},{"properties":{"city":"Orlando","zip":"32816","domestic office or overseas post":"Guangzhou","university":"University of Central Florida","geo_score":1.0,"university country":null,"country":"China","university address":"4000 Central Florida Blvd","participation year":"2010-2011","project  code":"C7","students at university":5,"id":"a622wbzpntin","geo_precision":"range","state":"Florida","project description":"Create interactive virtual platforms and activities to engage young people and students in south China in two-way discussions with American students as well as find creative ways to attract more visitors to Post's three existing websites based in Guangxi and Fujian provinces."},"type":"Feature","geometry":{"type":"Point","coordinates":[-81.20315,28.598647]}},{"properties":{"city":"Orlando","zip":"32816","domestic office or overseas post":"Santo Domingo","university":"University of Central Florida","geo_score":1.0,"university country":null,"country":"Dominican Republic","university address":"4000 Central Florida Blvd","participation year":"2010-2011","project  code":"D2","students at university":5,"id":"a622wbs88an9","geo_precision":"range","state":"Florida","project description":"Analyze and improveSanto Domingo'swebsite and other online resources."},"type":"Feature","geometry":{"type":"Point","coordinates":[-81.20315,28.598647]}},{"properties":{"city":"Chicago","zip":"60611","domestic office or overseas post":"African Affairs - Public Diplomacy/Public Affairs","university":"University of Chicago","geo_score":0.607,"university country":null,"country":"Domestic Office","university address":"820 N. Michigan","participation year":"2011-2012","project  code":"DC4","students at university":3,"id":"a622wbor3th2","geo_precision":"street","state":"Illinois","project description":"Assist in tracking the Bureau of African Affairs' social media engagement."},"type":"Feature","geometry":{"type":"Point","coordinates":[-87.624286,41.889376]}},{"properties":{"city":"Chicago","zip":"60611","domestic office or overseas post":"Gaborone","university":"University of Chicago","geo_score":0.607,"university country":null,"country":"Botswana","university address":"820 N. Michigan","participation year":"2011-2012","project  code":"B3","students at university":3,"id":"a622wbwxgptd","geo_precision":"street","state":"Illinois","project description":"Research and write a report on how to improve Botswanas business registration process."},"type":"Feature","geometry":{"type":"Point","coordinates":[-87.624286,41.889376]}},{"properties":{"city":"Chicago","zip":"60611","domestic office or overseas post":"Madrid","university":"University of Chicago","geo_score":0.607,"university country":null,"country":"Spain","university address":"820 N. Michigan","participation year":"2010-2011","project  code":"S4","students at university":3,"id":"a622wbrgbs4v","geo_precision":"street","state":"Illinois","project description":"Research, set up and maintain an online English language teaching forum to reinforce efforts to improve English language ability and knowledge of American culture among Spanish secondary school students."},"type":"Feature","geometry":{"type":"Point","coordinates":[-87.624286,41.889376]}},{"properties":{"city":"Boulder","zip":null,"domestic office or overseas post":"Bogota","university":"University of Colorado Boulder","geo_score":0.707,"university country":null,"country":"Colombia","university address":"1440 15th Street","participation year":"2011-2012","project  code":"C6","students at university":4,"id":"a622wbqb9plj","geo_precision":"range","state":"CO","project description":"To keep the conversation going on the Facebook page of our nationwide photo contest, Colombia, Pais de Contrastes."},"type":"Feature","geometry":{"type":"Point","coordinates":[-105.274728,40.010921]}},{"properties":{"city":"Boulder","zip":null,"domestic office or overseas post":"Nicosia","university":"University of Colorado Boulder","geo_score":0.707,"university country":null,"country":"Cyprus","university address":"1440 15th Street","participation year":"2011-2012","project  code":"C11","students at university":4,"id":"a622wbl49uf5","geo_precision":"range","state":"CO","project description":"Assist with public affairs outreach programs by using social media, website, and audio-visual tools to connect with and inform various target groups about U.S. culture, education and policy"},"type":"Feature","geometry":{"type":"Point","coordinates":[-105.274728,40.010921]}},{"properties":{"city":"Boulder","zip":null,"domestic office or overseas post":"European and Eurasian Affairs - Office of Press and Public Diplomacy","university":"University of Colorado Boulder","geo_score":0.707,"university country":null,"country":"Domestic Office","university address":"1440 15th Street","participation year":"2011-2012","project  code":"DC11","students at university":4,"id":"a622wbts2b3r","geo_precision":"range","state":"CO","project description":"Develop 2-minute Italian-language videos explaining U.S. government and history concepts to Italian-speaking youth."},"type":"Feature","geometry":{"type":"Point","coordinates":[-105.274728,40.010921]}},{"properties":{"city":"Boulder","zip":null,"domestic office or overseas post":"Montevideo","university":"University of Colorado Boulder","geo_score":0.707,"university country":null,"country":"Uruguay","university address":"1440 15th Street","participation year":"2011-2012","project  code":"U5","students at university":4,"id":"a622wbt1opq7","geo_precision":"range","state":"CO","project description":"Create a monthly collaborative U.S. news webcast for Montevideos Facebook Fans."},"type":"Feature","geometry":{"type":"Point","coordinates":[-105.274728,40.010921]}},{"properties":{"city":"Dayton","zip":"45469","domestic office or overseas post":"U.S. Mission to the African Union (USAU)","university":"University of Dayton, Dayton, OH","geo_score":0.752,"university country":null,"country":"Domestic Office","university address":"300 College Pk","participation year":"2010-2011","project  code":"E6","students at university":1,"id":"a622wbuj2bnp","geo_precision":"range","state":"Ohio","project description":"Compilean up-to-date list of African Union (AU) declarations and charters, summarizing key objectives and indicating AU member state buy-in; design in consultation with the AU a mechanism to disseminate this information to African civil society and non-governmental organizations."},"type":"Feature","geometry":{"type":"Point","coordinates":[-84.180202,39.740424]}},{"properties":{"city":"Gainesville","zip":"32611","domestic office or overseas post":"Wellington","university":"University of Florida","geo_score":0.381,"university country":null,"country":"New Zealand","university address":"201 Criser Hall","participation year":"2010-2011","project  code":"N1","students at university":1,"id":"a622wbufgp8t","geo_precision":"street","state":"FL","project description":"Create and maintain web and social media-based platforms to connect New Zealanders and Americans in the lead-up to, and during, the 2011 Rugby World Cup."},"type":"Feature","geometry":{"type":"Point","coordinates":[-82.021642,29.723333]}},{"properties":{"city":"Moscow","zip":"83844","domestic office or overseas post":"Bogota","university":"University of Idaho","geo_score":0.537,"university country":null,"country":"Colombia","university address":"875 Perimeter Drive","participation year":"2011-2012","project  code":"C5","students at university":1,"id":"a622wbro9fgf","geo_precision":"street","state":"Idaho","project description":"To design a virtual Foto-Museo webpage that also integrates with sections Facebook page, in both English and Spanish."},"type":"Feature","geometry":{"type":"Point","coordinates":[-116.610203,47.98388]}},{"properties":{"city":"Champaign","zip":"61820","domestic office or overseas post":"Bogota","university":"University of Illinois at Urbana - Champaign","geo_score":0.917,"university country":null,"country":"Colombia","university address":"601 E John Street","participation year":"2011-2012","project  code":"C6","students at university":7,"id":"a622wbxnc4m8","geo_precision":"range","state":"Illinois","project description":"To keep the conversation going on the Facebook page of our nationwide photo contest, Colombia, Pais de Contrastes."},"type":"Feature","geometry":{"type":"Point","coordinates":[-88.230367,40.109079]}},{"properties":{"city":"Champaign","zip":"61820","domestic office or overseas post":"Zagreb","university":"University of Illinois at Urbana - Champaign","geo_score":0.917,"university country":null,"country":"Croatia","university address":"601 E John Street","participation year":"2011-2012","project  code":"C9","students at university":7,"id":"a622wbtea2j7","geo_precision":"range","state":"Illinois","project description":"Prepare an analysis of Croatias civil judicial system and alternative dispute resolution regime and make recommendations on reforms."},"type":"Feature","geometry":{"type":"Point","coordinates":[-88.230367,40.109079]}},{"properties":{"city":"Champaign","zip":"61820","domestic office or overseas post":"Office of Global Systems - Bureau of International Organization Affairs","university":"University of Illinois at Urbana - Champaign","geo_score":0.917,"university country":null,"country":"Domestic Office","university address":"601 E John Street","participation year":"2011-2012","project  code":"DC15","students at university":7,"id":"a622wbprfh98","geo_precision":"range","state":"Illinois","project description":"Analyze the Program and Budget of the Universal Postal Union for consistency with member country priorities, develop a tool for evaluating the effective use of resources through the organizations budget cycle, and assist the Department of State in formulating proposals to improve financial management and transparency in this UN Specialized Agency for the 2012 Congress."},"type":"Feature","geometry":{"type":"Point","coordinates":[-88.230367,40.109079]}},{"properties":{"city":"Champaign","zip":"61820","domestic office or overseas post":"European and Eurasian Affairs - Office of Press and Public Diplomacy","university":"University of Illinois at Urbana - Champaign","geo_score":0.917,"university country":null,"country":"Domestic Office","university address":"601 E John Street","participation year":"2011-2012","project  code":"DC8","students at university":7,"id":"a622wbwo58uf","geo_precision":"range","state":"Illinois","project description":"Develop 2-minute French-language videos explaining U.S. government and history concepts to Francophone youth"},"type":"Feature","geometry":{"type":"Point","coordinates":[-88.230367,40.109079]}},{"properties":{"city":"Champaign","zip":"61820","domestic office or overseas post":"European and Eurasian Affairs - Office of Press and Public Diplomacy","university":"University of Illinois at Urbana - Champaign","geo_score":0.917,"university country":null,"country":"Domestic Office","university address":"601 E John Street","participation year":"2011-2012","project  code":"DC9","students at university":7,"id":"a622wbry40mw","geo_precision":"range","state":"Illinois","project description":"Develop 2-minute Spanish-language videos explaining explaining U.S. government and history concepts to Spanish-speaking youth."},"type":"Feature","geometry":{"type":"Point","coordinates":[-88.230367,40.109079]}},{"properties":{"city":"Champaign","zip":"61820","domestic office or overseas post":"Guadalajara","university":"University of Illinois at Urbana - Champaign","geo_score":0.917,"university country":null,"country":"Mexico","university address":"601 E John Street","participation year":"2011-2012","project  code":"M3","students at university":7,"id":"a622wbs914vo","geo_precision":"range","state":"Illinois","project description":"Research and analyze the role of social media platforms and the internet related to consular activities for both expatriates seeking American Citizen Services and Mexican nationals seeking non-immigrant visas in order to enhance customer service for the Consulates clients and potentially counter fraudulent information and/or visa services."},"type":"Feature","geometry":{"type":"Point","coordinates":[-88.230367,40.109079]}},{"properties":{"city":"Champaign","zip":"61820","domestic office or overseas post":"Niamey","university":"University of Illinois at Urbana - Champaign","geo_score":0.917,"university country":null,"country":"Niger","university address":"601 E John Street","participation year":"2011-2012","project  code":"N3","students at university":7,"id":"a622wblbit01","geo_precision":"range","state":"Illinois","project description":"Increase the electronic development of Niger by helping staff of National Commission for UNESCO and students working in UNESCO fields to gain knowledge of Internet resources and global information; design and implement a website pertaining to cultural exchange with students, improving knowledge of American culture, teaching IT skills, protecting the environment and raising awareness about HIV/AIDS."},"type":"Feature","geometry":{"type":"Point","coordinates":[-88.230367,40.109079]}},{"properties":{"city":"Lawrence","zip":"66045","domestic office or overseas post":"Lima","university":"University of Kansas","geo_score":0.805,"university country":null,"country":"Peru","university address":"1502 Iowa Street","participation year":"2011-2012","project  code":"P2","students at university":1,"id":"a622wbq9k9od","geo_precision":"range","state":"Kansas","project description":"Work with Peruvian UNESCO Associated Schools Project (ASPnet) to strengthen capabilities of educational communities in peace &amp;human rights and education for sustainable development &amp; intercultural learning; create a webpage and a Facebook account to help students learn more about exchange and study abroad programs as well as fellowships and scholarships."},"type":"Feature","geometry":{"type":"Point","coordinates":[-95.260475,38.956882]}},{"properties":{"city":"La Verne","zip":"91750","domestic office or overseas post":"Guadalajara","university":"University of La Verne, La Verne,CA","geo_score":0.883,"university country":null,"country":"Mexico","university address":"1950 Third St","participation year":"2011-2012","project  code":"M3","students at university":1,"id":"a622wbkiucqe","geo_precision":"range","state":"California","project description":"Research and analyze the role of social media platforms and the internet related to consular activities for both expatriates seeking American Citizen Services and Mexican nationals seeking non-immigrant visas in order to enhance customer service for the Consulates clients and potentially counter fraudulent information and/or visa services."},"type":"Feature","geometry":{"type":"Point","coordinates":[-117.773299,34.101259]}},{"properties":{"city":"Adelphi","zip":"20783","domestic office or overseas post":"Berlin","university":"University of Maryland University College","geo_score":0.713,"university country":null,"country":"Germany","university address":"3501 University Blvd East","participation year":"2010-2011","project  code":"G2","students at university":1,"id":"a622wbswg4j8","geo_precision":"street","state":"Maryland","project description":"Increase interest in study opportunities in the U.S. through online opportunities and social media."},"type":"Feature","geometry":{"type":"Point","coordinates":[-76.985975,38.987864]}},{"properties":{"city":"College Park","zip":"20742","domestic office or overseas post":"Office of eDiplomacy","university":"University of Maryland College Park","geo_score":0.611,"university country":null,"country":"Domestic Office","university address":"7965 Baltimore Avenue","participation year":"2010-2011","project  code":"eDip","students at university":8,"id":"a622wbxurbla","geo_precision":"street","state":"MD","project description":"VSFS eIntern will work directly with the Office of eDiplomacy on a variety of projects."},"type":"Feature","geometry":{"type":"Point","coordinates":[-76.93504,38.98861]}},{"properties":{"city":"College Park","zip":"20742","domestic office or overseas post":"Brussels","university":"University of Maryland College Park","geo_score":0.611,"university country":null,"country":"Belgium","university address":"7965 Baltimore Avenue","participation year":"2011-2012","project  code":"B2","students at university":8,"id":"a622wbm9y22t","geo_precision":"street","state":"MD","project description":"Serve as a \"foreign correspondent\" on a university campus in the United States and contribute articles, video clips and photos on American values and Americana."},"type":"Feature","geometry":{"type":"Point","coordinates":[-76.93504,38.98861]}},{"properties":{"city":"College Park","zip":"20742","domestic office or overseas post":"Office of Policy, Regional and Functional Organizations - Bureau of International Organization Affairs","university":"University of Maryland College Park","geo_score":0.611,"university country":null,"country":"Domestic Office","university address":"7965 Baltimore Avenue","participation year":"2011-2012","project  code":"DC20","students at university":8,"id":"a622wbrjs3vh","geo_precision":"street","state":"MD","project description":"Conduct research to document United Nation cooperation with regional organizations."},"type":"Feature","geometry":{"type":"Point","coordinates":[-76.93504,38.98861]}},{"properties":{"city":"College Park","zip":"20742","domestic office or overseas post":"Office of the United States Special Representative to Muslim Communities","university":"University of Maryland College Park","geo_score":0.611,"university country":null,"country":"Domestic Office","university address":"7965 Baltimore Avenue","participation year":"2011-2012","project  code":"DC24","students at university":8,"id":"a622wbpofv5d","geo_precision":"street","state":"MD","project description":"Maintain a running list of NGOs and young Muslim leaders, communicate with these groups and people about Special Representative to Muslim Communities' campaigns, maintain activity on a regional Facebook group webpage, serve as a liaison to generation changers and 2011 HAH pledgers, and facilitatethe creation and implementation of campaign events."},"type":"Feature","geometry":{"type":"Point","coordinates":[-76.93504,38.98861]}},{"properties":{"city":"College Park","zip":"20742","domestic office or overseas post":"New Delhi","university":"University of Maryland College Park","geo_score":0.611,"university country":null,"country":"India","university address":"7965 Baltimore Avenue","participation year":"2011-2012","project  code":"I5","students at university":8,"id":"a622wby7mbe6","geo_precision":"street","state":"MD","project description":"Help Consular Team India analyze the Indian American Diaspora by researching past immigration patterns, characterizing current socioeconomic conditions, and predicting future actions."},"type":"Feature","geometry":{"type":"Point","coordinates":[-76.93504,38.98861]}},{"properties":{"city":"College Park","zip":"20742","domestic office or overseas post":"Kuwait City","university":"University of Maryland College Park","geo_score":0.611,"university country":null,"country":"Kuwait","university address":"7965 Baltimore Avenue","participation year":"2011-2012","project  code":"K2","students at university":8,"id":"a622wbxdrd89","geo_precision":"street","state":"MD","project description":"Blog about student life and engage with Kuwaiti youth through social media."},"type":"Feature","geometry":{"type":"Point","coordinates":[-76.93504,38.98861]}},{"properties":{"city":"College Park","zip":"20742","domestic office or overseas post":"Moscow","university":"University of Maryland College Park","geo_score":0.611,"university country":null,"country":"Russia","university address":"7965 Baltimore Avenue","participation year":"2011-2012","project  code":"R2","students at university":8,"id":"a622wbs3mipj","geo_precision":"street","state":"MD","project description":"Assist Russian students interested in studying in the U.S. and assist with public diplomacy efforts in Russia by supporting EducationUSA's mission through peer advising, maintaining social media outlets, creating video materials and providing research support."},"type":"Feature","geometry":{"type":"Point","coordinates":[-76.93504,38.98861]}},{"properties":{"city":"College Park","zip":"20742","domestic office or overseas post":"Sana'a","university":"University of Maryland College Park","geo_score":0.611,"university country":null,"country":"Yemen","university address":"7965 Baltimore Avenue","participation year":"2011-2012","project  code":"Y1","students at university":8,"id":"a622wc005igl","geo_precision":"street","state":"MD","project description":"Engage and be a resource to Yemen's youth through social media."},"type":"Feature","geometry":{"type":"Point","coordinates":[-76.93504,38.98861]}},{"properties":{"city":"Princess Anne","zip":"21853","domestic office or overseas post":"Sydney","university":"University of Maryland Eastern Shore","geo_score":0.732,"university country":null,"country":"Australia","university address":"11868 College Backbone Road","participation year":"2011-2012","project  code":"A7","students at university":1,"id":"a622wbpd80xa","geo_precision":"street","state":"MD","project description":"Work with the Public Affairs Section to promote study in the U.S. and the National Export Initiative through social media."},"type":"Feature","geometry":{"type":"Point","coordinates":[-75.680365,38.211715]}},{"properties":{"city":"Amherst","zip":null,"domestic office or overseas post":"Nairobi","university":"University of Massachusetts Amherst","geo_score":0.585,"university country":null,"country":"Kenya","university address":"181 Presidents Drive","participation year":"2010-2011","project  code":"K1","students at university":1,"id":"a622wc01okcv","geo_precision":"city","state":"MA","project description":"Create a virtual presence post for Mombasa and Coast Province"},"type":"Feature","geometry":{"type":"Point","coordinates":[-72.464571,42.367092]}},{"properties":{"city":"Coral Gables","zip":"33146","domestic office or overseas post":"Surabaya","university":"University of Miami","geo_score":0.551,"university country":null,"country":"Indonesia","university address":"1252 Memorial Drive","participation year":"2011-2012","project  code":"I6","students at university":2,"id":"a622wbk2jaxj","geo_precision":"street","state":"Florida","project description":"Research and create a best practices summary of disaster relief efforts that use new technologies and social media tools to facilitate rapid relief to victims."},"type":"Feature","geometry":{"type":"Point","coordinates":[-80.347433,25.58318]}},{"properties":{"city":"Coral Gables","zip":"33146","domestic office or overseas post":"Ciudad Juarez","university":"University of Miami","geo_score":0.551,"university country":null,"country":"Mexico","university address":"1252 Memorial Drive","participation year":"2010-2011","project  code":"M1","students at university":2,"id":"a622wbnjanr0","geo_precision":"street","state":"Florida","project description":"Develop and implement a public relations campaign using social media sites like Facebook, Twitter, MySpace, YouTube, etc. to communicate and reach out to youth in Mexico."},"type":"Feature","geometry":{"type":"Point","coordinates":[-80.347433,25.58318]}},{"properties":{"city":"Ann Arbor","zip":"48109","domestic office or overseas post":"Office of the Historian","university":"University of Michigan Ann Arbor","geo_score":0.979,"university country":null,"country":"Domestic Office","university address":"1011 North University Avenue","participation year":"2011-2012","project  code":"Historian Arab Spring","students at university":3,"id":"a622wblhvthf","geo_precision":"range","state":"Michigan","project description":"Assist with compiling oral histories with key U.S. officials serving during the Arab Spring."},"type":"Feature","geometry":{"type":"Point","coordinates":[-83.737514,42.274973]}},{"properties":{"city":"Ann Arbor","zip":"48109","domestic office or overseas post":"Mumbai","university":"University of Michigan Ann Arbor","geo_score":0.979,"university country":null,"country":"India","university address":"1011 North University Avenue","participation year":"2010-2011","project  code":"I1","students at university":3,"id":"a622wbykuwq4","geo_precision":"range","state":"Michigan","project description":"Assist in increasing the Consulate's new/social media knowledge and serve as a link between journalists in India and the United States."},"type":"Feature","geometry":{"type":"Point","coordinates":[-83.737514,42.274973]}},{"properties":{"city":"Ann Arbor","zip":"48109","domestic office or overseas post":"Surabaya","university":"University of Michigan Ann Arbor","geo_score":0.979,"university country":null,"country":"Indonesia","university address":"1011 North University Avenue","participation year":"2011-2012","project  code":"I7","students at university":3,"id":"a622wbrpz5px","geo_precision":"range","state":"Michigan","project description":"Connect Indonesian and U.S. students by administering a virtual exchange program and helping to produce content."},"type":"Feature","geometry":{"type":"Point","coordinates":[-83.737514,42.274973]}},{"properties":{"city":"Minneapolis","zip":"55455","domestic office or overseas post":"Jakarta","university":"University of Minnesota Twin Cities","geo_score":0.53,"university country":null,"country":"Indonesia","university address":"3 Morrill Hall","participation year":"2010-2011","project  code":"I6","students at university":2,"id":"a622wbr63rgg","geo_precision":"street","state":"MN","project description":"Survey social media efforts of diplomatic missions, NGOs and private companies around the world to help establish best practicesin our social outreach business plan."},"type":"Feature","geometry":{"type":"Point","coordinates":[-93.206436,44.929919]}},{"properties":{"city":"Minneapolis","zip":"55455","domestic office or overseas post":"Prague","university":"University of Minnesota Twin Cities","geo_score":0.53,"university country":null,"country":"Czech Republic","university address":"3 Morrill Hall","participation year":"2011-2012","project  code":"C12","students at university":2,"id":"a622wbzvm7hv","geo_precision":"street","state":"MN","project description":"Engage in administrative management research projects to draft and prepare internal embassy communications on topics such as ethics, cultural guidance, procurement, and cloud computing."},"type":"Feature","geometry":{"type":"Point","coordinates":[-93.206436,44.929919]}},{"properties":{"city":"Columbia","zip":"65211","domestic office or overseas post":"Amsterdam","university":"University of Missouri, Columbia","geo_score":0.512,"university country":null,"country":"Netherlands","university address":"105 Jesse Hall","participation year":"2011-2012","project  code":"N2","students at university":1,"id":"a622wbrvmo66","geo_precision":"street","state":"Missouri","project description":"Employ the use of social media (i.e. blogging, Facebook, Twitter, YouTube) to educate Dutch students about university life in the United States, and encourage them to study abroad in the United States."},"type":"Feature","geometry":{"type":"Point","coordinates":[-92.38808,38.93656]}},{"properties":{"city":"Omaha","zip":"68182","domestic office or overseas post":"Vienna","university":"University of Nebraska Omaha","geo_score":0.805,"university country":null,"country":"Austria","university address":"6001 Dodge St","participation year":"2011-2012","project  code":"A10","students at university":2,"id":"a622wbzxo2il","geo_precision":"range","state":"Nebraska","project description":"Organize and follow the preparation of the European-North American Conference on Youth Participation including roofreading all English documents and writing a final report."},"type":"Feature","geometry":{"type":"Point","coordinates":[-96.004934,41.259595]}},{"properties":{"city":"Omaha","zip":"68182","domestic office or overseas post":"Office of Management Policy, Rightsizing and Innovation","university":"University of Nebraska Omaha","geo_score":0.805,"university country":null,"country":"Domestic Office","university address":"6001 Dodge St","participation year":"2011-2012","project  code":"DC18","students at university":2,"id":"a622wbzfxzbw","geo_precision":"range","state":"Nebraska","project description":"Promote the Department of States Greening Diplomacy Initiative (GDI) to the public across a variety of social media platforms and the Departments external website as well as facilitate communication between the D.C. Greening Embassies Forum and U.S. Embassies and Consulates overseas."},"type":"Feature","geometry":{"type":"Point","coordinates":[-96.004934,41.259595]}},{"properties":{"city":"Las Vegas","zip":"89154","domestic office or overseas post":"Manila","university":"University of Nevada - Las Vegas","geo_score":0.782,"university country":null,"country":"Phillippines","university address":"4505 S Maryland Pky","participation year":"2010-2011","project  code":"P2","students at university":1,"id":"a622wbq8rfao","geo_precision":"range","state":"Nevada","project description":"Research and design a graphic novel (or on-line variation) which dramatizes the career and achievements of one or more vanguard women diplomats in the US Foreign Service for possible use as a recruitment tool"},"type":"Feature","geometry":{"type":"Point","coordinates":[-115.137377,36.107679]}},{"properties":{"city":"Greensboro","zip":"27412","domestic office or overseas post":"Escaldes Engordany","university":"University of North Carolina - Greensboro","geo_score":0.805,"university country":null,"country":"Andorra","university address":"1400 Spring Garden St","participation year":"2011-2012","project  code":"A1","students at university":1,"id":"a622wbvuaodv","geo_precision":"range","state":"NC","project description":"Promote next Art Camp in July 2012 and the possibility of participation by American artists; contact art schools and organize a contest including a first prize trip to Andorra for participating in Art Camp."},"type":"Feature","geometry":{"type":"Point","coordinates":[-79.812658,36.06538]}},{"properties":{"city":"Wilmington","zip":"28403","domestic office or overseas post":"Canberra","university":"University of North Carolina Wilmington","geo_score":0.92,"university country":null,"country":"Australia","university address":"601 South College Road","participation year":"2011-2012","project  code":"A4","students at university":1,"id":"a622wbnlzti7","geo_precision":"range","state":"North Carolina","project description":"Learn about economic diplomacy by conducting commercial research and promoting U.S. exports to Australia in Support the Presidents National Export Initiative (NEI)."},"type":"Feature","geometry":{"type":"Point","coordinates":[-77.87924,34.227167]}},{"properties":{"city":"Chapel Hill","zip":"27514","domestic office or overseas post":"Arms Control, Verification and Compliance","university":"University of North Carolina, Chapel Hill","geo_score":0.922,"university country":null,"country":"Domestic Office","university address":"174 Country Club Road","participation year":"2011-2012","project  code":"DC6","students at university":3,"id":"a622wbwjh1ui","geo_precision":"range","state":"NC","project description":"Provide research support, collect data, maintain databases, and expand the web presence for the Bureau of Arms Control, Verification and Compliance."},"type":"Feature","geometry":{"type":"Point","coordinates":[-79.045155,35.913097]}},{"properties":{"city":"Chapel Hill","zip":"27514","domestic office or overseas post":"Peshawar","university":"University of North Carolina, Chapel Hill","geo_score":0.922,"university country":null,"country":"Pakistan","university address":"175 Country Club Road","participation year":"2011-2012","project  code":"P1","students at university":3,"id":"a622wbrnz993","geo_precision":"range","state":"NC","project description":"Identify and develop relationships between U.S. students and educational institutions and counterparts in Peshawar, Pakistanand the surrounding area of Khyber Pakhtunkhwa (formerly known at the North-West Frontier Province)."},"type":"Feature","geometry":{"type":"Point","coordinates":[-79.045155,35.913097]}},{"properties":{"city":"Chapel Hill","zip":"27514","domestic office or overseas post":"Singapore","university":"University of North Carolina, Chapel Hill","geo_score":0.922,"university country":null,"country":"Singapore","university address":"176 Country Club Road","participation year":"2011-2012","project  code":"S3","students at university":3,"id":"a622wbvn4iie","geo_precision":"range","state":"NC","project description":"Provide assistance to the Economic/Political (E/P) section in Singapore on a variety of issues: trending political issues affecting Singaporeans and the potential future impact; exploring cultural and political opinions of Singaporeans; exploring ideas to expand education and cross-cultural exchange; enhancing E/Ps online presence to engage a wider audience and retain current audiences; and, promoting American values."},"type":"Feature","geometry":{"type":"Point","coordinates":[-79.045075,35.913084]}},{"properties":{"city":"Denton","zip":"76203","domestic office or overseas post":"Escaldes Engordany","university":"University of North Texas","geo_score":0.5,"university country":null,"country":"Andorra","university address":"1155 Union Circle","participation year":"2011-2012","project  code":"A2","students at university":1,"id":"a622wbtgcm9t","geo_precision":"street","state":"Texas","project description":"Connect with Andorran students via web meetings so students can improve their English skills and engage in open dialogue with American students."},"type":"Feature","geometry":{"type":"Point","coordinates":[-96.98876,33.311679]}},{"properties":{"city":"Eugene","zip":"97403","domestic office or overseas post":"Beijing","university":"University of Oregon","geo_score":0.829,"university country":null,"country":"China","university address":"1585 East 13th Avenue","participation year":"2011-2012","project  code":"C2","students at university":1,"id":"a622wbr1oew7","geo_precision":"range","state":"OR","project description":"Develop captioned photos, short videos, and blog-length texts describing the lives of undergraduate and graduate American and Chinese students studying in the United States, to stimulate interactive engagement on Mission Chinas blogs and micro-blogs."},"type":"Feature","geometry":{"type":"Point","coordinates":[-123.069793,44.045508]}},{"properties":{"city":"Philadelphia","zip":"19104","domestic office or overseas post":"Dublin","university":"University of Pennsylvania","geo_score":0.606,"university country":null,"country":"Ireland","university address":"1 College Hall 34th and Spruce Sts","participation year":"2011-2012","project  code":"I9","students at university":1,"id":"a622wbmi10l6","geo_precision":"street","state":"Pennsylvania","project description":"Create videos on embassy outreach and/or American culture for YouTube."},"type":"Feature","geometry":{"type":"Point","coordinates":[-75.191689,39.95032]}},{"properties":{"city":"aguadilla","zip":null,"domestic office or overseas post":"Cairo","university":"University of Phoenix, aguadilla, Puerto Rico","geo_score":0.857,"university country":null,"country":"Egypt","university address":null,"participation year":"2011-2012","project  code":"E2","students at university":1,"id":"a622wbljz1ms","geo_precision":"city","state":"Puerto Rico","project description":"Develop and implement a web and social media marketing plan to support volunteer tourism citizen diplomacy activities in conjunction with Egyptian tour operators, NGOs and government partners."},"type":"Feature","geometry":{"type":"Point","coordinates":[-67.14578,18.455913]}},{"properties":{"city":"Hilo","zip":null,"domestic office or overseas post":"Guangzhou","university":"University of Phoenix, Hilo, Hawaii","geo_score":0.8,"university country":null,"country":"China","university address":null,"participation year":"2011-2012","project  code":"C3","students at university":1,"id":"a622wbsgputv","geo_precision":"city","state":"Hawaii","project description":"Through blogging, engage with university students and internet users in south China on womens issues."},"type":"Feature","geometry":{"type":"Point","coordinates":[-156.2275,20.908333]}},{"properties":{"city":"Pittsburgh","zip":"15260","domestic office or overseas post":"Office of Policy, Regional and Functional Organizations - Bureau of International Organization Affairs","university":"University of Pittsburgh","geo_score":0.707,"university country":null,"country":"Domestic Office","university address":"4200 Fifth Avenue","participation year":"2011-2012","project  code":"DC20","students at university":1,"id":"a622wbx5ah1a","geo_precision":"range","state":"Pennsylvania","project description":"Conduct research to document United Nation cooperation with regional organizations."},"type":"Feature","geometry":{"type":"Point","coordinates":[-79.954776,40.444418]}},{"properties":{"city":"Mayagez","zip":"680","domestic office or overseas post":"Bogota","university":"University of Puerto Rico atMayagez","geo_score":0.629,"university country":null,"country":"Colombia","university address":"Pr- 65","participation year":"2011-2012","project  code":"C6","students at university":1,"id":"a622wbz40xih","geo_precision":"street","state":"Puerto Rico","project description":"To keep the conversation going on the Facebook page of our nationwide photo contest, Colombia, Pais de Contrastes."},"type":"Feature","geometry":{"type":"Point","coordinates":[-66.282354,18.438361]}},{"properties":{"city":"Richmond","zip":"23173","domestic office or overseas post":"Wuhan","university":"University of Richmond","geo_score":0.624,"university country":null,"country":"China","university address":"28 Westhampton Way","participation year":"2011-2012","project  code":"Wuhan","students at university":1,"id":"a622wbqgco6u","geo_precision":"zip","state":"Virginia","project description":"Research and draft a report about the history of the U.S. in Wuhan, China"},"type":"Feature","geometry":{"type":"Point","coordinates":[-77.493157,37.524246]}},{"properties":{"city":"Rochester","zip":"14627","domestic office or overseas post":"Pretoria","university":"University of Rochester, Rochester, NY","geo_score":0.688,"university country":null,"country":"South Africa","university address":"240 Wallis Hall","participation year":"2010-2011","project  code":"S2","students at university":1,"id":"a622wblxmqmx","geo_precision":"range","state":"New York","project description":"Createand maintain an expanded online presence for the US Mission South Africa and assist in connecting with the thousands of USG program alumni."},"type":"Feature","geometry":{"type":"Point","coordinates":[-77.637653,43.223229]}},{"properties":{"city":"Saint Paul","zip":null,"domestic office or overseas post":"Manila","university":"University of Saint Thomas","geo_score":0.612,"university country":null,"country":"Philippines","university address":"2115 Summit Avenue","participation year":"2011-2012","project  code":"P3","students at university":2,"id":"a622wbkq8t16","geo_precision":"street","state":"Minnesota","project description":"Analyze how Filipinos in key cities find out about social and cultural events happening in their community and propose several creative strategies for how the U.S. Embassy in Manila should promote events in each of the identified cities."},"type":"Feature","geometry":{"type":"Point","coordinates":[-93.141816,44.884079]}},{"properties":{"city":"Saint Paul","zip":null,"domestic office or overseas post":"Nairobi","university":"University of Saint Thomas","geo_score":0.612,"university country":null,"country":"Kenya","university address":"2115 Summit Avenue","participation year":"2010-2011","project  code":"K2","students at university":2,"id":"a622wbknqb21","geo_precision":"street","state":"Minnesota","project description":"Research U.S. foreign direct investment in Kenya and map the information on a webpage to share with Kenyans and Americans."},"type":"Feature","geometry":{"type":"Point","coordinates":[-93.141816,44.884079]}},{"properties":{"city":"Aiken","zip":"29801","domestic office or overseas post":"New Delhi","university":"University of South Carolina Aiken","geo_score":0.824,"university country":null,"country":"India","university address":"471 University Parkway","participation year":"2011-2012","project  code":"I5","students at university":1,"id":"a622wbul9etd","geo_precision":"street","state":"SC","project description":"Help Consular Team India analyze the Indian American Diaspora by researching past immigration patterns, characterizing current socioeconomic conditions, and predicting future actions."},"type":"Feature","geometry":{"type":"Point","coordinates":[-81.744821,33.589279]}},{"properties":{"city":"Columbia","zip":"29208","domestic office or overseas post":"Bandar Seri Begawan","university":"University of South Carolina, Columbia SC","geo_score":1.0,"university country":null,"country":"Brunei","university address":null,"participation year":"2011-2012","project  code":"B4","students at university":1,"id":"a622wblga7u4","geo_precision":"zip","state":"South Carolina","project description":"Engage prospective exchange students in online discussions centered around attending a U.S. higher education institution."},"type":"Feature","geometry":{"type":"Point","coordinates":[-81.019913,33.993705]}},{"properties":{"city":"Tampa","zip":"33620","domestic office or overseas post":"Chisinau","university":"University of South Florida","geo_score":0.805,"university country":null,"country":"Moldova","university address":"4202 East Fowler Ave","participation year":"2010-2011","project  code":"M4","students at university":1,"id":"a622wbxhst5c","geo_precision":"range","state":"Florida","project description":"Improve and modernize Consular outreach, including (but not limited to) website editing, video production, and Facebook strategy."},"type":"Feature","geometry":{"type":"Point","coordinates":[-82.413973,28.054459]}},{"properties":{"city":"Los Angeles","zip":"90089","domestic office or overseas post":"Sydney","university":"University of Southern California","geo_score":0.908,"university country":null,"country":"Australia","university address":"University Park","participation year":"2011-2012","project  code":"A8","students at university":8,"id":"a622wbs877eh","geo_precision":"street","state":"California","project description":"Collaboratively conduct research with U.S. Consulate General Sydney employees and initiate an interactive Facebook page that provides information to Foreign National Student Internship applicants on opportunities to intern in the U.S."},"type":"Feature","geometry":{"type":"Point","coordinates":[-118.280388,34.028749]}},{"properties":{"city":"Los Angeles","zip":"90089","domestic office or overseas post":"Shanghai","university":"University of Southern California","geo_score":0.908,"university country":null,"country":"China","university address":"University Park","participation year":"2011-2012","project  code":"C4","students at university":8,"id":"a622wby0qdde","geo_precision":"street","state":"California","project description":"Conduct online research and monitor social media sites for information about Anhui, Jiangsu and Zhejiang provinces and blog/microblog to contrast and compare experiences in China and the U.S."},"type":"Feature","geometry":{"type":"Point","coordinates":[-118.280388,34.028749]}},{"properties":{"city":"Los Angeles","zip":"90089","domestic office or overseas post":"Bogota","university":"University of Southern California","geo_score":0.908,"university country":null,"country":"Colombia","university address":"University Park","participation year":"2011-2012","project  code":"C6","students at university":8,"id":"a622wbzsxfxf","geo_precision":"street","state":"California","project description":"To keep the conversation going on the Facebook page of our nationwide photo contest, Colombia, Pais de Contrastes."},"type":"Feature","geometry":{"type":"Point","coordinates":[-118.280388,34.028749]}},{"properties":{"city":"Los Angeles","zip":"90089","domestic office or overseas post":"African Affairs - Public Diplomacy/Public Affairs","university":"University of Southern California","geo_score":0.908,"university country":null,"country":"Domestic Office","university address":"University Park","participation year":"2011-2012","project  code":"DC4","students at university":8,"id":"a622wbratwfy","geo_precision":"street","state":"California","project description":"Assist in tracking the Bureau of African Affairs' social media engagement."},"type":"Feature","geometry":{"type":"Point","coordinates":[-118.280388,34.028749]}},{"properties":{"city":"Los Angeles","zip":"90089","domestic office or overseas post":"European and Eurasian Affairs - Office of Press and Public Diplomacy","university":"University of Southern California","geo_score":0.908,"university country":null,"country":"Domestic Office","university address":"University Park","participation year":"2011-2012","project  code":"DC8","students at university":8,"id":"a622wbl5a0z8","geo_precision":"street","state":"California","project description":"Develop 2-minute French-language videos explaining U.S. government and history concepts to Francophone youth"},"type":"Feature","geometry":{"type":"Point","coordinates":[-118.280388,34.028749]}},{"properties":{"city":"Los Angeles","zip":"90089","domestic office or overseas post":"Freetown","university":"University of Southern California","geo_score":0.908,"university country":null,"country":"Sierra Leone","university address":"University Park","participation year":"2011-2012","project  code":"S2","students at university":8,"id":"a622wbow0pey","geo_precision":"street","state":"California","project description":"Work closely with the embassy to establish a social media platform to assist Diaspora Sierra Leoneans in the U.S. to network and support academic, economic, and social development in Sierra Leone."},"type":"Feature","geometry":{"type":"Point","coordinates":[-118.280388,34.028749]}},{"properties":{"city":"Los Angeles","zip":"90089","domestic office or overseas post":"Pretoria","university":"University of Southern California","geo_score":0.908,"university country":null,"country":"South Africa","university address":"University Park","participation year":"2011-2012","project  code":"S5","students at university":8,"id":"a622wbmvdsqv","geo_precision":"street","state":"California","project description":"Given South Africas leading role in the region and in sub-Saharan, research and understand the infrastructure gap (estimated at USD 93 billion/year) faced by Africa; and to which South Africa has undertaken to lead."},"type":"Feature","geometry":{"type":"Point","coordinates":[-118.280388,34.028749]}},{"properties":{"city":"Los Angeles","zip":"90089","domestic office or overseas post":"Office of Innovative Engagement - IIP","university":"University of Southern California","geo_score":0.908,"university country":null,"country":"Domestic Office","university address":"University Park","participation year":"2010-2011","project  code":"U4","students at university":8,"id":"a622wbto3hg5","geo_precision":"street","state":"California","project description":"Work onApp Development Project which will enable U.S. Embassies and Consulates to generate their own apps for mobile phones, Facebook, and SMS."},"type":"Feature","geometry":{"type":"Point","coordinates":[-118.280388,34.028749]}},{"properties":{"city":"Hattiesburg","zip":"39406","domestic office or overseas post":"European and Eurasian Affairs - Office of Press and Public Diplomacy","university":"University of Southern Mississippi","geo_score":0.805,"university country":null,"country":"Domestic Office","university address":"118 College Drive # 0001","participation year":"2011-2012","project  code":"DC8","students at university":1,"id":"a622wbr6kaka","geo_precision":"range","state":"Mississippi","project description":"Develop 2-minute French-language videos explaining U.S. government and history concepts to Francophone youth"},"type":"Feature","geometry":{"type":"Point","coordinates":[-89.138759,31.73651]}},{"properties":{"city":"Austin","zip":null,"domestic office or overseas post":"Hyderabad","university":"University of Texas Austin","geo_score":0.534,"university country":null,"country":"India","university address":"University of Texas at Austin","participation year":"2011-2012","project  code":"I2","students at university":3,"id":"a622wbwtg81h","geo_precision":"street","state":"TX","project description":"Facilitate an exchange of information about college life with Indian college students who are headed to the USA for university studies."},"type":"Feature","geometry":{"type":"Point","coordinates":[-97.73953,30.287535]}},{"properties":{"city":"Austin","zip":null,"domestic office or overseas post":"Guadalajara","university":"University of Texas Austin","geo_score":0.534,"university country":null,"country":"Mexico","university address":"University of Texas at Austin","participation year":"2010-2011","project  code":"M2","students at university":3,"id":"a622wbosr949","geo_precision":"street","state":"TX","project description":"Helpresearch the consular district's past and present in order to build an action plan for the future."},"type":"Feature","geometry":{"type":"Point","coordinates":[-97.73953,30.287535]}},{"properties":{"city":"Austin","zip":null,"domestic office or overseas post":"Madrid","university":"University of Texas Austin","geo_score":0.534,"university country":null,"country":"Spain","university address":"University of Texas at Austin","participation year":"2010-2011","project  code":"S4","students at university":3,"id":"a622wbv77fq4","geo_precision":"street","state":"TX","project description":"Research, set up and maintain an online English language teaching forum to reinforce efforts to improve English language ability and knowledge of American culture among Spanish secondary school students."},"type":"Feature","geometry":{"type":"Point","coordinates":[-97.73953,30.287535]}},{"properties":{"city":"Sewanee","zip":"37383","domestic office or overseas post":"Kyiv","university":"University of the South","geo_score":1.0,"university country":null,"country":"Ukraine","university address":"735 University Avenue","participation year":"2011-2012","project  code":"U3","students at university":1,"id":"a622wbv0ynxf","geo_precision":"range","state":"Tennessee","project description":"Bring first-hand information about colleges and universities in the US and engage directly on this topic with the Ukranian public."},"type":"Feature","geometry":{"type":"Point","coordinates":[-85.920893,35.204707]}},{"properties":{"city":"Salt Lake City","zip":"84112","domestic office or overseas post":"European and Eurasian Affairs - Office of Press and Public Diplomacy","university":"University of Utah","geo_score":1.0,"university country":null,"country":"Domestic Office","university address":"201 Presidents Circle","participation year":"2011-2012","project  code":"DC8","students at university":2,"id":"a622wbpde2bc","geo_precision":"range","state":"Utah","project description":"Develop 2-minute French-language videos explaining U.S. government and history concepts to Francophone youth"},"type":"Feature","geometry":{"type":"Point","coordinates":[-111.85117,40.765474]}},{"properties":{"city":"Salt Lake City","zip":"84112","domestic office or overseas post":"N'Djamena","university":"University of Utah","geo_score":1.0,"university country":null,"country":"Chad","university address":"201 Presidents Circle","participation year":"2010-2011","project  code":"C3","students at university":2,"id":"a622wbuhfwsx","geo_precision":"range","state":"Utah","project description":"Shape a very limited social media outreach program for the Embassy to engage Chadian youth who are hungry for the social media experience and for a place in the larger world environment."},"type":"Feature","geometry":{"type":"Point","coordinates":[-111.85117,40.765474]}},{"properties":{"city":"Charlottesville","zip":"22904","domestic office or overseas post":"Guangzhou","university":"University of Virginia","geo_score":1.0,"university country":null,"country":"China","university address":null,"participation year":"2010-2011","project  code":"C9","students at university":2,"id":"a622wbu9eors","geo_precision":"zip","state":"Virginia","project description":"Blog about women's issues toengage with university students in south China."},"type":"Feature","geometry":{"type":"Point","coordinates":[-78.485066,38.040101]}},{"properties":{"city":"Charlottesville","zip":"22904","domestic office or overseas post":"European and Eurasian Affairs - Office of Press and Public Diplomacy","university":"University of Virginia","geo_score":1.0,"university country":null,"country":"Domestic Office","university address":null,"participation year":"2011-2012","project  code":"DC9","students at university":2,"id":"a622wblamoxd","geo_precision":"zip","state":"Virginia","project description":"Develop 2-minute Spanish-language videos explaining explaining U.S. government and history concepts to Spanish-speaking youth."},"type":"Feature","geometry":{"type":"Point","coordinates":[-78.485066,38.040101]}},{"properties":{"city":"Seattle","zip":"98195","domestic office or overseas post":"Office of Management Policy, Rightsizing and Innovation","university":"University of Washington - Seattle","geo_score":0.805,"university country":null,"country":"Domestic Office","university address":"1400 NE Campus Parkway","participation year":"2011-2012","project  code":"DC18","students at university":5,"id":"a622wbu34qn4","geo_precision":"range","state":"Washington","project description":"Promote the Department of States Greening Diplomacy Initiative (GDI) to the public across a variety of social media platforms and the Departments external website as well as facilitate communication between the D.C. Greening Embassies Forum and U.S. Embassies and Consulates overseas."},"type":"Feature","geometry":{"type":"Point","coordinates":[-122.313264,47.656214]}},{"properties":{"city":"Seattle","zip":"98195","domestic office or overseas post":"European and Eurasian Affairs - Office of Press and Public Diplomacy","university":"University of Washington - Seattle","geo_score":0.805,"university country":null,"country":"Domestic Office","university address":"1400 NE Campus Parkway","participation year":"2011-2012","project  code":"DC8","students at university":5,"id":"a622wbzqil8a","geo_precision":"range","state":"Washington","project description":"Develop 2-minute French-language videos explaining U.S. government and history concepts to Francophone youth"},"type":"Feature","geometry":{"type":"Point","coordinates":[-122.313264,47.656214]}},{"properties":{"city":"Seattle","zip":"98195","domestic office or overseas post":"Tallinn","university":"University of Washington - Seattle","geo_score":0.805,"university country":null,"country":"Estonia","university address":"1400 NE Campus Parkway","participation year":"2011-2012","project  code":"E3","students at university":5,"id":"a622wbyhppx4","geo_precision":"range","state":"Washington","project description":"Write short articles on unique American-Estonian linkages to help expand the American \"footprint\" in Estonia."},"type":"Feature","geometry":{"type":"Point","coordinates":[-122.313264,47.656214]}},{"properties":{"city":"Seattle","zip":"98195","domestic office or overseas post":"New Delhi","university":"University of Washington - Seattle","geo_score":0.805,"university country":null,"country":"India","university address":"1400 NE Campus Parkway","participation year":"2011-2012","project  code":"I4","students at university":5,"id":"a622wbusgxo1","geo_precision":"range","state":"Washington","project description":"Produce a quarterly Embassy newsletter for the American community and explore possible social media use to provide information to American citizens, especially in cases of emergency."},"type":"Feature","geometry":{"type":"Point","coordinates":[-122.313264,47.656214]}},{"properties":{"city":"Seattle","zip":"98195","domestic office or overseas post":"Guadalajara","university":"University of Washington - Seattle","geo_score":0.805,"university country":null,"country":"Mexico","university address":"1400 NE Campus Parkway","participation year":"2011-2012","project  code":"M2","students at university":5,"id":"a622wbl5zydl","geo_precision":"range","state":"Washington","project description":"Research and analyze the role of social media platforms during Guadalajaras preparations for and hosting of the 2011 Pan-American Games."},"type":"Feature","geometry":{"type":"Point","coordinates":[-122.313264,47.656214]}},{"properties":{"city":"Madison","zip":"53706","domestic office or overseas post":"African Affairs - Public Diplomacy/Public Affairs","university":"University of Wisconsin, Madison","geo_score":1.0,"university country":null,"country":"Domestic Office","university address":"500 Lincoln Dr","participation year":"2011-2012","project  code":"DC4","students at university":2,"id":"a622wbpyyks6","geo_precision":"range","state":"Wisconsin","project description":"Assist in tracking the Bureau of African Affairs' social media engagement."},"type":"Feature","geometry":{"type":"Point","coordinates":[-89.403326,43.074788]}},{"properties":{"city":"Madison","zip":"53706","domestic office or overseas post":"European and Eurasian Affairs - Office of Press and Public Diplomacy","university":"University of Wisconsin, Madison","geo_score":1.0,"university country":null,"country":"Domestic Office","university address":"500 Lincoln Dr","participation year":"2011-2012","project  code":"DC8","students at university":2,"id":"a622wbz4t386","geo_precision":"range","state":"Wisconsin","project description":"Develop 2-minute French-language videos explaining U.S. government and history concepts to Francophone youth"},"type":"Feature","geometry":{"type":"Point","coordinates":[-89.403326,43.074788]}},{"properties":{"city":"Orem","zip":"84058","domestic office or overseas post":"European and Eurasian Affairs - Office of Press and Public Diplomacy","university":"Utah Valley University, Orem, Utah","geo_score":0.809,"university country":null,"country":"Domestic Office","university address":"800 West University Parkway","participation year":"2011-2012","project  code":"DC9","students at university":1,"id":"a622wbwrqm55","geo_precision":"street","state":"Utah","project description":"Develop 2-minute Spanish-language videos explaining explaining U.S. government and history concepts to Spanish-speaking youth."},"type":"Feature","geometry":{"type":"Point","coordinates":[-111.713401,40.274986]}},{"properties":{"city":"Nashville","zip":"37240","domestic office or overseas post":"Office of Innovative Engagement - IIP","university":"Vanderbilt University","geo_score":1.0,"university country":null,"country":"Domestic Office","university address":"2101 West End Avenue","participation year":"2010-2011","project  code":"U4","students at university":4,"id":"a622wbxkbvzw","geo_precision":"range","state":"Tennessee","project description":"Work onApp Development Project which will enable U.S. Embassies and Consulates to generate their own apps for mobile phones, Facebook, and SMS."},"type":"Feature","geometry":{"type":"Point","coordinates":[-86.801228,36.15049]}},{"properties":{"city":"Nashville","zip":"37240","domestic office or overseas post":"Hyderabad","university":"Vanderbilt University","geo_score":1.0,"university country":null,"country":"India","university address":"2101 West End Avenue","participation year":"2011-2012","project  code":"I2","students at university":4,"id":"a622wbvppwch","geo_precision":"range","state":"Tennessee","project description":"Facilitate an exchange of information about college life with Indian college students who are headed to the USA for university studies."},"type":"Feature","geometry":{"type":"Point","coordinates":[-86.801228,36.15049]}},{"properties":{"city":"Nashville","zip":"37240","domestic office or overseas post":"Kigali","university":"Vanderbilt University","geo_score":1.0,"university country":null,"country":"Rwanda","university address":"2101 West End Avenue","participation year":"2010-2011","project  code":"R3","students at university":4,"id":"a622wbmrp6sl","geo_precision":"range","state":"Tennessee","project description":"Build avirtual network of U.S. based college guidance counsellors willing to mentor gifted Rwandan students seeking opportunities to study at U.S. Universities; work will be donein conjunction with post's Public Affairs office and resident local hire advisor."},"type":"Feature","geometry":{"type":"Point","coordinates":[-86.801228,36.15049]}},{"properties":{"city":"Nashville","zip":"37240","domestic office or overseas post":"Riyadh","university":"Vanderbilt University","geo_score":1.0,"university country":null,"country":"Saudi Arabia","university address":"2101 West End Avenue","participation year":"2010-2011","project  code":"S5","students at university":4,"id":"a622wbquq4ku","geo_precision":"range","state":"Tennessee","project description":"Develop content and help manage social medial platforms (Facebook, Twitter) for Saudis interested in studying in the United States."},"type":"Feature","geometry":{"type":"Point","coordinates":[-86.801228,36.15049]}},{"properties":{"city":"South Royalton","zip":"5068","domestic office or overseas post":"Brasilia","university":"Vermont Law School","geo_score":0.937,"university country":null,"country":"Brazil","university address":"164 Chelsea St","participation year":"2010-2011","project  code":"B2","students at university":2,"id":"a622wbquqh3g","geo_precision":"range","state":"Vermont","project description":"Work with anothereIntern to collaboratively develop and launch a matchmaking website to connect U.S. and Brazilian schools in order to foster sustained dialogue about global challenges, beginning with climate change."},"type":"Feature","geometry":{"type":"Point","coordinates":[-72.520036,43.821769]}},{"properties":{"city":"South Royalton","zip":"5068","domestic office or overseas post":"Guangzhou","university":"Vermont Law School","geo_score":0.937,"university country":null,"country":"China","university address":"164 Chelsea St","participation year":"2010-2011","project  code":"C7","students at university":2,"id":"a622wbkohlsn","geo_precision":"range","state":"Vermont","project description":"Create interactive virtual platforms and activities to engage young people and students in south China in two-way discussions with American students as well as find creative ways to attract more visitors to Post's three existing websites based in Guangxi and Fujian provinces."},"type":"Feature","geometry":{"type":"Point","coordinates":[-72.520036,43.821769]}},{"properties":{"city":"Blacksburg","zip":"24061","domestic office or overseas post":"Office of eDiplomacy - Information Resource Management","university":"Virginia Polytechnic Institute &amp; State University","geo_score":0.78,"university country":null,"country":"Domestic Office","university address":"965 Prices Fork Road","participation year":"2011-2012","project  code":"DC16","students at university":1,"id":"a622wbsigq5m","geo_precision":"range","state":"Virginia","project description":"Develop creative marketing tactics and strategy (using video, print, and graphics) to encourage State Department personnel to use internal social media products."},"type":"Feature","geometry":{"type":"Point","coordinates":[-80.433621,37.231571]}},{"properties":{"city":"Winston-Salem","zip":"27109","domestic office or overseas post":"Guadalajara","university":"Wake Forest University","geo_score":1.0,"university country":null,"country":"Mexico","university address":"1834 Wake Forest Road","participation year":"2011-2012","project  code":"M1","students at university":1,"id":"a622wbwti7e0","geo_precision":"range","state":"North Carolina","project description":"Via social media platforms, facilitate an exchange of information about the university application process and college life in the U.S. with prospective Mexican exchange students"},"type":"Feature","geometry":{"type":"Point","coordinates":[-80.277574,36.13551]}},{"properties":{"city":"Lexington city","zip":"24450","domestic office or overseas post":"Santo Domingo","university":"Washington and Lee University","geo_score":0.91,"university country":null,"country":"Dominican Republic","university address":"204 West Washington Street","participation year":"2010-2011","project  code":"D3","students at university":1,"id":"a622wbsmojop","geo_precision":"range","state":"Virginia","project description":"Develop a series of professional instructional video clips to be published by the Embassy."},"type":"Feature","geometry":{"type":"Point","coordinates":[-79.443803,37.78645]}},{"properties":{"city":"St. Louis","zip":"63130","domestic office or overseas post":"Arms Control, Verification and Compliance","university":"Washington University","geo_score":0.679,"university country":null,"country":"Domestic Office","university address":"One Brookings Drive","participation year":"2011-2012","project  code":"DC6","students at university":2,"id":"a622wbn7r9l6","geo_precision":"street","state":"Missouri","project description":"Provide research support, collect data, maintain databases, and expand the web presence for the Bureau of Arms Control, Verification and Compliance."},"type":"Feature","geometry":{"type":"Point","coordinates":[-90.346516,38.530453]}},{"properties":{"city":"St. Louis","zip":"63130","domestic office or overseas post":"Tel Aviv","university":"Washington University","geo_score":0.679,"university country":null,"country":"Israel","university address":"One Brookings Drive","participation year":"2010-2011","project  code":"I9 and I10","students at university":2,"id":"a622wbsf8aig","geo_precision":"street","state":"Missouri","project description":"Analyze Israel and the settlements virtual society and develop a proposal for actively engaging online opinion makers on Middle East peace. AND Analyze Israel and the settlements virtual society and develop a proposal for actively engaging online opinion makers on Middle East peace."},"type":"Feature","geometry":{"type":"Point","coordinates":[-90.346516,38.530453]}},{"properties":{"city":"Wellesley","zip":"2481","domestic office or overseas post":"Tokya","university":"Wellesley College","geo_score":0.965,"university country":null,"country":"Japan","university address":"106 Central St","participation year":"2010-2011","project  code":"J2","students at university":1,"id":"a622wby9psg3","geo_precision":"range","state":"Massachusetts","project description":"Publish a blog that highlights the positive experiences of Japanese students studying in U.S. universities."},"type":"Feature","geometry":{"type":"Point","coordinates":[-71.29901,42.29595]}},{"properties":{"city":"Middletown","zip":"6459","domestic office or overseas post":"Office of Environmental Policy - Bureau of Oceans and International Environmental and Scientific Affairs","university":"Wesleyan University","geo_score":0.902,"university country":null,"country":"Domestic Office","university address":"237 High St","participation year":"2011-2012","project  code":"DC14","students at university":4,"id":"a622wbjzhtf0","geo_precision":"range","state":"Connecticut","project description":"Research a broad range of trade-related environmental topics for internal use and engage in other projects identified during the course of the internship."},"type":"Feature","geometry":{"type":"Point","coordinates":[-72.654885,41.556577]}},{"properties":{"city":"Middletown","zip":"6459","domestic office or overseas post":"European and Eurasian Affairs - Office of Press and Public Diplomacy","university":"Wesleyan University","geo_score":0.902,"university country":null,"country":"Domestic Office","university address":"237 High St","participation year":"2011-2012","project  code":"DC8","students at university":4,"id":"a622wbzylj61","geo_precision":"range","state":"Connecticut","project description":"Develop 2-minute French-language videos explaining U.S. government and history concepts to Francophone youth"},"type":"Feature","geometry":{"type":"Point","coordinates":[-72.654885,41.556577]}},{"properties":{"city":"Middletown","zip":"6459","domestic office or overseas post":"Dili","university":"Wesleyan University","geo_score":0.902,"university country":null,"country":"Timor Liste","university address":"237 High St","participation year":"2011-2012","project  code":"E1","students at university":4,"id":"a622wbxv9643","geo_precision":"range","state":"Connecticut","project description":"Provide English language support for East Timor National Commission for UNESCO staff to assist with editing and drafting of documents, including proposals, financial reports, and applications; assist with design and content of the National Commission website in English."},"type":"Feature","geometry":{"type":"Point","coordinates":[-72.654885,41.556577]}},{"properties":{"city":"Middletown","zip":"6459","domestic office or overseas post":"New Delhi","university":"Wesleyan University","geo_score":0.902,"university country":null,"country":"India","university address":"237 High St","participation year":"2011-2012","project  code":"I5","students at university":4,"id":"a622wbvczf63","geo_precision":"range","state":"Connecticut","project description":"Help Consular Team India analyze the Indian American Diaspora by researching past immigration patterns, characterizing current socioeconomic conditions, and predicting future actions."},"type":"Feature","geometry":{"type":"Point","coordinates":[-72.654885,41.556577]}},{"properties":{"city":"Morgantown","zip":"26506","domestic office or overseas post":"Sana'a","university":"West Virginia University","geo_score":0.714,"university country":null,"country":"Yemen","university address":"University Avenue","participation year":"2011-2012","project  code":"Y2","students at university":1,"id":"a622wbwcq1km","geo_precision":"street","state":"West Virginia","project description":"Engage with and develop skills of Yemeni journalism students on social media."},"type":"Feature","geometry":{"type":"Point","coordinates":[-79.969535,39.608215]}},{"properties":{"city":"New Haven","zip":"6520","domestic office or overseas post":"Ulaanbaatar","university":"Yale University","geo_score":0.805,"university country":null,"country":"Mongolia","university address":"246 Church Street","participation year":"2011-2012","project  code":"M8","students at university":1,"id":"a622wblt5b5y","geo_precision":"range","state":"Connecticut","project description":"Carry out a research project that will identify techniques and methods to improve science and technology (S&amp;T) collaboration in Mongolia"},"type":"Feature","geometry":{"type":"Point","coordinates":[-72.923063,41.309666]}}],"is_temporal":false,"author":{"url":"","metadata":"","contact_name":"","contact_address":"","source":"","contact_phone":""},"source":"","pagination":{"sort":null,"start":0,"total":292,"limit":1000000},"state":"complete","tags":"","published":"2014-08-14T19:41:21-04:00","id":223747}