{"type":"FeatureCollection","data_type":"Dataset","url_type":null,"permissions":[{"permissions":{"download":true,"view":true},"group_id":"everyone"}],"classification":null,"title":"CA-Visits","count":58,"stream_id":224092,"contributor":{"url":"http://geocommons.com/users/43277","name":"crockerart"},"data_attributes":null,"calculation_params":null,"icon_link":null,"link":"http://geocommons.com/overlays/224092.json","extent":[-124.16,32.2595,-0.187436,50.8396],"geometry_types":["point"],"unique_name":null,"name":"CA-Visits","feature_count":58,"description":"","next_feature":null,"is_raster":false,"short_classification":"Y","stats":{"3 digit zip":{"max":961,"mean":931.879310344828,"variance":309.722020568663,"stdev":17.5989210058078,"min":900,"median":933},"latitude":{"max":50.839596,"mean":35.9873907758621,"variance":13.0712893757612,"stdev":3.61542381689355,"min":32.259537,"median":34.41925},"longitude":{"max":-0.187436,"mean":-113.084938896552,"variance":313.112457865769,"stdev":17.6949839747248,"min":-124.159554,"median":-118.174248},"frequency":{"max":67871,"mean":2141.70689655172,"variance":97344843.5792498,"stdev":9866.3490501426,"min":8,"median":105}},"features":[{"properties":{"city":"Los Angeles","3 digit zip":900,"latitude":34.05349,"country":"US","longitude":-118.245323,"id":"a62vyhsyow69","state":"CA","frequency":206},"type":"Feature","geometry":{"type":"Point","coordinates":[-118.245323,34.05349]}},{"properties":{"city":"Los Angeles","3 digit zip":902,"latitude":34.05349,"country":"US","longitude":-118.245323,"id":"a62vyhwxg7hi","state":"CA","frequency":108},"type":"Feature","geometry":{"type":"Point","coordinates":[-118.245323,34.05349]}},{"properties":{"city":"Santa Monica","3 digit zip":904,"latitude":33.049019,"country":"US","longitude":-111.960213,"id":"a62vyhr1j05p","state":"CA","frequency":49},"type":"Feature","geometry":{"type":"Point","coordinates":[-111.960213,33.049019]}},{"properties":{"city":"Torrance","3 digit zip":905,"latitude":50.839596,"country":"US","longitude":-0.187436,"id":"a62vyhx60icb","state":"CA","frequency":21},"type":"Feature","geometry":{"type":"Point","coordinates":[-0.187436,50.839596]}},{"properties":{"city":"Long Beach","3 digit zip":906,"latitude":34.291786,"country":"US","longitude":-114.173309,"id":"a62vyhzatb61","state":"CA","frequency":19},"type":"Feature","geometry":{"type":"Point","coordinates":[-114.173309,34.291786]}},{"properties":{"city":"Long Beach","3 digit zip":907,"latitude":34.291786,"country":"US","longitude":-114.173309,"id":"a62vyhww2wrv","state":"CA","frequency":45},"type":"Feature","geometry":{"type":"Point","coordinates":[-114.173309,34.291786]}},{"properties":{"city":"Long Beach","3 digit zip":908,"latitude":34.291786,"country":"US","longitude":-114.173309,"id":"a62vyhyqplze","state":"CA","frequency":48},"type":"Feature","geometry":{"type":"Point","coordinates":[-114.173309,34.291786]}},{"properties":{"city":"Pasadena","3 digit zip":910,"latitude":34.147228,"country":"US","longitude":-118.144257,"id":"a62vyhphb1yy","state":"CA","frequency":47},"type":"Feature","geometry":{"type":"Point","coordinates":[-118.144257,34.147228]}},{"properties":{"city":"Pasadena","3 digit zip":911,"latitude":34.147228,"country":"US","longitude":-118.144257,"id":"a62vyhpo2ryb","state":"CA","frequency":53},"type":"Feature","geometry":{"type":"Point","coordinates":[-118.144257,34.147228]}},{"properties":{"city":"Glendale","3 digit zip":912,"latitude":34.146332,"country":"US","longitude":-118.24836,"id":"a62vyhwztm3a","state":"CA","frequency":31},"type":"Feature","geometry":{"type":"Point","coordinates":[-118.24836,34.146332]}},{"properties":{"city":"Van Nuys","3 digit zip":913,"latitude":32.813187,"country":"US","longitude":-117.251923,"id":"a62vyht1pbmg","state":"CA","frequency":114},"type":"Feature","geometry":{"type":"Point","coordinates":[-117.251923,32.813187]}},{"properties":{"city":"Van Nuys","3 digit zip":914,"latitude":32.813187,"country":"US","longitude":-117.251923,"id":"a62vyhmbjkzc","state":"CA","frequency":38},"type":"Feature","geometry":{"type":"Point","coordinates":[-117.251923,32.813187]}},{"properties":{"city":"Burbank","3 digit zip":915,"latitude":34.181469,"country":"US","longitude":-118.308121,"id":"a62vyhsfxl00","state":"CA","frequency":8},"type":"Feature","geometry":{"type":"Point","coordinates":[-118.308121,34.181469]}},{"properties":{"city":"North Hollywood","3 digit zip":916,"latitude":34.16581,"country":"US","longitude":-118.378967,"id":"a62vyhlkju5j","state":"CA","frequency":31},"type":"Feature","geometry":{"type":"Point","coordinates":[-118.378967,34.16581]}},{"properties":{"city":"Industry City","3 digit zip":917,"latitude":37.271875,"country":"US","longitude":-119.270229,"id":"a62vyhq7c7h4","state":"CA","frequency":67},"type":"Feature","geometry":{"type":"Point","coordinates":[-119.270229,37.271875]}},{"properties":{"city":"Industry City","3 digit zip":918,"latitude":37.271875,"country":"US","longitude":-119.270229,"id":"a62vyhwld06a","state":"CA","frequency":13},"type":"Feature","geometry":{"type":"Point","coordinates":[-119.270229,37.271875]}},{"properties":{"city":"San Diego","3 digit zip":919,"latitude":32.864136,"country":"US","longitude":-111.684578,"id":"a62vyhpg2z54","state":"CA","frequency":18},"type":"Feature","geometry":{"type":"Point","coordinates":[-111.684578,32.864136]}},{"properties":{"city":"San Diego","3 digit zip":920,"latitude":32.864136,"country":"US","longitude":-111.684578,"id":"a62vyi0gjxfl","state":"CA","frequency":105},"type":"Feature","geometry":{"type":"Point","coordinates":[-111.684578,32.864136]}},{"properties":{"city":"San Diego","3 digit zip":921,"latitude":32.864136,"country":"US","longitude":-111.684578,"id":"a62vyi09ewgp","state":"CA","frequency":109},"type":"Feature","geometry":{"type":"Point","coordinates":[-111.684578,32.864136]}},{"properties":{"city":"Palm Springs","3 digit zip":922,"latitude":33.250969,"country":"US","longitude":-111.56073,"id":"a62vyhwh0myz","state":"CA","frequency":48},"type":"Feature","geometry":{"type":"Point","coordinates":[-111.56073,33.250969]}},{"properties":{"city":"San Bernardino","3 digit zip":923,"latitude":32.259537,"country":"US","longitude":-110.861267,"id":"a62vyhp2ml39","state":"CA","frequency":112},"type":"Feature","geometry":{"type":"Point","coordinates":[-110.861267,32.259537]}},{"properties":{"city":"San Bernardino","3 digit zip":924,"latitude":32.259537,"country":"US","longitude":-110.861267,"id":"a62vyhtwjldy","state":"CA","frequency":38},"type":"Feature","geometry":{"type":"Point","coordinates":[-110.861267,32.259537]}},{"properties":{"city":"Riverside","3 digit zip":925,"latitude":33.981628,"country":"US","longitude":-117.373878,"id":"a62vyhll4zso","state":"CA","frequency":85},"type":"Feature","geometry":{"type":"Point","coordinates":[-117.373878,33.981628]}},{"properties":{"city":"Santa Ana","3 digit zip":926,"latitude":33.287086,"country":"US","longitude":-111.307442,"id":"a62vyho51yfu","state":"CA","frequency":176},"type":"Feature","geometry":{"type":"Point","coordinates":[-111.307442,33.287086]}},{"properties":{"city":"Santa Ana","3 digit zip":927,"latitude":33.287086,"country":"US","longitude":-111.307442,"id":"a62vyhr0n6ac","state":"CA","frequency":12},"type":"Feature","geometry":{"type":"Point","coordinates":[-111.307442,33.287086]}},{"properties":{"city":"Anaheim","3 digit zip":928,"latitude":33.83276,"country":"US","longitude":-117.915718,"id":"a62vyhpoo6av","state":"CA","frequency":72},"type":"Feature","geometry":{"type":"Point","coordinates":[-117.915718,33.83276]}},{"properties":{"city":"Oxnard","3 digit zip":930,"latitude":34.20034,"country":"US","longitude":-119.180443,"id":"a62vyhwzmfgb","state":"CA","frequency":71},"type":"Feature","geometry":{"type":"Point","coordinates":[-119.180443,34.20034]}},{"properties":{"city":"Santa Barbara","3 digit zip":931,"latitude":34.41925,"country":"US","longitude":-119.698868,"id":"a62vyhldk1ck","state":"CA","frequency":49},"type":"Feature","geometry":{"type":"Point","coordinates":[-119.698868,34.41925]}},{"properties":{"city":"Bakersfield","3 digit zip":932,"latitude":35.366959,"country":"US","longitude":-119.01886,"id":"a62vyhrqdofs","state":"CA","frequency":129},"type":"Feature","geometry":{"type":"Point","coordinates":[-119.01886,35.366959]}},{"properties":{"city":"Bakersfield","3 digit zip":933,"latitude":35.366959,"country":"US","longitude":-119.01886,"id":"a62vyhu2o5cq","state":"CA","frequency":80},"type":"Feature","geometry":{"type":"Point","coordinates":[-119.01886,35.366959]}},{"properties":{"city":"Santa Barbara","3 digit zip":934,"latitude":33.048267,"country":"US","longitude":-111.960129,"id":"a62vyhlv1mcs","state":"CA","frequency":184},"type":"Feature","geometry":{"type":"Point","coordinates":[-111.960129,33.048267]}},{"properties":{"city":"Mojave","3 digit zip":935,"latitude":35.054241,"country":"US","longitude":-118.174248,"id":"a62vyhr1z2pa","state":"CA","frequency":77},"type":"Feature","geometry":{"type":"Point","coordinates":[-118.174248,35.054241]}},{"properties":{"city":"Fresno","3 digit zip":936,"latitude":36.740681,"country":"US","longitude":-119.785728,"id":"a62vyhmrbrrk","state":"CA","frequency":95},"type":"Feature","geometry":{"type":"Point","coordinates":[-119.785728,36.740681]}},{"properties":{"city":"Fresno","3 digit zip":937,"latitude":36.740681,"country":"US","longitude":-119.785728,"id":"a62vyhqahcn5","state":"CA","frequency":101},"type":"Feature","geometry":{"type":"Point","coordinates":[-119.785728,36.740681]}},{"properties":{"city":"Fresno","3 digit zip":938,"latitude":36.740681,"country":"US","longitude":-119.785728,"id":"a62vyhy1clcl","state":"CA","frequency":8},"type":"Feature","geometry":{"type":"Point","coordinates":[-119.785728,36.740681]}},{"properties":{"city":"Salinas","3 digit zip":939,"latitude":37.271875,"country":"US","longitude":-119.270229,"id":"a62vyhojqau6","state":"CA","frequency":160},"type":"Feature","geometry":{"type":"Point","coordinates":[-119.270229,37.271875]}},{"properties":{"city":"San Francisco","3 digit zip":940,"latitude":35.75576,"country":"US","longitude":-90.324188,"id":"a62vyhywp1xb","state":"CA","frequency":413},"type":"Feature","geometry":{"type":"Point","coordinates":[-90.324188,35.75576]}},{"properties":{"city":"San Francisco","3 digit zip":941,"latitude":35.75576,"country":"US","longitude":-90.324188,"id":"a62vyhrwdv2n","state":"CA","frequency":794},"type":"Feature","geometry":{"type":"Point","coordinates":[-90.324188,35.75576]}},{"properties":{"city":"Sacramento","3 digit zip":942,"latitude":38.57906,"country":"US","longitude":-121.491013,"id":"a62vyht3x38f","state":"CA","frequency":38},"type":"Feature","geometry":{"type":"Point","coordinates":[-121.491013,38.57906]}},{"properties":{"city":"Palo Alto","3 digit zip":943,"latitude":33.281471,"country":"US","longitude":-111.106689,"id":"a62vyhv3rhlt","state":"CA","frequency":206},"type":"Feature","geometry":{"type":"Point","coordinates":[-111.106689,33.281471]}},{"properties":{"city":"San Mateo","3 digit zip":944,"latitude":32.76189,"country":"US","longitude":-111.65966,"id":"a62vyi05rdd9","state":"CA","frequency":62},"type":"Feature","geometry":{"type":"Point","coordinates":[-111.65966,32.76189]}},{"properties":{"city":"Oakland","3 digit zip":945,"latitude":37.805061,"country":"US","longitude":-122.273018,"id":"a62vyhurcyn5","state":"CA","frequency":1766},"type":"Feature","geometry":{"type":"Point","coordinates":[-122.273018,37.805061]}},{"properties":{"city":"Oakland","3 digit zip":946,"latitude":37.805061,"country":"US","longitude":-122.273018,"id":"a62vyhuljfll","state":"CA","frequency":509},"type":"Feature","geometry":{"type":"Point","coordinates":[-122.273018,37.805061]}},{"properties":{"city":"Berkeley","3 digit zip":947,"latitude":37.869881,"country":"US","longitude":-122.270538,"id":"a62vyhnlbsvi","state":"CA","frequency":416},"type":"Feature","geometry":{"type":"Point","coordinates":[-122.270538,37.869881]}},{"properties":{"city":"Richmond","3 digit zip":948,"latitude":37.937809,"country":"US","longitude":-122.342712,"id":"a62vyhvbvu2x","state":"CA","frequency":103},"type":"Feature","geometry":{"type":"Point","coordinates":[-122.342712,37.937809]}},{"properties":{"city":"North Bay","3 digit zip":949,"latitude":46.306629,"country":"US","longitude":-79.45993,"id":"a62vyhnnpwg1","state":"CA","frequency":438},"type":"Feature","geometry":{"type":"Point","coordinates":[-79.45993,46.306629]}},{"properties":{"city":"San Jose","3 digit zip":950,"latitude":33.060776,"country":"US","longitude":-112.065132,"id":"a62vyhorgjod","state":"CA","frequency":318},"type":"Feature","geometry":{"type":"Point","coordinates":[-112.065132,33.060776]}},{"properties":{"city":"San Jose","3 digit zip":951,"latitude":33.060776,"country":"US","longitude":-112.065132,"id":"a62vyhlgjizv","state":"CA","frequency":273},"type":"Feature","geometry":{"type":"Point","coordinates":[-112.065132,33.060776]}},{"properties":{"city":"Stockton","3 digit zip":952,"latitude":37.953621,"country":"US","longitude":-121.290718,"id":"a62vyhtvi1za","state":"CA","frequency":1191},"type":"Feature","geometry":{"type":"Point","coordinates":[-121.290718,37.953621]}},{"properties":{"city":"Stockton","3 digit zip":953,"latitude":37.953621,"country":"US","longitude":-121.290718,"id":"a62vyhmhinza","state":"CA","frequency":970},"type":"Feature","geometry":{"type":"Point","coordinates":[-121.290718,37.953621]}},{"properties":{"city":"North Bay","3 digit zip":954,"latitude":46.306629,"country":"US","longitude":-79.45993,"id":"a62vyi07j5zv","state":"CA","frequency":647},"type":"Feature","geometry":{"type":"Point","coordinates":[-79.45993,46.306629]}},{"properties":{"city":"Eureka","3 digit zip":955,"latitude":40.803249,"country":"US","longitude":-124.159554,"id":"a62vyhuufave","state":"CA","frequency":167},"type":"Feature","geometry":{"type":"Point","coordinates":[-124.159554,40.803249]}},{"properties":{"city":"Sacramento","3 digit zip":956,"latitude":38.57906,"country":"US","longitude":-121.491013,"id":"a62vyhnnfh3d","state":"CA","frequency":33321},"type":"Feature","geometry":{"type":"Point","coordinates":[-121.491013,38.57906]}},{"properties":{"city":"Sacramento","3 digit zip":957,"latitude":38.57906,"country":"US","longitude":-121.491013,"id":"a62vyhq1x7on","state":"CA","frequency":9136},"type":"Feature","geometry":{"type":"Point","coordinates":[-121.491013,38.57906]}},{"properties":{"city":"Sacramento","3 digit zip":958,"latitude":38.57906,"country":"US","longitude":-121.491013,"id":"a62vyhlgv1ql","state":"CA","frequency":67871},"type":"Feature","geometry":{"type":"Point","coordinates":[-121.491013,38.57906]}},{"properties":{"city":"Marysville","3 digit zip":959,"latitude":39.144958,"country":"US","longitude":-121.587334,"id":"a62vyhyya6fe","state":"CA","frequency":2552},"type":"Feature","geometry":{"type":"Point","coordinates":[-121.587334,39.144958]}},{"properties":{"city":"Redding","3 digit zip":960,"latitude":40.587509,"country":"US","longitude":-122.392929,"id":"a62vyhrngabq","state":"CA","frequency":255},"type":"Feature","geometry":{"type":"Point","coordinates":[-122.392929,40.587509]}},{"properties":{"city":"Reno","3 digit zip":961,"latitude":37.271875,"country":"US","longitude":-119.270229,"id":"a62vyhxszmts","state":"CA","frequency":146},"type":"Feature","geometry":{"type":"Point","coordinates":[-119.270229,37.271875]}}],"is_temporal":false,"author":{"url":"","metadata":"","contact_name":"","contact_address":"","source":"","contact_phone":""},"source":"","pagination":{"sort":null,"start":0,"total":58,"limit":1000000},"state":"complete","tags":"","published":"2014-08-14T20:07:02-04:00","id":224092}