{"type":"FeatureCollection","data_type":"Dataset","url_type":null,"permissions":[{"permissions":{"download":true,"view":true},"group_id":"everyone"}],"classification":null,"title":"Cool Places in Minneapolis","count":42,"stream_id":224248,"contributor":{"url":"http://geocommons.com/users/43280","name":"evans489"},"data_attributes":null,"calculation_params":null,"icon_link":null,"link":"http://geocommons.com/overlays/224248.json","extent":[-93.3262,31.2465,-85.4133,45.1255],"geometry_types":["point"],"unique_name":null,"name":"Cool Places in Minneapolis","feature_count":42,"description":"","next_feature":null,"is_raster":false,"short_classification":"Y","stats":{"timestamp":{"max":"2012/04/04 16:26:55 -0400","mean":"2012/04/04 14:10:02 -0400","variance":612231297.477352,"stdev":24743.3081352788,"min":"2012/04/03 15:51:18 -0400","median":"2012/04/04 16:23:04 -0400"},"how cool is this place?":{"max":10,"mean":8.0,"variance":7.1219512195122,"stdev":2.66869841299316,"min":1,"median":9}},"features":[{"properties":{"city":"Minneapolis","location name":"Punch Pizza","timestamp":{"end_time":"2012/04/03 15:51:19 -0400","original":"4/3/2012 15:51:18","granularity":"sec","time":"2012/04/03 15:51:18 -0400"},"geo_score":0.902,"how cool is this place?":10,"zip code":"55414","street address":"210 E Hennepin Ave","id":"a637txobs67j","geo_precision":"range","state":"MN"},"type":"Feature","geometry":{"type":"Point","coordinates":[-93.257672,44.987548]}},{"properties":{"city":"Minneapolis","location name":"Pizza Nea","timestamp":{"end_time":"2012/04/03 15:52:11 -0400","original":"4/3/2012 15:52:10","granularity":"sec","time":"2012/04/03 15:52:10 -0400"},"geo_score":0.902,"how cool is this place?":10,"zip code":"55414","street address":"306 East Hennepin Avenue","id":"a637txg7d0oj","geo_precision":"range","state":"MN"},"type":"Feature","geometry":{"type":"Point","coordinates":[-93.256278,44.988033]}},{"properties":{"city":"Minneapolis","location name":"Black Sheep Pizza","timestamp":{"end_time":"2012/04/03 15:58:18 -0400","original":"4/3/2012 15:58:17","granularity":"sec","time":"2012/04/03 15:58:17 -0400"},"geo_score":1.0,"how cool is this place?":10,"zip code":"55401","street address":"600 Washington Avenue North","id":"a637txfuecib","geo_precision":"range","state":"MN"},"type":"Feature","geometry":{"type":"Point","coordinates":[-93.275871,44.9869]}},{"properties":{"city":"Minneapolis","location name":"Parkway Theater","timestamp":{"end_time":"2012/04/03 21:52:42 -0400","original":"4/3/2012 21:52:41","granularity":"sec","time":"2012/04/03 21:52:41 -0400"},"geo_score":1.0,"how cool is this place?":7,"zip code":"55417","street address":"4841 Chicago Ave S","id":"a637txglkyje","geo_precision":"range","state":"MN"},"type":"Feature","geometry":{"type":"Point","coordinates":[-93.262642,44.915371]}},{"properties":{"city":"Minn","location name":"Social Sciences","timestamp":{"end_time":"2012/04/04 14:55:50 -0400","original":"4/4/2012 14:55:49","granularity":"sec","time":"2012/04/04 14:55:49 -0400"},"geo_score":0.828,"how cool is this place?":2,"zip code":"55455","street address":"267 19th Avenue SE","id":"a637txuccfyv","geo_precision":"range","state":"MN"},"type":"Feature","geometry":{"type":"Point","coordinates":[-93.245632,44.972834]}},{"properties":{"city":"Minneapolis","location name":"McNamara Alumni Center","timestamp":{"end_time":"2012/04/04 16:20:54 -0400","original":"4/4/2012 16:20:53","granularity":"sec","time":"2012/04/04 16:20:53 -0400"},"geo_score":1.0,"how cool is this place?":6,"zip code":"55455","street address":"200 oak st se","id":"a637txokglv9","geo_precision":"range","state":"MN"},"type":"Feature","geometry":{"type":"Point","coordinates":[-93.227104,44.974661]}},{"properties":{"city":"Minneapolis","location name":"Surdyks","timestamp":{"end_time":"2012/04/04 16:21:30 -0400","original":"4/4/2012 16:21:29","granularity":"sec","time":"2012/04/04 16:21:29 -0400"},"geo_score":1.0,"how cool is this place?":7,"zip code":"55414","street address":"303 E Hennepin Ave","id":"a637txhh5pee","geo_precision":"range","state":"Minnesota"},"type":"Feature","geometry":{"type":"Point","coordinates":[-93.256319,44.988013]}},{"properties":{"city":"Minneapolis","location name":"Target Field","timestamp":{"end_time":"2012/04/04 16:21:31 -0400","original":"4/4/2012 16:21:30","granularity":"sec","time":"2012/04/04 16:21:30 -0400"},"geo_score":0.916,"how cool is this place?":10,"zip code":"55403","street address":"550 3rd Ave N","id":"a637txt8msjm","geo_precision":"range","state":"MN"},"type":"Feature","geometry":{"type":"Point","coordinates":[-93.27638,44.981638]}},{"properties":{"city":"Minneapolis","location name":"Target Field","timestamp":{"end_time":"2012/04/04 16:21:33 -0400","original":"4/4/2012 16:21:32","granularity":"sec","time":"2012/04/04 16:21:32 -0400"},"geo_score":0.916,"how cool is this place?":10,"zip code":"55401","street address":"351-413 5th Avenue North","id":"a637txhlrnxu","geo_precision":"range","state":"Minnesota"},"type":"Feature","geometry":{"type":"Point","coordinates":[-93.276496,44.984854]}},{"properties":{"city":"Minneapolis","location name":"Mesa Pizza","timestamp":{"end_time":"2012/04/04 16:21:42 -0400","original":"4/4/2012 16:21:41","granularity":"sec","time":"2012/04/04 16:21:41 -0400"},"geo_score":0.916,"how cool is this place?":10,"zip code":"55414","street address":"1323 4th street SE","id":"a637txofm761","geo_precision":"range","state":"MN"},"type":"Feature","geometry":{"type":"Point","coordinates":[-93.236887,44.980918]}},{"properties":{"city":"Minneapolis","location name":"Varsity Theatre","timestamp":{"end_time":"2012/04/04 16:21:55 -0400","original":"4/4/2012 16:21:54","granularity":"sec","time":"2012/04/04 16:21:54 -0400"},"geo_score":0.916,"how cool is this place?":9,"zip code":"55414","street address":"1308  4th St Se","id":"a637txnj6vte","geo_precision":"range","state":"MN"},"type":"Feature","geometry":{"type":"Point","coordinates":[-93.237026,44.980998]}},{"properties":{"city":"Minneapolis","location name":"Cedar Point Beach","timestamp":{"end_time":"2012/04/04 16:21:58 -0400","original":"4/4/2012 16:21:57","granularity":"sec","time":"2012/04/04 16:21:57 -0400"},"geo_score":1.0,"how cool is this place?":10,"zip code":"55416","street address":"2100 Cedar Lake Pkwy.","id":"a637txgoe0q3","geo_precision":"range","state":"MN"},"type":"Feature","geometry":{"type":"Point","coordinates":[-93.325211,44.960792]}},{"properties":{"city":"Minneapolis","location name":"Anni's Parlor","timestamp":{"end_time":"2012/04/04 16:22:05 -0400","original":"4/4/2012 16:22:04","granularity":"sec","time":"2012/04/04 16:22:04 -0400"},"geo_score":0.935,"how cool is this place?":9,"zip code":"55414","street address":"313 14th Avenue SE","id":"a637txrkjs0a","geo_precision":"range","state":"MN"},"type":"Feature","geometry":{"type":"Point","coordinates":[-93.236437,44.979593]}},{"properties":{"city":"Minneapolis","location name":"Target Field","timestamp":{"end_time":"2012/04/04 16:22:16 -0400","original":"4/4/2012 16:22:15","granularity":"sec","time":"2012/04/04 16:22:15 -0400"},"geo_score":0.916,"how cool is this place?":9,"zip code":"55403","street address":"550 3rd Avenue North","id":"a637txkll26y","geo_precision":"range","state":"MN"},"type":"Feature","geometry":{"type":"Point","coordinates":[-93.27638,44.981638]}},{"properties":{"city":"Minneapolis","location name":"Fogo de Chao","timestamp":{"end_time":"2012/04/04 16:22:25 -0400","original":"4/4/2012 16:22:24","granularity":"sec","time":"2012/04/04 16:22:24 -0400"},"geo_score":1.0,"how cool is this place?":10,"zip code":"55403","street address":"645 Hennepin Ave","id":"a637txjl7qa4","geo_precision":"range","state":"MN"},"type":"Feature","geometry":{"type":"Point","coordinates":[-93.274058,44.978425]}},{"properties":{"city":"Minneapolis","location name":"Nomad World Pub","timestamp":{"end_time":"2012/04/04 16:22:34 -0400","original":"4/4/2012 16:22:33","granularity":"sec","time":"2012/04/04 16:22:33 -0400"},"geo_score":1.0,"how cool is this place?":7,"zip code":"55454","street address":"501 Cedar Ave S","id":"a637txti35pl","geo_precision":"range","state":"Minnesota"},"type":"Feature","geometry":{"type":"Point","coordinates":[-93.247239,44.968781]}},{"properties":{"city":"Minneapolis","location name":"Kitty Cat Klub","timestamp":{"end_time":"2012/04/04 16:22:48 -0400","original":"4/4/2012 16:22:47","granularity":"sec","time":"2012/04/04 16:22:47 -0400"},"geo_score":0.935,"how cool is this place?":10,"zip code":"55414","street address":"313 14th Avenue Southeast","id":"a637txhbqj0r","geo_precision":"range","state":"MN"},"type":"Feature","geometry":{"type":"Point","coordinates":[-93.236437,44.979593]}},{"properties":{"city":"Minneapolis","location name":"The Melting Pot","timestamp":{"end_time":"2012/04/04 16:22:51 -0400","original":"4/4/2012 16:22:50","granularity":"sec","time":"2012/04/04 16:22:50 -0400"},"geo_score":0.805,"how cool is this place?":9,"zip code":"55402","street address":"80 South 9th Street","id":"a637txram3f2","geo_precision":"range","state":"MN"},"type":"Feature","geometry":{"type":"Point","coordinates":[-93.273447,44.974636]}},{"properties":{"city":"Minneapolis","location name":"Guthrie Theater","timestamp":{"end_time":"2012/04/04 16:22:53 -0400","original":"4/4/2012 16:22:52","granularity":"sec","time":"2012/04/04 16:22:52 -0400"},"geo_score":0.756,"how cool is this place?":8,"zip code":"55401","street address":"818 South 2nd Street","id":"a637txj6ogf7","geo_precision":"range","state":"MN"},"type":"Feature","geometry":{"type":"Point","coordinates":[-93.278183,44.990343]}},{"properties":{"city":"Minneapolis","location name":"Stone Arch Bridge","timestamp":{"end_time":"2012/04/04 16:22:54 -0400","original":"4/4/2012 16:22:53","granularity":"sec","time":"2012/04/04 16:22:53 -0400"},"geo_score":0.636,"how cool is this place?":10,"zip code":"55455","street address":"Stone Arch Bridge, Minneapolis, Minnesota, United States","id":"a637txozgcjn","geo_precision":"street","state":"MN"},"type":"Feature","geometry":{"type":"Point","coordinates":[-93.326208,44.861892]}},{"properties":{"city":"Minneapolis","location name":"Hennepin County Jail","timestamp":{"end_time":"2012/04/04 16:23:03 -0400","original":"4/4/2012 16:23:02","granularity":"sec","time":"2012/04/04 16:23:02 -0400"},"geo_score":0.916,"how cool is this place?":1,"zip code":"55415","street address":"401 4th Avenue South","id":"a637txi4g2a4","geo_precision":"range","state":"MN"},"type":"Feature","geometry":{"type":"Point","coordinates":[-93.264778,44.976952]}},{"properties":{"city":"Minneapolis","location name":"theodore Wirth Park","timestamp":{"end_time":"2012/04/04 16:23:05 -0400","original":"4/4/2012 16:23:04","granularity":"sec","time":"2012/04/04 16:23:04 -0400"},"geo_score":0.789,"how cool is this place?":8,"zip code":"55422","street address":"1339 Theodore Wirth Parkway","id":"a637txfajy8a","geo_precision":"range","state":"MN"},"type":"Feature","geometry":{"type":"Point","coordinates":[-93.322575,44.992414]}},{"properties":{"city":"Minneapolis","location name":"Southern Theater","timestamp":{"end_time":"2012/04/04 16:23:07 -0400","original":"4/4/2012 16:23:06","granularity":"sec","time":"2012/04/04 16:23:06 -0400"},"geo_score":0.958,"how cool is this place?":7,"zip code":"55415","street address":"1420 South Washington Avenue","id":"a637txrnxif0","geo_precision":"range","state":"MN"},"type":"Feature","geometry":{"type":"Point","coordinates":[-93.249065,44.973577]}},{"properties":{"city":"Minneapolis","location name":"Chipotle","timestamp":{"end_time":"2012/04/04 16:23:11 -0400","original":"4/4/2012 16:23:10","granularity":"sec","time":"2012/04/04 16:23:10 -0400"},"geo_score":0.629,"how cool is this place?":10,"zip code":"55414","street address":"800 Washington Ave. SE","id":"a637txoe9mor","geo_precision":"street","state":"Minnesota"},"type":"Feature","geometry":{"type":"Point","coordinates":[-93.237701,44.973534]}},{"properties":{"city":"Minneapolis","location name":"Mariucci Arena","timestamp":{"end_time":"2012/04/04 16:23:26 -0400","original":"4/4/2012 16:23:25","granularity":"sec","time":"2012/04/04 16:23:25 -0400"},"geo_score":0.66,"how cool is this place?":9,"zip code":"55455","street address":"1901 SE 4th St","id":"a637txkp8u0i","geo_precision":"street","state":"MN"},"type":"Feature","geometry":{"type":"Point","coordinates":[-93.242493,44.969997]}},{"properties":{"city":"Minneapolis","location name":"Hennepin Ave Bridge","timestamp":{"end_time":"2012/04/04 16:23:38 -0400","original":"4/4/2012 16:23:37","granularity":"sec","time":"2012/04/04 16:23:37 -0400"},"geo_score":0.636,"how cool is this place?":10,"zip code":"55455","street address":"201 Hennepin Avenue Bridge, Minneapolis, Minnesota, United States","id":"a637txl2mbvq","geo_precision":"street","state":"MN"},"type":"Feature","geometry":{"type":"Point","coordinates":[-93.326208,44.861892]}},{"properties":{"city":"Minneapolis","location name":"Weisman Art Museum","timestamp":{"end_time":"2012/04/04 16:23:42 -0400","original":"4/4/2012 16:23:41","granularity":"sec","time":"2012/04/04 16:23:41 -0400"},"geo_score":0.941,"how cool is this place?":5,"zip code":"55455","street address":"333 East River Parkway","id":"a637txhzhn9e","geo_precision":"range","state":"MN"},"type":"Feature","geometry":{"type":"Point","coordinates":[-93.237701,44.972775]}},{"properties":{"city":"Minneapolis","location name":"Pizza Luce","timestamp":{"end_time":"2012/04/04 16:23:50 -0400","original":"4/4/2012 16:23:49","granularity":"sec","time":"2012/04/04 16:23:49 -0400"},"geo_score":0.708,"how cool is this place?":8,"zip code":"55401","street address":"119 North 4th Street","id":"a637txl7ywjg","geo_precision":"street","state":"MN"},"type":"Feature","geometry":{"type":"Point","coordinates":[-93.27487,44.982837]}},{"properties":{"city":"Minneapolis","location name":"Riverview Theater","timestamp":{"end_time":"2012/04/04 16:24:03 -0400","original":"4/4/2012 16:24:02","granularity":"sec","time":"2012/04/04 16:24:02 -0400"},"geo_score":0.927,"how cool is this place?":10,"zip code":"55406","street address":"3800 42nd Ave S","id":"a637txjnru4c","geo_precision":"range","state":"MN"},"type":"Feature","geometry":{"type":"Point","coordinates":[-93.212769,44.934265]}},{"properties":{"city":"Minneapolis","location name":"Triple Rock","timestamp":{"end_time":"2012/04/04 16:24:23 -0400","original":"4/4/2012 16:24:22","granularity":"sec","time":"2012/04/04 16:24:22 -0400"},"geo_score":0.967,"how cool is this place?":8,"zip code":"55454","street address":"629 Cedar Avenue","id":"a637txr2x9au","geo_precision":"range","state":"Minnesota"},"type":"Feature","geometry":{"type":"Point","coordinates":[-93.247253,44.967348]}},{"properties":{"city":"St Paul","location name":"Ross hill","timestamp":{"end_time":"2012/04/04 16:24:25 -0400","original":"4/4/2012 16:24:24","granularity":"sec","time":"2012/04/04 16:24:24 -0400"},"geo_score":0.463,"how cool is this place?":8,"zip code":"55108","street address":"1627 Cart St","id":"a637txh61uqh","geo_precision":"street","state":"Minnesota"},"type":"Feature","geometry":{"type":"Point","coordinates":[-93.164482,45.125512]}},{"properties":{"city":"Minneapolis","location name":"Seward Co-op","timestamp":{"end_time":"2012/04/04 16:24:32 -0400","original":"4/4/2012 16:24:31","granularity":"sec","time":"2012/04/04 16:24:31 -0400"},"geo_score":1.0,"how cool is this place?":10,"zip code":"55406","street address":"2823 East Franklin Avenue","id":"a637txjwwjx3","geo_precision":"range","state":"MN"},"type":"Feature","geometry":{"type":"Point","coordinates":[-93.231153,44.962762]}},{"properties":{"city":"St. Paul","location name":"Vertical Endeavors","timestamp":{"end_time":"2012/04/04 16:24:36 -0400","original":"4/4/2012 16:24:35","granularity":"sec","time":"2012/04/04 16:24:35 -0400"},"geo_score":0.656,"how cool is this place?":10,"zip code":"55106","street address":"855 Phalen Blvd","id":"a637txrjz9q5","geo_precision":"street","state":"MN"},"type":"Feature","geometry":{"type":"Point","coordinates":[-93.055488,44.984769]}},{"properties":{"city":"Minneapolis","location name":"Target Center","timestamp":{"end_time":"2012/04/04 16:24:52 -0400","original":"4/4/2012 16:24:51","granularity":"sec","time":"2012/04/04 16:24:51 -0400"},"geo_score":0.916,"how cool is this place?":6,"zip code":"55403","street address":"600 First Avenue North","id":"a637txq44wmi","geo_precision":"range","state":"MN"},"type":"Feature","geometry":{"type":"Point","coordinates":[-93.274857,44.979625]}},{"properties":{"city":"Minneapolis","location name":"Blegen Hall 455","timestamp":{"end_time":"2012/04/04 16:24:56 -0400","original":"4/4/2012 16:24:55","granularity":"sec","time":"2012/04/04 16:24:55 -0400"},"geo_score":0.625,"how cool is this place?":10,"zip code":"55455","street address":"269 19th Av. S","id":"a637txpydtbj","geo_precision":"street","state":"MN"},"type":"Feature","geometry":{"type":"Point","coordinates":[-93.245628,44.973442]}},{"properties":{"city":"Minneapolis","location name":"The Library Bar","timestamp":{"end_time":"2012/04/04 16:25:20 -0400","original":"4/4/2012 16:25:19","granularity":"sec","time":"2012/04/04 16:25:19 -0400"},"geo_score":0.791,"how cool is this place?":1,"zip code":"55414","street address":"1301 Southeast 4th Street","id":"a637txq4xqim","geo_precision":"range","state":"MN"},"type":"Feature","geometry":{"type":"Point","coordinates":[-93.237106,44.981043]}},{"properties":{"city":"Minneapolis","location name":"The Mill City Museum","timestamp":{"end_time":"2012/04/04 16:25:33 -0400","original":"4/4/2012 16:25:32","granularity":"sec","time":"2012/04/04 16:25:32 -0400"},"geo_score":0.498,"how cool is this place?":5,"zip code":"555401","street address":"704 South 2nd Street","id":"a637txt2jne2","geo_precision":"street","state":"MN"},"type":"Feature","geometry":{"type":"Point","coordinates":[-93.266387,45.035542]}},{"properties":{"city":"not cool","location name":"Bed Bath and Beyond","timestamp":{"end_time":"2012/04/04 16:25:36 -0400","original":"4/4/2012 16:25:35","granularity":"sec","time":"2012/04/04 16:25:35 -0400"},"geo_score":0.506,"how cool is this place?":1,"zip code":"MINNESOTA","street address":"just kidding","id":"a637txu159do","geo_precision":"street","state":"Minneapolis"},"type":"Feature","geometry":{"type":"Point","coordinates":[-85.413296,31.246503]}},{"properties":{"city":"Minneapolis","location name":"Target Field","timestamp":{"end_time":"2012/04/04 16:25:41 -0400","original":"4/4/2012 16:25:40","granularity":"sec","time":"2012/04/04 16:25:40 -0400"},"geo_score":0.916,"how cool is this place?":10,"zip code":"55403","street address":"550 3rd Avenue North","id":"a637txfbmvms","geo_precision":"range","state":"MN"},"type":"Feature","geometry":{"type":"Point","coordinates":[-93.27638,44.981638]}},{"properties":{"city":"Minneapolis","location name":"Chris and Rob's","timestamp":{"end_time":"2012/04/04 16:25:50 -0400","original":"4/4/2012 16:25:49","granularity":"sec","time":"2012/04/04 16:25:49 -0400"},"geo_score":0.916,"how cool is this place?":10,"zip code":"55406","street address":"3101 E 42nd St.","id":"a637txtibe0v","geo_precision":"range","state":"MN"},"type":"Feature","geometry":{"type":"Point","coordinates":[-93.227036,44.92688]}},{"properties":{"city":"Minneapolis","location name":"French Meadows Cafe","timestamp":{"end_time":"2012/04/04 16:26:24 -0400","original":"4/4/2012 16:26:23","granularity":"sec","time":"2012/04/04 16:26:23 -0400"},"geo_score":1.0,"how cool is this place?":7,"zip code":"55408","street address":"2620 Lyndale Avenue South","id":"a637txi863ft","geo_precision":"range","state":"MN"},"type":"Feature","geometry":{"type":"Point","coordinates":[-93.288042,44.955167]}},{"properties":{"city":"Minneapolis","location name":"Murry's","timestamp":{"end_time":"2012/04/04 16:26:56 -0400","original":"4/4/2012 16:26:55","granularity":"sec","time":"2012/04/04 16:26:55 -0400"},"geo_score":0.805,"how cool is this place?":9,"zip code":"55403","street address":"26 south 6th st","id":"a637txg32kwv","geo_precision":"range","state":"MN"},"type":"Feature","geometry":{"type":"Point","coordinates":[-93.273908,44.978999]}}],"is_temporal":true,"author":{"url":"","metadata":"","contact_name":"","contact_address":"","source":"","contact_phone":""},"source":"","pagination":{"sort":null,"start":0,"total":42,"limit":1000000},"state":"complete","tags":"minneapolis","published":"2014-08-14T20:14:31-04:00","id":224248}