{"type":"FeatureCollection","data_type":"Dataset","url_type":null,"permissions":[{"permissions":{"download":true,"view":true},"group_id":"everyone"}],"classification":null,"title":"W&amp;S Europe Coverage","count":49,"stream_id":22525,"contributor":{"url":"http://geocommons.com/users/10808","name":"sommelier"},"data_attributes":null,"calculation_params":null,"icon_link":null,"link":"http://geocommons.com/overlays/22525.json","extent":[-28.5494,27.7347,46.7108,71.1547],"geometry_types":[],"unique_name":null,"name":"W&S Europe Coverage","feature_count":49,"description":"","next_feature":null,"is_raster":false,"short_classification":"Y","stats":{"GMI_CNTRY":{"max":2.0,"mean":0.163265306122449,"variance":0.222789115646258,"stdev":0.47200541908569,"min":0.0,"median":0.0}},"features":[{"properties":{"NAME":"Albania","id":"a69oxqm6x9gm","REGION":"Europe","GMI_CNTRY":0.0},"type":"Feature","geometry":null},{"properties":{"NAME":"Andorra","id":"a69oxqis20wn","REGION":"Europe","GMI_CNTRY":0.0},"type":"Feature","geometry":null},{"properties":{"NAME":"Armenia","id":"a69oxqqpvty7","REGION":"Asia","GMI_CNTRY":0.0},"type":"Feature","geometry":null},{"properties":{"NAME":"Austria","id":"a69oxqq31ohg","REGION":"Europe","GMI_CNTRY":1.0},"type":"Feature","geometry":null},{"properties":{"NAME":"Belgium","id":"a69oxqu4b8a4","REGION":"Europe","GMI_CNTRY":0.0},"type":"Feature","geometry":null},{"properties":{"NAME":"Bosnia and Herzegovina","id":"a69oxqm056fg","REGION":"Europe","GMI_CNTRY":0.0},"type":"Feature","geometry":null},{"properties":{"NAME":"Bulgaria","id":"a69oxqmegbay","REGION":"Europe","GMI_CNTRY":0.0},"type":"Feature","geometry":null},{"properties":{"NAME":"Byelarus","id":"a69oxqsq6ub8","REGION":"Europe","GMI_CNTRY":0.0},"type":"Feature","geometry":null},{"properties":{"NAME":"Croatia","id":"a69oxql24w4s","REGION":"Europe","GMI_CNTRY":0.0},"type":"Feature","geometry":null},{"properties":{"NAME":"Cyprus","id":"a69oxqwxhz8v","REGION":"Asia","GMI_CNTRY":0.0},"type":"Feature","geometry":null},{"properties":{"NAME":"Czech Republic","id":"a69oxqhvrsot","REGION":"Europe","GMI_CNTRY":0.0},"type":"Feature","geometry":null},{"properties":{"NAME":"Denmark","id":"a69oxqtd7ubu","REGION":"Europe","GMI_CNTRY":0.0},"type":"Feature","geometry":null},{"properties":{"NAME":"Estonia","id":"a69oxqnb68jz","REGION":"Europe","GMI_CNTRY":0.0},"type":"Feature","geometry":null},{"properties":{"NAME":"Finland","id":"a69oxqu9jzl6","REGION":"Europe","GMI_CNTRY":0.0},"type":"Feature","geometry":null},{"properties":{"NAME":"France","id":"a69oxqovovfe","REGION":"Europe","GMI_CNTRY":0.0},"type":"Feature","geometry":null},{"properties":{"NAME":"Gaza Strip","id":"a69oxqr72jbz","REGION":"Asia","GMI_CNTRY":0.0},"type":"Feature","geometry":null},{"properties":{"NAME":"Georgia","id":"a69oxqk3r8io","REGION":"Asia","GMI_CNTRY":0.0},"type":"Feature","geometry":null},{"properties":{"NAME":"Germany","id":"a69oxqmwf5ic","REGION":"Europe","GMI_CNTRY":1.0},"type":"Feature","geometry":null},{"properties":{"NAME":"Greece","id":"a69oxqw8hniu","REGION":"Europe","GMI_CNTRY":1.0},"type":"Feature","geometry":null},{"properties":{"NAME":"Hungary","id":"a69oxqxm3oqs","REGION":"Europe","GMI_CNTRY":0.0},"type":"Feature","geometry":null},{"properties":{"NAME":"Iceland","id":"a69oxqxhyao1","REGION":"Europe","GMI_CNTRY":0.0},"type":"Feature","geometry":null},{"properties":{"NAME":"Ireland","id":"a69oxqr9bkvc","REGION":"Europe","GMI_CNTRY":0.0},"type":"Feature","geometry":null},{"properties":{"NAME":"Israel","id":"a69oxqpgg05q","REGION":"Asia","GMI_CNTRY":0.0},"type":"Feature","geometry":null},{"properties":{"NAME":"Italy","id":"a69oxqjurfhn","REGION":"Europe","GMI_CNTRY":2.0},"type":"Feature","geometry":null},{"properties":{"NAME":"Jordan","id":"a69oxqozqvss","REGION":"Asia","GMI_CNTRY":0.0},"type":"Feature","geometry":null},{"properties":{"NAME":"Latvia","id":"a69oxqp3kr56","REGION":"Europe","GMI_CNTRY":0.0},"type":"Feature","geometry":null},{"properties":{"NAME":"Lebanon","id":"a69oxqy409u3","REGION":"Asia","GMI_CNTRY":0.0},"type":"Feature","geometry":null},{"properties":{"NAME":"Liechtenstein","id":"a69oxqkr16xz","REGION":"Europe","GMI_CNTRY":0.0},"type":"Feature","geometry":null},{"properties":{"NAME":"Lithuania","id":"a69oxqwbsrb7","REGION":"Europe","GMI_CNTRY":0.0},"type":"Feature","geometry":null},{"properties":{"NAME":"Luxembourg","id":"a69oxqkqfgr8","REGION":"Europe","GMI_CNTRY":0.0},"type":"Feature","geometry":null},{"properties":{"NAME":"Macedonia","id":"a69oxqvlcoqw","REGION":"Europe","GMI_CNTRY":0.0},"type":"Feature","geometry":null},{"properties":{"NAME":"Malta","id":"a69oxqokl25q","REGION":"Pacific","GMI_CNTRY":0.0},"type":"Feature","geometry":null},{"properties":{"NAME":"Monaco","id":"a69oxqphzfvx","REGION":"Europe","GMI_CNTRY":0.0},"type":"Feature","geometry":null},{"properties":{"NAME":"Netherlands","id":"a69oxqjx76av","REGION":"Europe","GMI_CNTRY":0.0},"type":"Feature","geometry":null},{"properties":{"NAME":"Norway","id":"a69oxqnj3ek5","REGION":"Europe","GMI_CNTRY":0.0},"type":"Feature","geometry":null},{"properties":{"NAME":"Poland","id":"a69oxqt17dz0","REGION":"Europe","GMI_CNTRY":0.0},"type":"Feature","geometry":null},{"properties":{"NAME":"Portugal","id":"a69oxqi3iwxb","REGION":"Europe","GMI_CNTRY":2.0},"type":"Feature","geometry":null},{"properties":{"NAME":"Romania","id":"a69oxqjc12sz","REGION":"Europe","GMI_CNTRY":0.0},"type":"Feature","geometry":null},{"properties":{"NAME":"San Marino","id":"a69oxqxix5p5","REGION":"Europe","GMI_CNTRY":0.0},"type":"Feature","geometry":null},{"properties":{"NAME":"Slovakia","id":"a69oxqsfiyop","REGION":"Europe","GMI_CNTRY":0.0},"type":"Feature","geometry":null},{"properties":{"NAME":"Slovenia","id":"a69oxqv97i89","REGION":"Europe","GMI_CNTRY":0.0},"type":"Feature","geometry":null},{"properties":{"NAME":"Spain","id":"a69oxqi6zd52","REGION":"Europe","GMI_CNTRY":1.0},"type":"Feature","geometry":null},{"properties":{"NAME":"Sweden","id":"a69oxqv57f0x","REGION":"Europe","GMI_CNTRY":0.0},"type":"Feature","geometry":null},{"properties":{"NAME":"Switzerland","id":"a69oxqi21yis","REGION":"Europe","GMI_CNTRY":0.0},"type":"Feature","geometry":null},{"properties":{"NAME":"Syria","id":"a69oxqmpnhdw","REGION":"Asia","GMI_CNTRY":0.0},"type":"Feature","geometry":null},{"properties":{"NAME":"Turkey","id":"a69oxqq6tp67","REGION":"Asia","GMI_CNTRY":0.0},"type":"Feature","geometry":null},{"properties":{"NAME":"Ukraine","id":"a69oxqo1wmol","REGION":"Europe","GMI_CNTRY":0.0},"type":"Feature","geometry":null},{"properties":{"NAME":"United Kingdom","id":"a69oxqjv7771","REGION":"Europe","GMI_CNTRY":0.0},"type":"Feature","geometry":null},{"properties":{"NAME":"Yugoslavia","id":"a69oxqqm24ft","REGION":"Europe","GMI_CNTRY":0.0},"type":"Feature","geometry":null}],"is_temporal":false,"author":{"url":"","metadata":"","contact_name":"","contact_address":"","source":"","contact_phone":""},"source":"","pagination":{"sort":null,"start":0,"total":49,"limit":1000000},"state":"complete","tags":"","published":"2014-08-10T14:50:11-04:00","id":22525}