{"type":"FeatureCollection","data_type":"Dataset","url_type":null,"permissions":[{"permissions":{"download":true,"view":true},"group_id":"everyone"}],"classification":null,"title":"mlb","count":30,"stream_id":225340,"contributor":{"url":"http://geocommons.com/users/42464","name":"kyriekirn"},"data_attributes":null,"calculation_params":null,"icon_link":null,"link":"http://geocommons.com/overlays/225340.json","extent":[-116.602,7.98333,-7.15,52.3167],"geometry_types":["point"],"unique_name":null,"name":"mlb","feature_count":30,"description":"","next_feature":null,"is_raster":false,"short_classification":"Y","stats":{},"features":[{"properties":{"city":"Baltimore","affiliate":"Norfolk Tides","geo_score":0.0,"team":"Baltimore Orioles","id":"a633p2zz0rn8","geo_precision":"unmatched","state":"MD"},"type":"Feature","geometry":null},{"properties":{"city":"Phoenix","affiliate":"Reno Aces","geo_score":0.0,"team":"Arizona Diamondbacks","id":"a633p2rl1u2p","geo_precision":"unmatched","state":"AZ"},"type":"Feature","geometry":null},{"properties":{"city":"Boston","affiliate":"Pawtucket Red Sox","geo_score":0.929,"team":"Boston Red Sox","id":"a633p2o3lz5i","geo_precision":"zip","state":"MA"},"type":"Feature","geometry":{"type":"Point","coordinates":[-7.15,31.96]}},{"properties":{"city":"Atlanta","affiliate":"Gwinnett Braves","geo_score":0.0,"team":"Atlanta Braves","id":"a633p2tdfoic","geo_precision":"unmatched","state":"GA"},"type":"Feature","geometry":null},{"properties":{"city":"Chicago","affiliate":"Charlotte Knights","geo_score":0.0,"team":"Chicago White Sox","id":"a633p2qbwwso","geo_precision":"unmatched","state":"IL"},"type":"Feature","geometry":null},{"properties":{"city":"Chicago","affiliate":"Iowa Cubs","geo_score":0.0,"team":"Chicago Cubs","id":"a633p2mtkswy","geo_precision":"unmatched","state":"IL"},"type":"Feature","geometry":null},{"properties":{"city":"Cleveland","affiliate":"Columbus Clippers","geo_score":0.0,"team":"Cleveland Indians","id":"a633p2yx9tjg","geo_precision":"unmatched","state":"OH"},"type":"Feature","geometry":null},{"properties":{"city":"Cincinnati","affiliate":"Louisville Bats","geo_score":0.0,"team":"Cincinnati Reds","id":"a633p2rjnqtw","geo_precision":"unmatched","state":"OH"},"type":"Feature","geometry":null},{"properties":{"city":"Detroit","affiliate":"Toledo MudHens","geo_score":0.0,"team":"Detroit Tigers","id":"a633p2xn53w2","geo_precision":"unmatched","state":"MI"},"type":"Feature","geometry":null},{"properties":{"city":"Denver","affiliate":"Colorado Springs Sky Sox","geo_score":0.0,"team":"Colorado Rockies","id":"a633p2rxr432","geo_precision":"unmatched","state":"CO"},"type":"Feature","geometry":null},{"properties":{"city":"Kansas City","affiliate":"Omaha Storm Chasers","geo_score":0.0,"team":"Kansas City Royals","id":"a633p2opubs5","geo_precision":"unmatched","state":"MO"},"type":"Feature","geometry":null},{"properties":{"city":"Houston","affiliate":"Oklahoma City Redhawks","geo_score":0.0,"team":"Houston Astros","id":"a633p2laz7nd","geo_precision":"unmatched","state":"TX"},"type":"Feature","geometry":null},{"properties":{"city":"Anaheim","affiliate":"Salt Lake Bees","geo_score":0.982,"team":"Los Angeles Angels","id":"a633p2zjzz01","geo_precision":"zip","state":"CA"},"type":"Feature","geometry":{"type":"Point","coordinates":[-104.817765676,52.316739268]}},{"properties":{"city":"Los Angeles","affiliate":"Albequerque Isotopes","geo_score":0.9,"team":"Los Angeles Dodgers","id":"a633p2zy478t","geo_precision":"zip","state":"CA"},"type":"Feature","geometry":{"type":"Point","coordinates":[-55.598110211,49.949945903]}},{"properties":{"city":"Minneapolis","affiliate":"Rochester Red Wings","geo_score":0.0,"team":"Minnesota Twins","id":"a633p312tc58","geo_precision":"unmatched","state":"MN"},"type":"Feature","geometry":null},{"properties":{"city":"Miami","affiliate":"New Orleans Zephyrs","geo_score":0.0,"team":"Miami Marlins","id":"a633p2oh92vw","geo_precision":"unmatched","state":"FL"},"type":"Feature","geometry":null},{"properties":{"city":"Bronx","affiliate":"Scranton/Wilkes-Barre Yankees","geo_score":0.0,"team":"New York Yankees","id":"a633p2xetyym","geo_precision":"unmatched","state":"NY"},"type":"Feature","geometry":null},{"properties":{"city":"Milwaukee","affiliate":"Nashville Sounds","geo_score":0.0,"team":"Milwaukee Brewers","id":"a633p2z7ibg7","geo_precision":"unmatched","state":"WI"},"type":"Feature","geometry":null},{"properties":{"city":"Oakland","affiliate":"Sacramento River Cats","geo_score":1.0,"team":"Oakland Athletics","id":"a633p2w1auyx","geo_precision":"zip","state":"CA"},"type":"Feature","geometry":{"type":"Point","coordinates":[-64.365452081,44.450153375]}},{"properties":{"city":"Flushing","affiliate":"Buffalo Bisons","geo_score":0.0,"team":"New York Mets","id":"a633p2n8095g","geo_precision":"unmatched","state":"NY"},"type":"Feature","geometry":null},{"properties":{"city":"Seattle","affiliate":"Tacoma Rainers","geo_score":0.0,"team":"Seattle Mariners","id":"a633p2zyo060","geo_precision":"unmatched","state":"WA"},"type":"Feature","geometry":null},{"properties":{"city":"Philadelphia","affiliate":"Lehigh Valley IronPigs","geo_score":0.912,"team":"Philadelphia Phillies","id":"a633p2zm6lyy","geo_precision":"zip","state":"PA"},"type":"Feature","geometry":{"type":"Point","coordinates":[-81.4,7.9833333]}},{"properties":{"city":"St. Petersburg","affiliate":"Durham Bulls","geo_score":0.0,"team":"Tampa Bay Rays","id":"a633p2vabcoq","geo_precision":"unmatched","state":"FL"},"type":"Feature","geometry":null},{"properties":{"city":"Pittsburgh","affiliate":"Indianapolis Indians","geo_score":0.0,"team":"Pittsburgh Pirates","id":"a633p2wonv8t","geo_precision":"unmatched","state":"PA"},"type":"Feature","geometry":null},{"properties":{"city":"Arlington","affiliate":"Round Rock Express","geo_score":0.0,"team":"Texas Rangers","id":"a633p2u1c7lc","geo_precision":"unmatched","state":"TX"},"type":"Feature","geometry":null},{"properties":{"city":"San Diego","affiliate":"Tucson Padres","geo_score":0.893,"team":"San Diego Padres","id":"a633p2vpzo7t","geo_precision":"zip","state":"CA"},"type":"Feature","geometry":{"type":"Point","coordinates":[-116.602093777,51.049964127]}},{"properties":{"city":"Toronto","affiliate":"Las Vegas 51s","geo_score":0.0,"team":"Toronto Blue Jays","id":"a633p2niy87m","geo_precision":"unmatched","state":"ON"},"type":"Feature","geometry":null},{"properties":{"city":"San Francisco","affiliate":"Fresno Grizzlies","geo_score":0.901,"team":"San Francisco Giants","id":"a633p2rw998b","geo_precision":"zip","state":"CA"},"type":"Feature","geometry":{"type":"Point","coordinates":[-76.432700044,44.800114145]}},{"properties":{"city":"St. Louis","affiliate":"Memphis Redbirds","geo_score":0.0,"team":"St. Louis Cardinals","id":"a633p2zo71vy","geo_precision":"unmatched","state":"MO"},"type":"Feature","geometry":null},{"properties":{"city":"Washington","affiliate":"Syracuse Cheifs","geo_score":0.0,"team":"Washington Nationals","id":"a633p2lipp46","geo_precision":"unmatched","state":"DC"},"type":"Feature","geometry":null}],"is_temporal":false,"author":{"url":"","metadata":null,"contact_name":null,"contact_address":null,"source":null,"contact_phone":null},"source":"","pagination":{"sort":null,"start":0,"total":30,"limit":1000000},"state":"complete","tags":"","published":"2014-08-14T21:33:12-04:00","id":225340}