{"type":"FeatureCollection","data_type":"Dataset","url_type":null,"permissions":[{"permissions":{"download":true,"view":true},"group_id":"everyone"}],"classification":null,"title":"BusOps_Guy_1_of_2_only_1s_-_ran_April_9th","count":349,"stream_id":225718,"contributor":{"url":"http://geocommons.com/users/39447","name":"sam.felipe"},"data_attributes":null,"calculation_params":null,"icon_link":null,"link":"http://geocommons.com/overlays/225718.json","extent":[-118.12,33.2402,-114.616,35.0],"geometry_types":["point"],"unique_name":null,"name":"BusOps_Guy_1_of_2_only_1s_-_ran_April_9th","feature_count":349,"description":"","next_feature":null,"is_raster":false,"short_classification":"Y","stats":{"rep? (1 for yes, 0 for no)":{"max":1,"mean":1.0,"variance":0.0,"stdev":0.0,"min":1,"median":1}},"features":[{"properties":{"rep? (1 for yes, 0 for no)":1,"city":"Hemet","zip":"92545","company name":"A Team Realty","geo_score":0.635,"street address":"3365 Sugar Maple Ct","id":"a6h33mbuusmd","geo_precision":"street","state":"CA"},"type":"Feature","geometry":{"type":"Point","coordinates":[-117.002094,33.718327]}},{"properties":{"rep? (1 for yes, 0 for no)":1,"city":"Mira Loma","zip":"91752","company name":"A To Z Realty","geo_score":0.565,"street address":"12459 Cool Springs St.","id":"a6h33mavm3qm","geo_precision":"street","state":"CA"},"type":"Feature","geometry":{"type":"Point","coordinates":[-117.845616,33.971759]}},{"properties":{"rep? (1 for yes, 0 for no)":1,"city":"Riverside","zip":"92504","company name":"A-z Realty &amp; Investment","geo_score":0.902,"street address":"16385 Iris Ave","id":"a6h33mi8nd1x","geo_precision":"range","state":"CA"},"type":"Feature","geometry":{"type":"Point","coordinates":[-117.375416,33.887094]}},{"properties":{"rep? (1 for yes, 0 for no)":1,"city":"Beaumont","zip":"92223","company name":"Absolute Advantage Realty","geo_score":0.807,"street address":"790 Beaumont Ave Ste 210","id":"a6h33mgjkhd4","geo_precision":"range","state":"CA"},"type":"Feature","geometry":{"type":"Point","coordinates":[-116.977163,33.932344]}},{"properties":{"rep? (1 for yes, 0 for no)":1,"city":"Perris","zip":"92571","company name":"Ace-tax &amp; Realty","geo_score":0.922,"street address":"4194 N Perris Blvd Ste A5","id":"a6h33m6jmfwv","geo_precision":"range","state":"CA"},"type":"Feature","geometry":{"type":"Point","coordinates":[-117.226062,33.846977]}},{"properties":{"rep? (1 for yes, 0 for no)":1,"city":"Corona","zip":"92881","company name":"Active Realty","geo_score":1.0,"street address":"1871 California Avenue","id":"a6h33mh8bgiw","geo_precision":"range","state":"CA"},"type":"Feature","geometry":{"type":"Point","coordinates":[-117.539049,33.856432]}},{"properties":{"rep? (1 for yes, 0 for no)":1,"city":"Mira Loma","zip":"91752","company name":"Adobe Country Realty","geo_score":1.0,"street address":"11088 Limonite Ave.","id":"a6h33mcbocow","geo_precision":"range","state":"CA"},"type":"Feature","geometry":{"type":"Point","coordinates":[-117.525203,33.975448]}},{"properties":{"rep? (1 for yes, 0 for no)":1,"city":"Banning","zip":"92220","company name":"Algea Real Estate","geo_score":1.0,"street address":"42850 Hilltop Drive","id":"a6h33mlyqfc2","geo_precision":"range","state":"CA"},"type":"Feature","geometry":{"type":"Point","coordinates":[-116.913507,33.907097]}},{"properties":{"rep? (1 for yes, 0 for no)":1,"city":"Temecula","zip":"92590","company name":"Allison James Estates &amp; Homes","geo_score":0.805,"street address":"41593 Winchester Road #200","id":"a6h33m9s99nw","geo_precision":"street","state":"CA"},"type":"Feature","geometry":{"type":"Point","coordinates":[-117.16504,33.520914]}},{"properties":{"rep? (1 for yes, 0 for no)":1,"city":"Temecula","zip":"92590","company name":"Allison James Of California In","geo_score":0.568,"street address":"27274 Via Industria Ste B","id":"a6h33miecmc0","geo_precision":"street","state":"CA"},"type":"Feature","geometry":{"type":"Point","coordinates":[-117.179177,33.488666]}},{"properties":{"rep? (1 for yes, 0 for no)":1,"city":"Riverside","zip":"92507","company name":"Alpha One Group","geo_score":0.46,"street address":"1760 Chicago Ave # J-15","id":"a6h33mbugiwo","geo_precision":"street","state":"CA"},"type":"Feature","geometry":{"type":"Point","coordinates":[-117.34844,33.990325]}},{"properties":{"rep? (1 for yes, 0 for no)":1,"city":"Riverside","zip":"92507","company name":"Alpha One Group Inc,","geo_score":0.503,"street address":"1760 Chicago Ave. Ste. J-15","id":"a6h33mj13sks","geo_precision":"street","state":"CA"},"type":"Feature","geometry":{"type":"Point","coordinates":[-117.34844,33.990325]}},{"properties":{"rep? (1 for yes, 0 for no)":1,"city":"Riverside","zip":"92505","company name":"Alpha Realty Inc","geo_score":0.506,"street address":"4193 Flat Rock Dr. Ste 300","id":"a6h33me3boz6","geo_precision":"street","state":"CA"},"type":"Feature","geometry":{"type":"Point","coordinates":[-117.497328,33.952764]}},{"properties":{"rep? (1 for yes, 0 for no)":1,"city":"Hemet","zip":"92543","company name":"Ambrose Realty","geo_score":0.633,"street address":"155 S. State St.","id":"a6h33mb4xxh7","geo_precision":"street","state":"CA"},"type":"Feature","geometry":{"type":"Point","coordinates":[-116.971679,33.747887]}},{"properties":{"rep? (1 for yes, 0 for no)":1,"city":"Perris","zip":"92570","company name":"American Dream Realty Services","geo_score":0.947,"street address":"20880 Lakeridge","id":"a6h33mghuldn","geo_precision":"range","state":"CA"},"type":"Feature","geometry":{"type":"Point","coordinates":[-117.409649,33.816911]}},{"properties":{"rep? (1 for yes, 0 for no)":1,"city":"Hemet","zip":"92545","company name":"American Finance Realty","geo_score":0.749,"street address":"601 N Kirby St Sp# 37","id":"a6h33miomx98","geo_precision":"street","state":"CA"},"type":"Feature","geometry":{"type":"Point","coordinates":[-116.997776,33.747398]}},{"properties":{"rep? (1 for yes, 0 for no)":1,"city":"Riverside","zip":"92503","company name":"Ameristar Real Estate Inv.","geo_score":0.551,"street address":"11881 Abington St","id":"a6h33m8pbhgj","geo_precision":"street","state":"CA"},"type":"Feature","geometry":{"type":"Point","coordinates":[-117.267279,33.921322]}},{"properties":{"rep? (1 for yes, 0 for no)":1,"city":"Perris","zip":"92571","company name":"Amigos Realty","geo_score":1.0,"street address":"493 Orca Ave","id":"a6h33mkjkp5f","geo_precision":"range","state":"CA"},"type":"Feature","geometry":{"type":"Point","coordinates":[-117.215315,33.794351]}},{"properties":{"rep? (1 for yes, 0 for no)":1,"city":"Perris","zip":"92570","company name":"Ashley-kroencke Inc","geo_score":0.927,"street address":"170 Wilkerson Ave Ste B","id":"a6h33me5yef6","geo_precision":"range","state":"CA"},"type":"Feature","geometry":{"type":"Point","coordinates":[-117.218981,33.784687]}},{"properties":{"rep? (1 for yes, 0 for no)":1,"city":"Rancho Mirage","zip":"92270","company name":"Atlantic &amp; Pacific Real Estate","geo_score":0.77,"street address":"41-750 Rancho Las Palmas","id":"a6h33mdjzvs6","geo_precision":"street","state":"CA"},"type":"Feature","geometry":{"type":"Point","coordinates":[-116.408183,33.742816]}},{"properties":{"rep? (1 for yes, 0 for no)":1,"city":"Rancho Mirage","zip":"92270","company name":"Atlantic And Pacific Real Est","geo_score":0.966,"street address":"41750  Rancho Las Palmas","id":"a6h33majdd2g","geo_precision":"range","state":"CA"},"type":"Feature","geometry":{"type":"Point","coordinates":[-116.408311,33.742819]}},{"properties":{"rep? (1 for yes, 0 for no)":1,"city":"Hemet","zip":"92543","company name":"Authority Real Estate","geo_score":0.963,"street address":"250 North State St.","id":"a6h33mfea65e","geo_precision":"range","state":"CA"},"type":"Feature","geometry":{"type":"Point","coordinates":[-116.971633,33.744799]}},{"properties":{"rep? (1 for yes, 0 for no)":1,"city":"Mira Loma","zip":"91752","company name":"Azteca Realtors","geo_score":0.512,"street address":"6340 Emerald Ridge Way","id":"a6h33mihlisx","geo_precision":"street","state":"CA"},"type":"Feature","geometry":{"type":"Point","coordinates":[-118.119858,34.04049]}},{"properties":{"rep? (1 for yes, 0 for no)":1,"city":"Banning","zip":"92220","company name":"Banning Realty","geo_score":0.935,"street address":"1265 W Ramsey","id":"a6h33m8agak9","geo_precision":"range","state":"CA"},"type":"Feature","geometry":{"type":"Point","coordinates":[-116.890314,33.925422]}},{"properties":{"rep? (1 for yes, 0 for no)":1,"city":"Hemet","zip":"92544","company name":"Bassett &amp; Associates, Realtors","geo_score":0.571,"street address":"P.o. Box 5373","id":"a6h33m7bsslt","geo_precision":"street","state":"CA"},"type":"Feature","geometry":{"type":"Point","coordinates":[-116.922663,33.752285]}},{"properties":{"rep? (1 for yes, 0 for no)":1,"city":"Beaumont","zip":"92223","company name":"Beaumont Realty Inc.","geo_score":0.813,"street address":"547 East 6th Street","id":"a6h33mcgxe3m","geo_precision":"range","state":"CA"},"type":"Feature","geometry":{"type":"Point","coordinates":[-116.975188,33.929405]}},{"properties":{"rep? (1 for yes, 0 for no)":1,"city":"Moreno Valley","zip":"92557","company name":"Beechwood Realty","geo_score":0.902,"street address":"24318 Hemlock Ave Ste A-5","id":"a6h33mdbiqn0","geo_precision":"range","state":"CA"},"type":"Feature","geometry":{"type":"Point","coordinates":[-117.241391,33.942513]}},{"properties":{"rep? (1 for yes, 0 for no)":1,"city":"Palm Desert","zip":"92260","company name":"Bighorn Properties, Inc.","geo_score":0.895,"street address":"535 Mesquite Hills","id":"a6h33m9amgkp","geo_precision":"range","state":"CA"},"type":"Feature","geometry":{"type":"Point","coordinates":[-116.404014,33.680267]}},{"properties":{"rep? (1 for yes, 0 for no)":1,"city":"Hemet","zip":"92543","company name":"Brubaker Culton R.e. &amp; Dev.","geo_score":0.61,"street address":"990 W. Florida","id":"a6h33m9o6gnu","geo_precision":"street","state":"CA"},"type":"Feature","geometry":{"type":"Point","coordinates":[-116.972758,33.747547]}},{"properties":{"rep? (1 for yes, 0 for no)":1,"city":"Hemet","zip":"92544","company name":"Cal First Realty","geo_score":1.0,"street address":"26727 Chad Ct.","id":"a6h33m93yr8z","geo_precision":"range","state":"CA"},"type":"Feature","geometry":{"type":"Point","coordinates":[-116.924762,33.755913]}},{"properties":{"rep? (1 for yes, 0 for no)":1,"city":"Riverside","zip":"92507","company name":"Cal Pacific Properties","geo_score":0.427,"street address":"5005 La Mart Dr #201","id":"a6h33mardsfv","geo_precision":"street","state":"CA"},"type":"Feature","geometry":{"type":"Point","coordinates":[-117.204525,33.839594]}},{"properties":{"rep? (1 for yes, 0 for no)":1,"city":"La Quinta","zip":"92253","company name":"California Lifestyle Realty","geo_score":0.958,"street address":"50200 Avenida Vista Bonita","id":"a6h33mdn05fv","geo_precision":"range","state":"CA"},"type":"Feature","geometry":{"type":"Point","coordinates":[-116.312266,33.685768]}},{"properties":{"rep? (1 for yes, 0 for no)":1,"city":"Riverside","zip":"92506","company name":"Capital Real Estate &amp; Inv","geo_score":0.916,"street address":"3333 Central Ave Ste A","id":"a6h33mkjrssk","geo_precision":"range","state":"CA"},"type":"Feature","geometry":{"type":"Point","coordinates":[-117.383403,33.953635]}},{"properties":{"rep? (1 for yes, 0 for no)":1,"city":"Palm Springs","zip":"92262","company name":"Capitis Sotheby's Internationa","geo_score":0.619,"street address":"515 N. Palm Canyon Dr., #b-12","id":"a6h33mitj9kv","geo_precision":"street","state":"CA"},"type":"Feature","geometry":{"type":"Point","coordinates":[-116.553057,33.833759]}},{"properties":{"rep? (1 for yes, 0 for no)":1,"city":"Murrieta","zip":"92562","company name":"Casa Bella Properties","geo_score":0.714,"street address":"41667 Ivy Street - D4","id":"a6h33mcr9a0a","geo_precision":"street","state":"CA"},"type":"Feature","geometry":{"type":"Point","coordinates":[-117.219025,33.547178]}},{"properties":{"rep? (1 for yes, 0 for no)":1,"city":"Perris","zip":"92571","company name":"Casa Grande Rlty &amp; Mortgage Co","geo_score":0.53,"street address":"3596 Heartland Court","id":"a6h33mc1yhq6","geo_precision":"street","state":"CA"},"type":"Feature","geometry":{"type":"Point","coordinates":[-117.259157,33.948178]}},{"properties":{"rep? (1 for yes, 0 for no)":1,"city":"Perris","zip":"92571","company name":"Castaneda Real Estate","geo_score":0.571,"street address":"425 W Rider St # A-7","id":"a6h33mf2j2dq","geo_precision":"street","state":"CA"},"type":"Feature","geometry":{"type":"Point","coordinates":[-117.239324,33.830393]}},{"properties":{"rep? (1 for yes, 0 for no)":1,"city":"Temecula","zip":"92592","company name":"Century 21 Award-tem Redhawk","geo_score":0.707,"street address":"30589 Temecula Parkway","id":"a6h33mb09zyo","geo_precision":"street","state":"CA"},"type":"Feature","geometry":{"type":"Point","coordinates":[-117.118569,33.471796]}},{"properties":{"rep? (1 for yes, 0 for no)":1,"city":"Norco","zip":"92860","company name":"Century 21 Gold","geo_score":1.0,"street address":"2055 Hamner Ave","id":"a6h33mm3613a","geo_precision":"range","state":"CA"},"type":"Feature","geometry":{"type":"Point","coordinates":[-117.560796,33.911644]}},{"properties":{"rep? (1 for yes, 0 for no)":1,"city":"Hemet","zip":"92544","company name":"Century 21 Mcdaniel &amp; Associates","geo_score":0.614,"street address":"2433 E. Florida Ave.","id":"a6h33m9oe15b","geo_precision":"street","state":"CA"},"type":"Feature","geometry":{"type":"Point","coordinates":[-116.958627,33.747623]}},{"properties":{"rep? (1 for yes, 0 for no)":1,"city":"Hemet","zip":"92545","company name":"Century 21 Mcdaniel &amp; Associates #2","geo_score":0.539,"street address":"3980 W. Florida Ave. #100","id":"a6h33mb68m1a","geo_precision":"street","state":"CA"},"type":"Feature","geometry":{"type":"Point","coordinates":[-116.989082,33.74746]}},{"properties":{"rep? (1 for yes, 0 for no)":1,"city":"Corona","zip":"92879","company name":"Century 21 Now Realty","geo_score":0.941,"street address":"161 Mckinley # 120","id":"a6h33m682z4m","geo_precision":"range","state":"CA"},"type":"Feature","geometry":{"type":"Point","coordinates":[-117.515071,33.882921]}},{"properties":{"rep? (1 for yes, 0 for no)":1,"city":"Beaumont","zip":"92223","company name":"Century 21 Osborne Realty","geo_score":0.911,"street address":"1386 Beaumont Ave","id":"a6h33mbvoz9h","geo_precision":"range","state":"CA"},"type":"Feature","geometry":{"type":"Point","coordinates":[-116.977211,33.946847]}},{"properties":{"rep? (1 for yes, 0 for no)":1,"city":"Murrieta","zip":"92562","company name":"Century 21 Preferred","geo_score":0.87,"street address":"25050 Madison Avenue Suite 101","id":"a6h33m72up88","geo_precision":"range","state":"CA"},"type":"Feature","geometry":{"type":"Point","coordinates":[-117.198336,33.555338]}},{"properties":{"rep? (1 for yes, 0 for no)":1,"city":"Lake Elsinore","zip":"92530","company name":"Century 21 Premier Real Estate","geo_score":1.0,"street address":"2505 E Lakeshore Drive","id":"a6h33mje70tl","geo_precision":"range","state":"CA"},"type":"Feature","geometry":{"type":"Point","coordinates":[-117.301244,33.660374]}},{"properties":{"rep? (1 for yes, 0 for no)":1,"city":"Murrieta","zip":"92563","company name":"Century 21 Tri Valley Realty","geo_score":0.563,"street address":"39885 Alta Murrieta Rd. Ste.d3","id":"a6h33m7mrwtg","geo_precision":"street","state":"CA"},"type":"Feature","geometry":{"type":"Point","coordinates":[-117.132792,33.582392]}},{"properties":{"rep? (1 for yes, 0 for no)":1,"city":"Temecula","zip":"92591","company name":"Century 21 Wright","geo_score":1.0,"street address":"30610 Rancho California Road","id":"a6h33mcklqpj","geo_precision":"range","state":"CA"},"type":"Feature","geometry":{"type":"Point","coordinates":[-117.126536,33.50831]}},{"properties":{"rep? (1 for yes, 0 for no)":1,"city":"Hemet","zip":"92543","company name":"Century Land And Loan","geo_score":0.625,"street address":"609 S. Palm Ave, Unit A","id":"a6h33mlj6089","geo_precision":"street","state":"CA"},"type":"Feature","geometry":{"type":"Point","coordinates":[-116.980357,33.745664]}},{"properties":{"rep? (1 for yes, 0 for no)":1,"city":"Cherry Valley","zip":"92223","company name":"Cherry Valley Realty","geo_score":1.0,"street address":"10385 Beaumont Ave","id":"a6h33mcbnv3u","geo_precision":"range","state":"CA"},"type":"Feature","geometry":{"type":"Point","coordinates":[-116.977295,33.97039]}},{"properties":{"rep? (1 for yes, 0 for no)":1,"city":"Hemet","zip":"92545","company name":"Cindy Grimes, Broker","geo_score":0.862,"street address":"1527 Palomar Mt","id":"a6h33mc31woe","geo_precision":"range","state":"CA"},"type":"Feature","geometry":{"type":"Point","coordinates":[-117.011536,33.721712]}},{"properties":{"rep? (1 for yes, 0 for no)":1,"city":"Riverside","zip":"92506","company name":"Coldwell Banker Armstrong Prop","geo_score":1.0,"street address":"6809 Brockton Avenue","id":"a6h33mkttsta","geo_precision":"range","state":"CA"},"type":"Feature","geometry":{"type":"Point","coordinates":[-117.396757,33.949793]}},{"properties":{"rep? (1 for yes, 0 for no)":1,"city":"Canyon Lake","zip":"92587","company name":"Coldwell Banker Assoc Brkr/cl","geo_score":0.835,"street address":"31620 Railroad Cyn Rd","id":"a6h33mm8no3h","geo_precision":"range","state":"CA"},"type":"Feature","geometry":{"type":"Point","coordinates":[-117.25323,33.673356]}},{"properties":{"rep? (1 for yes, 0 for no)":1,"city":"Sun City","zip":"92586","company name":"Coldwell Banker Assoc Brkr/sc","geo_score":1.0,"street address":"28120 Bradley Road","id":"a6h33mel4b6j","geo_precision":"range","state":"CA"},"type":"Feature","geometry":{"type":"Point","coordinates":[-117.190736,33.716171]}},{"properties":{"rep? (1 for yes, 0 for no)":1,"city":"Murrieta","zip":"92563","company name":"Coldwell Banker Assoc.brkr-mur","geo_score":0.946,"street address":"40355 Murrieta Hot Springs Rd","id":"a6h33mf37f17","geo_precision":"range","state":"CA"},"type":"Feature","geometry":{"type":"Point","coordinates":[-117.175644,33.556338]}},{"properties":{"rep? (1 for yes, 0 for no)":1,"city":"Hemet","zip":"92543","company name":"Coldwell Banker Kivett-teeters","geo_score":0.61,"street address":"610 E. Florida Ave. #a","id":"a6h33mhaj7xd","geo_precision":"street","state":"CA"},"type":"Feature","geometry":{"type":"Point","coordinates":[-116.972758,33.747547]}},{"properties":{"rep? (1 for yes, 0 for no)":1,"city":"Beaumont","zip":"92223","company name":"Coldwell Banker Kt Bbcv","geo_score":0.512,"street address":"1655 E. 6th Street","id":"a6h33m9jl9r8","geo_precision":"street","state":"CA"},"type":"Feature","geometry":{"type":"Point","coordinates":[-116.978578,33.929383]}},{"properties":{"rep? (1 for yes, 0 for no)":1,"city":"Moreno Valley","zip":"92553","company name":"Coldwell Banker Pioneer Re","geo_score":0.962,"street address":"23631 Sunnymead Blvd","id":"a6h33mgxbs1j","geo_precision":"range","state":"CA"},"type":"Feature","geometry":{"type":"Point","coordinates":[-117.251814,33.938958]}},{"properties":{"rep? (1 for yes, 0 for no)":1,"city":"Wildomar","zip":"92595","company name":"Coldwell Banker Res-murrieta","geo_score":1.0,"street address":"23823 Clinton Keith Road","id":"a6h33m7drph4","geo_precision":"range","state":"CA"},"type":"Feature","geometry":{"type":"Point","coordinates":[-117.243449,33.596883]}},{"properties":{"rep? (1 for yes, 0 for no)":1,"city":"Temecula","zip":"92592","company name":"Coldwell Banker Res-vail Ranch","geo_score":0.659,"street address":"32675 Temecula Pkway Ste A","id":"a6h33me0fcio","geo_precision":"street","state":"CA"},"type":"Feature","geometry":{"type":"Point","coordinates":[-117.118569,33.471796]}},{"properties":{"rep? (1 for yes, 0 for no)":1,"city":"Palm Springs","zip":"92262","company name":"Coldwell Banker Residential","geo_score":0.619,"street address":"1081 N. Palm Canyon Dr.","id":"a6h33mkqw5ff","geo_precision":"street","state":"CA"},"type":"Feature","geometry":{"type":"Point","coordinates":[-116.553057,33.833759]}},{"properties":{"rep? (1 for yes, 0 for no)":1,"city":"Indian Wells","zip":"92210","company name":"Coldwell Banker Residential","geo_score":0.805,"street address":"45-000 Club Drive","id":"a6h33mjvu808","geo_precision":"street","state":"CA"},"type":"Feature","geometry":{"type":"Point","coordinates":[-116.326782,33.721427]}},{"properties":{"rep? (1 for yes, 0 for no)":1,"city":"Palm Desert","zip":"92260","company name":"Coldwell Banker Residential","geo_score":0.567,"street address":"72605 Highway 111, Ste B2","id":"a6h33m84fhf5","geo_precision":"street","state":"CA"},"type":"Feature","geometry":{"type":"Point","coordinates":[-116.403467,33.729416]}},{"properties":{"rep? (1 for yes, 0 for no)":1,"city":"La Quinta","zip":"92253","company name":"Coldwell Banker Residential","geo_score":0.585,"street address":"78138 Calle Tampico, Ste. 130","id":"a6h33mft9r5k","geo_precision":"street","state":"CA"},"type":"Feature","geometry":{"type":"Point","coordinates":[-116.293386,33.725905]}},{"properties":{"rep? (1 for yes, 0 for no)":1,"city":"Murrieta","zip":"92562","company name":"Community Real Estate","geo_score":0.805,"street address":"24630 Washington Ave #203","id":"a6h33minozah","geo_precision":"street","state":"CA"},"type":"Feature","geometry":{"type":"Point","coordinates":[-117.241883,33.581908]}},{"properties":{"rep? (1 for yes, 0 for no)":1,"city":"Temecula","zip":"92592","company name":"Concord Realty Investments","geo_score":1.0,"street address":"30912 Corte De Los Santos","id":"a6h33me7hx95","geo_precision":"range","state":"CA"},"type":"Feature","geometry":{"type":"Point","coordinates":[-117.119795,33.50341]}},{"properties":{"rep? (1 for yes, 0 for no)":1,"city":"Corona","zip":"92881","company name":"Corona Realty","geo_score":0.805,"street address":"1525 E Ontario Ave  #101","id":"a6h33m6dfl96","geo_precision":"street","state":"CA"},"type":"Feature","geometry":{"type":"Point","coordinates":[-117.551289,33.851574]}},{"properties":{"rep? (1 for yes, 0 for no)":1,"city":"Perris","zip":"92570","company name":"Court Realty","geo_score":0.902,"street address":"230 E 3rd Street","id":"a6h33mifcuyx","geo_precision":"range","state":"CA"},"type":"Feature","geometry":{"type":"Point","coordinates":[-117.225459,33.78342]}},{"properties":{"rep? (1 for yes, 0 for no)":1,"city":"Corona","zip":"92880","company name":"D.r. Horton, Inc","geo_score":0.805,"street address":"2280 Wardlow Circle # 100","id":"a6h33miygbx5","geo_precision":"street","state":"CA"},"type":"Feature","geometry":{"type":"Point","coordinates":[-117.609389,33.881699]}},{"properties":{"rep? (1 for yes, 0 for no)":1,"city":"La Quinta","zip":"92253","company name":"Desert Elite Realty","geo_score":0.571,"street address":"78-401 Hwy 111, Ste. X","id":"a6h33mauoyp4","geo_precision":"street","state":"CA"},"type":"Feature","geometry":{"type":"Point","coordinates":[-116.298551,33.716155]}},{"properties":{"rep? (1 for yes, 0 for no)":1,"city":"Moreno Valley","zip":"92557","company name":"Desiree Patno Enterprises, Inc","geo_score":1.0,"street address":"23819 Lone Pine Dr.","id":"a6h33m8eobi5","geo_precision":"range","state":"CA"},"type":"Feature","geometry":{"type":"Point","coordinates":[-117.246553,33.966611]}},{"properties":{"rep? (1 for yes, 0 for no)":1,"city":"Mira Loma","zip":"91752","company name":"Diamond Ridge Realty","geo_score":0.868,"street address":"12523 Limonite Ave Ste 440-200","id":"a6h33mjqjioo","geo_precision":"range","state":"CA"},"type":"Feature","geometry":{"type":"Point","coordinates":[-117.556266,33.975292]}},{"properties":{"rep? (1 for yes, 0 for no)":1,"city":"Hemet","zip":"92543","company name":"Diamond Valley Realtor","geo_score":0.854,"street address":"475 Stetson Suite T-360","id":"a6h33makkuur","geo_precision":"range","state":"CA"},"type":"Feature","geometry":{"type":"Point","coordinates":[-116.967481,33.729439]}},{"properties":{"rep? (1 for yes, 0 for no)":1,"city":"Perris","zip":"92571","company name":"Diane Realty Group Inc","geo_score":0.708,"street address":"764 W Ramona Expressway Ste A1","id":"a6h33max40pz","geo_precision":"street","state":"CA"},"type":"Feature","geometry":{"type":"Point","coordinates":[-117.204834,33.844623]}},{"properties":{"rep? (1 for yes, 0 for no)":1,"city":"Hemet","zip":"92545","company name":"Distinctive Realtors","geo_score":1.0,"street address":"2911 Cypress St.","id":"a6h33ma5p3u2","geo_precision":"range","state":"CA"},"type":"Feature","geometry":{"type":"Point","coordinates":[-117.00259,33.735444]}},{"properties":{"rep? (1 for yes, 0 for no)":1,"city":"Riverside","zip":"92506","company name":"Dolphin Re Services So-cal Div","geo_score":0.951,"street address":"3564 Central Ave 2c","id":"a6h33mmhmaax","geo_precision":"range","state":"CA"},"type":"Feature","geometry":{"type":"Point","coordinates":[-117.389673,33.953587]}},{"properties":{"rep? (1 for yes, 0 for no)":1,"city":"Palm Springs","zip":"92264","company name":"Eb Investments","geo_score":0.897,"street address":"555 S Sunrise Way Ste 219","id":"a6h33mfrb81s","geo_precision":"range","state":"CA"},"type":"Feature","geometry":{"type":"Point","coordinates":[-116.528244,33.813436]}},{"properties":{"rep? (1 for yes, 0 for no)":1,"city":"Riverside","zip":"92505","company name":"Elite Reo","geo_score":0.621,"street address":"11810 Pierce St #202","id":"a6h33m8whojo","geo_precision":"street","state":"CA"},"type":"Feature","geometry":{"type":"Point","coordinates":[-117.487208,33.890378]}},{"properties":{"rep? (1 for yes, 0 for no)":1,"city":"Riverside","zip":"92507","company name":"Emg Realty Group","geo_score":0.707,"street address":"5015 Canyon Crest Dr #208","id":"a6h33mdepe4o","geo_precision":"street","state":"CA"},"type":"Feature","geometry":{"type":"Point","coordinates":[-117.330804,33.987736]}},{"properties":{"rep? (1 for yes, 0 for no)":1,"city":"Temecula","zip":"92590","company name":"Era Ranch And Coast","geo_score":1.0,"street address":"43386 Business Park Dr","id":"a6h33mjllnf4","geo_precision":"range","state":"CA"},"type":"Feature","geometry":{"type":"Point","coordinates":[-117.161997,33.498601]}},{"properties":{"rep? (1 for yes, 0 for no)":1,"city":"Murrieta","zip":"92563","company name":"Exit Twin Advantage Realty","geo_score":0.946,"street address":"39755 Murrieta Hot Springs Rd","id":"a6h33m6a5g14","geo_precision":"range","state":"CA"},"type":"Feature","geometry":{"type":"Point","coordinates":[-117.162791,33.555623]}},{"properties":{"rep? (1 for yes, 0 for no)":1,"city":"Mira Loma","zip":"91752","company name":"Eze Realty","geo_score":1.0,"street address":"11170 Pala Place","id":"a6h33m8autls","geo_precision":"range","state":"CA"},"type":"Feature","geometry":{"type":"Point","coordinates":[-117.52657,33.994927]}},{"properties":{"rep? (1 for yes, 0 for no)":1,"city":"Palm Springs","zip":"92262","company name":"Fargo Mortgage &amp; Realty Servic","geo_score":0.595,"street address":"471 E. Tahquitz Canyon Way","id":"a6h33mabtw47","geo_precision":"street","state":"CA"},"type":"Feature","geometry":{"type":"Point","coordinates":[-116.546777,33.823104]}},{"properties":{"rep? (1 for yes, 0 for no)":1,"city":"Perris","zip":"92571","company name":"Fausto Zuniga, Broker","geo_score":0.61,"street address":"1632 Mendocino Way","id":"a6h33mi5mx1e","geo_precision":"street","state":"CA"},"type":"Feature","geometry":{"type":"Point","coordinates":[-117.127214,33.548015]}},{"properties":{"rep? (1 for yes, 0 for no)":1,"city":"Palm Springs","zip":"92262","company name":"First Team Real Estate","geo_score":1.0,"street address":"160 N Palm Canyon Dr","id":"a6h33max07ge","geo_precision":"range","state":"CA"},"type":"Feature","geometry":{"type":"Point","coordinates":[-116.546821,33.824229]}},{"properties":{"rep? (1 for yes, 0 for no)":1,"city":"Corona","zip":"92882","company name":"First Team Real Estate","geo_score":0.749,"street address":"200 S. Main St, Ste.100","id":"a6h33mejjfy7","geo_precision":"range","state":"CA"},"type":"Feature","geometry":{"type":"Point","coordinates":[-117.565594,33.880137]}},{"properties":{"rep? (1 for yes, 0 for no)":1,"city":"Temecula","zip":"92591","company name":"First Team Real Estate, Tem","geo_score":0.61,"street address":"29121 Overland Dr","id":"a6h33mhod67r","geo_precision":"street","state":"CA"},"type":"Feature","geometry":{"type":"Point","coordinates":[-117.161147,33.51675]}},{"properties":{"rep? (1 for yes, 0 for no)":1,"city":"Hemet","zip":"92545","company name":"Foley Real Estate","geo_score":0.815,"street address":"5001 West Florida Ave 999","id":"a6h33mk6u1rb","geo_precision":"range","state":"CA"},"type":"Feature","geometry":{"type":"Point","coordinates":[-117.03089,33.743885]}},{"properties":{"rep? (1 for yes, 0 for no)":1,"city":"Murrieta","zip":"92562","company name":"Full Realty Services Inc","geo_score":0.607,"street address":"25424 Jefferson Ave, Suite 102","id":"a6h33mbqown7","geo_precision":"street","state":"CA"},"type":"Feature","geometry":{"type":"Point","coordinates":[-117.234353,33.583251]}},{"properties":{"rep? (1 for yes, 0 for no)":1,"city":"Murrieta","zip":"92562","company name":"G-7 Realty Inc.","geo_score":1.0,"street address":"38330 Shoal Creek Drive","id":"a6h33m9p04xg","geo_precision":"range","state":"CA"},"type":"Feature","geometry":{"type":"Point","coordinates":[-117.263992,33.577034]}},{"properties":{"rep? (1 for yes, 0 for no)":1,"city":"Hemet","zip":"92545","company name":"Gasche Realty","geo_score":0.863,"street address":"1250 N Kirby St Space 53","id":"a6h33m8ox8ga","geo_precision":"range","state":"CA"},"type":"Feature","geometry":{"type":"Point","coordinates":[-116.997938,33.765888]}},{"properties":{"rep? (1 for yes, 0 for no)":1,"city":"Murrieta","zip":"92563","company name":"Gerry Riley","geo_score":0.61,"street address":"29738 Serenity Lane","id":"a6h33m8ybck8","geo_precision":"street","state":"CA"},"type":"Feature","geometry":{"type":"Point","coordinates":[-117.392404,33.663788]}},{"properties":{"rep? (1 for yes, 0 for no)":1,"city":"Murrieta","zip":"92563","company name":"Gerry Riley, Broker","geo_score":0.61,"street address":"29738 Serenity Ln.","id":"a6h33me9r3s3","geo_precision":"street","state":"CA"},"type":"Feature","geometry":{"type":"Point","coordinates":[-117.392404,33.663788]}},{"properties":{"rep? (1 for yes, 0 for no)":1,"city":"Palm Springs","zip":"92262","company name":"Greater Palm Springs Realty","geo_score":0.619,"street address":"1276 N. Palm Canyon, Suite 211","id":"a6h33ma4zt2v","geo_precision":"street","state":"CA"},"type":"Feature","geometry":{"type":"Point","coordinates":[-116.553057,33.833759]}},{"properties":{"rep? (1 for yes, 0 for no)":1,"city":"Corona","zip":"92882","company name":"Griffin Real Estate, Inc.","geo_score":0.556,"street address":"110 N. Lincoln Ave. Ste. 202","id":"a6h33ml670im","geo_precision":"street","state":"CA"},"type":"Feature","geometry":{"type":"Point","coordinates":[-117.572966,33.863648]}},{"properties":{"rep? (1 for yes, 0 for no)":1,"city":"Hemet California","zip":"92543","company name":"Griffon Real Properties","geo_score":0.898,"street address":"211 North State St.#210","id":"a6h33mkidift","geo_precision":"range","state":"CA"},"type":"Feature","geometry":{"type":"Point","coordinates":[-116.97164,33.745526]}},{"properties":{"rep? (1 for yes, 0 for no)":1,"city":"Palm Desert","zip":"92260","company name":"H K Lane Real Estate","geo_score":0.917,"street address":"72895 Fred Waring Dr","id":"a6h33m8db422","geo_precision":"range","state":"CA"},"type":"Feature","geometry":{"type":"Point","coordinates":[-116.393526,33.72871]}},{"properties":{"rep? (1 for yes, 0 for no)":1,"city":"La Quinta","zip":"92253","company name":"H K Lane Real Estate","geo_score":0.805,"street address":"78100 Main St #108","id":"a6h33mk2uq66","geo_precision":"range","state":"CA"},"type":"Feature","geometry":{"type":"Point","coordinates":[-115.51681,33.240212]}},{"properties":{"rep? (1 for yes, 0 for no)":1,"city":"Perris","zip":"92571","company name":"Heritage Home Realty","geo_score":0.887,"street address":"425 W Rider St Ste A-3","id":"a6h33mjsemmw","geo_precision":"range","state":"CA"},"type":"Feature","geometry":{"type":"Point","coordinates":[-117.239359,33.830394]}},{"properties":{"rep? (1 for yes, 0 for no)":1,"city":"Palm Springs","zip":"92262","company name":"HK Lane Real Estate","geo_score":0.951,"street address":"2045 E Tahquitz Canyon","id":"a6h33mmgyh5q","geo_precision":"range","state":"CA"},"type":"Feature","geometry":{"type":"Point","coordinates":[-116.524371,33.823164]}},{"properties":{"rep? (1 for yes, 0 for no)":1,"city":"Hemet","zip":"92544","company name":"Holte &amp; Assoc.","geo_score":0.614,"street address":"44077 E. Florida Ave.","id":"a6h33mceowyc","geo_precision":"street","state":"CA"},"type":"Feature","geometry":{"type":"Point","coordinates":[-116.958627,33.747623]}},{"properties":{"rep? (1 for yes, 0 for no)":1,"city":"Palm Springs","zip":"92262","company name":"Hom Real Estate Group","geo_score":0.65,"street address":"777 E Tahquitz Ste 200-29","id":"a6h33mcjuo2c","geo_precision":"street","state":"CA"},"type":"Feature","geometry":{"type":"Point","coordinates":[-116.553381,33.819456]}},{"properties":{"rep? (1 for yes, 0 for no)":1,"city":"Temecula","zip":"92591","company name":"Home Smart Real Estate Of California","geo_score":0.775,"street address":"41607 Margarita Rd Ste 102","id":"a6h33m6vtitu","geo_precision":"range","state":"CA"},"type":"Feature","geometry":{"type":"Point","coordinates":[-117.149948,33.516312]}},{"properties":{"rep? (1 for yes, 0 for no)":1,"city":"Hemet","zip":"92543","company name":"Homestar Real Estate Services,inc","geo_score":0.61,"street address":"601 E. Florida Ave.","id":"a6h33ma4s4rv","geo_precision":"street","state":"CA"},"type":"Feature","geometry":{"type":"Point","coordinates":[-116.972758,33.747547]}},{"properties":{"rep? (1 for yes, 0 for no)":1,"city":"Idyllwild","zip":"92549","company name":"Idyllwild Realty","geo_score":0.619,"street address":"54295 N. Circle Drive","id":"a6h33misf4p4","geo_precision":"street","state":"CA"},"type":"Feature","geometry":{"type":"Point","coordinates":[-116.710808,33.747154]}},{"properties":{"rep? (1 for yes, 0 for no)":1,"city":"Corona","zip":"92881","company name":"Inland Empire West Realty","geo_score":1.0,"street address":"1860 Compton Ave","id":"a6h33m6gzhdm","geo_precision":"range","state":"CA"},"type":"Feature","geometry":{"type":"Point","coordinates":[-117.536401,33.856626]}},{"properties":{"rep? (1 for yes, 0 for no)":1,"city":"Palm Springs","zip":"92262","company name":"Jeff Litton, Inc.","geo_score":0.724,"street address":"601 E. Tahquitz Canyon #210","id":"a6h33mjwe5u4","geo_precision":"range","state":"CA"},"type":"Feature","geometry":{"type":"Point","coordinates":[-116.545478,33.823117]}},{"properties":{"rep? (1 for yes, 0 for no)":1,"city":"Perris","zip":"92570","company name":"Judy Whitson Real Estate","geo_score":1.0,"street address":"20846 Kenoak Pl","id":"a6h33m82hpsp","geo_precision":"range","state":"CA"},"type":"Feature","geometry":{"type":"Point","coordinates":[-117.373881,33.816909]}},{"properties":{"rep? (1 for yes, 0 for no)":1,"city":"Wildomar","zip":"92595","company name":"Kb Home","geo_score":0.833,"street address":"36310 Inland Empire","id":"a6h33m8ncvoi","geo_precision":"range","state":"CA"},"type":"Feature","geometry":{"type":"Point","coordinates":[-117.236809,33.59496]}},{"properties":{"rep? (1 for yes, 0 for no)":1,"city":"Temecula","zip":"92590","company name":"Keller Williams Re-tem Valley","geo_score":0.89,"street address":"27290 Madison Ave Ste 200","id":"a6h33m7aosnj","geo_precision":"range","state":"CA"},"type":"Feature","geometry":{"type":"Point","coordinates":[-117.166371,33.524732]}},{"properties":{"rep? (1 for yes, 0 for no)":1,"city":"Corona","zip":"92881","company name":"Keller Williams Realty","geo_score":1.0,"street address":"1860 Compton Avenue","id":"a6h33mjp1kyg","geo_precision":"range","state":"CA"},"type":"Feature","geometry":{"type":"Point","coordinates":[-117.536401,33.856626]}},{"properties":{"rep? (1 for yes, 0 for no)":1,"city":"La Quinta","zip":"92253","company name":"Keller Williams Realty","geo_score":0.878,"street address":"47170 Washington St.","id":"a6h33mfx1957","geo_precision":"range","state":"CA"},"type":"Feature","geometry":{"type":"Point","coordinates":[-116.29489,33.703755]}},{"properties":{"rep? (1 for yes, 0 for no)":1,"city":"Rancho Mirage","zip":"92270","company name":"Keller Williams Realty","geo_score":1.0,"street address":"70005 Mirage Cove Dr","id":"a6h33me2mi3w","geo_precision":"range","state":"CA"},"type":"Feature","geometry":{"type":"Point","coordinates":[-116.443479,33.764728]}},{"properties":{"rep? (1 for yes, 0 for no)":1,"city":"Moreno Valley","zip":"92553","company name":"Keller Williams Realty/mv","geo_score":0.858,"street address":"13800 Heacock St Unit C118","id":"a6h33mmdgnnp","geo_precision":"range","state":"CA"},"type":"Feature","geometry":{"type":"Point","coordinates":[-117.243734,33.920098]}},{"properties":{"rep? (1 for yes, 0 for no)":1,"city":"Riverside","zip":"92506","company name":"Keller Williams Realty/rivr","geo_score":0.805,"street address":"7065 Indiana Ave #200","id":"a6h33mk9w6hr","geo_precision":"street","state":"CA"},"type":"Feature","geometry":{"type":"Point","coordinates":[-117.387304,33.946311]}},{"properties":{"rep? (1 for yes, 0 for no)":1,"city":"La Quinta","zip":"92253","company name":"La Quinta Palms Real Estate Co","geo_score":0.683,"street address":"51-001 Eisenhower Drive","id":"a6h33ma2oj73","geo_precision":"street","state":"CA"},"type":"Feature","geometry":{"type":"Point","coordinates":[-116.294853,33.695426]}},{"properties":{"rep? (1 for yes, 0 for no)":1,"city":"La Quinta","zip":"92253","company name":"La Quinta Palms Realty","geo_score":0.951,"street address":"51001 Eisenhower","id":"a6h33mi51wfj","geo_precision":"range","state":"CA"},"type":"Feature","geometry":{"type":"Point","coordinates":[-116.308014,33.677943]}},{"properties":{"rep? (1 for yes, 0 for no)":1,"city":"Perris","zip":"92570","company name":"Lake Perris Realty","geo_score":1.0,"street address":"23330 Cowie Ave","id":"a6h33mkc9pum","geo_precision":"range","state":"CA"},"type":"Feature","geometry":{"type":"Point","coordinates":[-117.269879,33.782356]}},{"properties":{"rep? (1 for yes, 0 for no)":1,"city":"Lake Mathews","zip":"92570","company name":"Land Of The Hawk Realty","geo_score":0.92,"street address":"17679 Cajalco Rd","id":"a6h33mbxeeee","geo_precision":"range","state":"CA"},"type":"Feature","geometry":{"type":"Point","coordinates":[-117.350222,33.835544]}},{"properties":{"rep? (1 for yes, 0 for no)":1,"city":"Hemet","zip":"92545","company name":"Larry Ray Bryant Real Estate","geo_score":0.443,"street address":"172 Prado Dr.","id":"a6h33m8ao8jx","geo_precision":"street","state":"CA"},"type":"Feature","geometry":{"type":"Point","coordinates":[-117.440846,33.881526]}},{"properties":{"rep? (1 for yes, 0 for no)":1,"city":"Hemet","zip":"92544","company name":"Liberty Real Estate","geo_score":0.714,"street address":"41591 Florida #a","id":"a6h33melcfiu","geo_precision":"street","state":"CA"},"type":"Feature","geometry":{"type":"Point","coordinates":[-116.894401,33.750845]}},{"properties":{"rep? (1 for yes, 0 for no)":1,"city":"Murrieta","zip":"92562","company name":"Lighthouse Properties","geo_score":0.688,"street address":"26429 Castle Lane","id":"a6h33m871l16","geo_precision":"street","state":"CA"},"type":"Feature","geometry":{"type":"Point","coordinates":[-117.194562,33.583739]}},{"properties":{"rep? (1 for yes, 0 for no)":1,"city":"Hemet","zip":"92543","company name":"Los Flores Realty","geo_score":0.61,"street address":"1002 E. Florida Ave.","id":"a6h33mg3m1wj","geo_precision":"street","state":"CA"},"type":"Feature","geometry":{"type":"Point","coordinates":[-116.972758,33.747547]}},{"properties":{"rep? (1 for yes, 0 for no)":1,"city":"La Quinta","zip":"92253","company name":"Luxury Homes by Keller Williams","geo_score":1.0,"street address":"50981 Washington Street","id":"a6h33mbr39s3","geo_precision":"range","state":"CA"},"type":"Feature","geometry":{"type":"Point","coordinates":[-116.294863,33.67934]}},{"properties":{"rep? (1 for yes, 0 for no)":1,"city":"Mira Loma","zip":"91752","company name":"Mando Macayaon, Broker","geo_score":0.512,"street address":"7069 Ohio River Dr.","id":"a6h33mimvzn3","geo_precision":"street","state":"CA"},"type":"Feature","geometry":{"type":"Point","coordinates":[-117.707892,34.127837]}},{"properties":{"rep? (1 for yes, 0 for no)":1,"city":"Hemet","zip":"92543","company name":"Matt Alderman","geo_score":0.614,"street address":"146 S. Harvard St.","id":"a6h33m65syyi","geo_precision":"street","state":"CA"},"type":"Feature","geometry":{"type":"Point","coordinates":[-116.970585,33.749033]}},{"properties":{"rep? (1 for yes, 0 for no)":1,"city":"Hemet","zip":"92544","company name":"Matt Alderman, Broker","geo_score":0.619,"street address":"42550 E. Mayberry","id":"a6h33mb8zt5x","geo_precision":"street","state":"CA"},"type":"Feature","geometry":{"type":"Point","coordinates":[-116.888496,33.740601]}},{"properties":{"rep? (1 for yes, 0 for no)":1,"city":"Hemet","zip":"92545","company name":"Mclean Management","geo_score":0.539,"street address":"3507 W. Stetson Ave #227","id":"a6h33mh8xkzw","geo_precision":"street","state":"CA"},"type":"Feature","geometry":{"type":"Point","coordinates":[-116.988981,33.729362]}},{"properties":{"rep? (1 for yes, 0 for no)":1,"city":"Hemet","zip":"92544","company name":"Melissa Ann Raskey-broker","geo_score":0.619,"street address":"981 No. Girard St.","id":"a6h33mfk8bst","geo_precision":"street","state":"CA"},"type":"Feature","geometry":{"type":"Point","coordinates":[-116.954312,33.751273]}},{"properties":{"rep? (1 for yes, 0 for no)":1,"city":"Mira Loma","zip":"91752","company name":"Mira Loma Realty","geo_score":1.0,"street address":"5140 Etiwanda Ave","id":"a6h33mkmonop","geo_precision":"range","state":"CA"},"type":"Feature","geometry":{"type":"Point","coordinates":[-117.523352,33.993783]}},{"properties":{"rep? (1 for yes, 0 for no)":1,"city":"Hemet","zip":"92543","company name":"Mission Grove Realty","geo_score":0.614,"street address":"153 S. Harvard St.","id":"a6h33mgx16d1","geo_precision":"street","state":"CA"},"type":"Feature","geometry":{"type":"Point","coordinates":[-116.970585,33.749033]}},{"properties":{"rep? (1 for yes, 0 for no)":1,"city":"Mira Loma","zip":"91752","company name":"Mona Patel Realty","geo_score":0.659,"street address":"6847 Stern Court","id":"a6h33m99n141","geo_precision":"street","state":"CA"},"type":"Feature","geometry":{"type":"Point","coordinates":[-117.527077,33.978797]}},{"properties":{"rep? (1 for yes, 0 for no)":1,"city":"Perris","zip":"92571","company name":"Moreno Beach Realty","geo_score":1.0,"street address":"2379 Summerhill Court","id":"a6h33mkoxdq5","geo_precision":"range","state":"CA"},"type":"Feature","geometry":{"type":"Point","coordinates":[-117.213974,33.815178]}},{"properties":{"rep? (1 for yes, 0 for no)":1,"city":"Idyllwild","zip":"92549","company name":"Muirs Mountain Realty","geo_score":0.357,"street address":"P.o. Box 1107","id":"a6h33mluaitm","geo_precision":"street","state":"CA"},"type":"Feature","geometry":{"type":"Point","coordinates":[-117.33329,33.667688]}},{"properties":{"rep? (1 for yes, 0 for no)":1,"city":"Riverside","zip":"92506","company name":"National Realty Group","geo_score":0.89,"street address":"6700 Indiana Ave Ste 130","id":"a6h33mjxmwcg","geo_precision":"range","state":"CA"},"type":"Feature","geometry":{"type":"Point","coordinates":[-117.390125,33.944297]}},{"properties":{"rep? (1 for yes, 0 for no)":1,"city":"Mira Loma","zip":"91752","company name":"Navarro Real Estate","geo_score":1.0,"street address":"11679 Niagara Dr","id":"a6h33mcsdtj6","geo_precision":"range","state":"CA"},"type":"Feature","geometry":{"type":"Point","coordinates":[-117.539152,33.97877]}},{"properties":{"rep? (1 for yes, 0 for no)":1,"city":"Mira Loma","zip":"91752","company name":"Navarro Real Estate","geo_score":1.0,"street address":"11679 Niagara Dr.","id":"a6h33m6sl20n","geo_precision":"range","state":"CA"},"type":"Feature","geometry":{"type":"Point","coordinates":[-117.539152,33.97877]}},{"properties":{"rep? (1 for yes, 0 for no)":1,"city":"Hemet","zip":"92543","company name":"New Century Realty &amp; Investmen","geo_score":0.707,"street address":"211 N. State St. # 206","id":"a6h33m9w6wi3","geo_precision":"range","state":"CA"},"type":"Feature","geometry":{"type":"Point","coordinates":[-116.971641,33.745599]}},{"properties":{"rep? (1 for yes, 0 for no)":1,"city":"Hemet","zip":"92543","company name":"Nuevo Valley Realty","geo_score":0.614,"street address":"151 N. Gilbert, Suite D","id":"a6h33meyqgbz","geo_precision":"street","state":"CA"},"type":"Feature","geometry":{"type":"Point","coordinates":[-116.97602,33.749345]}},{"properties":{"rep? (1 for yes, 0 for no)":1,"city":"Murrieta","zip":"92562","company name":"Oak Tree Realty Group","geo_score":0.714,"street address":"25020 Las Brisas Rd. Ste. D","id":"a6h33m8e5a00","geo_precision":"street","state":"CA"},"type":"Feature","geometry":{"type":"Point","coordinates":[-117.219025,33.547178]}},{"properties":{"rep? (1 for yes, 0 for no)":1,"city":"Perris","zip":"92570","company name":"Oneres Bay Area Realty","geo_score":0.805,"street address":"23491 Ellis Ave","id":"a6h33menx2jn","geo_precision":"street","state":"CA"},"type":"Feature","geometry":{"type":"Point","coordinates":[-117.261099,33.772028]}},{"properties":{"rep? (1 for yes, 0 for no)":1,"city":"Temecula","zip":"92591","company name":"Pacific Coast Realty Group Inc","geo_score":0.805,"street address":"27450 Ynez Rd. #228","id":"a6h33mgv67bu","geo_precision":"street","state":"CA"},"type":"Feature","geometry":{"type":"Point","coordinates":[-117.162264,33.532517]}},{"properties":{"rep? (1 for yes, 0 for no)":1,"city":"Hemet","zip":"92545","company name":"Pacific Cove Realty And Loan","geo_score":0.557,"street address":"3032 Red  Cedar Trail","id":"a6h33mm1jjiw","geo_precision":"street","state":"CA"},"type":"Feature","geometry":{"type":"Point","coordinates":[-117.233992,33.770933]}},{"properties":{"rep? (1 for yes, 0 for no)":1,"city":"Hemet","zip":"92543","company name":"Pacific Homes Real Estate","geo_score":0.607,"street address":"640 N. San Jacinto St. #k","id":"a6h33mgsknvh","geo_precision":"street","state":"CA"},"type":"Feature","geometry":{"type":"Point","coordinates":[-116.958607,33.743305]}},{"properties":{"rep? (1 for yes, 0 for no)":1,"city":"Temecula","zip":"92591","company name":"Pacific Lifestyles Realty","geo_score":0.724,"street address":"29379 Rancho Calif Rd #106","id":"a6h33mchxai5","geo_precision":"street","state":"CA"},"type":"Feature","geometry":{"type":"Point","coordinates":[-117.136387,33.508142]}},{"properties":{"rep? (1 for yes, 0 for no)":1,"city":"Corona","zip":"92883","company name":"Pacific Real Estate","geo_score":0.61,"street address":"2045 Compton Avenue # 204","id":"a6h33ma205km","geo_precision":"street","state":"CA"},"type":"Feature","geometry":{"type":"Point","coordinates":[-117.539801,33.874297]}},{"properties":{"rep? (1 for yes, 0 for no)":1,"city":"Corona","zip":"92883","company name":"Pacific Shield Realty","geo_score":0.598,"street address":"4160 Temescal Canyon Rd.ste310","id":"a6h33mi4pm7v","geo_precision":"street","state":"CA"},"type":"Feature","geometry":{"type":"Point","coordinates":[-117.456291,33.756118]}},{"properties":{"rep? (1 for yes, 0 for no)":1,"city":"Beaumont","zip":"92223","company name":"Pass Area Realty","geo_score":0.801,"street address":"620 Edgar","id":"a6h33mmhiqtk","geo_precision":"range","state":"CA"},"type":"Feature","geometry":{"type":"Point","coordinates":[-116.979961,33.929701]}},{"properties":{"rep? (1 for yes, 0 for no)":1,"city":"Palm Desert","zip":"92260","company name":"Power Brokers International","geo_score":0.75,"street address":"74040 Hwy 111  Suite 206","id":"a6h33mg24yxv","geo_precision":"range","state":"CA"},"type":"Feature","geometry":{"type":"Point","coordinates":[-116.373034,33.721293]}},{"properties":{"rep? (1 for yes, 0 for no)":1,"city":"Banning","zip":"92220","company name":"Pro Star Realty Group","geo_score":0.902,"street address":"884 N 4th Street","id":"a6h33m68uys8","geo_precision":"range","state":"CA"},"type":"Feature","geometry":{"type":"Point","coordinates":[-116.881558,33.934953]}},{"properties":{"rep? (1 for yes, 0 for no)":1,"city":"Perris","zip":"92570","company name":"Progressive Realty Services","geo_score":0.577,"street address":"322 Caldera Street","id":"a6h33m9rlpn2","geo_precision":"street","state":"CA"},"type":"Feature","geometry":{"type":"Point","coordinates":[-117.327638,33.961386]}},{"properties":{"rep? (1 for yes, 0 for no)":1,"city":"La Quinta","zip":"92253","company name":"ProNet LandSource","geo_score":0.585,"street address":"51625 Desert Club Dr., Ste.101","id":"a6h33maoij4m","geo_precision":"street","state":"CA"},"type":"Feature","geometry":{"type":"Point","coordinates":[-116.293386,33.725905]}},{"properties":{"rep? (1 for yes, 0 for no)":1,"city":"Palm Springs","zip":"92262","company name":"Prudential Ca Realty","geo_score":0.984,"street address":"2905 Tahquitz Canyon Way","id":"a6h33ml0m6q9","geo_precision":"range","state":"CA"},"type":"Feature","geometry":{"type":"Point","coordinates":[-116.513638,33.823168]}},{"properties":{"rep? (1 for yes, 0 for no)":1,"city":"Riverside","zip":"92506","company name":"Prudential Calif Realty/riv","geo_score":1.0,"street address":"6349 Riverside Ave","id":"a6h33metbwzi","geo_precision":"range","state":"CA"},"type":"Feature","geometry":{"type":"Point","coordinates":[-117.387923,33.952252]}},{"properties":{"rep? (1 for yes, 0 for no)":1,"city":"Corona","zip":"92881","company name":"Prudential California Realty","geo_score":0.408,"street address":"1181 Calif. Avenue, Suite 204","id":"a6h33mhdhdve","geo_precision":"street","state":"CA"},"type":"Feature","geometry":{"type":"Point","coordinates":[-117.89578,33.92829]}},{"properties":{"rep? (1 for yes, 0 for no)":1,"city":"Murrieta","zip":"92562","company name":"Prudential California-murrieta","geo_score":0.89,"street address":"25240 Hancock Ave Ste 110","id":"a6h33maa0uvs","geo_precision":"range","state":"CA"},"type":"Feature","geometry":{"type":"Point","coordinates":[-117.182433,33.565605]}},{"properties":{"rep? (1 for yes, 0 for no)":1,"city":"Canyon Lake","zip":"92587","company name":"Prudential Canyon Lake R. E.","geo_score":0.89,"street address":"31730 Railroad Canyon Rd.","id":"a6h33mk6n3cd","geo_precision":"range","state":"CA"},"type":"Feature","geometry":{"type":"Point","coordinates":[-117.253744,33.673355]}},{"properties":{"rep? (1 for yes, 0 for no)":1,"city":"Idyllwild","zip":"92549","company name":"Quiet Creek Real Estate","geo_score":0.357,"street address":"P.o. Box 240","id":"a6h33m6skmnq","geo_precision":"street","state":"CA"},"type":"Feature","geometry":{"type":"Point","coordinates":[-117.33329,33.667688]}},{"properties":{"rep? (1 for yes, 0 for no)":1,"city":"La Quinta","zip":"92253","company name":"Rancho La Quinta Properties","geo_score":0.787,"street address":"79-295 Rancho La Quinta Drive","id":"a6h33mctpqkl","geo_precision":"street","state":"CA"},"type":"Feature","geometry":{"type":"Point","coordinates":[-116.294853,33.695426]}},{"properties":{"rep? (1 for yes, 0 for no)":1,"city":"Temecula","zip":"92590","company name":"Rancon Real Estate","geo_score":0.805,"street address":"27740 Jefferson Avenue, 100","id":"a6h33mhkfmia","geo_precision":"street","state":"CA"},"type":"Feature","geometry":{"type":"Point","coordinates":[-117.172268,33.527021]}},{"properties":{"rep? (1 for yes, 0 for no)":1,"city":"Murrieta","zip":"92562","company name":"Rancon Real Estate-murrieta","geo_score":0.678,"street address":"41391 Kalmia St Suite 100","id":"a6h33mk17uk4","geo_precision":"street","state":"CA"},"type":"Feature","geometry":{"type":"Point","coordinates":[-117.208954,33.562716]}},{"properties":{"rep? (1 for yes, 0 for no)":1,"city":"Temecula","zip":"92592","company name":"Re Global","geo_score":0.453,"street address":"45204 Saint Tisbury St.","id":"a6h33mgahyme","geo_precision":"street","state":"CA"},"type":"Feature","geometry":{"type":"Point","coordinates":[-117.073307,33.441742]}},{"properties":{"rep? (1 for yes, 0 for no)":1,"city":"Corona","zip":"92880","company name":"Re/max All Stars Realty-corona","geo_score":1.0,"street address":"765 North Main Street","id":"a6h33mazp8dm","geo_precision":"range","state":"CA"},"type":"Feature","geometry":{"type":"Point","coordinates":[-117.563781,33.892271]}},{"properties":{"rep? (1 for yes, 0 for no)":1,"city":"Riverside","zip":"92506","company name":"Re/max All Stars Riverside","geo_score":0.89,"street address":"6809 Indiana Ave Ste 101","id":"a6h33mht6uyl","geo_precision":"range","state":"CA"},"type":"Feature","geometry":{"type":"Point","coordinates":[-117.392395,33.942646]}},{"properties":{"rep? (1 for yes, 0 for no)":1,"city":"Temecula","zip":"92591","company name":"Re/max Elite Team","geo_score":1.0,"street address":"29377 Rancho California Rd.","id":"a6h33mikdx2e","geo_precision":"range","state":"CA"},"type":"Feature","geometry":{"type":"Point","coordinates":[-117.147894,33.503297]}},{"properties":{"rep? (1 for yes, 0 for no)":1,"city":"Corona","zip":"92879","company name":"Re/max Partners","geo_score":0.941,"street address":"390 Mc Kinley # 106","id":"a6h33mknvbr5","geo_precision":"range","state":"CA"},"type":"Feature","geometry":{"type":"Point","coordinates":[-117.514276,33.881954]}},{"properties":{"rep? (1 for yes, 0 for no)":1,"city":"Corona","zip":"92880","company name":"Re/max Professionals","geo_score":0.749,"street address":"4740 Green River Rd. Ste. 103","id":"a6h33m8t4i9h","geo_precision":"range","state":"CA"},"type":"Feature","geometry":{"type":"Point","coordinates":[-117.564436,33.8882]}},{"properties":{"rep? (1 for yes, 0 for no)":1,"city":"Palm Springs","zip":"92264","company name":"Re/max Real Estate Consultants","geo_score":0.619,"street address":"501 S. Palm Canyon","id":"a6h33md5g6gr","geo_precision":"street","state":"CA"},"type":"Feature","geometry":{"type":"Point","coordinates":[-116.54264,33.784252]}},{"properties":{"rep? (1 for yes, 0 for no)":1,"city":"Palm Desert","zip":"92260","company name":"Re/max Real Estate Consultants","geo_score":0.757,"street address":"74-199 El Paseo, Ste 101","id":"a6h33m8fy7r8","geo_precision":"street","state":"CA"},"type":"Feature","geometry":{"type":"Point","coordinates":[-116.399156,33.721955]}},{"properties":{"rep? (1 for yes, 0 for no)":1,"city":"La Quinta","zip":"92253","company name":"Re/max Real Estate Consultants","geo_score":0.732,"street address":"78-965 Hwy 111","id":"a6h33mg85g7i","geo_precision":"street","state":"CA"},"type":"Feature","geometry":{"type":"Point","coordinates":[-116.299144,33.716218]}},{"properties":{"rep? (1 for yes, 0 for no)":1,"city":"Moreno Valley","zip":"92553","company name":"Re/max Results","geo_score":0.962,"street address":"23580 Sunnymead Blvd","id":"a6h33mdl3jnw","geo_precision":"range","state":"CA"},"type":"Feature","geometry":{"type":"Point","coordinates":[-117.252301,33.938949]}},{"properties":{"rep? (1 for yes, 0 for no)":1,"city":"Riverside","zip":"92506","company name":"Real Estate Associates","geo_score":0.89,"street address":"6800 Indiana Ave Ste 150","id":"a6h33m8kxw8r","geo_precision":"range","state":"CA"},"type":"Feature","geometry":{"type":"Point","coordinates":[-117.392316,33.942714]}},{"properties":{"rep? (1 for yes, 0 for no)":1,"city":"Perris","zip":"92571","company name":"Real Estate First Inc","geo_score":0.615,"street address":"85 E. Ramona Expressway #3","id":"a6h33mcc4dn6","geo_precision":"range","state":"CA"},"type":"Feature","geometry":{"type":"Point","coordinates":[-117.226019,33.844547]}},{"properties":{"rep? (1 for yes, 0 for no)":1,"city":"Corona","zip":"92883","company name":"Real Estate First, Inc.","geo_score":0.759,"street address":"4160 Temescal Canyon Rdste.314","id":"a6h33mi3z1y0","geo_precision":"street","state":"CA"},"type":"Feature","geometry":{"type":"Point","coordinates":[-117.459591,33.759402]}},{"properties":{"rep? (1 for yes, 0 for no)":1,"city":"Perris","zip":"92570","company name":"Real Estate Resource Services","geo_score":0.916,"street address":"21621 River Rd.","id":"a6h33mfxqkp8","geo_precision":"range","state":"CA"},"type":"Feature","geometry":{"type":"Point","coordinates":[-117.283198,33.726203]}},{"properties":{"rep? (1 for yes, 0 for no)":1,"city":"Moreno Valley","zip":"92557","company name":"Real Living Premier Realty","geo_score":0.805,"street address":"23180 Hemlock Avenue #100","id":"a6h33m9csz4g","geo_precision":"street","state":"CA"},"type":"Feature","geometry":{"type":"Point","coordinates":[-117.261457,33.942439]}},{"properties":{"rep? (1 for yes, 0 for no)":1,"city":"Corona","zip":"92883","company name":"Real Pros Real Estate Group","geo_score":0.539,"street address":"3811 Bedford Cnyn Rd. Ste. 101","id":"a6h33mjdqbpz","geo_precision":"street","state":"CA"},"type":"Feature","geometry":{"type":"Point","coordinates":[-117.52608,33.801217]}},{"properties":{"rep? (1 for yes, 0 for no)":1,"city":"Hemet","zip":"92543","company name":"Realty America","geo_score":0.61,"street address":"1111 E. Florida","id":"a6h33m72f2ol","geo_precision":"street","state":"CA"},"type":"Feature","geometry":{"type":"Point","coordinates":[-116.972758,33.747547]}},{"properties":{"rep? (1 for yes, 0 for no)":1,"city":"Perris","zip":"92571","company name":"Realty Elite Group","geo_score":1.0,"street address":"741 Placentia Ave","id":"a6h33mfub2jk","geo_precision":"range","state":"CA"},"type":"Feature","geometry":{"type":"Point","coordinates":[-117.211292,33.822912]}},{"properties":{"rep? (1 for yes, 0 for no)":1,"city":"Palm Desert","zip":"92211","company name":"Realty Executives Desert Cities","geo_score":0.633,"street address":"78000 Fred Waring Dr, Ste 202","id":"a6h33ma64ibq","geo_precision":"street","state":"CA"},"type":"Feature","geometry":{"type":"Point","coordinates":[-116.295385,33.765425]}},{"properties":{"rep? (1 for yes, 0 for no)":1,"city":"La Quinta","zip":"92253","company name":"Realty Executives Desert Lifestyles","geo_score":0.643,"street address":"47875 Caleo Bay, Ste #a101","id":"a6h33mdz8nbk","geo_precision":"street","state":"CA"},"type":"Feature","geometry":{"type":"Point","coordinates":[-116.270488,33.678359]}},{"properties":{"rep? (1 for yes, 0 for no)":1,"city":"Temecula","zip":"92592","company name":"Realty Executives Otf","geo_score":0.707,"street address":"31213 Temecula Pkwy #100","id":"a6h33m6o7vdd","geo_precision":"street","state":"CA"},"type":"Feature","geometry":{"type":"Point","coordinates":[-117.118569,33.471796]}},{"properties":{"rep? (1 for yes, 0 for no)":1,"city":"Perris","zip":"92571","company name":"Realty Executives/perris","geo_score":0.708,"street address":"764 W Ramona Expressway Ste A","id":"a6h33mdrp6f0","geo_precision":"street","state":"CA"},"type":"Feature","geometry":{"type":"Point","coordinates":[-117.204834,33.844623]}},{"properties":{"rep? (1 for yes, 0 for no)":1,"city":"Riverside","zip":"92506","company name":"Realty Executives/riverside","geo_score":0.89,"street address":"3610 Central Avenue Ste 400","id":"a6h33m9wzamb","geo_precision":"range","state":"CA"},"type":"Feature","geometry":{"type":"Point","coordinates":[-117.391345,33.953574]}},{"properties":{"rep? (1 for yes, 0 for no)":1,"city":"Murrieta","zip":"92563","company name":"Realty World And Associates","geo_score":0.688,"street address":"38975 Sky Canyon Drive Ste.109","id":"a6h33mb32d3z","geo_precision":"street","state":"CA"},"type":"Feature","geometry":{"type":"Point","coordinates":[-117.129561,33.58276]}},{"properties":{"rep? (1 for yes, 0 for no)":1,"city":"Temecula","zip":"92590","company name":"Red Real Estate","geo_score":0.512,"street address":"31045 Temecula Parkway","id":"a6h33m8m8k4q","geo_precision":"street","state":"CA"},"type":"Feature","geometry":{"type":"Point","coordinates":[-117.118569,33.471796]}},{"properties":{"rep? (1 for yes, 0 for no)":1,"city":"Temecula","zip":"92590","company name":"Reliable Realty Inc.","geo_score":0.805,"street address":"28544 Old Town Front St. #205","id":"a6h33mblp728","geo_precision":"street","state":"CA"},"type":"Feature","geometry":{"type":"Point","coordinates":[-117.153841,33.499159]}},{"properties":{"rep? (1 for yes, 0 for no)":1,"city":"Hemet","zip":"92545","company name":"Reviron Realty","geo_score":0.539,"street address":"2091 W. Florida Ave #210","id":"a6h33m8m7nzo","geo_precision":"street","state":"CA"},"type":"Feature","geometry":{"type":"Point","coordinates":[-116.989082,33.74746]}},{"properties":{"rep? (1 for yes, 0 for no)":1,"city":"Perris","zip":"92571","company name":"Revolution Realty","geo_score":1.0,"street address":"2379 Summerhill Ct","id":"a6h33mgncrvp","geo_precision":"range","state":"CA"},"type":"Feature","geometry":{"type":"Point","coordinates":[-117.213974,33.815178]}},{"properties":{"rep? (1 for yes, 0 for no)":1,"city":"Perris","zip":"92570","company name":"Robert Lerias Realty","geo_score":0.585,"street address":"228 Monument Parkway","id":"a6h33mhuxo5i","geo_precision":"street","state":"CA"},"type":"Feature","geometry":{"type":"Point","coordinates":[-117.359052,33.804061]}},{"properties":{"rep? (1 for yes, 0 for no)":1,"city":"Idyllwild","zip":"92549","company name":"Robin Oates Real Estate, Inc.","geo_score":0.619,"street address":"54225 N. Circle Dr.","id":"a6h33mc18tka","geo_precision":"street","state":"CA"},"type":"Feature","geometry":{"type":"Point","coordinates":[-116.710808,33.747154]}},{"properties":{"rep? (1 for yes, 0 for no)":1,"city":"Mira Loma","zip":"91752","company name":"Romero &amp; Associates, Realtors","geo_score":0.71,"street address":"11860  65th St","id":"a6h33mid5j3c","geo_precision":"street","state":"CA"},"type":"Feature","geometry":{"type":"Point","coordinates":[-117.540712,33.969021]}},{"properties":{"rep? (1 for yes, 0 for no)":1,"city":"Palm Desert","zip":"92260","company name":"Rosenthal &amp; Associates","geo_score":0.917,"street address":"72880 Fred Waring Drive","id":"a6h33mfzdw38","geo_precision":"range","state":"CA"},"type":"Feature","geometry":{"type":"Point","coordinates":[-116.393826,33.728703]}},{"properties":{"rep? (1 for yes, 0 for no)":1,"city":"Murrieta","zip":"92562","company name":"Sabine Krueger &amp; Assoc., Inc.","geo_score":0.537,"street address":"26815 Chamomile St","id":"a6h33mass7gq","geo_precision":"street","state":"CA"},"type":"Feature","geometry":{"type":"Point","coordinates":[-117.266314,33.94918]}},{"properties":{"rep? (1 for yes, 0 for no)":1,"city":"Corona","zip":"92882","company name":"Sales Advantage Group","geo_score":0.909,"street address":"268 N Lincoln Ave Ste 12","id":"a6h33mfyubce","geo_precision":"range","state":"CA"},"type":"Feature","geometry":{"type":"Point","coordinates":[-117.581709,33.886775]}},{"properties":{"rep? (1 for yes, 0 for no)":1,"city":"Hemet","zip":"92543","company name":"Samaritan Realty","geo_score":0.61,"street address":"217 E. Floridia Ave","id":"a6h33m9vlqja","geo_precision":"street","state":"CA"},"type":"Feature","geometry":{"type":"Point","coordinates":[-116.972758,33.747547]}},{"properties":{"rep? (1 for yes, 0 for no)":1,"city":"Hemet","zip":"92543","company name":"Samir &amp; Associates Inc","geo_score":1.0,"street address":"333 E Florida Ave","id":"a6h33mldzarp","geo_precision":"range","state":"CA"},"type":"Feature","geometry":{"type":"Point","coordinates":[-116.969156,33.747559]}},{"properties":{"rep? (1 for yes, 0 for no)":1,"city":"Temecula","zip":"92590","company name":"Sca Real Estate","geo_score":0.625,"street address":"27710 Jefferson Ave., Ste 102","id":"a6h33m65m02u","geo_precision":"street","state":"CA"},"type":"Feature","geometry":{"type":"Point","coordinates":[-117.179177,33.488666]}},{"properties":{"rep? (1 for yes, 0 for no)":1,"city":"Palm Springs","zip":"92262","company name":"Scott Lyle Realtors","geo_score":1.0,"street address":"483 N Palm Canyon Dr","id":"a6h33m8d2o9v","geo_precision":"range","state":"CA"},"type":"Feature","geometry":{"type":"Point","coordinates":[-116.546817,33.830039]}},{"properties":{"rep? (1 for yes, 0 for no)":1,"city":"Palm Desert","zip":"92211","company name":"Select Realty Services","geo_score":0.571,"street address":"77570 Springfield Lane, Ste. O","id":"a6h33mj45kay","geo_precision":"street","state":"CA"},"type":"Feature","geometry":{"type":"Point","coordinates":[-116.292965,33.777547]}},{"properties":{"rep? (1 for yes, 0 for no)":1,"city":"Hemet","zip":"92545","company name":"Sharon Mccullough, Broker","geo_score":1.0,"street address":"1926 Almond Tree St.","id":"a6h33mewnlha","geo_precision":"range","state":"CA"},"type":"Feature","geometry":{"type":"Point","coordinates":[-116.992511,33.717566]}},{"properties":{"rep? (1 for yes, 0 for no)":1,"city":"Hemet Ca.","zip":"92545","company name":"Sharp Realty","geo_score":0.972,"street address":"650 Brisbane St.","id":"a6h33mku9j0u","geo_precision":"range","state":"CA"},"type":"Feature","geometry":{"type":"Point","coordinates":[-117.011142,33.757423]}},{"properties":{"rep? (1 for yes, 0 for no)":1,"city":"Hemet","zip":"92543","company name":"Signature Group Realty &amp; Property Management","geo_score":0.734,"street address":"1314 W.florida Ave #102","id":"a6h33m9f0095","geo_precision":"range","state":"CA"},"type":"Feature","geometry":{"type":"Point","coordinates":[-116.971694,33.747554]}},{"properties":{"rep? (1 for yes, 0 for no)":1,"city":"Hemet","zip":"92545","company name":"So Cal Homes Realty","geo_score":0.443,"street address":"1845 Little Yellow Lane","id":"a6h33m7i18bl","geo_precision":"street","state":"CA"},"type":"Feature","geometry":{"type":"Point","coordinates":[-117.343275,33.887017]}},{"properties":{"rep? (1 for yes, 0 for no)":1,"city":"Hemet","zip":"92544","company name":"Socal Realtors &amp; Associates","geo_score":0.625,"street address":"1881 E. Florida Avae., Ste. #c","id":"a6h33mk89cve","geo_precision":"street","state":"CA"},"type":"Feature","geometry":{"type":"Point","coordinates":[-116.923797,33.746371]}},{"properties":{"rep? (1 for yes, 0 for no)":1,"city":"Temecula","zip":"92590","company name":"Southern California Investors","geo_score":0.883,"street address":"27708 Jefferson Ave Suite 200","id":"a6h33mae1op9","geo_precision":"range","state":"CA"},"type":"Feature","geometry":{"type":"Point","coordinates":[-117.158087,33.511296]}},{"properties":{"rep? (1 for yes, 0 for no)":1,"city":"Murrieta","zip":"92562","company name":"Southwest Realty","geo_score":0.737,"street address":"25186 Hancock Ave Ste #120","id":"a6h33mg805yu","geo_precision":"street","state":"CA"},"type":"Feature","geometry":{"type":"Point","coordinates":[-117.187112,33.573782]}},{"properties":{"rep? (1 for yes, 0 for no)":1,"city":"Perris","zip":"92570","company name":"Stacy Howe Broker","geo_score":0.5,"street address":"18531 Toehee St","id":"a6h33mb8qbfy","geo_precision":"street","state":"CA"},"type":"Feature","geometry":{"type":"Point","coordinates":[-117.217355,33.805317]}},{"properties":{"rep? (1 for yes, 0 for no)":1,"city":"Corona","zip":"92879","company name":"Standard Pacific Homes","geo_score":0.883,"street address":"255 E Rincon St Ste 200","id":"a6h33mh5j4xu","geo_precision":"range","state":"CA"},"type":"Feature","geometry":{"type":"Point","coordinates":[-117.561707,33.886339]}},{"properties":{"rep? (1 for yes, 0 for no)":1,"city":"Corona","zip":"92880","company name":"Steve Rugg","geo_score":0.683,"street address":"6950 Farmall Way","id":"a6h33misv6xj","geo_precision":"zip","state":"CA"},"type":"Feature","geometry":{"type":"Point","coordinates":[-116.055617,33.752886]}},{"properties":{"rep? (1 for yes, 0 for no)":1,"city":"Banning","zip":"92220","company name":"Sun Lakes Realty Inc","geo_score":0.969,"street address":"300 S Highland Springs Ste2k","id":"a6h33mit7pkz","geo_precision":"range","state":"CA"},"type":"Feature","geometry":{"type":"Point","coordinates":[-116.946776,33.923781]}},{"properties":{"rep? (1 for yes, 0 for no)":1,"city":"Palm Springs","zip":"92264","company name":"Tarbell Realtors","geo_score":0.633,"street address":"211 E. Palm Canyon Drive","id":"a6h33mcr7l57","geo_precision":"street","state":"CA"},"type":"Feature","geometry":{"type":"Point","coordinates":[-116.510231,33.81229]}},{"properties":{"rep? (1 for yes, 0 for no)":1,"city":"La Quinta","zip":"92253","company name":"Tarbell REALTORS","geo_score":0.585,"street address":"47100 Washington St., Ste. 101","id":"a6h33m6ipvg7","geo_precision":"street","state":"CA"},"type":"Feature","geometry":{"type":"Point","coordinates":[-116.293386,33.725905]}},{"properties":{"rep? (1 for yes, 0 for no)":1,"city":"Palm Desert","zip":"92260","company name":"Tarbell Realtors","geo_score":0.917,"street address":"74245 Hwy 111","id":"a6h33mja0d8g","geo_precision":"range","state":"CA"},"type":"Feature","geometry":{"type":"Point","coordinates":[-116.369955,33.721324]}},{"properties":{"rep? (1 for yes, 0 for no)":1,"city":"Beaumont","zip":"92223","company name":"Tarbell Realtors Beaumont","geo_score":0.526,"street address":"1620 E 2nd St #r","id":"a6h33me9gpbp","geo_precision":"street","state":"CA"},"type":"Feature","geometry":{"type":"Point","coordinates":[-116.973981,33.956735]}},{"properties":{"rep? (1 for yes, 0 for no)":1,"city":"Riverside","zip":"92508","company name":"Tarbell Realtors Rvsd","geo_score":0.852,"street address":"191 E Alessandro Blvd Ste 9c","id":"a6h33mba85wn","geo_precision":"range","state":"CA"},"type":"Feature","geometry":{"type":"Point","coordinates":[-117.324533,33.9164]}},{"properties":{"rep? (1 for yes, 0 for no)":1,"city":"Corona","zip":"92880","company name":"Tarbell Realtors- Eastvale","geo_score":0.463,"street address":"12648 Limonite Ave Ste 2-g","id":"a6h33mdc1o4r","geo_precision":"street","state":"CA"},"type":"Feature","geometry":{"type":"Point","coordinates":[-117.988594,33.792974]}},{"properties":{"rep? (1 for yes, 0 for no)":1,"city":"Corona","zip":"92879","company name":"Tarbell Realtors-corona","geo_score":1.0,"street address":"315 Magnolia Ave.","id":"a6h33mgjqehg","geo_precision":"range","state":"CA"},"type":"Feature","geometry":{"type":"Point","coordinates":[-117.561226,33.855099]}},{"properties":{"rep? (1 for yes, 0 for no)":1,"city":"Murrieta","zip":"92563","company name":"Tarbell Realtors-french Valley","geo_score":0.563,"street address":"39028 Winchester Rd, Suite 101","id":"a6h33mkn52ty","geo_precision":"street","state":"CA"},"type":"Feature","geometry":{"type":"Point","coordinates":[-117.132792,33.582392]}},{"properties":{"rep? (1 for yes, 0 for no)":1,"city":"Perris","zip":"92571","company name":"Tarbell Realtors-perris","geo_score":0.61,"street address":"3895 N. Perris Blvd Ste B8","id":"a6h33mdeut05","geo_precision":"street","state":"CA"},"type":"Feature","geometry":{"type":"Point","coordinates":[-117.226124,33.786581]}},{"properties":{"rep? (1 for yes, 0 for no)":1,"city":"Murrieta","zip":"92563","company name":"Tarbell Realtors-scott Rd","geo_score":0.805,"street address":"28031 Scott Road","id":"a6h33mjn9sgl","geo_precision":"range","state":"CA"},"type":"Feature","geometry":{"type":"Point","coordinates":[-117.169341,33.641542]}},{"properties":{"rep? (1 for yes, 0 for no)":1,"city":"Temecula","zip":"92592","company name":"Tarbell Realtors-temecula","geo_score":0.707,"street address":"33449 Temecula Parkway","id":"a6h33mk19phx","geo_precision":"street","state":"CA"},"type":"Feature","geometry":{"type":"Point","coordinates":[-117.118569,33.471796]}},{"properties":{"rep? (1 for yes, 0 for no)":1,"city":"Perris","zip":"92570","company name":"Tea. Real Estate","geo_score":0.824,"street address":"420 East 4th St Ste 18a","id":"a6h33mhs9s68","geo_precision":"range","state":"CA"},"type":"Feature","geometry":{"type":"Point","coordinates":[-117.218915,33.782391]}},{"properties":{"rep? (1 for yes, 0 for no)":1,"city":"Hemet","zip":"92544","company name":"Temecula Homes And Land","geo_score":0.983,"street address":"41225 Sycamore Spring Rd.","id":"a6h33mcw9zv4","geo_precision":"range","state":"CA"},"type":"Feature","geometry":{"type":"Point","coordinates":[-116.941305,33.612147]}},{"properties":{"rep? (1 for yes, 0 for no)":1,"city":"Temecula","zip":"92591","company name":"The Beeson Group","geo_score":0.958,"street address":"42018 Avenida Vista Ladera","id":"a6h33miv2b3l","geo_precision":"range","state":"CA"},"type":"Feature","geometry":{"type":"Point","coordinates":[-117.138906,33.515058]}},{"properties":{"rep? (1 for yes, 0 for no)":1,"city":"Mira Loma","zip":"91752","company name":"The Carlin Group","geo_score":0.805,"street address":"12523 Limonite Ave #440-150","id":"a6h33m8qxoja","geo_precision":"street","state":"CA"},"type":"Feature","geometry":{"type":"Point","coordinates":[-117.505842,33.975369]}},{"properties":{"rep? (1 for yes, 0 for no)":1,"city":"La Quinta","zip":"92253","company name":"The Duncan Group","geo_score":0.922,"street address":"51370 Avenida Bermudas Ste 6","id":"a6h33mam48ui","geo_precision":"range","state":"CA"},"type":"Feature","geometry":{"type":"Point","coordinates":[-116.303654,33.674738]}},{"properties":{"rep? (1 for yes, 0 for no)":1,"city":"Perris","zip":"92570","company name":"The Lantern Group","geo_score":0.407,"street address":"3825 Tanzanite Ct","id":"a6h33md3svan","geo_precision":"street","state":"CA"},"type":"Feature","geometry":{"type":"Point","coordinates":[-117.291468,33.947843]}},{"properties":{"rep? (1 for yes, 0 for no)":1,"city":"Murrieta","zip":"92562","company name":"The Nat Genis Team","geo_score":1.0,"street address":"26690 Madison Ave","id":"a6h33me1uxdl","geo_precision":"range","state":"CA"},"type":"Feature","geometry":{"type":"Point","coordinates":[-117.174279,33.533152]}},{"properties":{"rep? (1 for yes, 0 for no)":1,"city":"Riverside","zip":"92507","company name":"The Norris Group","geo_score":0.84,"street address":"1845 Chicago Ave  Ste C","id":"a6h33mfwse7n","geo_precision":"range","state":"CA"},"type":"Feature","geometry":{"type":"Point","coordinates":[-117.348422,33.995046]}},{"properties":{"rep? (1 for yes, 0 for no)":1,"city":"Perris","zip":"92571","company name":"The Real Estate Group","geo_score":0.488,"street address":"2159 Willowbrook Ln.","id":"a6h33mlodxrr","geo_precision":"street","state":"CA"},"type":"Feature","geometry":{"type":"Point","coordinates":[-117.338042,33.85621]}},{"properties":{"rep? (1 for yes, 0 for no)":1,"city":"Riverside","zip":"92504","company name":"The Sparks Team Realty Inc","geo_score":0.793,"street address":"16801 Van Buren Bldg B Ste203","id":"a6h33ma65mh4","geo_precision":"range","state":"CA"},"type":"Feature","geometry":{"type":"Point","coordinates":[-117.369812,33.882373]}},{"properties":{"rep? (1 for yes, 0 for no)":1,"city":"Corona","zip":"92879","company name":"Tmc Group","geo_score":0.614,"street address":"400 S. Ramona Ave.","id":"a6h33mfyd9pl","geo_precision":"street","state":"CA"},"type":"Feature","geometry":{"type":"Point","coordinates":[-117.564835,33.877347]}},{"properties":{"rep? (1 for yes, 0 for no)":1,"city":"Corona","zip":"92882","company name":"Top Producers Realty &amp; Reo","geo_score":1.0,"street address":"668 Paseo Grande","id":"a6h33mej6sxa","geo_precision":"range","state":"CA"},"type":"Feature","geometry":{"type":"Point","coordinates":[-117.601575,33.87765]}},{"properties":{"rep? (1 for yes, 0 for no)":1,"city":"Indian Wells","zip":"92210","company name":"Toscana Homes, Inc.","geo_score":0.659,"street address":"43199 Via Lucca","id":"a6h33mjm2lww","geo_precision":"street","state":"CA"},"type":"Feature","geometry":{"type":"Point","coordinates":[-116.357531,33.717566]}},{"properties":{"rep? (1 for yes, 0 for no)":1,"city":"Riverside","zip":"92506","company name":"Trademark Realtors","geo_score":0.922,"street address":"6391 Magnolia Avenue Ste  B","id":"a6h33mi50iub","geo_precision":"range","state":"CA"},"type":"Feature","geometry":{"type":"Point","coordinates":[-117.395081,33.955688]}},{"properties":{"rep? (1 for yes, 0 for no)":1,"city":"Murrieta","zip":"92563","company name":"Trend Equity Corp","geo_score":0.751,"street address":"24885 Whitewood Rd.","id":"a6h33mk6l0r4","geo_precision":"street","state":"CA"},"type":"Feature","geometry":{"type":"Point","coordinates":[-117.177539,33.58535]}},{"properties":{"rep? (1 for yes, 0 for no)":1,"city":"Hemet","zip":"92545","company name":"Valley Wide Realty","geo_score":0.61,"street address":"2107 W. Florida Ave.","id":"a6h33miazpe1","geo_precision":"street","state":"CA"},"type":"Feature","geometry":{"type":"Point","coordinates":[-116.99345,33.747442]}},{"properties":{"rep? (1 for yes, 0 for no)":1,"city":"Riverside","zip":"92504","company name":"Van Daele Homes","geo_score":0.429,"street address":"2900 Adams St #c25","id":"a6h33mdmziqc","geo_precision":"street","state":"CA"},"type":"Feature","geometry":{"type":"Point","coordinates":[-117.408913,33.914214]}},{"properties":{"rep? (1 for yes, 0 for no)":1,"city":"Hemet","zip":"92543","company name":"Vivian Gutierrez, Broker","geo_score":0.707,"street address":"736 N. State St. #105","id":"a6h33mjhsxox","geo_precision":"range","state":"CA"},"type":"Feature","geometry":{"type":"Point","coordinates":[-116.971676,33.747621]}},{"properties":{"rep? (1 for yes, 0 for no)":1,"city":"Hemet","zip":"92543","company name":"Vogler Feigen Realty","geo_score":0.61,"street address":"1300 W. Florida Ave Ste A","id":"a6h33mhtbeql","geo_precision":"street","state":"CA"},"type":"Feature","geometry":{"type":"Point","coordinates":[-116.972758,33.747547]}},{"properties":{"rep? (1 for yes, 0 for no)":1,"city":"Riverside","zip":"92504","company name":"Westcoe Realtors Inc","geo_score":0.902,"street address":"7191 Magnolia Ave","id":"a6h33mict491","geo_precision":"range","state":"CA"},"type":"Feature","geometry":{"type":"Point","coordinates":[-117.4048,33.944081]}},{"properties":{"rep? (1 for yes, 0 for no)":1,"city":"Idyllwild","zip":"92549","company name":"William Brian Lowry, Broker","geo_score":0.756,"street address":"54695 Marion View Dr.","id":"a6h33m668hxb","geo_precision":"street","state":"CA"},"type":"Feature","geometry":{"type":"Point","coordinates":[-116.722837,33.736003]}},{"properties":{"rep? (1 for yes, 0 for no)":1,"city":"Hemet","zip":"92545","company name":"Wilson Real Estate","geo_score":0.5,"street address":"501 Langer Ct.","id":"a6h33manoq67","geo_precision":"street","state":"CA"},"type":"Feature","geometry":{"type":"Point","coordinates":[-116.719464,33.734999]}},{"properties":{"rep? (1 for yes, 0 for no)":1,"city":"Palm Desert","zip":"92211","company name":"Windermere Pro Realty","geo_score":0.512,"street address":"41990 Cook St. Bldg I, # 801","id":"a6h33m9uo1oa","geo_precision":"street","state":"CA"},"type":"Feature","geometry":{"type":"Point","coordinates":[-116.355948,33.772692]}},{"properties":{"rep? (1 for yes, 0 for no)":1,"city":"Palm Springs","zip":"92264","company name":"Windermere Real Estate","geo_score":1.0,"street address":"1255 E Ramon Rd","id":"a6h33m9pew7r","geo_precision":"range","state":"CA"},"type":"Feature","geometry":{"type":"Point","coordinates":[-116.532975,33.815937]}},{"properties":{"rep? (1 for yes, 0 for no)":1,"city":"Indian Wells","zip":"92210","company name":"Windermere Real Estate","geo_score":0.727,"street address":"Indian Wells Luxury Homes 74996 Highway 111","id":"a6h33mbqvrrl","geo_precision":"street","state":"CA"},"type":"Feature","geometry":{"type":"Point","coordinates":[-116.330084,33.72152]}},{"properties":{"rep? (1 for yes, 0 for no)":1,"city":"Indian Wells","zip":"92210","company name":"Windermere Real Estate","geo_score":0.732,"street address":"Indian Wells Main Office 74850 Highway 111","id":"a6h33melxwev","geo_precision":"street","state":"CA"},"type":"Feature","geometry":{"type":"Point","coordinates":[-116.330084,33.72152]}},{"properties":{"rep? (1 for yes, 0 for no)":1,"city":"Indio","zip":"92201","company name":"Windermere Real Estate","geo_score":0.577,"street address":"Indio Office 81703 Highway 111","id":"a6h33middh6n","geo_precision":"street","state":"CA"},"type":"Feature","geometry":{"type":"Point","coordinates":[-116.205174,33.723397]}},{"properties":{"rep? (1 for yes, 0 for no)":1,"city":"La Quinta","zip":"92253","company name":"Windermere Real Estate","geo_score":0.633,"street address":"Old Town La Quinta Office 78065 Main Street, Suite","id":"a6h33mffey31","geo_precision":"street","state":"CA"},"type":"Feature","geometry":{"type":"Point","coordinates":[-116.282354,33.720454]}},{"properties":{"rep? (1 for yes, 0 for no)":1,"city":"Palm Desert","zip":"92260","company name":"Windermere Real Estate","geo_score":0.566,"street address":"Palm Desert San Pablo Office 44530 San Pablo Ste 1","id":"a6h33mkjvlch","geo_precision":"street","state":"CA"},"type":"Feature","geometry":{"type":"Point","coordinates":[-116.380348,33.721119]}},{"properties":{"rep? (1 for yes, 0 for no)":1,"city":"Palm Springs","zip":"92262","company name":"Windermere Real Estate","geo_score":0.967,"street address":"Palm Springs Main Office 850 N. Palm Canyon Dr.","id":"a6h33mgqgr9d","geo_precision":"street","state":"CA"},"type":"Feature","geometry":{"type":"Point","coordinates":[-116.546829,33.826713]}},{"properties":{"rep? (1 for yes, 0 for no)":1,"city":"Palm Springs","zip":"92264","company name":"Windermere Real Estate","geo_score":0.722,"street address":"Palm Springs South Office 2465 E Palm Canyon Dr St","id":"a6h33m999s72","geo_precision":"street","state":"CA"},"type":"Feature","geometry":{"type":"Point","coordinates":[-116.544632,33.801681]}},{"properties":{"rep? (1 for yes, 0 for no)":1,"city":"Rancho Mirage","zip":"92270","company name":"Windermere Real Estate","geo_score":0.749,"street address":"Rancho Mirage Office 71691 Highway 111","id":"a6h33m9obs8j","geo_precision":"street","state":"CA"},"type":"Feature","geometry":{"type":"Point","coordinates":[-116.412643,33.740221]}},{"properties":{"rep? (1 for yes, 0 for no)":1,"city":"Perris","zip":"92570","company name":"Your Home For Real Estate","geo_score":1.0,"street address":"27111 Patterson St","id":"a6h33mdag6qr","geo_precision":"range","state":"CA"},"type":"Feature","geometry":{"type":"Point","coordinates":[-117.301311,33.724799]}},{"properties":{"rep? (1 for yes, 0 for no)":1,"city":"Running Springs","zip":"92382","company name":"Accord Realty","geo_score":0.429,"street address":"Po Box 3248","id":"a6h33mf3idac","geo_precision":"street","state":"CA"},"type":"Feature","geometry":{"type":"Point","coordinates":[-117.368605,34.437647]}},{"properties":{"rep? (1 for yes, 0 for no)":1,"city":"Chino Hills","zip":"91709","company name":"Advantage Real Estate","geo_score":0.495,"street address":"14270 Chino Hills Pkwy. Ste. A","id":"a6h33mbdyni8","geo_precision":"street","state":"CA"},"type":"Feature","geometry":{"type":"Point","coordinates":[-117.741222,34.010782]}},{"properties":{"rep? (1 for yes, 0 for no)":1,"city":"Apple Valley","zip":"92307","company name":"Agio Real Estate","geo_score":0.478,"street address":"20440 Hwy 18 #103","id":"a6h33m8kqcb4","geo_precision":"street","state":"CA"},"type":"Feature","geometry":{"type":"Point","coordinates":[-117.30068,34.545333]}},{"properties":{"rep? (1 for yes, 0 for no)":1,"city":"Apple Valley","zip":"92307","company name":"Agio Real Estate Inc. Av","geo_score":0.647,"street address":"20440 Hwy 18 Suite 103","id":"a6h33m7fxbah","geo_precision":"range","state":"CA"},"type":"Feature","geometry":{"type":"Point","coordinates":[-117.214608,34.521826]}},{"properties":{"rep? (1 for yes, 0 for no)":1,"city":"Victorville","zip":"92395","company name":"Agio Real Estate, Inc.vv","geo_score":1.0,"street address":"15714 Bear Valley Rd.","id":"a6h33ml2xj8d","geo_precision":"range","state":"CA"},"type":"Feature","geometry":{"type":"Point","coordinates":[-117.320879,34.470652]}},{"properties":{"rep? (1 for yes, 0 for no)":1,"city":"Rancho Cucamonga","zip":"91739","company name":"All Nations Realty &amp; Invs","geo_score":0.475,"street address":"12505 N Main St Ste 240","id":"a6h33m9dierd","geo_precision":"street","state":"CA"},"type":"Feature","geometry":{"type":"Point","coordinates":[-117.752197,34.064552]}},{"properties":{"rep? (1 for yes, 0 for no)":1,"city":"Redlands","zip":"92373","company name":"All Premier Properties","geo_score":0.557,"street address":"940 Creekside Dr","id":"a6h33mialhre","geo_precision":"street","state":"CA"},"type":"Feature","geometry":{"type":"Point","coordinates":[-117.620809,34.395932]}},{"properties":{"rep? (1 for yes, 0 for no)":1,"city":"Redlands","zip":"92374","company name":"Alliance Real Estate","geo_score":0.902,"street address":"1615 Orange Tree Lane Ste 100","id":"a6h33m7woag8","geo_precision":"range","state":"CA"},"type":"Feature","geometry":{"type":"Point","coordinates":[-117.209823,34.068911]}},{"properties":{"rep? (1 for yes, 0 for no)":1,"city":"Hesperia","zip":"92345","company name":"American Heritage Communities Inc","geo_score":0.61,"street address":"11910 Hesperia Rd Suite #3","id":"a6h33m7esqmp","geo_precision":"street","state":"CA"},"type":"Feature","geometry":{"type":"Point","coordinates":[-117.305434,34.406406]}},{"properties":{"rep? (1 for yes, 0 for no)":1,"city":"Victorville","zip":"92392","company name":"Ardor Realty Inc.","geo_score":0.923,"street address":"15437 Anacapa Rd.","id":"a6h33mi1m6fr","geo_precision":"range","state":"CA"},"type":"Feature","geometry":{"type":"Point","coordinates":[-117.327954,34.504741]}},{"properties":{"rep? (1 for yes, 0 for no)":1,"city":"Lake Arrowhead","zip":"92352","company name":"Arrowhead Resort Realty","geo_score":0.854,"street address":"322 S State Hwy 173","id":"a6h33mi5minr","geo_precision":"street","state":"CA"},"type":"Feature","geometry":{"type":"Point","coordinates":[-117.190997,34.247768]}},{"properties":{"rep? (1 for yes, 0 for no)":1,"city":"Yucca Valley","zip":"92284","company name":"Associated Brokers","geo_score":1.0,"street address":"56483  Antelope Trail","id":"a6h33md85p4i","geo_precision":"range","state":"CA"},"type":"Feature","geometry":{"type":"Point","coordinates":[-116.432266,34.121799]}},{"properties":{"rep? (1 for yes, 0 for no)":1,"city":"Hesperia","zip":"92345","company name":"Atlantic &amp; Pacific Real Estate","geo_score":0.488,"street address":"15461 Main Street Ste#104","id":"a6h33m90o16a","geo_precision":"street","state":"CA"},"type":"Feature","geometry":{"type":"Point","coordinates":[-117.380075,34.4269]}},{"properties":{"rep? (1 for yes, 0 for no)":1,"city":"Alta Loma","zip":"91701","company name":"Atlantic &amp; Pacific Real Estate","geo_score":0.571,"street address":"9524 E. 19th Street","id":"a6h33mdndlvn","geo_precision":"street","state":"CA"},"type":"Feature","geometry":{"type":"Point","coordinates":[-117.626563,34.132568]}},{"properties":{"rep? (1 for yes, 0 for no)":1,"city":"Crestline","zip":"92325","company name":"Bibby Realty","geo_score":0.725,"street address":"23715 Lake Drive","id":"a6h33m8ggk2u","geo_precision":"street","state":"CA"},"type":"Feature","geometry":{"type":"Point","coordinates":[-117.287735,34.242402]}},{"properties":{"rep? (1 for yes, 0 for no)":1,"city":"Crestline","zip":"92325","company name":"Black Oak Real Estate","geo_score":0.493,"street address":"23854 Lake Dr Unit 3","id":"a6h33milhfsf","geo_precision":"street","state":"CA"},"type":"Feature","geometry":{"type":"Point","coordinates":[-117.287735,34.242402]}},{"properties":{"rep? (1 for yes, 0 for no)":1,"city":"Rancho Cucamonga","zip":"91730","company name":"Blackstone Realty","geo_score":1.0,"street address":"8311 Haven Ave. Suite 180","id":"a6h33mm5w1tm","geo_precision":"street","state":"CA"},"type":"Feature","geometry":{"type":"Point","coordinates":[-117.575545,34.163532]}},{"properties":{"rep? (1 for yes, 0 for no)":1,"city":"Redlands","zip":"92373","company name":"Blesch &amp; Associates R. E.","geo_score":0.725,"street address":"112 E State St","id":"a6h33m665b9a","geo_precision":"street","state":"CA"},"type":"Feature","geometry":{"type":"Point","coordinates":[-117.185749,34.056467]}},{"properties":{"rep? (1 for yes, 0 for no)":1,"city":"Apple Valley","zip":"92307","company name":"Bounce Realty","geo_score":0.647,"street address":"17993 Hwy 18 Suite 102","id":"a6h33meenyv9","geo_precision":"range","state":"CA"},"type":"Feature","geometry":{"type":"Point","coordinates":[-117.270699,34.540323]}},{"properties":{"rep? (1 for yes, 0 for no)":1,"city":"Rancho Cucamonga","zip":"91730","company name":"Cal-american Homes","geo_score":0.902,"street address":"10803 Foothill Blvd Ste 110","id":"a6h33mlavd55","geo_precision":"range","state":"CA"},"type":"Feature","geometry":{"type":"Point","coordinates":[-117.569264,34.106496]}},{"properties":{"rep? (1 for yes, 0 for no)":1,"city":"Lake Arrowhead","zip":"92352","company name":"Capre","geo_score":0.667,"street address":"Po Box 2710","id":"a6h33m9dwxxs","geo_precision":"street","state":"CA"},"type":"Feature","geometry":{"type":"Point","coordinates":[-117.189968,34.23892]}},{"properties":{"rep? (1 for yes, 0 for no)":1,"city":"Cedar Glen","zip":"92321","company name":"Cdm Homes","geo_score":0.429,"street address":"P.o. Box 848","id":"a6h33mlcsozk","geo_precision":"street","state":"CA"},"type":"Feature","geometry":{"type":"Point","coordinates":[-114.61639,34.84847]}},{"properties":{"rep? (1 for yes, 0 for no)":1,"city":"Chino Hills","zip":"91709","company name":"Century 21 Award","geo_score":0.497,"street address":"3110 Chino Ave. Ste.280","id":"a6h33mfisrv3","geo_precision":"street","state":"CA"},"type":"Feature","geometry":{"type":"Point","coordinates":[-117.708235,33.956372]}},{"properties":{"rep? (1 for yes, 0 for no)":1,"city":"Rancho Cucamonga","zip":"91730","company name":"Century 21 Beachside","geo_score":1.0,"street address":"10535 Foothill Blvd.","id":"a6h33mke3uaz","geo_precision":"range","state":"CA"},"type":"Feature","geometry":{"type":"Point","coordinates":[-117.575201,34.106497]}},{"properties":{"rep? (1 for yes, 0 for no)":1,"city":"Upland","zip":"91786","company name":"Century 21 Beachside","geo_score":0.499,"street address":"400 N. Mountain Avenue Ste 121","id":"a6h33me90lkj","geo_precision":"street","state":"CA"},"type":"Feature","geometry":{"type":"Point","coordinates":[-117.669171,34.116047]}},{"properties":{"rep? (1 for yes, 0 for no)":1,"city":"Chino Hills","zip":"91709","company name":"Century 21 Beachside","geo_score":0.911,"street address":"4197 Chino Hills Pkwy","id":"a6h33meslb04","geo_precision":"range","state":"CA"},"type":"Feature","geometry":{"type":"Point","coordinates":[-117.713306,33.982676]}},{"properties":{"rep? (1 for yes, 0 for no)":1,"city":"Yucaipa","zip":"92399","company name":"Century 21 Best Properties","geo_score":0.902,"street address":"33075 Yucaipa Boulevard","id":"a6h33m93bvz2","geo_precision":"range","state":"CA"},"type":"Feature","geometry":{"type":"Point","coordinates":[-117.083011,34.033895]}},{"properties":{"rep? (1 for yes, 0 for no)":1,"city":"Hesperia","zip":"92345","company name":"Century 21 Desert Rock-hesp.","geo_score":0.456,"street address":"15311 Bear Valley Rd. Ste. 1","id":"a6h33mb0xem6","geo_precision":"street","state":"CA"},"type":"Feature","geometry":{"type":"Point","coordinates":[-117.37743,34.336694]}},{"properties":{"rep? (1 for yes, 0 for no)":1,"city":"Rancho Cucamonga","zip":"91730","company name":"Century 21 Exclusive Prop","geo_score":1.0,"street address":"9050 Archibald Ave","id":"a6h33mkjz0w2","geo_precision":"range","state":"CA"},"type":"Feature","geometry":{"type":"Point","coordinates":[-117.593475,34.089898]}},{"properties":{"rep? (1 for yes, 0 for no)":1,"city":"Rancho Cucamonga","zip":"91730","company name":"Century 21 Exclusive Propertie","geo_score":1.0,"street address":"9050 Archibald Ave","id":"a6h33m6j9coh","geo_precision":"range","state":"CA"},"type":"Feature","geometry":{"type":"Point","coordinates":[-117.593475,34.089898]}},{"properties":{"rep? (1 for yes, 0 for no)":1,"city":"Alta Loma","zip":"91701","company name":"Century 21 Experience","geo_score":0.633,"street address":"7168 Archibald Ave. Ste 100","id":"a6h33maq92lg","geo_precision":"street","state":"CA"},"type":"Feature","geometry":{"type":"Point","coordinates":[-117.548953,34.124071]}},{"properties":{"rep? (1 for yes, 0 for no)":1,"city":"Apple Valley","zip":"92307","company name":"Century 21 Fairway Realty  Av","geo_score":0.539,"street address":"18484 Highway 18/ste. 150","id":"a6h33mjai8dr","geo_precision":"street","state":"CA"},"type":"Feature","geometry":{"type":"Point","coordinates":[-117.222805,34.502449]}},{"properties":{"rep? (1 for yes, 0 for no)":1,"city":"Victorville","zip":"92392","company name":"Century 21 Fairway Realty  Vv","geo_score":0.612,"street address":"14281 7th St","id":"a6h33mjdvchf","geo_precision":"street","state":"CA"},"type":"Feature","geometry":{"type":"Point","coordinates":[-117.31441,34.515261]}},{"properties":{"rep? (1 for yes, 0 for no)":1,"city":"Chino","zip":"91710","company name":"Century 21 Home Realtors","geo_score":0.595,"street address":"4016 Grand Ave. #b","id":"a6h33mdq64ac","geo_precision":"street","state":"CA"},"type":"Feature","geometry":{"type":"Point","coordinates":[-117.696879,34.0173]}},{"properties":{"rep? (1 for yes, 0 for no)":1,"city":"Rancho Cucamonga","zip":"91739","company name":"Century 21 King Realtors","geo_score":0.434,"street address":"8338 Day Creek Blvd. Ste.101","id":"a6h33mlk9ort","geo_precision":"street","state":"CA"},"type":"Feature","geometry":{"type":"Point","coordinates":[-117.525272,34.122329]}},{"properties":{"rep? (1 for yes, 0 for no)":1,"city":"Redlands","zip":"92374","company name":"Century 21 Lois Lauer Red","geo_score":1.0,"street address":"1998 Orange Tree Lane","id":"a6h33m94gl3k","geo_precision":"range","state":"CA"},"type":"Feature","geometry":{"type":"Point","coordinates":[-117.225347,34.068037]}},{"properties":{"rep? (1 for yes, 0 for no)":1,"city":"Yucaipa","zip":"92399","company name":"Century 21 Lois Lauer Yuc","geo_score":0.789,"street address":"33699 Yucaipa Blvd Suite 1-b","id":"a6h33mer7p6w","geo_precision":"range","state":"CA"},"type":"Feature","geometry":{"type":"Point","coordinates":[-117.071781,34.033938]}},{"properties":{"rep? (1 for yes, 0 for no)":1,"city":"Upland","zip":"91786","company name":"Century 21 Prestige Properties","geo_score":0.821,"street address":"255 West Foothill Blvd Ste 100","id":"a6h33mf22cni","geo_precision":"range","state":"CA"},"type":"Feature","geometry":{"type":"Point","coordinates":[-117.654288,34.106998]}},{"properties":{"rep? (1 for yes, 0 for no)":1,"city":"Hesperia","zip":"92345","company name":"Century 21 Rose Realty","geo_score":0.585,"street address":"15885 Main St #100","id":"a6h33m6qqq2f","geo_precision":"street","state":"CA"},"type":"Feature","geometry":{"type":"Point","coordinates":[-117.380075,34.4269]}},{"properties":{"rep? (1 for yes, 0 for no)":1,"city":"Lake Gregory","zip":"92325","company name":"Century 21 San Moritz Realty","geo_score":0.626,"street address":"24118 Lake Drive","id":"a6h33mee1ulg","geo_precision":"street","state":"CA"},"type":"Feature","geometry":{"type":"Point","coordinates":[-117.287735,34.242402]}},{"properties":{"rep? (1 for yes, 0 for no)":1,"city":"Chino Hills","zip":"91709","company name":"Century 21 The Oie Group","geo_score":0.549,"street address":"5821 Pine Ave. Ste B","id":"a6h33miymyx8","geo_precision":"street","state":"CA"},"type":"Feature","geometry":{"type":"Point","coordinates":[-117.708235,33.956372]}},{"properties":{"rep? (1 for yes, 0 for no)":1,"city":"Ontario","zip":"91764","company name":"Century 21 Town &amp; Country","geo_score":0.898,"street address":"3700 Inland Empire  Suite 150","id":"a6h33md182bq","geo_precision":"range","state":"CA"},"type":"Feature","geometry":{"type":"Point","coordinates":[-117.57171,34.069978]}},{"properties":{"rep? (1 for yes, 0 for no)":1,"city":"Ontario","zip":"91764","company name":"Century 21 Town &amp; Country","geo_score":0.805,"street address":"3700 Inland Empire Blvd. #150","id":"a6h33m62jp2f","geo_precision":"street","state":"CA"},"type":"Feature","geometry":{"type":"Point","coordinates":[-117.610992,34.0725]}},{"properties":{"rep? (1 for yes, 0 for no)":1,"city":"Crestline","zip":"92325","company name":"Charles E Hallam Real Estate","geo_score":0.796,"street address":"24800 Basel Dr","id":"a6h33mau899v","geo_precision":"range","state":"CA"},"type":"Feature","geometry":{"type":"Point","coordinates":[-117.261774,34.236113]}},{"properties":{"rep? (1 for yes, 0 for no)":1,"city":"Yucca Valley","zip":"92284","company name":"Cherie Miller &amp; Assoc.","geo_score":0.732,"street address":"55857 Twentynine Palms Hwy.","id":"a6h33m66q8hf","geo_precision":"street","state":"CA"},"type":"Feature","geometry":{"type":"Point","coordinates":[-116.391996,34.130241]}},{"properties":{"rep? (1 for yes, 0 for no)":1,"city":"Redlands","zip":"92374","company name":"Citrus Heights Properties","geo_score":1.0,"street address":"1329 Calhoun St","id":"a6h33mio221q","geo_precision":"range","state":"CA"},"type":"Feature","geometry":{"type":"Point","coordinates":[-117.18946,34.070596]}},{"properties":{"rep? (1 for yes, 0 for no)":1,"city":"Victorville","zip":"92392","company name":"Coldwell Banker Commercial Real Estate Solutions","geo_score":0.459,"street address":"15500 W. Sand St.","id":"a6h33mmeh1fs","geo_precision":"street","state":"CA"},"type":"Feature","geometry":{"type":"Point","coordinates":[-117.299703,34.523617]}},{"properties":{"rep? (1 for yes, 0 for no)":1,"city":"Ontario","zip":"91762","company name":"Coldwell Banker First Premier","geo_score":0.614,"street address":"537 N. Euclid Ave.","id":"a6h33mh8jw3l","geo_precision":"street","state":"CA"},"type":"Feature","geometry":{"type":"Point","coordinates":[-117.651018,34.064593]}},{"properties":{"rep? (1 for yes, 0 for no)":1,"city":"Hesperia","zip":"92345","company name":"Coldwell Banker Home- Hesperia","geo_score":0.902,"street address":"14322 Main St","id":"a6h33mhuydyy","geo_precision":"range","state":"CA"},"type":"Feature","geometry":{"type":"Point","coordinates":[-117.35056,34.426787]}},{"properties":{"rep? (1 for yes, 0 for no)":1,"city":"Yucaipa","zip":"92399","company name":"Coldwell Banker Kt #2","geo_score":0.902,"street address":"32829 Yucaipa Blvd","id":"a6h33melfw7a","geo_precision":"range","state":"CA"},"type":"Feature","geometry":{"type":"Point","coordinates":[-117.088281,34.033902]}},{"properties":{"rep? (1 for yes, 0 for no)":1,"city":"Redlands","zip":"92373","company name":"Coldwell Banker Realty Center","geo_score":0.886,"street address":"501 W Redlands Blvd Ste A","id":"a6h33mi88ryl","geo_precision":"range","state":"CA"},"type":"Feature","geometry":{"type":"Point","coordinates":[-117.19573,34.059295]}},{"properties":{"rep? (1 for yes, 0 for no)":1,"city":"Redlands","zip":"92373","company name":"Coldwell Banker Res - Redlands","geo_score":0.558,"street address":"127 E. State St.","id":"a6h33md5axvp","geo_precision":"street","state":"CA"},"type":"Feature","geometry":{"type":"Point","coordinates":[-117.185749,34.056467]}},{"properties":{"rep? (1 for yes, 0 for no)":1,"city":"Crestline","zip":"92325","company name":"Coldwell Banker Rim Of World","geo_score":0.429,"street address":"P.o. Box 3255","id":"a6h33mlwnekq","geo_precision":"street","state":"CA"},"type":"Feature","geometry":{"type":"Point","coordinates":[-114.61639,34.84847]}},{"properties":{"rep? (1 for yes, 0 for no)":1,"city":"Yucca Valley","zip":"92284","company name":"Coldwell Banker Roadrunner","geo_score":1.0,"street address":"7293 Dumosa Ave","id":"a6h33m8jzkp3","geo_precision":"range","state":"CA"},"type":"Feature","geometry":{"type":"Point","coordinates":[-116.417395,34.121723]}},{"properties":{"rep? (1 for yes, 0 for no)":1,"city":"Running Springs","zip":"92382","company name":"Coldwell Banker Running Spring","geo_score":0.722,"street address":"31980 Hilltop Blvd.","id":"a6h33metjmm6","geo_precision":"street","state":"CA"},"type":"Feature","geometry":{"type":"Point","coordinates":[-117.108676,34.207058]}},{"properties":{"rep? (1 for yes, 0 for no)":1,"city":"Blue Jay","zip":"92317","company name":"Coldwell Banker Sky Ridge Rlty","geo_score":0.552,"street address":"27206 Hwy 189","id":"a6h33mfurcow","geo_precision":"street","state":"CA"},"type":"Feature","geometry":{"type":"Point","coordinates":[-117.214194,34.242958]}},{"properties":{"rep? (1 for yes, 0 for no)":1,"city":"Chino","zip":"91710","company name":"Coldwell Banker Top Team","geo_score":0.727,"street address":"15348 Central Avenue","id":"a6h33mbn8uop","geo_precision":"street","state":"CA"},"type":"Feature","geometry":{"type":"Point","coordinates":[-117.693383,33.973161]}},{"properties":{"rep? (1 for yes, 0 for no)":1,"city":"Hesperia","zip":"92345","company name":"College Gmac Real Estate","geo_score":0.536,"street address":"14767 Bear Valley Rd Ste. A","id":"a6h33mhh2exn","geo_precision":"street","state":"CA"},"type":"Feature","geometry":{"type":"Point","coordinates":[-117.299195,34.425593]}},{"properties":{"rep? (1 for yes, 0 for no)":1,"city":"Rancho Cucamonga","zip":"91730","company name":"Cornerstone Financial","geo_score":0.65,"street address":"9431 Haven Ave Ste 232 Pmb#5","id":"a6h33mbto1bk","geo_precision":"street","state":"CA"},"type":"Feature","geometry":{"type":"Point","coordinates":[-117.575525,34.164918]}},{"properties":{"rep? (1 for yes, 0 for no)":1,"city":"Redlands","zip":"92374","company name":"Cornerstone Real Estate","geo_score":0.854,"street address":"1684 Plum Lane Ste 103","id":"a6h33mal8n60","geo_precision":"range","state":"CA"},"type":"Feature","geometry":{"type":"Point","coordinates":[-117.211994,34.068962]}},{"properties":{"rep? (1 for yes, 0 for no)":1,"city":"Wrightwood","zip":"92397","company name":"Country Life Realty","geo_score":0.571,"street address":"6050 Park Dr./p.o. Box 2820","id":"a6h33mffcdld","geo_precision":"street","state":"CA"},"type":"Feature","geometry":{"type":"Point","coordinates":[-117.633646,34.360165]}},{"properties":{"rep? (1 for yes, 0 for no)":1,"city":"Crestline","zip":"92325","company name":"Cozy Cabins Realty","geo_score":0.537,"street address":"23898 Lake Drive #b","id":"a6h33mhfgjtr","geo_precision":"street","state":"CA"},"type":"Feature","geometry":{"type":"Point","coordinates":[-117.255684,34.243836]}},{"properties":{"rep? (1 for yes, 0 for no)":1,"city":"Crestline","zip":"92325","company name":"Crestline Real Estate","geo_score":0.634,"street address":"23570 Knapps Cutoff","id":"a6h33ma26xa7","geo_precision":"street","state":"CA"},"type":"Feature","geometry":{"type":"Point","coordinates":[-117.289479,34.241649]}},{"properties":{"rep? (1 for yes, 0 for no)":1,"city":"Running Springs","zip":"92382","company name":"Dan Teter, Broker","geo_score":0.429,"street address":"P.o. Box 2562","id":"a6h33mguva7u","geo_precision":"street","state":"CA"},"type":"Feature","geometry":{"type":"Point","coordinates":[-114.61639,34.84847]}},{"properties":{"rep? (1 for yes, 0 for no)":1,"city":"Crestline","zip":"92325","company name":"Daniel Robert Peterson, Inc.","geo_score":0.429,"street address":"P.o. Box 1936","id":"a6h33mcm8v76","geo_precision":"street","state":"CA"},"type":"Feature","geometry":{"type":"Point","coordinates":[-114.61639,34.84847]}},{"properties":{"rep? (1 for yes, 0 for no)":1,"city":"Victorville","zip":"92395","company name":"Dennis George Killion, Broker","geo_score":0.902,"street address":"18098 Lakeview Dr.","id":"a6h33mgbmi95","geo_precision":"range","state":"CA"},"type":"Feature","geometry":{"type":"Point","coordinates":[-117.268519,34.505531]}},{"properties":{"rep? (1 for yes, 0 for no)":1,"city":"Victorville","zip":"92395","company name":"Desert Castle Realty","geo_score":0.561,"street address":"7207 SVL Box","id":"a6h33mb958yp","geo_precision":"street","state":"CA"},"type":"Feature","geometry":{"type":"Point","coordinates":[-117.366704,34.439191]}},{"properties":{"rep? (1 for yes, 0 for no)":1,"city":"Blue Jay","zip":"92317","company name":"Desert Stone Real Estate","geo_score":0.429,"street address":"P O Box 2258","id":"a6h33mg2otxv","geo_precision":"street","state":"CA"},"type":"Feature","geometry":{"type":"Point","coordinates":[-117.368605,34.437647]}},{"properties":{"rep? (1 for yes, 0 for no)":1,"city":"Victorville","zip":"92395","company name":"Destiny Real Estate","geo_score":0.954,"street address":"13261 Spring Valley Pkwy 101","id":"a6h33mm2frw2","geo_precision":"range","state":"CA"},"type":"Feature","geometry":{"type":"Point","coordinates":[-117.268418,34.491889]}},{"properties":{"rep? (1 for yes, 0 for no)":1,"city":"Blue Jay","zip":"92317","company name":"Dunn Financial Services &amp; Real","geo_score":0.429,"street address":"P. O. Box 1856","id":"a6h33mk7jh9w","geo_precision":"street","state":"CA"},"type":"Feature","geometry":{"type":"Point","coordinates":[-114.61639,34.84847]}},{"properties":{"rep? (1 for yes, 0 for no)":1,"city":"Helendale","zip":"92342","company name":"Elite Realty","geo_score":0.5,"street address":"15065 Vista Road, Suite 8","id":"a6h33mjnjd95","geo_precision":"street","state":"CA"},"type":"Feature","geometry":{"type":"Point","coordinates":[-117.313132,34.999977]}},{"properties":{"rep? (1 for yes, 0 for no)":1,"city":"Yucaipa","zip":"92399","company name":"Elite Realty Group","geo_score":0.824,"street address":"33694 Yucaipa Blvd Ste 4","id":"a6h33maxl6qp","geo_precision":"range","state":"CA"},"type":"Feature","geometry":{"type":"Point","coordinates":[-117.073303,34.033928]}},{"properties":{"rep? (1 for yes, 0 for no)":1,"city":"Phelan","zip":"92371","company name":"Era J Tidwell &amp; Associates R E","geo_score":1.0,"street address":"4468 Phelan Rd.","id":"a6h33mlnbovh","geo_precision":"range","state":"CA"},"type":"Feature","geometry":{"type":"Point","coordinates":[-117.56461,34.426382]}},{"properties":{"rep? (1 for yes, 0 for no)":1,"city":"Chino","zip":"91710","company name":"Era Regency Realtors","geo_score":0.841,"street address":"4403 Riverside Dr Ste C","id":"a6h33mdrayg9","geo_precision":"range","state":"CA"},"type":"Feature","geometry":{"type":"Point","coordinates":[-117.709496,34.018937]}},{"properties":{"rep? (1 for yes, 0 for no)":1,"city":"Chino","zip":"91710","company name":"Executive Prop. Marketing","geo_score":0.56,"street address":"3833 Schaefer, Ste H","id":"a6h33mgn1dec","geo_precision":"street","state":"CA"},"type":"Feature","geometry":{"type":"Point","coordinates":[-117.696088,34.008441]}},{"properties":{"rep? (1 for yes, 0 for no)":1,"city":"Victorville","zip":"92395","company name":"Exit Desert Ocean Realty","geo_score":0.719,"street address":"12138 Industrial Blvd Ste 102","id":"a6h33m6a6tr0","geo_precision":"street","state":"CA"},"type":"Feature","geometry":{"type":"Point","coordinates":[-117.28291,34.474957]}},{"properties":{"rep? (1 for yes, 0 for no)":1,"city":"Hesperia","zip":"92345","company name":"Exit Realty  Lt Associates","geo_score":0.536,"street address":"9565 Seventh Ave. Ste. A","id":"a6h33mmgorok","geo_precision":"street","state":"CA"},"type":"Feature","geometry":{"type":"Point","coordinates":[-117.299195,34.425593]}},{"properties":{"rep? (1 for yes, 0 for no)":1,"city":"Apple Valley","zip":"92307","company name":"Exit Realty Blaine &amp; Associate","geo_score":0.836,"street address":"16000 Apple Valley Rd Ste C-2","id":"a6h33m85gvv3","geo_precision":"range","state":"CA"},"type":"Feature","geometry":{"type":"Point","coordinates":[-117.273031,34.541654]}},{"properties":{"rep? (1 for yes, 0 for no)":1,"city":"Rimforest","zip":"92378","company name":"Exit Realty On The Mountain","geo_score":0.66,"street address":"26432 Hwy 18","id":"a6h33mgtbqmf","geo_precision":"street","state":"CA"},"type":"Feature","geometry":{"type":"Point","coordinates":[-117.225787,34.229922]}},{"properties":{"rep? (1 for yes, 0 for no)":1,"city":"Lake Arrowhead","zip":"92352","company name":"Freeman &amp; Associates","geo_score":0.711,"street address":"27340 North Bay Rd.","id":"a6h33mkb4bug","geo_precision":"street","state":"CA"},"type":"Feature","geometry":{"type":"Point","coordinates":[-117.204308,34.251725]}},{"properties":{"rep? (1 for yes, 0 for no)":1,"city":"Chino Hills","zip":"91709","company name":"Frontier Realty","geo_score":0.442,"street address":"14728 Pipeline Ave. #b","id":"a6h33mm37tn1","geo_precision":"street","state":"CA"},"type":"Feature","geometry":{"type":"Point","coordinates":[-117.715072,33.987238]}},{"properties":{"rep? (1 for yes, 0 for no)":1,"city":"San Bernardino","zip":"92408","company name":"Gabriel Realty Group","geo_score":0.805,"street address":"1911 S Commercenter Dr E #201","id":"a6h33mctkm7a","geo_precision":"street","state":"CA"},"type":"Feature","geometry":{"type":"Point","coordinates":[-117.282266,34.068636]}},{"properties":{"rep? (1 for yes, 0 for no)":1,"city":"Redlands","zip":"92374","company name":"Gabriel Realty Group","geo_score":0.429,"street address":"P.o. Box 1161","id":"a6h33mkwqzqt","geo_precision":"street","state":"CA"},"type":"Feature","geometry":{"type":"Point","coordinates":[-114.61639,34.84847]}},{"properties":{"rep? (1 for yes, 0 for no)":1,"city":"Yucaipa","zip":"92399","company name":"Gary Richards R.e. Group","geo_score":0.735,"street address":"12189 7th Street Ste 3","id":"a6h33m8d7ln7","geo_precision":"range","state":"CA"},"type":"Feature","geometry":{"type":"Point","coordinates":[-117.064924,34.030527]}},{"properties":{"rep? (1 for yes, 0 for no)":1,"city":"Apple Valley","zip":"92307","company name":"Gary Stater  Realty Inc","geo_score":0.665,"street address":"21812 Hwy 18, Suite B","id":"a6h33mag63wy","geo_precision":"street","state":"CA"},"type":"Feature","geometry":{"type":"Point","coordinates":[-117.300422,34.544806]}},{"properties":{"rep? (1 for yes, 0 for no)":1,"city":"Lake Arrowhead","zip":"92352","company name":"Glenn Tinturin, Broker","geo_score":0.657,"street address":"P.o. Box 1773","id":"a6h33mhc0xj2","geo_precision":"street","state":"CA"},"type":"Feature","geometry":{"type":"Point","coordinates":[-117.189968,34.23892]}},{"properties":{"rep? (1 for yes, 0 for no)":1,"city":"Victorville","zip":"92395","company name":"Good Deal Realty Inc.","geo_score":0.923,"street address":"12402 Industrial Blvd Ste A-2","id":"a6h33mlojrun","geo_precision":"range","state":"CA"},"type":"Feature","geometry":{"type":"Point","coordinates":[-117.282924,34.476786]}},{"properties":{"rep? (1 for yes, 0 for no)":1,"city":"Apple Valley","zip":"92307","company name":"Grand Vista Realty","geo_score":0.565,"street address":"Brett Bayless 20601 Hwy 18 Suite 188","id":"a6h33m7csxr5","geo_precision":"street","state":"CA"},"type":"Feature","geometry":{"type":"Point","coordinates":[-117.300422,34.544806]}},{"properties":{"rep? (1 for yes, 0 for no)":1,"city":"Lake Gregory","zip":"92325","company name":"Gregg A. Grant- Broker","geo_score":0.626,"street address":"24114 Lake Drive","id":"a6h33mhfnu3d","geo_precision":"street","state":"CA"},"type":"Feature","geometry":{"type":"Point","coordinates":[-117.287735,34.242402]}},{"properties":{"rep? (1 for yes, 0 for no)":1,"city":"Apple Valley","zip":"92307","company name":"Hamilton Landon Gmac R.e.","geo_score":0.497,"street address":"18888 Us Highway 18 Ste 101","id":"a6h33mjcdtng","geo_precision":"street","state":"CA"},"type":"Feature","geometry":{"type":"Point","coordinates":[-117.222347,34.512384]}},{"properties":{"rep? (1 for yes, 0 for no)":1,"city":"Chino Hills","zip":"91709","company name":"Help-u-sell Prestige Prop's","geo_score":0.716,"street address":"4200 Chino Hills Pkwy.   385","id":"a6h33mc5djbo","geo_precision":"street","state":"CA"},"type":"Feature","geometry":{"type":"Point","coordinates":[-117.764312,33.999168]}},{"properties":{"rep? (1 for yes, 0 for no)":1,"city":"Crestline","zip":"92325","company name":"Herington Real Estate","geo_score":0.429,"street address":"Po Box 3256","id":"a6h33m93odfg","geo_precision":"street","state":"CA"},"type":"Feature","geometry":{"type":"Point","coordinates":[-117.368605,34.437647]}},{"properties":{"rep? (1 for yes, 0 for no)":1,"city":"Crestline","zip":"92325","company name":"Highlander Realtor Assoc. Inc.","geo_score":0.724,"street address":"23871 Lake Dr","id":"a6h33mh7b13i","geo_precision":"street","state":"CA"},"type":"Feature","geometry":{"type":"Point","coordinates":[-117.287735,34.242402]}},{"properties":{"rep? (1 for yes, 0 for no)":1,"city":"Yucaipaca","zip":"92399","company name":"Hometown Home Loan Inc","geo_score":0.807,"street address":"33733 Yucaipa","id":"a6h33mgal8jj","geo_precision":"range","state":"CA"},"type":"Feature","geometry":{"type":"Point","coordinates":[-117.07317,34.033929]}},{"properties":{"rep? (1 for yes, 0 for no)":1,"city":"Redlands","zip":"92373","company name":"Huston Real Estate","geo_score":0.954,"street address":"312 Brookside Ave.","id":"a6h33me19znw","geo_precision":"range","state":"CA"},"type":"Feature","geometry":{"type":"Point","coordinates":[-117.18765,34.054288]}}],"is_temporal":false,"author":{"url":"","metadata":null,"contact_name":null,"contact_address":null,"source":null,"contact_phone":null},"source":"","pagination":{"sort":null,"start":0,"total":349,"limit":1000000},"state":"complete","tags":"","published":"2014-08-14T21:57:24-04:00","id":225718}