{"type":"FeatureCollection","data_type":"Dataset","url_type":null,"permissions":[{"permissions":{"download":true,"view":true},"group_id":"everyone"}],"classification":null,"title":"REO_week_prior_FNMA_-_April_2nd_-_6th","count":53,"stream_id":225725,"contributor":{"url":"http://geocommons.com/users/39447","name":"sam.felipe"},"data_attributes":null,"calculation_params":null,"icon_link":null,"link":"http://geocommons.com/overlays/225725.json","extent":[-124.063,32.7085,-116.366,41.7923],"geometry_types":["point"],"unique_name":null,"name":"REO_week_prior_FNMA_-_April_2nd_-_6th","feature_count":53,"description":"","next_feature":null,"is_raster":false,"short_classification":"Y","stats":{"filenumber":{"max":458602,"mean":457899.660377358,"variance":560420.074746009,"stdev":748.61209898452,"min":453309,"median":457939},"id":{"max":11408,"mean":11252.5094339623,"variance":15378.2547169811,"stdev":124.00909126746,"min":11017,"median":11260}},"features":[{"properties":{"iscurativefile":"FALSE","createddate":"4/2/2012 11:07","city":"Long Beach","outofstatestatus":"Not Applicable","referringcustomerfilenumber":"L111QRB","openeddate":"4/2/2012","zip":"90805","region":"Los Angeles - Ventura California","countyname":"Los Angeles","geo_score":0.784,"isclosed":"FALSE","closeddate":"4/2/2013 0:00","filenumber":457319,"id":"a647867db7vt","titleunit":"CA CPU Title-Kevin","escrowofficername":"Martha Gonzales","filetransactiontype":"Title &amp; Escrow","primarycurativetech":"Sandra Robinson","referringcustomer":"FNMA","isescalated":"FALSE","branchoffice":"Glendale","secondarycurativetech":"Jenny Martinez","geo_precision":"range","filenotes":null,"propertyaddressline2":null,"address":"340 East 56th Street","state":"California"},"type":"Feature","geometry":{"type":"Point","coordinates":[-118.189344,33.857578]}},{"properties":{"iscurativefile":"FALSE","createddate":"4/2/2012 11:09","city":"Oakland","outofstatestatus":"Not Applicable","referringcustomerfilenumber":"L1201MX","openeddate":"4/2/2012","zip":"94621","region":"South Northern California","countyname":"Alameda","geo_score":0.902,"isclosed":"FALSE","closeddate":"4/2/2013 0:00","filenumber":457320,"id":"a64786etsdqv","titleunit":"CA CPU Title-Kevin","escrowofficername":"Debbi Johnson (Apodaca)","filetransactiontype":"Title &amp; Escrow","primarycurativetech":"Rebecca Kepple","referringcustomer":"FNMA","isescalated":"FALSE","branchoffice":"Modesto","secondarycurativetech":"Kim Brown","geo_precision":"range","filenotes":null,"propertyaddressline2":null,"address":"6817 Eastlawn Street","state":"California"},"type":"Feature","geometry":{"type":"Point","coordinates":[-122.194992,37.758636]}},{"properties":{"iscurativefile":"FALSE","createddate":"4/2/2012 11:12","city":"Madera","outofstatestatus":"Not Applicable","referringcustomerfilenumber":"L111715","openeddate":"4/2/2012","zip":"93638","region":"Central California","countyname":"Madera","geo_score":0.81,"isclosed":"FALSE","closeddate":"4/2/2013 0:00","filenumber":457321,"id":"a64786l1nbaa","titleunit":"CA CPU Title-Kevin","escrowofficername":"Claudia Froelich","filetransactiontype":"Title &amp; Escrow","primarycurativetech":"Rebecca Kepple","referringcustomer":"FNMA","isescalated":"FALSE","branchoffice":"Fresno","secondarycurativetech":"Kim Brown","geo_precision":"range","filenotes":null,"propertyaddressline2":null,"address":"25609 Martin Street","state":"California"},"type":"Feature","geometry":{"type":"Point","coordinates":[-120.081152,36.992802]}},{"properties":{"iscurativefile":"FALSE","createddate":"4/2/2012 11:20","city":"Chico","outofstatestatus":"Not Applicable","referringcustomerfilenumber":"L111ND2","openeddate":"4/2/2012","zip":"95926","region":"South Northern California","countyname":"Butte","geo_score":0.805,"isclosed":"FALSE","closeddate":"4/2/2013 0:00","filenumber":457322,"id":"a64786gooa9y","titleunit":"CA CPU Title-Kevin","escrowofficername":"Vicki Gardea","filetransactiontype":"Title &amp; Escrow","primarycurativetech":"Rose Digdigan","referringcustomer":"FNMA","isescalated":"FALSE","branchoffice":"Modesto","secondarycurativetech":"Kim Brown","geo_precision":"range","filenotes":null,"propertyaddressline2":null,"address":"1046 Marchetti Court","state":"California"},"type":"Feature","geometry":{"type":"Point","coordinates":[-121.878833,39.732]}},{"properties":{"iscurativefile":"FALSE","createddate":"4/2/2012 11:23","city":"Cathedral City","outofstatestatus":"Not Applicable","referringcustomerfilenumber":"L111PJ6","openeddate":"4/2/2012","zip":"92234","region":"Inland Empire","countyname":"Riverside","geo_score":0.79,"isclosed":"FALSE","closeddate":"4/2/2013 0:00","filenumber":457323,"id":"a64786h9bhcj","titleunit":"CA CPU Title-Kevin","escrowofficername":"Michele Grub","filetransactiontype":"Title &amp; Escrow","primarycurativetech":"Rose Digdigan","referringcustomer":"FNMA","isescalated":"FALSE","branchoffice":"Murrieta","secondarycurativetech":"Jenny Martinez","geo_precision":"range","filenotes":null,"propertyaddressline2":null,"address":"67413 Toltec Court Unit 1","state":"California"},"type":"Feature","geometry":{"type":"Point","coordinates":[-116.485396,33.843061]}},{"properties":{"iscurativefile":"FALSE","createddate":"4/2/2012 11:31","city":"Palm Springs","outofstatestatus":"Not Applicable","referringcustomerfilenumber":"L1205K6","openeddate":"4/2/2012","zip":"92262","region":"Inland Empire","countyname":"Riverside","geo_score":0.902,"isclosed":"FALSE","closeddate":"4/2/2013 0:00","filenumber":457324,"id":"a64786hyt0y7","titleunit":"CA CPU Title-Kevin","escrowofficername":"(Beth) Elizabeth D'Andrea","filetransactiontype":"Title &amp; Escrow","primarycurativetech":"Rebecca Kepple","referringcustomer":"FNMA","isescalated":"FALSE","branchoffice":"Murrieta","secondarycurativetech":"Anthony Martinez","geo_precision":"range","filenotes":null,"propertyaddressline2":null,"address":"2324 North Girasol Avenue","state":"California"},"type":"Feature","geometry":{"type":"Point","coordinates":[-116.553293,33.850446]}},{"properties":{"iscurativefile":"FALSE","createddate":"4/2/2012 11:34","city":"Clearlake Oaks","outofstatestatus":"Not Applicable","referringcustomerfilenumber":"L12066L","openeddate":"4/2/2012","zip":"95423","region":"North Northern California","countyname":"Lake","geo_score":0.902,"isclosed":"FALSE","closeddate":"4/2/2013 0:00","filenumber":457325,"id":"a64786lqfa46","titleunit":"CA CPU Title-Kevin","escrowofficername":"Patti Billing","filetransactiontype":"Title &amp; Escrow","primarycurativetech":"Rebecca Kepple","referringcustomer":"FNMA","isescalated":"FALSE","branchoffice":"Santa Rosa","secondarycurativetech":"Rose Digdigan","geo_precision":"range","filenotes":null,"propertyaddressline2":null,"address":"12721 Island Circle","state":"California"},"type":"Feature","geometry":{"type":"Point","coordinates":[-122.672139,39.02305]}},{"properties":{"iscurativefile":"FALSE","createddate":"4/2/2012 11:39","city":"Santa Rosa","outofstatestatus":"Not Applicable","referringcustomerfilenumber":"L111KD7","openeddate":"4/2/2012","zip":"95403","region":"North Northern California","countyname":"Sonoma","geo_score":0.816,"isclosed":"FALSE","closeddate":"4/2/2013 0:00","filenumber":457326,"id":"a64786fvbl6b","titleunit":"CA CPU Title-Kevin","escrowofficername":"Margaret Basques","filetransactiontype":"Title &amp; Escrow","primarycurativetech":"Rose Digdigan","referringcustomer":"FNMA","isescalated":"FALSE","branchoffice":"Santa Rosa","secondarycurativetech":"Paula Finley","geo_precision":"range","filenotes":null,"propertyaddressline2":null,"address":"2064 Dennis Lane","state":"California"},"type":"Feature","geometry":{"type":"Point","coordinates":[-122.755329,38.482752]}},{"properties":{"iscurativefile":"FALSE","createddate":"4/2/2012 11:41","city":"El Cajon","outofstatestatus":"Not Applicable","referringcustomerfilenumber":"L111NN2","openeddate":"4/2/2012","zip":"92020","region":"So. California","countyname":"San Diego","geo_score":0.817,"isclosed":"FALSE","closeddate":"4/2/2013 0:00","filenumber":457327,"id":"a64786lwiurd","titleunit":"CA CPU Title-Kevin","escrowofficername":"(Cindy) Cynthia Furphy","filetransactiontype":"Title &amp; Escrow","primarycurativetech":"Paula Finley","referringcustomer":"FNMA","isescalated":"FALSE","branchoffice":"La Mesa","secondarycurativetech":"Rose Digdigan","geo_precision":"range","filenotes":null,"propertyaddressline2":null,"address":"898 Denise Lane","state":"California"},"type":"Feature","geometry":{"type":"Point","coordinates":[-116.955372,32.784117]}},{"properties":{"iscurativefile":"FALSE","createddate":"4/2/2012 11:43","city":"Winchester","outofstatestatus":"Not Applicable","referringcustomerfilenumber":"L12066G","openeddate":"4/2/2012","zip":"92596","region":"Inland Empire","countyname":"Riverside","geo_score":0.62,"isclosed":"FALSE","closeddate":"4/2/2013 0:00","filenumber":457328,"id":"a6478692qucx","titleunit":"CA CPU Title-Kevin","escrowofficername":"Nyna Ensign","filetransactiontype":"Title &amp; Escrow","primarycurativetech":"Rebecca Kepple","referringcustomer":"FNMA","isescalated":"FALSE","branchoffice":"Riverside","secondarycurativetech":"Jenny Martinez","geo_precision":"street","filenotes":null,"propertyaddressline2":null,"address":"32627 Breton Drive","state":"California"},"type":"Feature","geometry":{"type":"Point","coordinates":[-117.399811,33.971472]}},{"properties":{"iscurativefile":"FALSE","createddate":"4/4/2012 12:44","city":"Santa Ana","outofstatestatus":"Not Applicable","referringcustomerfilenumber":"L111R10","openeddate":"4/4/2012","zip":"92705","region":"So. California","countyname":"Orange","geo_score":0.804,"isclosed":"FALSE","closeddate":"4/4/2013 0:00","filenumber":457922,"id":"a64786g77dts","titleunit":"CA CPU Title-Kevin","escrowofficername":"Arwen Estelle","filetransactiontype":"Title &amp; Escrow","primarycurativetech":"Sandra Robinson","referringcustomer":"FNMA","isescalated":"FALSE","branchoffice":"Irvine","secondarycurativetech":"Paula Finley","geo_precision":"range","filenotes":null,"propertyaddressline2":null,"address":"2530 North Tustin Avenue A","state":"California"},"type":"Feature","geometry":{"type":"Point","coordinates":[-117.835764,33.770582]}},{"properties":{"iscurativefile":"FALSE","createddate":"4/4/2012 12:46","city":"Keyes","outofstatestatus":"Not Applicable","referringcustomerfilenumber":"L120232","openeddate":"4/4/2012","zip":"95328","region":"South Northern California","countyname":"Stanislaus","geo_score":0.712,"isclosed":"FALSE","closeddate":"4/4/2013 0:00","filenumber":457923,"id":"a64786hoxa88","titleunit":"CA CPU Title-Kevin","escrowofficername":"Debbi Johnson (Apodaca)","filetransactiontype":"Title &amp; Escrow","primarycurativetech":"Rebecca Kepple","referringcustomer":"FNMA","isescalated":"FALSE","branchoffice":"Modesto","secondarycurativetech":"Rose Digdigan","geo_precision":"street","filenotes":null,"propertyaddressline2":null,"address":"4937 Norma Way","state":"California"},"type":"Feature","geometry":{"type":"Point","coordinates":[-120.904518,37.554786]}},{"properties":{"iscurativefile":"FALSE","createddate":"4/4/2012 12:54","city":"Oakland","outofstatestatus":"Not Applicable","referringcustomerfilenumber":"L111R1C","openeddate":"4/4/2012","zip":"94601","region":"South Northern California","countyname":"Alameda","geo_score":0.902,"isclosed":"FALSE","closeddate":"4/4/2013 0:00","filenumber":457924,"id":"a647866664lv","titleunit":"CA CPU Title-Kevin","escrowofficername":"Vicki Gardea","filetransactiontype":"Title &amp; Escrow","primarycurativetech":"Rose Digdigan","referringcustomer":"FNMA","isescalated":"FALSE","branchoffice":"Modesto","secondarycurativetech":"Jenny Martinez","geo_precision":"range","filenotes":null,"propertyaddressline2":null,"address":"2842 Fruitvale Avenue","state":"California"},"type":"Feature","geometry":{"type":"Point","coordinates":[-122.219173,37.792736]}},{"properties":{"iscurativefile":"FALSE","createddate":"4/4/2012 12:57","city":"Boulder Creek","outofstatestatus":"Not Applicable","referringcustomerfilenumber":"L1204NY","openeddate":"4/4/2012","zip":"95006","region":"South Northern California","countyname":"Santa Cruz","geo_score":0.821,"isclosed":"FALSE","closeddate":"4/4/2013 0:00","filenumber":457925,"id":"a64786efkyvp","titleunit":"CA CPU Title-Kevin","escrowofficername":"Karen Talbot","filetransactiontype":"Title &amp; Escrow","primarycurativetech":"Sandra Robinson","referringcustomer":"FNMA","isescalated":"FALSE","branchoffice":"Santa Cruz","secondarycurativetech":"Kim Brown","geo_precision":"range","filenotes":null,"propertyaddressline2":null,"address":"315 Brook Drive","state":"California"},"type":"Feature","geometry":{"type":"Point","coordinates":[-122.127456,37.141879]}},{"properties":{"iscurativefile":"FALSE","createddate":"4/4/2012 12:59","city":"Redding","outofstatestatus":"Not Applicable","referringcustomerfilenumber":"L111QT5","openeddate":"4/4/2012","zip":"96002","region":"North Northern California","countyname":"Shasta","geo_score":0.902,"isclosed":"FALSE","closeddate":"4/4/2013 0:00","filenumber":457926,"id":"a64786jfoi07","titleunit":"CA CPU Title-Kevin","escrowofficername":"Margaret Basques","filetransactiontype":"Title &amp; Escrow","primarycurativetech":"Paula Finley","referringcustomer":"FNMA","isescalated":"FALSE","branchoffice":"Santa Rosa","secondarycurativetech":"Rebecca Kepple","geo_precision":"range","filenotes":null,"propertyaddressline2":null,"address":"1437 Murieta Loop","state":"California"},"type":"Feature","geometry":{"type":"Point","coordinates":[-122.34432,40.544749]}},{"properties":{"iscurativefile":"FALSE","createddate":"4/4/2012 13:03","city":"Sacramento","outofstatestatus":"Not Applicable","referringcustomerfilenumber":"L120400","openeddate":"4/4/2012","zip":"95832","region":"South Northern California","countyname":"Sacramento","geo_score":0.902,"isclosed":"FALSE","closeddate":"4/4/2013 0:00","filenumber":457927,"id":"a647868qmlld","titleunit":"CA CPU Title-Kevin","escrowofficername":"Diana Price","filetransactiontype":"Title &amp; Escrow","primarycurativetech":"Rebecca Kepple","referringcustomer":"FNMA","isescalated":"FALSE","branchoffice":"Turlock","secondarycurativetech":"Sandra Robinson","geo_precision":"range","filenotes":null,"propertyaddressline2":null,"address":"3401 Gates Way","state":"California"},"type":"Feature","geometry":{"type":"Point","coordinates":[-121.468387,38.47414]}},{"properties":{"iscurativefile":"FALSE","createddate":"4/4/2012 13:08","city":"Plymouth","outofstatestatus":"Not Applicable","referringcustomerfilenumber":"L12045D","openeddate":"4/4/2012","zip":"95669","region":"South Northern California","countyname":"Amador","geo_score":0.902,"isclosed":"FALSE","closeddate":"4/4/2013 0:00","filenumber":457928,"id":"a64786l5nex1","titleunit":"CA CPU Title-Kevin","escrowofficername":"Holly Weston","filetransactiontype":"Title &amp; Escrow","primarycurativetech":"Paula Finley","referringcustomer":"FNMA","isescalated":"FALSE","branchoffice":"Turlock","secondarycurativetech":"Rebecca Kepple","geo_precision":"range","filenotes":null,"propertyaddressline2":null,"address":"18625 Mineral Street","state":"California"},"type":"Feature","geometry":{"type":"Point","coordinates":[-120.847336,38.47984]}},{"properties":{"iscurativefile":"FALSE","createddate":"4/4/2012 13:12","city":"Chico","outofstatestatus":"Not Applicable","referringcustomerfilenumber":"L1204C3","openeddate":"4/4/2012","zip":"95973","region":"North Northern California","countyname":"Butte","geo_score":0.822,"isclosed":"FALSE","closeddate":"4/4/2013 0:00","filenumber":457929,"id":"a64786lwdron","titleunit":"CA CPU Title-Kevin","escrowofficername":"Patti Billing","filetransactiontype":"Title &amp; Escrow","primarycurativetech":"Rebecca Kepple","referringcustomer":"FNMA","isescalated":"FALSE","branchoffice":"Santa Rosa","secondarycurativetech":"Kim Brown","geo_precision":"range","filenotes":null,"propertyaddressline2":null,"address":"734 Grand Teton Way","state":"California"},"type":"Feature","geometry":{"type":"Point","coordinates":[-121.859781,39.771001]}},{"properties":{"iscurativefile":"FALSE","createddate":"4/4/2012 13:16","city":"Tracy","outofstatestatus":"Not Applicable","referringcustomerfilenumber":"L1205Z9","openeddate":"4/4/2012","zip":"95376","region":"South Northern California","countyname":"San Joaquin","geo_score":0.61,"isclosed":"FALSE","closeddate":"4/4/2013 0:00","filenumber":457931,"id":"a64786eb6nkd","titleunit":"CA CPU Title-Kevin","escrowofficername":"Patti Atkinson-Utz","filetransactiontype":"Title &amp; Escrow","primarycurativetech":"Rebecca Kepple","referringcustomer":"FNMA","isescalated":"FALSE","branchoffice":"Turlock","secondarycurativetech":"Rose Digdigan","geo_precision":"street","filenotes":null,"propertyaddressline2":null,"address":"1141 Andreas Lane","state":"California"},"type":"Feature","geometry":{"type":"Point","coordinates":[-120.827979,37.494566]}},{"properties":{"iscurativefile":"FALSE","createddate":"4/4/2012 13:20","city":"Auburn","outofstatestatus":"Not Applicable","referringcustomerfilenumber":"L1201DQ","openeddate":"4/4/2012","zip":"95603","region":"South Northern California","countyname":"Placer","geo_score":0.821,"isclosed":"FALSE","closeddate":"4/4/2013 0:00","filenumber":457932,"id":"a647869cbzwa","titleunit":"CA CPU Title-Kevin","escrowofficername":"Patti Atkinson-Utz","filetransactiontype":"Title &amp; Escrow","primarycurativetech":"Rebecca Kepple","referringcustomer":"FNMA","isescalated":"FALSE","branchoffice":"Turlock","secondarycurativetech":"Jenny Martinez","geo_precision":"range","filenotes":null,"propertyaddressline2":null,"address":"285 Marvin Way","state":"California"},"type":"Feature","geometry":{"type":"Point","coordinates":[-121.062855,38.89712]}},{"properties":{"iscurativefile":"FALSE","createddate":"4/4/2012 13:22","city":"Sacramento","outofstatestatus":"Not Applicable","referringcustomerfilenumber":"L111R67","openeddate":"4/4/2012","zip":"95835","region":"South Northern California","countyname":"Sacramento","geo_score":0.708,"isclosed":"FALSE","closeddate":"4/4/2013 0:00","filenumber":457933,"id":"a647866utw8z","titleunit":"CA CPU Title-Kevin","escrowofficername":"Holly Weston","filetransactiontype":"Title &amp; Escrow","primarycurativetech":"Kim Brown","referringcustomer":"FNMA","isescalated":"FALSE","branchoffice":"Turlock","secondarycurativetech":"Sandra Robinson","geo_precision":"street","filenotes":null,"propertyaddressline2":null,"address":"841 Zurlo Way","state":"California"},"type":"Feature","geometry":{"type":"Point","coordinates":[-121.50088,38.6834]}},{"properties":{"iscurativefile":"FALSE","createddate":"4/4/2012 13:25","city":"Pittsburg","outofstatestatus":"Not Applicable","referringcustomerfilenumber":"L1203SQ","openeddate":"4/4/2012","zip":"94565","region":"North Northern California","countyname":"Contra Costa","geo_score":0.872,"isclosed":"FALSE","closeddate":"4/4/2013 0:00","filenumber":457934,"id":"a64786ikohyq","titleunit":"CA CPU Title-Kevin","escrowofficername":"Rheanna Gieseking","filetransactiontype":"Title &amp; Escrow","primarycurativetech":"Paula Finley","referringcustomer":"FNMA","isescalated":"FALSE","branchoffice":"Danville","secondarycurativetech":"Rebecca Kepple","geo_precision":"range","filenotes":null,"propertyaddressline2":null,"address":"1909 Calaveras Drive","state":"California"},"type":"Feature","geometry":{"type":"Point","coordinates":[-121.939447,38.025674]}},{"properties":{"iscurativefile":"FALSE","createddate":"4/4/2012 13:31","city":"Hayward","outofstatestatus":"Not Applicable","referringcustomerfilenumber":"L1202X2","openeddate":"4/4/2012","zip":"94544","region":"North Northern California","countyname":"Alameda","geo_score":0.857,"isclosed":"FALSE","closeddate":"4/4/2013 0:00","filenumber":457936,"id":"a64786kc7gsh","titleunit":"CA CPU Title-Kevin","escrowofficername":"Rheanna Gieseking","filetransactiontype":"Title &amp; Escrow","primarycurativetech":"Paula Finley","referringcustomer":"FNMA","isescalated":"FALSE","branchoffice":"Danville","secondarycurativetech":"Jenny Martinez","geo_precision":"range","filenotes":null,"propertyaddressline2":null,"address":"325 Valle Vista Avenue","state":"California"},"type":"Feature","geometry":{"type":"Point","coordinates":[-122.053078,37.631934]}},{"properties":{"iscurativefile":"FALSE","createddate":"4/4/2012 13:37","city":"Hollister","outofstatestatus":"Not Applicable","referringcustomerfilenumber":"L1204L8","openeddate":"4/4/2012","zip":"95023","region":"South Northern California","countyname":"San Benito","geo_score":0.816,"isclosed":"FALSE","closeddate":"4/4/2013 0:00","filenumber":457937,"id":"a64786fc0sx8","titleunit":"CA CPU Title-Kevin","escrowofficername":"Debra Greene","filetransactiontype":"Title &amp; Escrow","primarycurativetech":"Paula Finley","referringcustomer":"FNMA","isescalated":"FALSE","branchoffice":"Modesto","secondarycurativetech":"Jenny Martinez","geo_precision":"range","filenotes":null,"propertyaddressline2":null,"address":"410 Mary Drive","state":"California"},"type":"Feature","geometry":{"type":"Point","coordinates":[-121.394456,36.834013]}},{"properties":{"iscurativefile":"FALSE","createddate":"4/4/2012 13:39","city":"Modesto","outofstatestatus":"Not Applicable","referringcustomerfilenumber":"L1202Z3","openeddate":"4/4/2012","zip":"95355","region":"South Northern California","countyname":"Stanislaus","geo_score":0.902,"isclosed":"FALSE","closeddate":"4/4/2013 0:00","filenumber":457938,"id":"a64786gf4myh","titleunit":"CA CPU Title-Kevin","escrowofficername":"Denise Fall","filetransactiontype":"Title &amp; Escrow","primarycurativetech":"Kim Brown","referringcustomer":"FNMA","isescalated":"FALSE","branchoffice":"Modesto","secondarycurativetech":"Rose Digdigan","geo_precision":"range","filenotes":null,"propertyaddressline2":null,"address":"3109 Amos Court","state":"California"},"type":"Feature","geometry":{"type":"Point","coordinates":[-120.936696,37.678612]}},{"properties":{"iscurativefile":"FALSE","createddate":"4/4/2012 13:41","city":"Palmdale","outofstatestatus":"Not Applicable","referringcustomerfilenumber":"L1202YH","openeddate":"4/4/2012","zip":"93552","region":"Los Angeles - Ventura California","countyname":"Los Angeles","geo_score":0.819,"isclosed":"FALSE","closeddate":"4/4/2013 0:00","filenumber":457939,"id":"a6478669rvao","titleunit":"CA CPU Title-Kevin","escrowofficername":"Melinda Thorp","filetransactiontype":"Title &amp; Escrow","primarycurativetech":"Rose Digdigan","referringcustomer":"FNMA","isescalated":"FALSE","branchoffice":"Glendale","secondarycurativetech":"Jenny Martinez","geo_precision":"range","filenotes":null,"propertyaddressline2":null,"address":"37314 52nd Street East","state":"California"},"type":"Feature","geometry":{"type":"Point","coordinates":[-118.036519,34.559873]}},{"properties":{"iscurativefile":"FALSE","createddate":"4/4/2012 13:43","city":"Lathrop","outofstatestatus":"Not Applicable","referringcustomerfilenumber":"L1201SD","openeddate":"4/4/2012","zip":"95330","region":"South Northern California","countyname":"San Joaquin","geo_score":0.582,"isclosed":"FALSE","closeddate":"4/4/2013 0:00","filenumber":457940,"id":"a64786aerwuk","titleunit":"CA CPU Title-Kevin","escrowofficername":"Diane Oliveira-Medina","filetransactiontype":"Title &amp; Escrow","primarycurativetech":"Kim Brown","referringcustomer":"FNMA","isescalated":"FALSE","branchoffice":"Turlock","secondarycurativetech":"Sandra Robinson","geo_precision":"street","filenotes":null,"propertyaddressline2":null,"address":"16847 Rrain Station Court","state":"California"},"type":"Feature","geometry":{"type":"Point","coordinates":[-120.578927,37.362349]}},{"properties":{"iscurativefile":"FALSE","createddate":"4/4/2012 13:46","city":"Norco","outofstatestatus":"Not Applicable","referringcustomerfilenumber":"L12009V","openeddate":"4/4/2012","zip":"92860","region":"Inland Empire","countyname":"Riverside","geo_score":0.902,"isclosed":"FALSE","closeddate":"4/4/2013 0:00","filenumber":457941,"id":"a64786i0cza8","titleunit":"CA CPU Title-Kevin","escrowofficername":"Nyna Ensign","filetransactiontype":"Title &amp; Escrow","primarycurativetech":"Rose Digdigan","referringcustomer":"FNMA","isescalated":"FALSE","branchoffice":"Riverside","secondarycurativetech":"Jenny Martinez","geo_precision":"range","filenotes":null,"propertyaddressline2":null,"address":"2280 Del Mar Road","state":"California"},"type":"Feature","geometry":{"type":"Point","coordinates":[-117.583139,33.914192]}},{"properties":{"iscurativefile":"FALSE","createddate":"4/4/2012 13:48","city":"South Gate","outofstatestatus":"Not Applicable","referringcustomerfilenumber":"L111DMC","openeddate":"4/4/2012","zip":"90280","region":"Los Angeles - Ventura California","countyname":"Los Angeles","geo_score":0.827,"isclosed":"FALSE","closeddate":"4/4/2013 0:00","filenumber":457942,"id":"a64786djmg26","titleunit":"CA CPU Title-Kevin","escrowofficername":"Martha Gonzales","filetransactiontype":"Title &amp; Escrow","primarycurativetech":"Paula Finley","referringcustomer":"FNMA","isescalated":"FALSE","branchoffice":"Glendale","secondarycurativetech":"Jenny Martinez","geo_precision":"range","filenotes":null,"propertyaddressline2":null,"address":"9613-9615 Truba Avenue","state":"California"},"type":"Feature","geometry":{"type":"Point","coordinates":[-118.224823,33.949359]}},{"properties":{"iscurativefile":"FALSE","createddate":"4/4/2012 13:50","city":"Felton","outofstatestatus":"Not Applicable","referringcustomerfilenumber":"L111H79","openeddate":"4/4/2012","zip":"95018","region":"South Northern California","countyname":"Santa Cruz","geo_score":0.805,"isclosed":"FALSE","closeddate":"4/4/2013 0:00","filenumber":457943,"id":"a64786b9gt8v","titleunit":"CA CPU Title-Kevin","escrowofficername":"Karen Talbot","filetransactiontype":"Title &amp; Escrow","primarycurativetech":"Paula Finley","referringcustomer":"FNMA","isescalated":"FALSE","branchoffice":"Santa Cruz","secondarycurativetech":"Jenny Martinez","geo_precision":"range","filenotes":null,"propertyaddressline2":null,"address":"166 Wells Street","state":"California"},"type":"Feature","geometry":{"type":"Point","coordinates":[-122.044109,37.094187]}},{"properties":{"iscurativefile":"FALSE","createddate":"4/4/2012 13:53","city":"Orangevale","outofstatestatus":"Not Applicable","referringcustomerfilenumber":"L12021S","openeddate":"4/4/2012","zip":"95662","region":"South Northern California","countyname":"Sacramento","geo_score":0.902,"isclosed":"FALSE","closeddate":"4/4/2013 0:00","filenumber":457944,"id":"a6478692vscl","titleunit":"CA CPU Title-Kevin","escrowofficername":"Debra Greene","filetransactiontype":"Title &amp; Escrow","primarycurativetech":"Kim Brown","referringcustomer":"FNMA","isescalated":"FALSE","branchoffice":"Modesto","secondarycurativetech":"Rose Digdigan","geo_precision":"range","filenotes":null,"propertyaddressline2":null,"address":"7427 Hardy Street","state":"California"},"type":"Feature","geometry":{"type":"Point","coordinates":[-121.237938,38.700671]}},{"properties":{"iscurativefile":"FALSE","createddate":"4/5/2012 11:32","city":"Palm Desert","outofstatestatus":"Not Applicable","referringcustomerfilenumber":"L1203B5","openeddate":"4/5/2012","zip":"92260","region":"Inland Empire","countyname":"Riverside","geo_score":0.82,"isclosed":"FALSE","closeddate":"4/5/2013 0:00","filenumber":458294,"id":"a64786kmcg0f","titleunit":"CA CPU Title-Kevin","escrowofficername":"Nyna Ensign","filetransactiontype":"Title &amp; Escrow","primarycurativetech":"Rose Digdigan","referringcustomer":"FNMA","isescalated":"FALSE","branchoffice":"Riverside","secondarycurativetech":"Sandra Robinson","geo_precision":"range","filenotes":null,"propertyaddressline2":null,"address":"44226 Kings Canyon Lane","state":"California"},"type":"Feature","geometry":{"type":"Point","coordinates":[-116.365628,33.727329]}},{"properties":{"iscurativefile":"FALSE","createddate":"4/5/2012 11:36","city":"San Fernando","outofstatestatus":"Not Applicable","referringcustomerfilenumber":"L111M11","openeddate":"4/5/2012","zip":"91340","region":"Los Angeles - Ventura California","countyname":"Los Angeles","geo_score":0.902,"isclosed":"FALSE","closeddate":"4/5/2013 0:00","filenumber":458295,"id":"a64786gvzmmq","titleunit":"CA CPU Title-Kevin","escrowofficername":"Martha Gonzales","filetransactiontype":"Title &amp; Escrow","primarycurativetech":"Jenny Martinez","referringcustomer":"FNMA","isescalated":"FALSE","branchoffice":"Glendale","secondarycurativetech":"Paula Finley","geo_precision":"range","filenotes":null,"propertyaddressline2":null,"address":"10943 Laurel Canyon Boulevard","state":"California"},"type":"Feature","geometry":{"type":"Point","coordinates":[-118.442868,34.269105]}},{"properties":{"iscurativefile":"FALSE","createddate":"4/5/2012 11:39","city":"Spring Valley","outofstatestatus":"Not Applicable","referringcustomerfilenumber":"L1203W8","openeddate":"4/5/2012","zip":"91977","region":"So. California","countyname":"San Diego","geo_score":0.805,"isclosed":"FALSE","closeddate":"4/5/2013 0:00","filenumber":458296,"id":"a64786gano0n","titleunit":"CA CPU Title-Kevin","escrowofficername":"Kristin Ruthig","filetransactiontype":"Title &amp; Escrow","primarycurativetech":"Kim Brown","referringcustomer":"FNMA","isescalated":"FALSE","branchoffice":"Carlsbad","secondarycurativetech":"Paula Finley","geo_precision":"range","filenotes":null,"propertyaddressline2":null,"address":"8953 Frederick Street","state":"California"},"type":"Feature","geometry":{"type":"Point","coordinates":[-117.006675,32.708502]}},{"properties":{"iscurativefile":"FALSE","createddate":"4/5/2012 11:42","city":"Simi Valley","outofstatestatus":"Not Applicable","referringcustomerfilenumber":"L1203Z5","openeddate":"4/5/2012","zip":"93065","region":"Los Angeles - Ventura California","countyname":"Ventura","geo_score":0.824,"isclosed":"FALSE","closeddate":"4/5/2013 0:00","filenumber":458297,"id":"a64786ct8kl6","titleunit":"CA CPU Title-Kevin","escrowofficername":"Mary Schenuk","filetransactiontype":"Title &amp; Escrow","primarycurativetech":"Rose Digdigan","referringcustomer":"FNMA","isescalated":"FALSE","branchoffice":"Glendale","secondarycurativetech":"Jenny Martinez","geo_precision":"range","filenotes":null,"propertyaddressline2":null,"address":"1354 Cochran Street","state":"California"},"type":"Feature","geometry":{"type":"Point","coordinates":[-118.773959,34.278993]}},{"properties":{"iscurativefile":"FALSE","createddate":"4/5/2012 11:44","city":"Temecula","outofstatestatus":"Not Applicable","referringcustomerfilenumber":"L1205M7","openeddate":"4/5/2012","zip":"92591","region":"Inland Empire","countyname":"Riverside","geo_score":0.902,"isclosed":"FALSE","closeddate":"4/5/2013 0:00","filenumber":458298,"id":"a64786ivf69n","titleunit":"CA CPU Title-Kevin","escrowofficername":"Nicoloa Ames","filetransactiontype":"Title &amp; Escrow","primarycurativetech":"Anthony Martinez","referringcustomer":"FNMA","isescalated":"FALSE","branchoffice":"Riverside","secondarycurativetech":"Rose Digdigan","geo_precision":"range","filenotes":null,"propertyaddressline2":null,"address":"42135 Calabria Drive","state":"California"},"type":"Feature","geometry":{"type":"Point","coordinates":[-117.135787,33.511528]}},{"properties":{"iscurativefile":"FALSE","createddate":"4/5/2012 11:53","city":"Thousand Palms","outofstatestatus":"Not Applicable","referringcustomerfilenumber":"L120608","openeddate":"4/5/2012","zip":"92276","region":"Inland Empire","countyname":"Riverside","geo_score":0.902,"isclosed":"FALSE","closeddate":"4/5/2013 0:00","filenumber":458299,"id":"a647866uaoq5","titleunit":"CA CPU Title-Kevin","escrowofficername":"Mary Hudson","filetransactiontype":"Title &amp; Escrow","primarycurativetech":"Paula Finley","referringcustomer":"FNMA","isescalated":"FALSE","branchoffice":"Riverside","secondarycurativetech":"Kim Brown","geo_precision":"range","filenotes":null,"propertyaddressline2":null,"address":"30700 Calle Jessica","state":"California"},"type":"Feature","geometry":{"type":"Point","coordinates":[-116.391079,33.825882]}},{"properties":{"iscurativefile":"FALSE","createddate":"4/5/2012 12:00","city":"Lancaster","outofstatestatus":"Not Applicable","referringcustomerfilenumber":"L100K0W","openeddate":"4/5/2012","zip":"93536","region":"Los Angeles - Ventura California","countyname":"Los Angeles","geo_score":0.675,"isclosed":"FALSE","closeddate":"4/5/2013 0:00","filenumber":458300,"id":"a64786duu8v4","titleunit":"CA CPU Title-Kevin","escrowofficername":"Melinda Thorp","filetransactiontype":"Title &amp; Escrow","primarycurativetech":"Sandra Robinson","referringcustomer":"FNMA","isescalated":"FALSE","branchoffice":"Glendale","secondarycurativetech":"Jenny Martinez","geo_precision":"street","filenotes":null,"propertyaddressline2":null,"address":"42141 Madison Court","state":"California"},"type":"Feature","geometry":{"type":"Point","coordinates":[-118.053536,34.565075]}},{"properties":{"iscurativefile":"FALSE","createddate":"4/5/2012 12:03","city":"Madera","outofstatestatus":"Not Applicable","referringcustomerfilenumber":"L1205X6","openeddate":"4/5/2012","zip":"93637","region":"Central California","countyname":"Madera","geo_score":0.707,"isclosed":"FALSE","closeddate":"4/5/2013 0:00","filenumber":458301,"id":"a64786ayb38w","titleunit":"CA CPU Title-Kevin","escrowofficername":"Irene Lehman","filetransactiontype":"Title &amp; Escrow","primarycurativetech":"Rose Digdigan","referringcustomer":"FNMA","isescalated":"FALSE","branchoffice":"Fresno","secondarycurativetech":"Anthony Martinez","geo_precision":"range","filenotes":null,"propertyaddressline2":null,"address":"1608 West 4th Street","state":"California"},"type":"Feature","geometry":{"type":"Point","coordinates":[-120.076644,36.954854]}},{"properties":{"iscurativefile":"FALSE","createddate":"4/5/2012 12:06","city":"San Pablo","outofstatestatus":"Not Applicable","referringcustomerfilenumber":"L1200DC","openeddate":"4/5/2012","zip":"94806","region":"North Northern California","countyname":"Contra Costa","geo_score":0.729,"isclosed":"FALSE","closeddate":"4/5/2013 0:00","filenumber":458302,"id":"a64786j8se0k","titleunit":"CA CPU Title-Kevin","escrowofficername":"Rheanna Gieseking","filetransactiontype":"Title &amp; Escrow","primarycurativetech":"Paula Finley","referringcustomer":"FNMA","isescalated":"FALSE","branchoffice":"Danville","secondarycurativetech":"Jenny Martinez","geo_precision":"range","filenotes":null,"propertyaddressline2":null,"address":"2560 17th Street","state":"California"},"type":"Feature","geometry":{"type":"Point","coordinates":[-122.349606,37.967682]}},{"properties":{"iscurativefile":"FALSE","createddate":"4/5/2012 12:08","city":"Anderson","outofstatestatus":"Not Applicable","referringcustomerfilenumber":"L1206BV","openeddate":"4/5/2012","zip":"96007","region":"North Northern California","countyname":"Shasta","geo_score":0.657,"isclosed":"FALSE","closeddate":"4/5/2013 0:00","filenumber":458303,"id":"a64786mfwq4w","titleunit":"CA CPU Title-Kevin","escrowofficername":"Sandy Veveiros","filetransactiontype":"Title &amp; Escrow","primarycurativetech":"Sandra Robinson","referringcustomer":"FNMA","isescalated":"FALSE","branchoffice":"Santa Rosa","secondarycurativetech":"Kim Brown","geo_precision":"range","filenotes":null,"propertyaddressline2":null,"address":"2260 South Street","state":"California"},"type":"Feature","geometry":{"type":"Point","coordinates":[-122.294794,40.451164]}},{"properties":{"iscurativefile":"FALSE","createddate":"4/5/2012 12:10","city":"Hemet","outofstatestatus":"Not Applicable","referringcustomerfilenumber":"L1205M6","openeddate":"4/5/2012","zip":"92544","region":"Inland Empire","countyname":"Riverside","geo_score":0.861,"isclosed":"FALSE","closeddate":"4/5/2013 0:00","filenumber":458304,"id":"a64786l2tzjd","titleunit":"CA CPU Title-Kevin","escrowofficername":"(Beth) Elizabeth D'Andrea","filetransactiontype":"Title &amp; Escrow","primarycurativetech":"Kim Brown","referringcustomer":"FNMA","isescalated":"FALSE","branchoffice":"Murrieta","secondarycurativetech":"Rose Digdigan","geo_precision":"range","filenotes":null,"propertyaddressline2":null,"address":"41695 Crest Drive","state":"California"},"type":"Feature","geometry":{"type":"Point","coordinates":[-116.933317,33.72304]}},{"properties":{"iscurativefile":"FALSE","createddate":"4/5/2012 12:16","city":"Sacramento","outofstatestatus":"Not Applicable","referringcustomerfilenumber":"L1205LQ","openeddate":"4/5/2012","zip":"95842","region":"South Northern California","countyname":"Sacramento","geo_score":0.902,"isclosed":"FALSE","closeddate":"4/5/2013 0:00","filenumber":458305,"id":"a647869r2vte","titleunit":"CA CPU Title-Kevin","escrowofficername":"Heather Walker","filetransactiontype":"Title &amp; Escrow","primarycurativetech":"Kim Brown","referringcustomer":"FNMA","isescalated":"FALSE","branchoffice":"Turlock","secondarycurativetech":"Paula Finley","geo_precision":"range","filenotes":null,"propertyaddressline2":null,"address":"6212 Johanson Circle","state":"California"},"type":"Feature","geometry":{"type":"Point","coordinates":[-121.349682,38.681072]}},{"properties":{"iscurativefile":"FALSE","createddate":"4/5/2012 12:18","city":"Los Angeles","outofstatestatus":"Not Applicable","referringcustomerfilenumber":"L111407","openeddate":"4/5/2012","zip":"90043","region":"Los Angeles - Ventura California","countyname":"Los Angeles","geo_score":0.488,"isclosed":"FALSE","closeddate":"4/5/2013 0:00","filenumber":458307,"id":"a6478699sm2y","titleunit":"CA CPU Title-Kevin","escrowofficername":"Martha Gonzales","filetransactiontype":"Title &amp; Escrow","primarycurativetech":"Sandra Robinson","referringcustomer":"FNMA","isescalated":"FALSE","branchoffice":"Glendale","secondarycurativetech":"Rose Digdigan","geo_precision":"zip","filenotes":null,"propertyaddressline2":null,"address":"5425 Bryhhurst Avenue","state":"California"},"type":"Feature","geometry":{"type":"Point","coordinates":[-118.342576,33.998902]}},{"properties":{"iscurativefile":"FALSE","createddate":"4/5/2012 12:21","city":"Crescent City","outofstatestatus":"Not Applicable","referringcustomerfilenumber":"L1205L0","openeddate":"4/5/2012","zip":"95531","region":"South Northern California","countyname":"Del Norte","geo_score":0.902,"isclosed":"FALSE","closeddate":"4/5/2013 0:00","filenumber":458308,"id":"a64786ecchkh","titleunit":"CA CPU Title-Kevin","escrowofficername":"Denise Fall","filetransactiontype":"Title &amp; Escrow","primarycurativetech":"Paula Finley","referringcustomer":"FNMA","isescalated":"FALSE","branchoffice":"Modesto","secondarycurativetech":"Anthony Martinez","geo_precision":"range","filenotes":null,"propertyaddressline2":null,"address":"125 Sunkist Lane","state":"California"},"type":"Feature","geometry":{"type":"Point","coordinates":[-124.063018,41.792325]}},{"properties":{"iscurativefile":"FALSE","createddate":"4/5/2012 12:23","city":"Santee","outofstatestatus":"Not Applicable","referringcustomerfilenumber":"L120735","openeddate":"4/5/2012","zip":"92071","region":"So. California","countyname":"San Diego","geo_score":0.902,"isclosed":"FALSE","closeddate":"4/5/2013 0:00","filenumber":453309,"id":"a64786c3qb6t","titleunit":"CA CPU Title-Kevin","escrowofficername":"Irene Casey","filetransactiontype":"Title &amp; Escrow","primarycurativetech":"Jenny Martinez","referringcustomer":"FNMA","isescalated":"FALSE","branchoffice":"Carlsbad","secondarycurativetech":"Sandra Robinson","geo_precision":"range","filenotes":null,"propertyaddressline2":null,"address":"9160 Honey Lane","state":"California"},"type":"Feature","geometry":{"type":"Point","coordinates":[-116.99879,32.833113]}},{"properties":{"iscurativefile":"FALSE","createddate":"4/5/2012 12:25","city":"Murrieta","outofstatestatus":"Not Applicable","referringcustomerfilenumber":"L1205MK","openeddate":"4/5/2012","zip":"92563","region":"Inland Empire","countyname":"Riverside","geo_score":0.848,"isclosed":"FALSE","closeddate":"4/5/2013 0:00","filenumber":458310,"id":"a64786i8weww","titleunit":"CA CPU Title-Kevin","escrowofficername":"(Patti) Patricia Carver","filetransactiontype":"Title &amp; Escrow","primarycurativetech":"Rose Digdigan","referringcustomer":"FNMA","isescalated":"FALSE","branchoffice":"Murrieta","secondarycurativetech":"Anthony Martinez","geo_precision":"range","filenotes":null,"propertyaddressline2":null,"address":"38345 Augusta Drive","state":"California"},"type":"Feature","geometry":{"type":"Point","coordinates":[-117.140074,33.56306]}},{"properties":{"iscurativefile":"FALSE","createddate":"4/5/2012 12:27","city":"Fresno","outofstatestatus":"Not Applicable","referringcustomerfilenumber":"L12055W","openeddate":"4/5/2012","zip":"93711","region":"Central California","countyname":"Fresno","geo_score":0.902,"isclosed":"FALSE","closeddate":"4/5/2013 0:00","filenumber":458311,"id":"a64786k1t7nc","titleunit":"CA CPU Title-Kevin","escrowofficername":"Claudia Froelich","filetransactiontype":"Title &amp; Escrow","primarycurativetech":"Kim Brown","referringcustomer":"FNMA","isescalated":"FALSE","branchoffice":"Fresno","secondarycurativetech":"Sandra Robinson","geo_precision":"range","filenotes":null,"propertyaddressline2":null,"address":"7178 North Fruit Avenue","state":"California"},"type":"Feature","geometry":{"type":"Point","coordinates":[-119.817786,36.840645]}},{"properties":{"iscurativefile":"FALSE","createddate":"4/5/2012 12:29","city":"Los Angeles","outofstatestatus":"Not Applicable","referringcustomerfilenumber":"L110KHD","openeddate":"4/5/2012","zip":"90023","region":"Los Angeles - Ventura California","countyname":"Los Angeles","geo_score":0.902,"isclosed":"FALSE","closeddate":"4/5/2013 0:00","filenumber":458312,"id":"a64786eziys3","titleunit":"CA CPU Title-Kevin","escrowofficername":"Mary Schenuk","filetransactiontype":"Title &amp; Escrow","primarycurativetech":"Paula Finley","referringcustomer":"FNMA","isescalated":"FALSE","branchoffice":"Glendale","secondarycurativetech":"Rose Digdigan","geo_precision":"range","filenotes":null,"propertyaddressline2":null,"address":"950 South Mott Street","state":"California"},"type":"Feature","geometry":{"type":"Point","coordinates":[-118.2136,34.032135]}},{"properties":{"iscurativefile":"FALSE","createddate":"4/6/2012 10:12","city":"Stockton","outofstatestatus":"Not Applicable","referringcustomerfilenumber":"L1206Y0","openeddate":"4/6/2012","zip":"95212","region":"South Northern California","countyname":"San Joaquin","geo_score":0.714,"isclosed":"FALSE","closeddate":"4/6/2013 0:00","filenumber":458599,"id":"a64786cokhox","titleunit":"CA CPU Title-Kevin","escrowofficername":"Debbi Johnson (Apodaca)","filetransactiontype":"Title &amp; Escrow","primarycurativetech":"Sandra Robinson","referringcustomer":"FNMA","isescalated":"FALSE","branchoffice":"Modesto","secondarycurativetech":"Anthony Martinez","geo_precision":"street","filenotes":null,"propertyaddressline2":null,"address":"9128 Chianti Circle","state":"California"},"type":"Feature","geometry":{"type":"Point","coordinates":[-121.260013,38.033108]}},{"properties":{"iscurativefile":"FALSE","createddate":"4/6/2012 10:18","city":"Winton","outofstatestatus":"Not Applicable","referringcustomerfilenumber":"L1206VN","openeddate":"4/6/2012","zip":"95388","region":"Central California","countyname":"Merced","geo_score":0.78,"isclosed":"FALSE","closeddate":"4/6/2013 0:00","filenumber":458600,"id":"a64786c477aq","titleunit":"CA CPU Title-Kevin","escrowofficername":"Irene Lehman","filetransactiontype":"Title &amp; Escrow","primarycurativetech":"Anthony Martinez","referringcustomer":"FNMA","isescalated":"FALSE","branchoffice":"Fresno","secondarycurativetech":"Sandra Robinson","geo_precision":"street","filenotes":null,"propertyaddressline2":null,"address":"7316 Anne Circle","state":"California"},"type":"Feature","geometry":{"type":"Point","coordinates":[-120.614484,37.39453]}},{"properties":{"iscurativefile":"FALSE","createddate":"4/6/2012 10:20","city":"Pollock Pines","outofstatestatus":"Not Applicable","referringcustomerfilenumber":"L1206VL","openeddate":"4/6/2012","zip":"95726","region":"South Northern California","countyname":"El Dorado","geo_score":0.821,"isclosed":"FALSE","closeddate":"4/6/2013 0:00","filenumber":458601,"id":"a647866ndijl","titleunit":"CA CPU Title-Kevin","escrowofficername":"Vicki Gardea","filetransactiontype":"Title &amp; Escrow","primarycurativetech":"Jenny Martinez","referringcustomer":"FNMA","isescalated":"FALSE","branchoffice":"Modesto","secondarycurativetech":"Rose Digdigan","geo_precision":"range","filenotes":null,"propertyaddressline2":null,"address":"5933 Pennyroyal Drive","state":"California"},"type":"Feature","geometry":{"type":"Point","coordinates":[-120.620298,38.698967]}},{"properties":{"iscurativefile":"FALSE","createddate":"4/6/2012 10:22","city":"Paradise","outofstatestatus":"Not Applicable","referringcustomerfilenumber":"L1206W0","openeddate":"4/6/2012","zip":"95969","region":"North Northern California","countyname":"Butte","geo_score":0.902,"isclosed":"FALSE","closeddate":"4/6/2013 0:00","filenumber":458602,"id":"a64786mea5mm","titleunit":"CA CPU Title-Kevin","escrowofficername":"Patti Billing","filetransactiontype":"Title &amp; Escrow","primarycurativetech":"Rose Digdigan","referringcustomer":"FNMA","isescalated":"FALSE","branchoffice":"Santa Rosa","secondarycurativetech":"Jenny Martinez","geo_precision":"range","filenotes":null,"propertyaddressline2":null,"address":"414 Green Oaks Drive","state":"California"},"type":"Feature","geometry":{"type":"Point","coordinates":[-121.633736,39.742298]}}],"is_temporal":false,"author":{"url":"","metadata":null,"contact_name":null,"contact_address":null,"source":null,"contact_phone":null},"source":"","pagination":{"sort":null,"start":0,"total":53,"limit":1000000},"state":"complete","tags":"","published":"2014-08-14T22:00:17-04:00","id":225725}