{"type":"FeatureCollection","data_type":"Dataset","url_type":null,"permissions":[{"permissions":{"download":true,"view":true},"group_id":"everyone"}],"classification":null,"title":"LND_Bs_closed_-_ran_April_9th","count":472,"stream_id":225827,"contributor":{"url":"http://geocommons.com/users/39447","name":"sam.felipe"},"data_attributes":null,"calculation_params":null,"icon_link":null,"link":"http://geocommons.com/overlays/225827.json","extent":[-124.157,32.5771,-114.598,41.8335],"geometry_types":["point"],"unique_name":null,"name":"LND_Bs_closed_-_ran_April_9th","feature_count":472,"description":"","next_feature":null,"is_raster":false,"short_classification":"Y","stats":{},"features":[{"properties":{"city":"Beaumont","zip":"92223","geo_score":0.468,"filenumber":"426867","filetransactiontype":"Escrow Only","referringcustomer":"LandSafe_CA","id":"a6lmrom9tsa4","geo_precision":"street","address":"1541 Midnight Sun Drive","state":"California"},"type":"Feature","geometry":{"type":"Point","coordinates":[-116.954928,33.932545]}},{"properties":{"city":"Atascadero","zip":"93422","geo_score":0.911,"filenumber":"426893","filetransactiontype":"Title &amp; Escrow","referringcustomer":"LandSafe_CA","id":"a6lmrol98f3l","geo_precision":"range","address":"4805 Sycamore Road","state":"California"},"type":"Feature","geometry":{"type":"Point","coordinates":[-120.663457,35.505971]}},{"properties":{"city":"Los Angeles","zip":"90011","geo_score":0.512,"filenumber":"426994-C","filetransactiontype":"Escrow Only","referringcustomer":"LandSafe_CA","id":"a6lmrocr3a9c","geo_precision":"street","address":"4612-4612 1/2 Wall Street","state":"California"},"type":"Feature","geometry":{"type":"Point","coordinates":[-118.261861,34.026772]}},{"properties":{"city":"San Bernardino","zip":"92404","geo_score":0.869,"filenumber":"427003","filetransactiontype":"Escrow Only","referringcustomer":"LandSafe_CA","id":"a6lmro7ea4ir","geo_precision":"range","address":"6566 Monte Vista Drive","state":"California"},"type":"Feature","geometry":{"type":"Point","coordinates":[-117.257567,34.134128]}},{"properties":{"city":"Redding","zip":"96001","geo_score":0.927,"filenumber":"427039-C","filetransactiontype":"Title &amp; Escrow","referringcustomer":"LandSafe_CA","id":"a6lmrofqgb8q","geo_precision":"range","address":"2108 Park Marina Drive","state":"California"},"type":"Feature","geometry":{"type":"Point","coordinates":[-122.37305,40.582922]}},{"properties":{"city":"El Dorado Hills","zip":"95762","geo_score":0.902,"filenumber":"427074","filetransactiontype":"Title &amp; Escrow","referringcustomer":"LandSafe_CA","id":"a6lmrojbh5k3","geo_precision":"street","address":"912 Yosemite Lane","state":"California"},"type":"Feature","geometry":{"type":"Point","coordinates":[-121.078706,38.662667]}},{"properties":{"city":"Redding","zip":"96003","geo_score":0.6,"filenumber":"427087","filetransactiontype":"Title &amp; Escrow","referringcustomer":"LandSafe_CA","id":"a6lmrob9pdtl","geo_precision":"street","address":"2314 La Villa Way","state":"California"},"type":"Feature","geometry":{"type":"Point","coordinates":[-122.404224,40.621641]}},{"properties":{"city":"Salinas","zip":"93905","geo_score":1.0,"filenumber":"427207","filetransactiontype":"Title &amp; Escrow","referringcustomer":"LandSafe_CA","id":"a6lmrokc3jbn","geo_precision":"range","address":"1018-1020 East Laurel Drive","state":"California"},"type":"Feature","geometry":{"type":"Point","coordinates":[-121.620737,36.682683]}},{"properties":{"city":"Salinas","zip":"93907","geo_score":0.83,"filenumber":"427216","filetransactiontype":"Title &amp; Escrow","referringcustomer":"LandSafe_CA","id":"a6lmro8p30zr","geo_precision":"range","address":"12 Vista Drive","state":"California"},"type":"Feature","geometry":{"type":"Point","coordinates":[-121.63196,36.823779]}},{"properties":{"city":"Davis","zip":"95616","geo_score":0.592,"filenumber":"427218","filetransactiontype":"Title &amp; Escrow","referringcustomer":"LandSafe_CA","id":"a6lmro8nh94n","geo_precision":"street","address":"1008 San Gallo Terrace","state":"California"},"type":"Feature","geometry":{"type":"Point","coordinates":[-121.764036,38.564417]}},{"properties":{"city":"Merced","zip":"95340","geo_score":0.819,"filenumber":"427231-C","filetransactiontype":"Title &amp; Escrow","referringcustomer":"LandSafe_CA","id":"a6lmro6fkubd","geo_precision":"range","address":"1054 West 24th Street","state":"California"},"type":"Feature","geometry":{"type":"Point","coordinates":[-120.48741,37.311301]}},{"properties":{"city":"Victorville","zip":"92392","geo_score":0.776,"filenumber":"427144-C","filetransactiontype":"Escrow Only","referringcustomer":"LandSafe_CA","id":"a6lmrodzhx1g","geo_precision":"range","address":"11981 Hillary Way","state":"California"},"type":"Feature","geometry":{"type":"Point","coordinates":[-117.137271,34.019167]}},{"properties":{"city":"Bakersfield","zip":"93309","geo_score":1.0,"filenumber":"427435","filetransactiontype":"Escrow Only","referringcustomer":"LandSafe_CA","id":"a6lmrok90vk2","geo_precision":"range","address":"117 Dunlap St","state":"California"},"type":"Feature","geometry":{"type":"Point","coordinates":[-119.049957,35.355842]}},{"properties":{"city":"Crescent City","zip":"95531","geo_score":1.0,"filenumber":"427507","filetransactiontype":"Title &amp; Escrow","referringcustomer":"LandSafe_CA","id":"a6lmrol30ohe","geo_precision":"range","address":"4920 Kings Valley Rd","state":"California"},"type":"Feature","geometry":{"type":"Point","coordinates":[-124.138979,41.833537]}},{"properties":{"city":"Carmichael","zip":"95608","geo_score":1.0,"filenumber":"427540-C","filetransactiontype":"Escrow Only","referringcustomer":"LandSafe_CA","id":"a6lmrodtcok5","geo_precision":"range","address":"4004 Oak Villa Circle","state":"California"},"type":"Feature","geometry":{"type":"Point","coordinates":[-121.342512,38.636468]}},{"properties":{"city":"Oakley","zip":"94561","geo_score":1.0,"filenumber":"427693-C","filetransactiontype":"Escrow Only","referringcustomer":"LandSafe_CA","id":"a6lmrolfzo1v","geo_precision":"range","address":"245 Spindrift Ct","state":"California"},"type":"Feature","geometry":{"type":"Point","coordinates":[-121.724179,37.988654]}},{"properties":{"city":"Encino","zip":"91436","geo_score":1.0,"filenumber":"427821-C","filetransactiontype":"Escrow Only","referringcustomer":"LandSafe_CA","id":"a6lmro97c88r","geo_precision":"range","address":"4813 Haskell Ave","state":"California"},"type":"Feature","geometry":{"type":"Point","coordinates":[-118.474892,34.15764]}},{"properties":{"city":"El Cajon","zip":"92020","geo_score":0.915,"filenumber":"427920","filetransactiontype":"Escrow Only","referringcustomer":"LandSafe_CA","id":"a6lmroir9xor","geo_precision":"range","address":"574 Lindsay St","state":"California"},"type":"Feature","geometry":{"type":"Point","coordinates":[-116.95727,32.801909]}},{"properties":{"city":"Riverside","zip":"92506","geo_score":1.0,"filenumber":"427974-C","filetransactiontype":"Escrow Only","referringcustomer":"LandSafe_CA","id":"a6lmroivlygy","geo_precision":"range","address":"683 Burwood Ct","state":"California"},"type":"Feature","geometry":{"type":"Point","coordinates":[-117.31912,33.929323]}},{"properties":{"city":"Lakewood","zip":"90713","geo_score":1.0,"filenumber":"427557","filetransactiontype":"Escrow Only","referringcustomer":"LandSafe_CA","id":"a6lmroec83up","geo_precision":"range","address":"5843 Eckleson Street","state":"California"},"type":"Feature","geometry":{"type":"Point","coordinates":[-118.118103,33.848621]}},{"properties":{"city":"Valley Springs","zip":"95252","geo_score":0.917,"filenumber":"427826-C","filetransactiontype":"Title &amp; Escrow","referringcustomer":"LandSafe_CA","id":"a6lmrodkxmfl","geo_precision":"range","address":"2065 Grouse Drive","state":"California"},"type":"Feature","geometry":{"type":"Point","coordinates":[-120.837606,38.166368]}},{"properties":{"city":"Tracy","zip":"95376","geo_score":0.916,"filenumber":"427925-C","filetransactiontype":"Escrow Only","referringcustomer":"LandSafe_CA","id":"a6lmrod6shgm","geo_precision":"range","address":"1081 Havenbrook Drive","state":"California"},"type":"Feature","geometry":{"type":"Point","coordinates":[-121.44338,37.722411]}},{"properties":{"city":"Coalinga","zip":"93210","geo_score":0.585,"filenumber":"427958","filetransactiontype":"Escrow Only","referringcustomer":"LandSafe_CA","id":"a6lmroibcimo","geo_precision":"zip","address":"450-452 North Sixt Street","state":"California"},"type":"Feature","geometry":{"type":"Point","coordinates":[-120.222088,36.171065]}},{"properties":{"city":"Mission Viejo","zip":"92691","geo_score":0.625,"filenumber":"427960-C","filetransactiontype":"Escrow Only","referringcustomer":"LandSafe_CA","id":"a6lmroe1pa8w","geo_precision":"street","address":"26232 Los Viveros #A","state":"California"},"type":"Feature","geometry":{"type":"Point","coordinates":[-117.66033,33.61296]}},{"properties":{"city":"Atascadero","zip":"93422","geo_score":0.911,"filenumber":"445147","filetransactiontype":"Title &amp; Escrow","referringcustomer":"LandSafe_CA","id":"a6lmrofx1dm9","geo_precision":"range","address":"3127 Ramona Road","state":"California"},"type":"Feature","geometry":{"type":"Point","coordinates":[-120.692494,35.502312]}},{"properties":{"city":"Madera","zip":"93636","geo_score":0.902,"filenumber":"427990","filetransactiontype":"Title &amp; Escrow","referringcustomer":"LandSafe_CA","id":"a6lmrojlho2p","geo_precision":"range","address":"17112 Road 37","state":"California"},"type":"Feature","geometry":{"type":"Point","coordinates":[-119.875638,36.997447]}},{"properties":{"city":"Oroville","zip":"95966","geo_score":1.0,"filenumber":"428143-C","filetransactiontype":"Title &amp; Escrow","referringcustomer":"LandSafe_CA","id":"a6lmrogm8eok","geo_precision":"range","address":"37 Greenbank Avenue","state":"California"},"type":"Feature","geometry":{"type":"Point","coordinates":[-121.509134,39.493925]}},{"properties":{"city":"Victorville","zip":"92392","geo_score":0.728,"filenumber":"428220-C","filetransactiontype":"Escrow Only","referringcustomer":"LandSafe_CA","id":"a6lmroadlg1h","geo_precision":"street","address":"10238 Maricopa Road","state":"California"},"type":"Feature","geometry":{"type":"Point","coordinates":[-117.359859,34.495852]}},{"properties":{"city":"Woodland","zip":"95695","geo_score":0.577,"filenumber":"428233","filetransactiontype":"Title &amp; Escrow","referringcustomer":"LandSafe_CA","id":"a6lmrok7w8wc","geo_precision":"street","address":"18134 Gadwall Street","state":"California"},"type":"Feature","geometry":{"type":"Point","coordinates":[-121.553851,38.549811]}},{"properties":{"city":"La Grange","zip":"95329","geo_score":1.0,"filenumber":"428428-C","filetransactiontype":"Escrow Only","referringcustomer":"LandSafe_CA","id":"a6lmrolfaedx","geo_precision":"range","address":"1626 Carmelita Ln","state":"California"},"type":"Feature","geometry":{"type":"Point","coordinates":[-120.324045,37.654881]}},{"properties":{"city":"Crest Park","zip":"92326","geo_score":0.463,"filenumber":"428434-C","filetransactiontype":"Escrow Only","referringcustomer":"LandSafe_CA","id":"a6lmro7sth6l","geo_precision":"street","address":"1048 Heaton Drive","state":"California"},"type":"Feature","geometry":{"type":"Point","coordinates":[-117.111453,34.032702]}},{"properties":{"city":"Red Bluff","zip":"96080","geo_score":0.951,"filenumber":"428448-C","filetransactiontype":"Title &amp; Escrow","referringcustomer":"LandSafe_CA","id":"a6lmrojbzep5","geo_precision":"range","address":"2450 Forward Way","state":"California"},"type":"Feature","geometry":{"type":"Point","coordinates":[-122.244533,40.191383]}},{"properties":{"city":"Benicia","zip":"94510","geo_score":1.0,"filenumber":"428459-C","filetransactiontype":"Escrow Only","referringcustomer":"LandSafe_CA","id":"a6lmrok1npnz","geo_precision":"range","address":"2163 Clearview Circle","state":"California"},"type":"Feature","geometry":{"type":"Point","coordinates":[-122.158468,38.064667]}},{"properties":{"city":"San Pablo","zip":"94806","geo_score":0.827,"filenumber":"428697","filetransactiontype":"Escrow Only","referringcustomer":"LandSafe_CA","id":"a6lmro65ehkh","geo_precision":"range","address":"2794 13th Street","state":"California"},"type":"Feature","geometry":{"type":"Point","coordinates":[-122.35099,37.972122]}},{"properties":{"city":"Hemet","zip":"92543","geo_score":1.0,"filenumber":"428755","filetransactiontype":"Escrow Only","referringcustomer":"LandSafe_CA","id":"a6lmroczryyb","geo_precision":"range","address":"1220 Shellie Lane","state":"California"},"type":"Feature","geometry":{"type":"Point","coordinates":[-116.959509,33.732312]}},{"properties":{"city":"Merced","zip":"95340","geo_score":0.416,"filenumber":"428864-C","filetransactiontype":"Title &amp; Escrow","referringcustomer":"LandSafe_CA","id":"a6lmrohqe1n7","geo_precision":"street","address":"97 Maia Court","state":"California"},"type":"Feature","geometry":{"type":"Point","coordinates":[-120.492722,37.288224]}},{"properties":{"city":"Watsonville","zip":"95076","geo_score":0.594,"filenumber":"428972-C","filetransactiontype":"Escrow Only","referringcustomer":"LandSafe_CA","id":"a6lmro7fttte","geo_precision":"zip","address":"541 Secoya St","state":"California"},"type":"Feature","geometry":{"type":"Point","coordinates":[-121.748561,36.90412]}},{"properties":{"city":"Seaside","zip":"93955","geo_score":0.927,"filenumber":"339798","filetransactiontype":"Title &amp; Escrow","referringcustomer":"LandSafe_CA","id":"a6lmro78a87e","geo_precision":"range","address":"1382 Elm Ave","state":"California"},"type":"Feature","geometry":{"type":"Point","coordinates":[-121.835755,36.607466]}},{"properties":{"city":"Orange","zip":"92869","geo_score":1.0,"filenumber":"429067","filetransactiontype":"Escrow Only","referringcustomer":"LandSafe_CA","id":"a6lmrogf9bu9","geo_precision":"range","address":"1570 N Kennymead St","state":"California"},"type":"Feature","geometry":{"type":"Point","coordinates":[-117.774613,33.813272]}},{"properties":{"city":"Santa Rosa","zip":"95401","geo_score":0.924,"filenumber":"428955-C","filetransactiontype":"Escrow Only","referringcustomer":"LandSafe_CA","id":"a6lmro9nhzbn","geo_precision":"range","address":"695 Dixon Court","state":"California"},"type":"Feature","geometry":{"type":"Point","coordinates":[-122.76886,38.439879]}},{"properties":{"city":"Temecula","zip":"92591","geo_score":1.0,"filenumber":"429382-C","filetransactiontype":"Escrow Only","referringcustomer":"LandSafe_CA","id":"a6lmroc286ul","geo_precision":"range","address":"39713 Oak Cliff Drive","state":"California"},"type":"Feature","geometry":{"type":"Point","coordinates":[-117.149311,33.54402]}},{"properties":{"city":"Valley Springs","zip":"95252","geo_score":0.917,"filenumber":"429569-C","filetransactiontype":"Title &amp; Escrow","referringcustomer":"LandSafe_CA","id":"a6lmroi0zqn1","geo_precision":"range","address":"6919 Baldwin Street","state":"California"},"type":"Feature","geometry":{"type":"Point","coordinates":[-120.859676,38.118966]}},{"properties":{"city":"Rancho Cucamonga","zip":"91701","geo_score":0.558,"filenumber":"429661","filetransactiontype":"Escrow Only","referringcustomer":"LandSafe_CA","id":"a6lmrocrcbxh","geo_precision":"street","address":"9349 La Grande Street","state":"California"},"type":"Feature","geometry":{"type":"Point","coordinates":[-117.608646,34.121555]}},{"properties":{"city":"Clovis","zip":"93619","geo_score":0.805,"filenumber":"449953","filetransactiontype":"Escrow Only","referringcustomer":"LandSafe_CA","id":"a6lmro8qwsz3","geo_precision":"street","address":"6118 Greenwood Ave","state":"California"},"type":"Feature","geometry":{"type":"Point","coordinates":[-119.56507,36.811757]}},{"properties":{"city":"San Pedro","zip":"90732","geo_score":1.0,"filenumber":"444018","filetransactiontype":"Escrow Only","referringcustomer":"LandSafe_CA","id":"a6lmrohptyac","geo_precision":"range","address":"1301 W Capitol Dr","state":"California"},"type":"Feature","geometry":{"type":"Point","coordinates":[-118.305862,33.754975]}},{"properties":{"city":"Wasco","zip":"93280","geo_score":0.873,"filenumber":"430484","filetransactiontype":"Escrow Only","referringcustomer":"LandSafe_CA","id":"a6lmro85wtoj","geo_precision":"range","address":"2425 Jasimine Street","state":"California"},"type":"Feature","geometry":{"type":"Point","coordinates":[-119.352589,35.584531]}},{"properties":{"city":"Corona","zip":"92883","geo_score":1.0,"filenumber":"430575","filetransactiontype":"Escrow Only","referringcustomer":"LandSafe_CA","id":"a6lmrojjnhdx","geo_precision":"range","address":"13021 Fescue Court","state":"California"},"type":"Feature","geometry":{"type":"Point","coordinates":[-117.432625,33.726824]}},{"properties":{"city":"Antioch","zip":"94531","geo_score":0.52,"filenumber":"430728-C","filetransactiontype":"Escrow Only","referringcustomer":"LandSafe_CA","id":"a6lmrof1h3kw","geo_precision":"street","address":"4128 Shelter Cove Ct","state":"California"},"type":"Feature","geometry":{"type":"Point","coordinates":[-121.963629,38.026825]}},{"properties":{"city":"Sacramento","zip":"95823","geo_score":0.922,"filenumber":"430873","filetransactiontype":"Escrow Only","referringcustomer":"LandSafe_CA","id":"a6lmroji3olw","geo_precision":"range","address":"7523 Mandy Drive","state":"California"},"type":"Feature","geometry":{"type":"Point","coordinates":[-121.459505,38.484439]}},{"properties":{"city":"Salinas","zip":"93908","geo_score":1.0,"filenumber":"430968","filetransactiontype":"Title &amp; Escrow","referringcustomer":"LandSafe_CA","id":"a6lmrogz99ux","geo_precision":"range","address":"17 Seca Place","state":"California"},"type":"Feature","geometry":{"type":"Point","coordinates":[-121.753727,36.569026]}},{"properties":{"city":"Reseda","zip":"91335","geo_score":0.565,"filenumber":"431203","filetransactiontype":"Escrow Only","referringcustomer":"LandSafe_CA","id":"a6lmrohv3kvt","geo_precision":"street","address":"8216 Chamberlain Lane","state":"California"},"type":"Feature","geometry":{"type":"Point","coordinates":[-118.438281,34.273204]}},{"properties":{"city":"Palmdale","zip":"93552","geo_score":0.916,"filenumber":"431267-C","filetransactiontype":"Escrow Only","referringcustomer":"LandSafe_CA","id":"a6lmro7pvzlt","geo_precision":"range","address":"38124 53rd Street East","state":"California"},"type":"Feature","geometry":{"type":"Point","coordinates":[-118.035166,34.575224]}},{"properties":{"city":"Gustine","zip":"95322","geo_score":1.0,"filenumber":"431380-C","filetransactiontype":"Title &amp; Escrow","referringcustomer":"LandSafe_CA","id":"a6lmrocgt7v6","geo_precision":"range","address":"1320 Hales Dr","state":"California"},"type":"Feature","geometry":{"type":"Point","coordinates":[-121.008282,37.255829]}},{"properties":{"city":"Fresno","zip":"93722","geo_score":1.0,"filenumber":"431978","filetransactiontype":"Escrow Only","referringcustomer":"LandSafe_CA","id":"a6lmro6ll5cz","geo_precision":"range","address":"4289 W Providence Ave","state":"California"},"type":"Feature","geometry":{"type":"Point","coordinates":[-119.868624,36.772337]}},{"properties":{"city":"Galt","zip":"95632","geo_score":0.912,"filenumber":"432091","filetransactiontype":"Escrow Only","referringcustomer":"LandSafe_CA","id":"a6lmrojut9s8","geo_precision":"range","address":"13260 Alta Mesa Rd","state":"California"},"type":"Feature","geometry":{"type":"Point","coordinates":[-121.226531,38.275541]}},{"properties":{"city":"Yuba City","zip":"95993","geo_score":0.683,"filenumber":"431849","filetransactiontype":"Title &amp; Escrow","referringcustomer":"LandSafe_CA","id":"a6lmroaqwcmk","geo_precision":"zip","address":"1841 Josephene Way","state":"California"},"type":"Feature","geometry":{"type":"Point","coordinates":[-121.737911,39.130338]}},{"properties":{"city":"Downey","zip":"90240","geo_score":1.0,"filenumber":"432090","filetransactiontype":"Escrow Only","referringcustomer":"LandSafe_CA","id":"a6lmroe059dr","geo_precision":"range","address":"9375 Florence Avenue","state":"California"},"type":"Feature","geometry":{"type":"Point","coordinates":[-118.108349,33.942993]}},{"properties":{"city":"Lancaster","zip":"93535","geo_score":0.924,"filenumber":"432183","filetransactiontype":"Escrow Only","referringcustomer":"LandSafe_CA","id":"a6lmrod7nq3i","geo_precision":"range","address":"2618 Via Genova","state":"California"},"type":"Feature","geometry":{"type":"Point","coordinates":[-118.083013,34.692648]}},{"properties":{"city":"Coarsgold","zip":"93612","geo_score":0.805,"filenumber":"444851","filetransactiontype":"Title &amp; Escrow","referringcustomer":"LandSafe_CA","id":"a6lmroelm5xg","geo_precision":"range","address":"29817 Mariposa Court","state":"California"},"type":"Feature","geometry":{"type":"Point","coordinates":[-119.77309,37.181767]}},{"properties":{"city":"Westminster","zip":"92683","geo_score":0.911,"filenumber":"432626","filetransactiontype":"Escrow Only","referringcustomer":"LandSafe_CA","id":"a6lmrojwcd6s","geo_precision":"range","address":"7152 Pal Way","state":"California"},"type":"Feature","geometry":{"type":"Point","coordinates":[-118.004283,33.770542]}},{"properties":{"city":"King City","zip":"93930","geo_score":0.798,"filenumber":"433638","filetransactiontype":"Title &amp; Escrow","referringcustomer":"LandSafe_CA","id":"a6lmrod3274j","geo_precision":"range","address":"325 7th St","state":"California"},"type":"Feature","geometry":{"type":"Point","coordinates":[-121.129403,36.20803]}},{"properties":{"city":"Fresno","zip":"93726","geo_score":1.0,"filenumber":"433769","filetransactiontype":"Escrow Only","referringcustomer":"LandSafe_CA","id":"a6lmrol09w2t","geo_precision":"range","address":"4335 E Holland Ave","state":"California"},"type":"Feature","geometry":{"type":"Point","coordinates":[-119.752641,36.797368]}},{"properties":{"city":"Castaic","zip":"91384","geo_score":1.0,"filenumber":"432907","filetransactiontype":"Escrow Only","referringcustomer":"LandSafe_CA","id":"a6lmrognt4f3","geo_precision":"range","address":"31342 Castaic Oaks Lane","state":"California"},"type":"Feature","geometry":{"type":"Point","coordinates":[-118.622739,34.487748]}},{"properties":{"city":"Fresno","zip":"93722","geo_score":1.0,"filenumber":"432913","filetransactiontype":"Escrow Only","referringcustomer":"LandSafe_CA","id":"a6lmro9v5d4b","geo_precision":"range","address":"5598 West Acacia Avenue","state":"California"},"type":"Feature","geometry":{"type":"Point","coordinates":[-119.891079,36.804053]}},{"properties":{"city":"Moreno Valley","zip":"92553","geo_score":0.962,"filenumber":"433199","filetransactiontype":"Escrow Only","referringcustomer":"LandSafe_CA","id":"a6lmro94a8ma","geo_precision":"range","address":"13176 Indian Street","state":"California"},"type":"Feature","geometry":{"type":"Point","coordinates":[-117.235048,33.929309]}},{"properties":{"city":"San Bernardino","zip":"92408","geo_score":0.973,"filenumber":"433740","filetransactiontype":"Escrow Only","referringcustomer":"LandSafe_CA","id":"a6lmrograigz","geo_precision":"range","address":"2761 Franklin Court","state":"California"},"type":"Feature","geometry":{"type":"Point","coordinates":[-117.28531,34.051389]}},{"properties":{"city":"Rosamond","zip":"93560","geo_score":0.925,"filenumber":"434019","filetransactiontype":"Escrow Only","referringcustomer":"LandSafe_CA","id":"a6lmrojsgyn5","geo_precision":"range","address":"2001 Candice Avenue","state":"California"},"type":"Feature","geometry":{"type":"Point","coordinates":[-118.167095,34.855526]}},{"properties":{"city":"Valley Springs","zip":"95252","geo_score":0.917,"filenumber":"434415","filetransactiontype":"Title &amp; Escrow","referringcustomer":"LandSafe_CA","id":"a6lmrol6v8ny","geo_precision":"range","address":"1943 Berkesey Dr","state":"California"},"type":"Feature","geometry":{"type":"Point","coordinates":[-120.845676,38.168822]}},{"properties":{"city":"Imperial Beach","zip":"91932","geo_score":0.902,"filenumber":"434421","filetransactiontype":"Escrow Only","referringcustomer":"LandSafe_CA","id":"a6lmrohoxned","geo_precision":"range","address":"1160 10th St","state":"California"},"type":"Feature","geometry":{"type":"Point","coordinates":[-117.111843,32.577073]}},{"properties":{"city":"Palm Desert","zip":"92211","geo_score":0.522,"filenumber":"434146","filetransactiontype":"Escrow Only","referringcustomer":"LandSafe_CA","id":"a6lmro7hc5d6","geo_precision":"street","address":"117 Cascada Court","state":"California"},"type":"Feature","geometry":{"type":"Point","coordinates":[-116.292466,33.752486]}},{"properties":{"city":"Madera","zip":"93638","geo_score":0.557,"filenumber":"434702","filetransactiontype":"Title &amp; Escrow","referringcustomer":"LandSafe_CA","id":"a6lmrojtcwh0","geo_precision":"street","address":"14983 Road 35 1/2","state":"California"},"type":"Feature","geometry":{"type":"Point","coordinates":[-119.911054,36.854054]}},{"properties":{"city":"Placerville","zip":"95667","geo_score":0.951,"filenumber":"434299","filetransactiontype":"Title &amp; Escrow","referringcustomer":"LandSafe_CA","id":"a6lmrodjoeu2","geo_precision":"range","address":"3200 Sorrel Lane","state":"California"},"type":"Feature","geometry":{"type":"Point","coordinates":[-120.878641,38.724551]}},{"properties":{"city":"Terra Bella","zip":"93270","geo_score":1.0,"filenumber":"434261","filetransactiontype":"Escrow Only","referringcustomer":"LandSafe_CA","id":"a6lmro9tgaps","geo_precision":"range","address":"23720 Palm Avenue","state":"California"},"type":"Feature","geometry":{"type":"Point","coordinates":[-119.040545,35.957663]}},{"properties":{"city":"Malibu","zip":"90265","geo_score":0.724,"filenumber":"434580","filetransactiontype":"Escrow Only","referringcustomer":"LandSafe_CA","id":"a6lmro870ew9","geo_precision":"street","address":"6793 Seawatch Lane #36","state":"California"},"type":"Feature","geometry":{"type":"Point","coordinates":[-118.815758,34.013014]}},{"properties":{"city":"Corona","zip":"92881","geo_score":1.0,"filenumber":"434592","filetransactiontype":"Escrow Only","referringcustomer":"LandSafe_CA","id":"a6lmro9b4elp","geo_precision":"range","address":"3065 Bighorn Drive","state":"California"},"type":"Feature","geometry":{"type":"Point","coordinates":[-117.569056,33.843259]}},{"properties":{"city":"Los Osos","zip":"93402","geo_score":0.794,"filenumber":"434617","filetransactiontype":"Escrow Only","referringcustomer":"LandSafe_CA","id":"a6lmro5zn7hd","geo_precision":"range","address":"1260 9th Street","state":"California"},"type":"Feature","geometry":{"type":"Point","coordinates":[-120.833198,35.328832]}},{"properties":{"city":"Fremont","zip":"94538","geo_score":1.0,"filenumber":"434608","filetransactiontype":"Title &amp; Escrow","referringcustomer":"LandSafe_CA","id":"a6lmrog7b7yx","geo_precision":"range","address":"3878 Eugene Street","state":"California"},"type":"Feature","geometry":{"type":"Point","coordinates":[-121.965634,37.537755]}},{"properties":{"city":"Adelanto","zip":"92301","geo_score":0.521,"filenumber":"434757","filetransactiontype":"Escrow Only","referringcustomer":"LandSafe_CA","id":"a6lmrolyu81x","geo_precision":"street","address":"15715 Pine Bluff Court","state":"California"},"type":"Feature","geometry":{"type":"Point","coordinates":[-117.447989,34.587441]}},{"properties":{"city":"Tracy","zip":"95376","geo_score":0.916,"filenumber":"434758","filetransactiontype":"Escrow Only","referringcustomer":"LandSafe_CA","id":"a6lmrok9hxwn","geo_precision":"range","address":"1081 Havenbrook Drive","state":"California"},"type":"Feature","geometry":{"type":"Point","coordinates":[-121.44338,37.722411]}},{"properties":{"city":"Sacramento","zip":"95834","geo_score":1.0,"filenumber":"434774","filetransactiontype":"Escrow Only","referringcustomer":"LandSafe_CA","id":"a6lmroee1g3k","geo_precision":"range","address":"3724 Saintsbury Drive","state":"California"},"type":"Feature","geometry":{"type":"Point","coordinates":[-121.528958,38.636496]}},{"properties":{"city":"South Lake Tahoe","zip":"96150","geo_score":1.0,"filenumber":"434800","filetransactiontype":"Title &amp; Escrow","referringcustomer":"LandSafe_CA","id":"a6lmrohfpnqh","geo_precision":"range","address":"2495 Cougar Trail","state":"California"},"type":"Feature","geometry":{"type":"Point","coordinates":[-119.965412,38.907819]}},{"properties":{"city":"Bakersfield","zip":"93306","geo_score":0.405,"filenumber":"434899","filetransactiontype":"Escrow Only","referringcustomer":"LandSafe_CA","id":"a6lmrobsgwop","geo_precision":"street","address":"440 Dulce Drive","state":"California"},"type":"Feature","geometry":{"type":"Point","coordinates":[-119.097492,35.338035]}},{"properties":{"city":"Redding","zip":"96003","geo_score":1.0,"filenumber":"435105","filetransactiontype":"Title &amp; Escrow","referringcustomer":"LandSafe_CA","id":"a6lmro7jymsb","geo_precision":"range","address":"3424 Magnums Way","state":"California"},"type":"Feature","geometry":{"type":"Point","coordinates":[-122.402118,40.624203]}},{"properties":{"city":"Riverside","zip":"92503","geo_score":0.902,"filenumber":"435159","filetransactiontype":"Escrow Only","referringcustomer":"LandSafe_CA","id":"a6lmro770puz","geo_precision":"range","address":"17744 Montauk Circle","state":"California"},"type":"Feature","geometry":{"type":"Point","coordinates":[-117.458403,33.865265]}},{"properties":{"city":"Corona","zip":"92880","geo_score":0.45,"filenumber":"435168","filetransactiontype":"Escrow Only","referringcustomer":"LandSafe_CA","id":"a6lmrog7dvsw","geo_precision":"street","address":"14194 Warm Creek Court","state":"California"},"type":"Feature","geometry":{"type":"Point","coordinates":[-117.89143,33.88416]}},{"properties":{"city":"Livingston","zip":"95334","geo_score":1.0,"filenumber":"435229","filetransactiontype":"Title &amp; Escrow","referringcustomer":"LandSafe_CA","id":"a6lmro9swwrm","geo_precision":"range","address":"755 Ravenswood Drive","state":"California"},"type":"Feature","geometry":{"type":"Point","coordinates":[-120.734524,37.383559]}},{"properties":{"city":"Esparto","zip":"95627","geo_score":1.0,"filenumber":"435233","filetransactiontype":"Title &amp; Escrow","referringcustomer":"LandSafe_CA","id":"a6lmrokohq92","geo_precision":"range","address":"26334 Plainfield St","state":"California"},"type":"Feature","geometry":{"type":"Point","coordinates":[-122.021377,38.691914]}},{"properties":{"city":"Oakdale","zip":"94605","geo_score":0.58,"filenumber":"435325","filetransactiontype":"Escrow Only","referringcustomer":"LandSafe_CA","id":"a6lmrolhcrfp","geo_precision":"range","address":"6105 Old Quarry Loop","state":"California"},"type":"Feature","geometry":{"type":"Point","coordinates":[-122.180463,37.733202]}},{"properties":{"city":"Temecula","zip":"92591","geo_score":1.0,"filenumber":"435373","filetransactiontype":"Escrow Only","referringcustomer":"LandSafe_CA","id":"a6lmro8dlpao","geo_precision":"range","address":"30884 Medinah Way","state":"California"},"type":"Feature","geometry":{"type":"Point","coordinates":[-117.121517,33.51398]}},{"properties":{"city":"Hemet","zip":"92545","geo_score":1.0,"filenumber":"435348","filetransactiontype":"Escrow Only","referringcustomer":"LandSafe_CA","id":"a6lmrogpryeb","geo_precision":"range","address":"1374 Rabbit Peak Way","state":"California"},"type":"Feature","geometry":{"type":"Point","coordinates":[-117.0105,33.723143]}},{"properties":{"city":"Hollister","zip":"95023","geo_score":0.791,"filenumber":"435481","filetransactiontype":"Title &amp; Escrow","referringcustomer":"LandSafe_CA","id":"a6lmrogumdoe","geo_precision":"range","address":"830 Los Viboras Road","state":"California"},"type":"Feature","geometry":{"type":"Point","coordinates":[-121.362625,36.932667]}},{"properties":{"city":"Concord","zip":"94518","geo_score":1.0,"filenumber":"435503","filetransactiontype":"Escrow Only","referringcustomer":"LandSafe_CA","id":"a6lmroaifsri","geo_precision":"range","address":"932 Rockne Court","state":"California"},"type":"Feature","geometry":{"type":"Point","coordinates":[-122.029973,37.946613]}},{"properties":{"city":"Thousand Palms","zip":"92276","geo_score":1.0,"filenumber":"445625","filetransactiontype":"Escrow Only","referringcustomer":"LandSafe_CA","id":"a6lmro9brly4","geo_precision":"range","address":"31683 Calle Jessica","state":"California"},"type":"Feature","geometry":{"type":"Point","coordinates":[-116.391179,33.818729]}},{"properties":{"city":"Los Angeles","zip":"90066","geo_score":0.912,"filenumber":"435455","filetransactiontype":"Escrow Only","referringcustomer":"LandSafe_CA","id":"a6lmrocxyeus","geo_precision":"range","address":"11358 Victoria Ave","state":"California"},"type":"Feature","geometry":{"type":"Point","coordinates":[-118.422265,34.012408]}},{"properties":{"city":"Thousand Oaks","zip":"91320","geo_score":0.911,"filenumber":"435685","filetransactiontype":"Escrow Only","referringcustomer":"LandSafe_CA","id":"a6lmroi2438b","geo_precision":"range","address":"618 Artisan Road","state":"California"},"type":"Feature","geometry":{"type":"Point","coordinates":[-118.921363,34.186842]}},{"properties":{"city":"Elk Grove","zip":"95624","geo_score":0.915,"filenumber":"435609","filetransactiontype":"Escrow Only","referringcustomer":"LandSafe_CA","id":"a6lmrol0ogqw","geo_precision":"range","address":"9365 Waddell Ln","state":"California"},"type":"Feature","geometry":{"type":"Point","coordinates":[-121.349732,38.450817]}},{"properties":{"city":"Glendale","zip":"91201","geo_score":0.932,"filenumber":"435778","filetransactiontype":"Escrow Only","referringcustomer":"LandSafe_CA","id":"a6lmro92belh","geo_precision":"range","address":"1054 Western Ave 105","state":"California"},"type":"Feature","geometry":{"type":"Point","coordinates":[-118.290946,34.170035]}},{"properties":{"city":"Wildomar","zip":"92595","geo_score":0.683,"filenumber":"435790","filetransactiontype":"Escrow Only","referringcustomer":"LandSafe_CA","id":"a6lmroicpjlx","geo_precision":"zip","address":"24845 Picnic Ln","state":"California"},"type":"Feature","geometry":{"type":"Point","coordinates":[-116.055617,33.752886]}},{"properties":{"city":"Temecula","zip":"92591","geo_score":0.415,"filenumber":"435805","filetransactiontype":"Escrow Only","referringcustomer":"LandSafe_CA","id":"a6lmrokm60v5","geo_precision":"street","address":"915-520-026","state":"California"},"type":"Feature","geometry":{"type":"Point","coordinates":[-117.386355,34.00801]}},{"properties":{"city":"Quail Valley","zip":"92587","geo_score":0.725,"filenumber":"435841","filetransactiontype":"Escrow Only","referringcustomer":"LandSafe_CA","id":"a6lmrom13w4i","geo_precision":"range","address":"23787 Vista Way","state":"California"},"type":"Feature","geometry":{"type":"Point","coordinates":[-117.243515,33.68904]}},{"properties":{"city":"Corcoran","zip":"93212","geo_score":0.927,"filenumber":"435779","filetransactiontype":"Title &amp; Escrow","referringcustomer":"LandSafe_CA","id":"a6lmro7gzvz7","geo_precision":"range","address":"2335 Garvey Avenue","state":"California"},"type":"Feature","geometry":{"type":"Point","coordinates":[-119.577171,36.102635]}},{"properties":{"city":"Soledad","zip":"93960","geo_score":0.916,"filenumber":"435959","filetransactiontype":"Escrow Only","referringcustomer":"LandSafe_CA","id":"a6lmroc3q4hi","geo_precision":"range","address":"856 Portola Street","state":"California"},"type":"Feature","geometry":{"type":"Point","coordinates":[-121.318721,36.441685]}},{"properties":{"city":"Bakersfield","zip":"93312","geo_score":0.545,"filenumber":"436124","filetransactiontype":"Escrow Only","referringcustomer":"LandSafe_CA","id":"a6lmrog839ns","geo_precision":"street","address":"6107 Brewer Creek Drive","state":"California"},"type":"Feature","geometry":{"type":"Point","coordinates":[-119.254546,35.44168]}},{"properties":{"city":"El Centro","zip":"92243","geo_score":0.915,"filenumber":"436142","filetransactiontype":"Title &amp; Escrow","referringcustomer":"LandSafe_CA","id":"a6lmro8uzlcw","geo_precision":"range","address":"2471 West Hamilton Avenue","state":"California"},"type":"Feature","geometry":{"type":"Point","coordinates":[-115.584182,32.785527]}},{"properties":{"city":"Oakley","zip":"94561","geo_score":1.0,"filenumber":"436208","filetransactiontype":"Escrow Only","referringcustomer":"LandSafe_CA","id":"a6lmro9u49j3","geo_precision":"range","address":"309 Oak Glen Drive","state":"California"},"type":"Feature","geometry":{"type":"Point","coordinates":[-121.695084,37.982392]}},{"properties":{"city":"Hemet","zip":"92544","geo_score":1.0,"filenumber":"436250","filetransactiontype":"Escrow Only","referringcustomer":"LandSafe_CA","id":"a6lmrod6xj2a","geo_precision":"range","address":"4281 Warwick Court","state":"California"},"type":"Feature","geometry":{"type":"Point","coordinates":[-116.926922,33.759264]}},{"properties":{"city":"Vacaville","zip":"95687","geo_score":1.0,"filenumber":"436268","filetransactiontype":"Escrow Only","referringcustomer":"LandSafe_CA","id":"a6lmro73i07l","geo_precision":"range","address":"619 Robin Drive","state":"California"},"type":"Feature","geometry":{"type":"Point","coordinates":[-121.935234,38.340289]}},{"properties":{"city":"Modesto","zip":"95351","geo_score":0.965,"filenumber":"436272","filetransactiontype":"Escrow Only","referringcustomer":"LandSafe_CA","id":"a6lmro8cum7n","geo_precision":"range","address":"1413 Orlando Dr","state":"California"},"type":"Feature","geometry":{"type":"Point","coordinates":[-120.972724,37.617295]}},{"properties":{"city":"Fresno","zip":"93727","geo_score":0.902,"filenumber":"445725","filetransactiontype":"Escrow Only","referringcustomer":"LandSafe_CA","id":"a6lmro8wdf4g","geo_precision":"range","address":"127 S Willow Ave","state":"California"},"type":"Feature","geometry":{"type":"Point","coordinates":[-119.727349,36.742673]}},{"properties":{"city":"Madera","zip":"93637","geo_score":0.585,"filenumber":"436551","filetransactiontype":"Title &amp; Escrow","referringcustomer":"LandSafe_CA","id":"a6lmrohjefsj","geo_precision":"zip","address":"402 Wawona Ct","state":"California"},"type":"Feature","geometry":{"type":"Point","coordinates":[-119.960434,36.913003]}},{"properties":{"city":"Lake Elsinore","zip":"92532","geo_score":0.39,"filenumber":"436610","filetransactiontype":"Escrow Only","referringcustomer":"LandSafe_CA","id":"a6lmrobxw9b1","geo_precision":"street","address":"45042 Promise Rd","state":"California"},"type":"Feature","geometry":{"type":"Point","coordinates":[-117.166301,33.569255]}},{"properties":{"city":"Los Angeles","zip":"90042","geo_score":0.919,"filenumber":"436637","filetransactiontype":"Escrow Only","referringcustomer":"LandSafe_CA","id":"a6lmro8pbj04","geo_precision":"range","address":"5133 Granada St","state":"California"},"type":"Feature","geometry":{"type":"Point","coordinates":[-118.203326,34.110381]}},{"properties":{"city":"Los Angeles","zip":"91331","geo_score":0.912,"filenumber":"436641","filetransactiontype":"Escrow Only","referringcustomer":"LandSafe_CA","id":"a6lmro6287ov","geo_precision":"range","address":"13295 Reliance St","state":"California"},"type":"Feature","geometry":{"type":"Point","coordinates":[-118.421976,34.229993]}},{"properties":{"city":"Riverside","zip":"92509","geo_score":0.922,"filenumber":"436699","filetransactiontype":"Escrow Only","referringcustomer":"LandSafe_CA","id":"a6lmroj4poh7","geo_precision":"range","address":"9677 Birmingham Ave","state":"California"},"type":"Feature","geometry":{"type":"Point","coordinates":[-117.494795,34.000365]}},{"properties":{"city":"Windsor","zip":"95492","geo_score":0.434,"filenumber":"436759","filetransactiontype":"Escrow Only","referringcustomer":"LandSafe_CA","id":"a6lmroa7hf5g","geo_precision":"street","address":"206 Bouquet Circle","state":"California"},"type":"Feature","geometry":{"type":"Point","coordinates":[-122.761566,38.436288]}},{"properties":{"city":"Waterford","zip":"95386","geo_score":0.512,"filenumber":"436812","filetransactiontype":"Escrow Only","referringcustomer":"LandSafe_CA","id":"a6lmrofdrd3c","geo_precision":"street","address":"205 Kari Court","state":"California"},"type":"Feature","geometry":{"type":"Point","coordinates":[-120.842739,37.520756]}},{"properties":{"city":"Sacramento","zip":"95831","geo_score":0.477,"filenumber":"444128","filetransactiontype":"Escrow Only","referringcustomer":"LandSafe_CA","id":"a6lmrom1pwe8","geo_precision":"street","address":"22 Vista Alegre Court","state":"California"},"type":"Feature","geometry":{"type":"Point","coordinates":[-121.372175,38.716153]}},{"properties":{"city":"Stockton","zip":"95212","geo_score":0.683,"filenumber":"452448","filetransactiontype":"Escrow Only","referringcustomer":"LandSafe_CA","id":"a6lmrodsc727","geo_precision":"zip","address":"8815 Bergamo Cir","state":"California"},"type":"Feature","geometry":{"type":"Point","coordinates":[-121.216156,38.037321]}},{"properties":{"city":"Discovery Bay","zip":"94514","geo_score":0.617,"filenumber":"437421","filetransactiontype":"Escrow Only","referringcustomer":"LandSafe_CA","id":"a6lmrolbhqio","geo_precision":"range","address":"3669 Otter Brook Loop","state":"California"},"type":"Feature","geometry":{"type":"Point","coordinates":[-122.126764,37.887109]}},{"properties":{"city":"Newman","zip":"95360","geo_score":1.0,"filenumber":"437163","filetransactiontype":"Escrow Only","referringcustomer":"LandSafe_CA","id":"a6lmroalcqxt","geo_precision":"range","address":"1530 Corgiat Dr","state":"California"},"type":"Feature","geometry":{"type":"Point","coordinates":[-121.029106,37.308241]}},{"properties":{"city":"Cathedral City","zip":"92234","geo_score":1.0,"filenumber":"437238","filetransactiontype":"Escrow Only","referringcustomer":"LandSafe_CA","id":"a6lmro9y3psh","geo_precision":"range","address":"68085 Risueno Rd","state":"California"},"type":"Feature","geometry":{"type":"Point","coordinates":[-116.466952,33.83413]}},{"properties":{"city":"North Hollywood","zip":"91605","geo_score":1.0,"filenumber":"437523","filetransactiontype":"Escrow Only","referringcustomer":"LandSafe_CA","id":"a6lmroado383","geo_precision":"range","address":"7006 Morse Avenue","state":"California"},"type":"Feature","geometry":{"type":"Point","coordinates":[-118.415973,34.197636]}},{"properties":{"city":"Indio","zip":"92203","geo_score":0.542,"filenumber":"437543","filetransactiontype":"Escrow Only","referringcustomer":"LandSafe_CA","id":"a6lmroafxszo","geo_precision":"street","address":"37-901 Edinburgh St","state":"California"},"type":"Feature","geometry":{"type":"Point","coordinates":[-116.312603,33.738594]}},{"properties":{"city":"Palm Springs","zip":"92264","geo_score":1.0,"filenumber":"437617","filetransactiontype":"Escrow Only","referringcustomer":"LandSafe_CA","id":"a6lmro643i52","geo_precision":"range","address":"1126 North Riverside Drive","state":"California"},"type":"Feature","geometry":{"type":"Point","coordinates":[-116.535906,33.810862]}},{"properties":{"city":"Glendora","zip":"91740","geo_score":0.939,"filenumber":"437548","filetransactiontype":"Escrow Only","referringcustomer":"LandSafe_CA","id":"a6lmroepktbo","geo_precision":"range","address":"236 Temmera Ln","state":"California"},"type":"Feature","geometry":{"type":"Point","coordinates":[-117.860679,34.11513]}},{"properties":{"city":"Glendale","zip":"91204","geo_score":0.89,"filenumber":"437566","filetransactiontype":"Escrow Only","referringcustomer":"LandSafe_CA","id":"a6lmroc42oad","geo_precision":"range","address":"460 Oak St 317","state":"California"},"type":"Feature","geometry":{"type":"Point","coordinates":[-118.262468,34.143363]}},{"properties":{"city":"Santa Clara","zip":"95051","geo_score":1.0,"filenumber":"437704","filetransactiontype":"Escrow Only","referringcustomer":"LandSafe_CA","id":"a6lmroji9lak","geo_precision":"range","address":"2185 San Rafael Avenue","state":"California"},"type":"Feature","geometry":{"type":"Point","coordinates":[-121.980771,37.361006]}},{"properties":{"city":"San Diego","zip":"92117","geo_score":0.805,"filenumber":"437707","filetransactiontype":"Escrow Only","referringcustomer":"LandSafe_CA","id":"a6lmro76ngwq","geo_precision":"street","address":"4855 Cole Street #24","state":"California"},"type":"Feature","geometry":{"type":"Point","coordinates":[-117.201382,32.833363]}},{"properties":{"city":"Victorville","zip":"92392","geo_score":0.923,"filenumber":"437667","filetransactiontype":"Escrow Only","referringcustomer":"LandSafe_CA","id":"a6lmrof9clrv","geo_precision":"range","address":"14671 Ponderosa Ranch Rd","state":"California"},"type":"Feature","geometry":{"type":"Point","coordinates":[-117.343062,34.480508]}},{"properties":{"city":"Visalia","zip":"93291","geo_score":0.916,"filenumber":"437715","filetransactiontype":"Escrow Only","referringcustomer":"LandSafe_CA","id":"a6lmromc02r1","geo_precision":"range","address":"2503 N Locust Ct","state":"California"},"type":"Feature","geometry":{"type":"Point","coordinates":[-119.294011,36.352797]}},{"properties":{"city":"Long Beach","zip":"90805","geo_score":0.882,"filenumber":"444875","filetransactiontype":"Escrow Only","referringcustomer":"LandSafe_CA","id":"a6lmrocun1x8","geo_precision":"range","address":"1659 E 64th St","state":"California"},"type":"Feature","geometry":{"type":"Point","coordinates":[-118.172474,33.871001]}},{"properties":{"city":"San Jose","zip":"95116","geo_score":1.0,"filenumber":"437937","filetransactiontype":"Escrow Only","referringcustomer":"LandSafe_CA","id":"a6lmro7oscai","geo_precision":"range","address":"88 North Jackson Avenue #105","state":"California"},"type":"Feature","geometry":{"type":"Point","coordinates":[-121.846172,37.361202]}},{"properties":{"city":"Quartz Hill","zip":"93536","geo_score":0.708,"filenumber":"437823","filetransactiontype":"Escrow Only","referringcustomer":"LandSafe_CA","id":"a6lmrod2t1s4","geo_precision":"street","address":"5241 Columbia Way","state":"California"},"type":"Feature","geometry":{"type":"Point","coordinates":[-118.229008,34.645617]}},{"properties":{"city":"Salinas","zip":"93907","geo_score":0.913,"filenumber":"437829","filetransactiontype":"Title &amp; Escrow","referringcustomer":"LandSafe_CA","id":"a6lmrocdwbc5","geo_precision":"range","address":"16900 Meridian Rd","state":"California"},"type":"Feature","geometry":{"type":"Point","coordinates":[-121.681486,36.788299]}},{"properties":{"city":"Camarillo","zip":"93010","geo_score":0.905,"filenumber":"438018","filetransactiontype":"Escrow Only","referringcustomer":"LandSafe_CA","id":"a6lmro8u7xih","geo_precision":"range","address":"42 East Calle La Guerra","state":"California"},"type":"Feature","geometry":{"type":"Point","coordinates":[-119.069194,34.226517]}},{"properties":{"city":"Greenfield","zip":"93927","geo_score":0.807,"filenumber":"438182","filetransactiontype":"Title &amp; Escrow","referringcustomer":"LandSafe_CA","id":"a6lmroah3lav","geo_precision":"street","address":"303 Moreno Street","state":"California"},"type":"Feature","geometry":{"type":"Point","coordinates":[-121.236774,36.316687]}},{"properties":{"city":"Hesperia","zip":"92345","geo_score":0.902,"filenumber":"438184","filetransactiontype":"Escrow Only","referringcustomer":"LandSafe_CA","id":"a6lmrofqc1tz","geo_precision":"range","address":"7267 Locust Avenue","state":"California"},"type":"Feature","geometry":{"type":"Point","coordinates":[-117.333817,34.382501]}},{"properties":{"city":"Los Angeles","zip":"91335","geo_score":0.922,"filenumber":"438185","filetransactiontype":"Escrow Only","referringcustomer":"LandSafe_CA","id":"a6lmrocuerga","geo_precision":"range","address":"19520 Strathern Street","state":"California"},"type":"Feature","geometry":{"type":"Point","coordinates":[-118.558344,34.215612]}},{"properties":{"city":"Temecula","zip":"92591","geo_score":1.0,"filenumber":"438189","filetransactiontype":"Escrow Only","referringcustomer":"LandSafe_CA","id":"a6lmro6tg95f","geo_precision":"range","address":"39713 Oak Cliff Drive","state":"California"},"type":"Feature","geometry":{"type":"Point","coordinates":[-117.149311,33.54402]}},{"properties":{"city":"Rescue","zip":"95672","geo_score":1.0,"filenumber":"438221","filetransactiontype":"Title &amp; Escrow","referringcustomer":"LandSafe_CA","id":"a6lmro9b6lmf","geo_precision":"range","address":"2160 Marden Drive","state":"California"},"type":"Feature","geometry":{"type":"Point","coordinates":[-121.035597,38.701907]}},{"properties":{"city":"Fontana","zip":"92336","geo_score":0.61,"filenumber":"438222","filetransactiontype":"Escrow Only","referringcustomer":"LandSafe_CA","id":"a6lmrok34t6o","geo_precision":"street","address":"15261 Holiday Drive","state":"California"},"type":"Feature","geometry":{"type":"Point","coordinates":[-114.60462,34.81655]}},{"properties":{"city":"Hacienda Heights","zip":"91745","geo_score":1.0,"filenumber":"438224","filetransactiontype":"Escrow Only","referringcustomer":"LandSafe_CA","id":"a6lmrogunylg","geo_precision":"range","address":"1702 Barford Avenue","state":"California"},"type":"Feature","geometry":{"type":"Point","coordinates":[-117.956242,33.998931]}},{"properties":{"city":"Union City","zip":"94587","geo_score":0.913,"filenumber":"438271","filetransactiontype":"Escrow Only","referringcustomer":"LandSafe_CA","id":"a6lmroj4onho","geo_precision":"range","address":"234 Appian Way","state":"California"},"type":"Feature","geometry":{"type":"Point","coordinates":[-122.002423,37.594988]}},{"properties":{"city":"Rancho Cucamonga","zip":"91730","geo_score":0.805,"filenumber":"438400","filetransactiontype":"Escrow Only","referringcustomer":"LandSafe_CA","id":"a6lmroa1pqx7","geo_precision":"street","address":"11450 Church Street #165","state":"California"},"type":"Feature","geometry":{"type":"Point","coordinates":[-117.614427,34.113872]}},{"properties":{"city":"Corona","zip":"92880","geo_score":0.48,"filenumber":"438610","filetransactiontype":"Escrow Only","referringcustomer":"LandSafe_CA","id":"a6lmrob0lfe8","geo_precision":"street","address":"7984 Anza Vista Court","state":"California"},"type":"Feature","geometry":{"type":"Point","coordinates":[-117.899666,33.787438]}},{"properties":{"city":"Live Oak","zip":"95953","geo_score":0.573,"filenumber":"438625","filetransactiontype":"Title &amp; Escrow","referringcustomer":"LandSafe_CA","id":"a6lmroeevjbw","geo_precision":"street","address":"9702 Poplar Court","state":"California"},"type":"Feature","geometry":{"type":"Point","coordinates":[-121.826567,39.728232]}},{"properties":{"city":"Daly City","zip":"94015","geo_score":0.902,"filenumber":"438628","filetransactiontype":"Escrow Only","referringcustomer":"LandSafe_CA","id":"a6lmrobvea2k","geo_precision":"range","address":"66 Canterbury Avenue","state":"California"},"type":"Feature","geometry":{"type":"Point","coordinates":[-122.471373,37.654728]}},{"properties":{"city":"Livermore","zip":"94551","geo_score":1.0,"filenumber":"438629","filetransactiontype":"Escrow Only","referringcustomer":"LandSafe_CA","id":"a6lmrok8x524","geo_precision":"range","address":"558 Roma Court","state":"California"},"type":"Feature","geometry":{"type":"Point","coordinates":[-121.795121,37.687308]}},{"properties":{"city":"Hercules","zip":"94547","geo_score":0.573,"filenumber":"438630","filetransactiontype":"Escrow Only","referringcustomer":"LandSafe_CA","id":"a6lmroiub0gi","geo_precision":"street","address":"2048 Serra Lane","state":"California"},"type":"Feature","geometry":{"type":"Point","coordinates":[-122.051997,37.903489]}},{"properties":{"city":"Fontana","zip":"92335","geo_score":0.959,"filenumber":"438633","filetransactiontype":"Escrow Only","referringcustomer":"LandSafe_CA","id":"a6lmrolx43hp","geo_precision":"range","address":"13887 Seville Avenue","state":"California"},"type":"Feature","geometry":{"type":"Point","coordinates":[-117.504669,34.101443]}},{"properties":{"city":"Norwalk","zip":"90650","geo_score":0.912,"filenumber":"438709","filetransactiontype":"Escrow Only","referringcustomer":"LandSafe_CA","id":"a6lmrob94az2","geo_precision":"range","address":"11422 Gwynne Avenue","state":"California"},"type":"Feature","geometry":{"type":"Point","coordinates":[-118.07687,33.927298]}},{"properties":{"city":"Hesperia","zip":"92345","geo_score":0.902,"filenumber":"438716","filetransactiontype":"Escrow Only","referringcustomer":"LandSafe_CA","id":"a6lmrobm531v","geo_precision":"range","address":"15260 Farmington Street","state":"California"},"type":"Feature","geometry":{"type":"Point","coordinates":[-117.330192,34.376097]}},{"properties":{"city":"Palmdale","zip":"93552","geo_score":0.916,"filenumber":"438718","filetransactiontype":"Escrow Only","referringcustomer":"LandSafe_CA","id":"a6lmrohsrmoe","geo_precision":"range","address":"35849 43rd Street East","state":"California"},"type":"Feature","geometry":{"type":"Point","coordinates":[-118.051861,34.534562]}},{"properties":{"city":"Atwater","zip":"95301","geo_score":0.916,"filenumber":"439030","filetransactiontype":"Title &amp; Escrow","referringcustomer":"LandSafe_CA","id":"a6lmro99harq","geo_precision":"range","address":"1169 Oak Avenue","state":"California"},"type":"Feature","geometry":{"type":"Point","coordinates":[-120.602997,37.355914]}},{"properties":{"city":"Lathrop","zip":"95330","geo_score":0.585,"filenumber":"439037","filetransactiontype":"Escrow Only","referringcustomer":"LandSafe_CA","id":"a6lmro9i9zz3","geo_precision":"zip","address":"13586 Arkose Street","state":"California"},"type":"Feature","geometry":{"type":"Point","coordinates":[-121.308554,37.78465]}},{"properties":{"city":"Redding","zip":"96002","geo_score":1.0,"filenumber":"439206","filetransactiontype":"Title &amp; Escrow","referringcustomer":"LandSafe_CA","id":"a6lmro8qzl77","geo_precision":"range","address":"1603 El Dorado Way","state":"California"},"type":"Feature","geometry":{"type":"Point","coordinates":[-122.341583,40.573684]}},{"properties":{"city":"Madera","zip":"93638","geo_score":0.538,"filenumber":"439233","filetransactiontype":"Title &amp; Escrow","referringcustomer":"LandSafe_CA","id":"a6lmrol0ys2l","geo_precision":"street","address":"1776 Pierce Lane","state":"California"},"type":"Feature","geometry":{"type":"Point","coordinates":[-119.726277,36.812521]}},{"properties":{"city":"Helendale","zip":"92342","geo_score":1.0,"filenumber":"439032","filetransactiontype":"Escrow Only","referringcustomer":"LandSafe_CA","id":"a6lmroc75mst","geo_precision":"range","address":"28172 Brookside Ln","state":"California"},"type":"Feature","geometry":{"type":"Point","coordinates":[-117.338874,34.763044]}},{"properties":{"city":"Lancaster","zip":"93535","geo_score":0.924,"filenumber":"439034","filetransactiontype":"Escrow Only","referringcustomer":"LandSafe_CA","id":"a6lmrobue9jw","geo_precision":"range","address":"43845 Silver Bow Rd","state":"California"},"type":"Feature","geometry":{"type":"Point","coordinates":[-118.102913,34.680204]}},{"properties":{"city":"Fresno","zip":"93711","geo_score":1.0,"filenumber":"439036","filetransactiontype":"Escrow Only","referringcustomer":"LandSafe_CA","id":"a6lmro76e87i","geo_precision":"range","address":"7333 North Teilman Ave","state":"California"},"type":"Feature","geometry":{"type":"Point","coordinates":[-119.821679,36.843593]}},{"properties":{"city":"Hemet","zip":"92545","geo_score":0.807,"filenumber":"439208","filetransactiontype":"Escrow Only","referringcustomer":"LandSafe_CA","id":"a6lmroblt3lt","geo_precision":"street","address":"3900 W Thornton Ave","state":"California"},"type":"Feature","geometry":{"type":"Point","coordinates":[-117.008764,33.725332]}},{"properties":{"city":"San Miguel","zip":"93451","geo_score":0.924,"filenumber":"439402","filetransactiontype":"Title &amp; Escrow","referringcustomer":"LandSafe_CA","id":"a6lmroctfnao","geo_precision":"range","address":"1516 L Street","state":"California"},"type":"Feature","geometry":{"type":"Point","coordinates":[-120.697234,35.75443]}},{"properties":{"city":"Moraga","zip":"94556","geo_score":1.0,"filenumber":"439489","filetransactiontype":"Escrow Only","referringcustomer":"LandSafe_CA","id":"a6lmrogruoaq","geo_precision":"range","address":"206 Paseo Bernal","state":"California"},"type":"Feature","geometry":{"type":"Point","coordinates":[-122.122746,37.837996]}},{"properties":{"city":"Sutter","zip":"95982","geo_score":1.0,"filenumber":"439403","filetransactiontype":"Title &amp; Escrow","referringcustomer":"LandSafe_CA","id":"a6lmrolz6xui","geo_precision":"range","address":"2767 Elm St","state":"California"},"type":"Feature","geometry":{"type":"Point","coordinates":[-121.751139,39.167741]}},{"properties":{"city":"Fontana","zip":"92336","geo_score":1.0,"filenumber":"439408","filetransactiontype":"Escrow Only","referringcustomer":"LandSafe_CA","id":"a6lmrohuti5x","geo_precision":"range","address":"15610 Monica Ct","state":"California"},"type":"Feature","geometry":{"type":"Point","coordinates":[-117.463984,34.10928]}},{"properties":{"city":"Rosamond","zip":"93560","geo_score":0.925,"filenumber":"439545","filetransactiontype":"Escrow Only","referringcustomer":"LandSafe_CA","id":"a6lmrodubnxh","geo_precision":"range","address":"3342 Garnet Avenue","state":"California"},"type":"Feature","geometry":{"type":"Point","coordinates":[-118.190483,34.856229]}},{"properties":{"city":"Whittier","zip":"90603","geo_score":0.902,"filenumber":"445733","filetransactiontype":"Escrow Only","referringcustomer":"LandSafe_CA","id":"a6lmro84qxk2","geo_precision":"range","address":"10644 Claridge Place","state":"California"},"type":"Feature","geometry":{"type":"Point","coordinates":[-117.978347,33.937798]}},{"properties":{"city":"Colusa","zip":"95932","geo_score":1.0,"filenumber":"439434","filetransactiontype":"Title &amp; Escrow","referringcustomer":"LandSafe_CA","id":"a6lmro8jr49x","geo_precision":"range","address":"236 Clay St","state":"California"},"type":"Feature","geometry":{"type":"Point","coordinates":[-122.005353,39.210532]}},{"properties":{"city":"Fresno","zip":"93726","geo_score":0.902,"filenumber":"439529","filetransactiontype":"Escrow Only","referringcustomer":"LandSafe_CA","id":"a6lmro8vuhqu","geo_precision":"range","address":"3975 N Seventh St","state":"California"},"type":"Feature","geometry":{"type":"Point","coordinates":[-119.762345,36.790163]}},{"properties":{"city":"Woodland","zip":"95776","geo_score":0.48,"filenumber":"439595","filetransactiontype":"Title &amp; Escrow","referringcustomer":"LandSafe_CA","id":"a6lmrolnhpf3","geo_precision":"street","address":"2787 Briscoe Court","state":"California"},"type":"Feature","geometry":{"type":"Point","coordinates":[-121.356954,38.779655]}},{"properties":{"city":"Lake Elsinore","zip":"92530","geo_score":1.0,"filenumber":"439590","filetransactiontype":"Escrow Only","referringcustomer":"LandSafe_CA","id":"a6lmrokvk0rj","geo_precision":"range","address":"33190 Little John Way","state":"California"},"type":"Feature","geometry":{"type":"Point","coordinates":[-117.393912,33.665859]}},{"properties":{"city":"Woodland","zip":"95776","geo_score":1.0,"filenumber":"439617","filetransactiontype":"Title &amp; Escrow","referringcustomer":"LandSafe_CA","id":"a6lmroad4w0v","geo_precision":"range","address":"1318 Molly Ave","state":"California"},"type":"Feature","geometry":{"type":"Point","coordinates":[-121.760545,38.66975]}},{"properties":{"city":"La Habra","zip":"90631","geo_score":0.951,"filenumber":"439635","filetransactiontype":"Escrow Only","referringcustomer":"LandSafe_CA","id":"a6lmrokl5buf","geo_precision":"range","address":"2060 West Toledo Place","state":"California"},"type":"Feature","geometry":{"type":"Point","coordinates":[-117.968543,33.928675]}},{"properties":{"city":"Concord","zip":"94520","geo_score":0.589,"filenumber":"439740","filetransactiontype":"Escrow Only","referringcustomer":"LandSafe_CA","id":"a6lmroas1h2z","geo_precision":"street","address":"4335 Saint Charles Place","state":"California"},"type":"Feature","geometry":{"type":"Point","coordinates":[-122.039429,37.963461]}},{"properties":{"city":"Sacramento","zip":"95838","geo_score":0.923,"filenumber":"439889","filetransactiontype":"Escrow Only","referringcustomer":"LandSafe_CA","id":"a6lmrogxf0uu","geo_precision":"range","address":"1435 Katharine Avenue","state":"California"},"type":"Feature","geometry":{"type":"Point","coordinates":[-121.433118,38.646163]}},{"properties":{"city":"Oxnard","zip":"93033","geo_score":0.935,"filenumber":"439929","filetransactiontype":"Escrow Only","referringcustomer":"LandSafe_CA","id":"a6lmroe5ufxg","geo_precision":"range","address":"410 Del Sur Way","state":"California"},"type":"Feature","geometry":{"type":"Point","coordinates":[-119.174256,34.166316]}},{"properties":{"city":"Sacramento","zip":"95838","geo_score":0.923,"filenumber":"439853","filetransactiontype":"Escrow Only","referringcustomer":"LandSafe_CA","id":"a6lmroay5vkp","geo_precision":"range","address":"4137 Newcastle St","state":"California"},"type":"Feature","geometry":{"type":"Point","coordinates":[-121.461873,38.643104]}},{"properties":{"city":"Victorville","zip":"92392","geo_score":0.434,"filenumber":"439882","filetransactiontype":"Escrow Only","referringcustomer":"LandSafe_CA","id":"a6lmrodnums7","geo_precision":"street","address":"13360 Ava Loma Way","state":"California"},"type":"Feature","geometry":{"type":"Point","coordinates":[-117.262404,34.393836]}},{"properties":{"city":"Lompoc","zip":"93436","geo_score":0.902,"filenumber":"440061","filetransactiontype":"Escrow Only","referringcustomer":"LandSafe_CA","id":"a6lmro961tvi","geo_precision":"range","address":"1308 Stonebrook Drive","state":"California"},"type":"Feature","geometry":{"type":"Point","coordinates":[-120.464887,34.659458]}},{"properties":{"city":"Los Angeles","zip":"90004","geo_score":0.807,"filenumber":"440074","filetransactiontype":"Escrow Only","referringcustomer":"LandSafe_CA","id":"a6lmroca8kq2","geo_precision":"street","address":"254 South Hobart Blvd #7","state":"California"},"type":"Feature","geometry":{"type":"Point","coordinates":[-118.305505,34.07371]}},{"properties":{"city":"Stockton","zip":"95209","geo_score":1.0,"filenumber":"440139","filetransactiontype":"Escrow Only","referringcustomer":"LandSafe_CA","id":"a6lmrof2m007","geo_precision":"range","address":"8740 Eastwood Court","state":"California"},"type":"Feature","geometry":{"type":"Point","coordinates":[-121.323442,38.030423]}},{"properties":{"city":"Camarillo","zip":"93010","geo_score":0.585,"filenumber":"440161","filetransactiontype":"Escrow Only","referringcustomer":"LandSafe_CA","id":"a6lmrog6uwy6","geo_precision":"range","address":"676 Corte Sol","state":"California"},"type":"Feature","geometry":{"type":"Point","coordinates":[-119.294891,34.481796]}},{"properties":{"city":"Fullerton","zip":"92833","geo_score":0.573,"filenumber":"440193","filetransactiontype":"Escrow Only","referringcustomer":"LandSafe_CA","id":"a6lmrocehhvc","geo_precision":"street","address":"2111 Owens Drive","state":"California"},"type":"Feature","geometry":{"type":"Point","coordinates":[-117.757715,33.858014]}},{"properties":{"city":"Olivehurst","zip":"95961","geo_score":0.683,"filenumber":"440092","filetransactiontype":"Title &amp; Escrow","referringcustomer":"LandSafe_CA","id":"a6lmrocke3w5","geo_precision":"zip","address":"1764 Dukes Ct","state":"California"},"type":"Feature","geometry":{"type":"Point","coordinates":[-121.391149,39.214767]}},{"properties":{"city":"Olivehurst","zip":"95961","geo_score":1.0,"filenumber":"440097","filetransactiontype":"Title &amp; Escrow","referringcustomer":"LandSafe_CA","id":"a6lmrofisbkx","geo_precision":"range","address":"4310 Buttercup Ln","state":"California"},"type":"Feature","geometry":{"type":"Point","coordinates":[-121.565392,39.077472]}},{"properties":{"city":"Keene","zip":"93531","geo_score":0.808,"filenumber":"440140","filetransactiontype":"Escrow Only","referringcustomer":"LandSafe_CA","id":"a6lmro7igvao","geo_precision":"street","address":"25427 Clear Creek Rd","state":"California"},"type":"Feature","geometry":{"type":"Point","coordinates":[-118.597186,35.241524]}},{"properties":{"city":"Castroville","zip":"95012","geo_score":1.0,"filenumber":"440351","filetransactiontype":"Title &amp; Escrow","referringcustomer":"LandSafe_CA","id":"a6lmrokt1gnc","geo_precision":"range","address":"18843 Parsons Rd","state":"California"},"type":"Feature","geometry":{"type":"Point","coordinates":[-121.729334,36.801136]}},{"properties":{"city":"Visalia","zip":"93277","geo_score":0.805,"filenumber":"440299","filetransactiontype":"Escrow Only","referringcustomer":"LandSafe_CA","id":"a6lmrofh8bke","geo_precision":"street","address":"11090 Avenue 264","state":"California"},"type":"Feature","geometry":{"type":"Point","coordinates":[-119.293547,36.270469]}},{"properties":{"city":"Needles","zip":"92363","geo_score":0.912,"filenumber":"440311","filetransactiontype":"Escrow Only","referringcustomer":"LandSafe_CA","id":"a6lmroejdu72","geo_precision":"range","address":"1908 Peru Street","state":"California"},"type":"Feature","geometry":{"type":"Point","coordinates":[-114.620421,34.83198]}},{"properties":{"city":"West Sacramento","zip":"95691","geo_score":0.493,"filenumber":"440439","filetransactiontype":"Escrow Only","referringcustomer":"LandSafe_CA","id":"a6lmrogd9u71","geo_precision":"street","address":"3707 Phillip Island Road","state":"California"},"type":"Feature","geometry":{"type":"Point","coordinates":[-121.358629,38.780777]}},{"properties":{"city":"Bay Point","zip":"94565","geo_score":0.917,"filenumber":"440466","filetransactiontype":"Escrow Only","referringcustomer":"LandSafe_CA","id":"a6lmro9f1zal","geo_precision":"range","address":"402 Bustos Circle","state":"California"},"type":"Feature","geometry":{"type":"Point","coordinates":[-121.975013,38.030686]}},{"properties":{"city":"Ontario","zip":"91764","geo_score":1.0,"filenumber":"451047","filetransactiontype":"Escrow Only","referringcustomer":"LandSafe_CA","id":"a6lmroj5cvb3","geo_precision":"range","address":"416 N Imperial Ave","state":"California"},"type":"Feature","geometry":{"type":"Point","coordinates":[-117.622831,34.067391]}},{"properties":{"city":"Temecula","zip":"92591","geo_score":1.0,"filenumber":"440465","filetransactiontype":"Escrow Only","referringcustomer":"LandSafe_CA","id":"a6lmroas59pg","geo_precision":"range","address":"29741 Calle Pantano","state":"California"},"type":"Feature","geometry":{"type":"Point","coordinates":[-117.143763,33.517684]}},{"properties":{"city":"Grass Valley","zip":"95949","geo_score":1.0,"filenumber":"440470","filetransactiontype":"Escrow Only","referringcustomer":"LandSafe_CA","id":"a6lmroaixubn","geo_precision":"range","address":"18501 Fay Ridge Ct","state":"California"},"type":"Feature","geometry":{"type":"Point","coordinates":[-121.037056,39.130297]}},{"properties":{"city":"Santa Ana","zip":"92701","geo_score":0.98,"filenumber":"440475","filetransactiontype":"Escrow Only","referringcustomer":"LandSafe_CA","id":"a6lmrohhla4b","geo_precision":"range","address":"1366 Cabrillo Park Dr B","state":"California"},"type":"Feature","geometry":{"type":"Point","coordinates":[-117.841682,33.756873]}},{"properties":{"city":"Merced","zip":"95340","geo_score":0.585,"filenumber":"440723","filetransactiontype":"Title &amp; Escrow","referringcustomer":"LandSafe_CA","id":"a6lmroj3gpcl","geo_precision":"zip","address":"246 Citadel Ave","state":"California"},"type":"Feature","geometry":{"type":"Point","coordinates":[-120.378797,37.296053]}},{"properties":{"city":"Auburn","zip":"95602","geo_score":1.0,"filenumber":"440820","filetransactiontype":"Title &amp; Escrow","referringcustomer":"LandSafe_CA","id":"a6lmrocdi9q5","geo_precision":"range","address":"11510 Lakeshore North","state":"California"},"type":"Feature","geometry":{"type":"Point","coordinates":[-121.068547,39.041984]}},{"properties":{"city":"San Diego","zip":"92105","geo_score":0.473,"filenumber":"440824","filetransactiontype":"Escrow Only","referringcustomer":"LandSafe_CA","id":"a6lmrofyn871","geo_precision":"street","address":"1777 Bayview Heigts Drive #64","state":"California"},"type":"Feature","geometry":{"type":"Point","coordinates":[-117.181519,32.749339]}},{"properties":{"city":"Los Banos","zip":"93635","geo_score":0.927,"filenumber":"440844","filetransactiontype":"Title &amp; Escrow","referringcustomer":"LandSafe_CA","id":"a6lmrocamz9r","geo_precision":"range","address":"620 Pismo Way","state":"California"},"type":"Feature","geometry":{"type":"Point","coordinates":[-120.818675,37.060485]}},{"properties":{"city":"Linda","zip":"95901","geo_score":0.734,"filenumber":"440891","filetransactiontype":"Title &amp; Escrow","referringcustomer":"LandSafe_CA","id":"a6lmro9obd90","geo_precision":"street","address":"5670 Oakwood Dr","state":"California"},"type":"Feature","geometry":{"type":"Point","coordinates":[-121.550844,39.119493]}},{"properties":{"city":"Soda Springs","zip":"95728","geo_score":0.716,"filenumber":"440975","filetransactiontype":"Title &amp; Escrow","referringcustomer":"LandSafe_CA","id":"a6lmro9rjuer","geo_precision":"street","address":"51295 Tamarack Crescent","state":"California"},"type":"Feature","geometry":{"type":"Point","coordinates":[-120.440468,39.319154]}},{"properties":{"city":"Avenal","zip":"93204","geo_score":0.967,"filenumber":"441106","filetransactiontype":"Title &amp; Escrow","referringcustomer":"LandSafe_CA","id":"a6lmro9w69dl","geo_precision":"range","address":"913 Fresno Street","state":"California"},"type":"Feature","geometry":{"type":"Point","coordinates":[-120.123837,36.003573]}},{"properties":{"city":"Calexico","zip":"92231","geo_score":0.911,"filenumber":"441612","filetransactiontype":"Title &amp; Escrow","referringcustomer":"LandSafe_CA","id":"a6lmrod2hctd","geo_precision":"range","address":"719 Linda Street","state":"California"},"type":"Feature","geometry":{"type":"Point","coordinates":[-115.489122,32.677524]}},{"properties":{"city":"North Highlands","zip":"95660","geo_score":0.916,"filenumber":"441627","filetransactiontype":"Escrow Only","referringcustomer":"LandSafe_CA","id":"a6lmrom84m64","geo_precision":"range","address":"4009-4011 Renick Way","state":"California"},"type":"Feature","geometry":{"type":"Point","coordinates":[-121.370654,38.660649]}},{"properties":{"city":"Vallejo","zip":"94591","geo_score":0.793,"filenumber":"441655","filetransactiontype":"Escrow Only","referringcustomer":"LandSafe_CA","id":"a6lmrohi7c42","geo_precision":"street","address":"106 Shoal Drive West","state":"California"},"type":"Feature","geometry":{"type":"Point","coordinates":[-122.206236,38.06921]}},{"properties":{"city":"Sacramento","zip":"95822","geo_score":1.0,"filenumber":"441760","filetransactiontype":"Escrow Only","referringcustomer":"LandSafe_CA","id":"a6lmroescxae","geo_precision":"range","address":"7328 Benbow Street","state":"California"},"type":"Feature","geometry":{"type":"Point","coordinates":[-121.489322,38.492406]}},{"properties":{"city":"Los Angeles","zip":"90026","geo_score":0.932,"filenumber":"441777","filetransactiontype":"Escrow Only","referringcustomer":"LandSafe_CA","id":"a6lmro6h4f6w","geo_precision":"range","address":"1457 Lake Shore Avenue","state":"California"},"type":"Feature","geometry":{"type":"Point","coordinates":[-118.258794,34.080391]}},{"properties":{"city":"Buena Park","zip":"90620","geo_score":1.0,"filenumber":"441024","filetransactiontype":"Escrow Only","referringcustomer":"LandSafe_CA","id":"a6lmro8fxgn2","geo_precision":"range","address":"8561 Cedar Dr","state":"California"},"type":"Feature","geometry":{"type":"Point","coordinates":[-117.987707,33.838477]}},{"properties":{"city":"McArthur","zip":"96056","geo_score":0.805,"filenumber":"441953","filetransactiontype":"Title &amp; Escrow","referringcustomer":"LandSafe_CA","id":"a6lmrocxjk9x","geo_precision":"street","address":"44263 A Street","state":"California"},"type":"Feature","geometry":{"type":"Point","coordinates":[-121.397403,41.051474]}},{"properties":{"city":"San Diego","zip":"92129","geo_score":1.0,"filenumber":"441958","filetransactiontype":"Escrow Only","referringcustomer":"LandSafe_CA","id":"a6lmrogiq1bo","geo_precision":"range","address":"13830 Paseo Aldabra","state":"California"},"type":"Feature","geometry":{"type":"Point","coordinates":[-117.12532,32.965305]}},{"properties":{"city":"Alhambra","zip":"91803","geo_score":1.0,"filenumber":"441961","filetransactiontype":"Escrow Only","referringcustomer":"LandSafe_CA","id":"a6lmroh7egcb","geo_precision":"range","address":"700 Winchester Avenue","state":"California"},"type":"Feature","geometry":{"type":"Point","coordinates":[-118.160408,34.085455]}},{"properties":{"city":"San Francisco","zip":"94124","geo_score":1.0,"filenumber":"441984","filetransactiontype":"Escrow Only","referringcustomer":"LandSafe_CA","id":"a6lmroaddf92","geo_precision":"range","address":"13 Las Villas Court","state":"California"},"type":"Feature","geometry":{"type":"Point","coordinates":[-122.385931,37.733938]}},{"properties":{"city":"San Jose","zip":"95131","geo_score":1.0,"filenumber":"441988","filetransactiontype":"Escrow Only","referringcustomer":"LandSafe_CA","id":"a6lmroacseve","geo_precision":"range","address":"1307 Tofts Drive","state":"California"},"type":"Feature","geometry":{"type":"Point","coordinates":[-121.86683,37.386482]}},{"properties":{"city":"Fresno","zip":"93722","geo_score":1.0,"filenumber":"441995","filetransactiontype":"Escrow Only","referringcustomer":"LandSafe_CA","id":"a6lmroa5jgiu","geo_precision":"range","address":"4399 North Charles Avenue","state":"California"},"type":"Feature","geometry":{"type":"Point","coordinates":[-119.852797,36.800841]}},{"properties":{"city":"San Ramon","zip":"94583","geo_score":1.0,"filenumber":"CXL446656","filetransactiontype":"Escrow Only","referringcustomer":"LandSafe_CA","id":"a6lmroesfbe7","geo_precision":"range","address":"518 Cartagena Lane","state":"California"},"type":"Feature","geometry":{"type":"Point","coordinates":[-121.974245,37.769643]}},{"properties":{"city":"Rialto","zip":"92376","geo_score":1.0,"filenumber":"442081","filetransactiontype":"Escrow Only","referringcustomer":"LandSafe_CA","id":"a6lmrofw3mbm","geo_precision":"range","address":"513 North Date Avenue","state":"California"},"type":"Feature","geometry":{"type":"Point","coordinates":[-117.367914,34.109008]}},{"properties":{"city":"Sacramento","zip":"95828","geo_score":0.922,"filenumber":"442107","filetransactiontype":"Escrow Only","referringcustomer":"LandSafe_CA","id":"a6lmro6xe7a7","geo_precision":"range","address":"8584 Napier Way","state":"California"},"type":"Feature","geometry":{"type":"Point","coordinates":[-121.386318,38.483878]}},{"properties":{"city":"Sacramento","zip":"95823","geo_score":0.922,"filenumber":"442112","filetransactiontype":"Escrow Only","referringcustomer":"LandSafe_CA","id":"a6lmrofrys2l","geo_precision":"range","address":"1 Starview Court","state":"California"},"type":"Feature","geometry":{"type":"Point","coordinates":[-121.430203,38.446324]}},{"properties":{"city":"Los Angeles","zip":"91605","geo_score":0.916,"filenumber":"442119","filetransactiontype":"Escrow Only","referringcustomer":"LandSafe_CA","id":"a6lmrof5ugt2","geo_precision":"range","address":"7419 Beck Avenue","state":"California"},"type":"Feature","geometry":{"type":"Point","coordinates":[-118.383415,34.205159]}},{"properties":{"city":"Los Angeles","zip":"91326","geo_score":0.911,"filenumber":"442131","filetransactiontype":"Escrow Only","referringcustomer":"LandSafe_CA","id":"a6lmroljew9e","geo_precision":"range","address":"19764 Mariposa Creek Way","state":"California"},"type":"Feature","geometry":{"type":"Point","coordinates":[-118.566788,34.281589]}},{"properties":{"city":"Spring Valley","zip":"91977","geo_score":0.902,"filenumber":"442144","filetransactiontype":"Escrow Only","referringcustomer":"LandSafe_CA","id":"a6lmrom2ufde","geo_precision":"range","address":"821 Banock Street","state":"California"},"type":"Feature","geometry":{"type":"Point","coordinates":[-116.989962,32.711023]}},{"properties":{"city":"Lakewood","zip":"90715","geo_score":0.805,"filenumber":"442177","filetransactiontype":"Escrow Only","referringcustomer":"LandSafe_CA","id":"a6lmroelc2oc","geo_precision":"street","address":"12750 Centralia Street #212","state":"California"},"type":"Feature","geometry":{"type":"Point","coordinates":[-118.092837,33.838623]}},{"properties":{"city":"Paradise","zip":"95969","geo_score":1.0,"filenumber":"442200","filetransactiontype":"Title &amp; Escrow","referringcustomer":"LandSafe_CA","id":"a6lmrobk64ev","geo_precision":"range","address":"1495 Billie Road","state":"California"},"type":"Feature","geometry":{"type":"Point","coordinates":[-121.590126,39.770444]}},{"properties":{"city":"Sacramento","zip":"95835","geo_score":1.0,"filenumber":"442210","filetransactiontype":"Escrow Only","referringcustomer":"LandSafe_CA","id":"a6lmroikhaxa","geo_precision":"range","address":"5071 Monetta Lane","state":"California"},"type":"Feature","geometry":{"type":"Point","coordinates":[-121.548438,38.66365]}},{"properties":{"city":"Merced","zip":"93635","geo_score":0.805,"filenumber":"442396","filetransactiontype":"Title &amp; Escrow","referringcustomer":"LandSafe_CA","id":"a6lmro9yndwz","geo_precision":"street","address":"1700 San Simeone Way","state":"California"},"type":"Feature","geometry":{"type":"Point","coordinates":[-120.826137,37.085651]}},{"properties":{"city":"Vista","zip":"92081","geo_score":0.532,"filenumber":"442399","filetransactiontype":"Escrow Only","referringcustomer":"LandSafe_CA","id":"a6lmrodrhlkg","geo_precision":"street","address":"1637 Promontory Ridge Way","state":"California"},"type":"Feature","geometry":{"type":"Point","coordinates":[-117.278665,33.194548]}},{"properties":{"city":"Hanford","zip":"93230","geo_score":0.927,"filenumber":"442431","filetransactiontype":"Title &amp; Escrow","referringcustomer":"LandSafe_CA","id":"a6lmrokuvmhz","geo_precision":"range","address":"585 Gable Way","state":"California"},"type":"Feature","geometry":{"type":"Point","coordinates":[-119.667111,36.317849]}},{"properties":{"city":"Van Nuys","zip":"91405","geo_score":0.902,"filenumber":"442443","filetransactiontype":"Escrow Only","referringcustomer":"LandSafe_CA","id":"a6lmroku8a4z","geo_precision":"range","address":"7056 Matilija Avenue","state":"California"},"type":"Feature","geometry":{"type":"Point","coordinates":[-118.43344,34.198312]}},{"properties":{"city":"Yuba City","zip":"95993","geo_score":0.878,"filenumber":"445663","filetransactiontype":"Title &amp; Escrow","referringcustomer":"LandSafe_CA","id":"a6lmrogiy6w0","geo_precision":"range","address":"2051 Hooper Road","state":"California"},"type":"Feature","geometry":{"type":"Point","coordinates":[-121.667133,39.157136]}},{"properties":{"city":"San Fernando","zip":"91340","geo_score":1.0,"filenumber":"441633","filetransactiontype":"Escrow Only","referringcustomer":"LandSafe_CA","id":"a6lmro8s9c4v","geo_precision":"range","address":"513 Chatsworth Dr","state":"California"},"type":"Feature","geometry":{"type":"Point","coordinates":[-118.442002,34.278658]}},{"properties":{"city":"Perris","zip":"92570","geo_score":1.0,"filenumber":"441640","filetransactiontype":"Escrow Only","referringcustomer":"LandSafe_CA","id":"a6lmro8qlsva","geo_precision":"range","address":"19320 Haines St","state":"California"},"type":"Feature","geometry":{"type":"Point","coordinates":[-117.291957,33.839394]}},{"properties":{"city":"Antelope","zip":"95843","geo_score":0.561,"filenumber":"441648","filetransactiontype":"Escrow Only","referringcustomer":"LandSafe_CA","id":"a6lmrob339v8","geo_precision":"street","address":"4310 County Run Way","state":"California"},"type":"Feature","geometry":{"type":"Point","coordinates":[-121.391549,38.718582]}},{"properties":{"city":"Diamond Springs","zip":"95619","geo_score":1.0,"filenumber":"441822","filetransactiontype":"Title &amp; Escrow","referringcustomer":"LandSafe_CA","id":"a6lmro60i3vw","geo_precision":"range","address":"4340 Canyon Valley Rd","state":"California"},"type":"Feature","geometry":{"type":"Point","coordinates":[-120.800916,38.689938]}},{"properties":{"city":"Delhi","zip":"95315","geo_score":1.0,"filenumber":"442394","filetransactiontype":"Title &amp; Escrow","referringcustomer":"LandSafe_CA","id":"a6lmrody6baz","geo_precision":"range","address":"16486 Harmony Ranch Dr","state":"California"},"type":"Feature","geometry":{"type":"Point","coordinates":[-120.785664,37.422843]}},{"properties":{"city":"San Jose","zip":"95125","geo_score":0.683,"filenumber":"442395","filetransactiontype":"Escrow Only","referringcustomer":"LandSafe_CA","id":"a6lmro7lv3nk","geo_precision":"zip","address":"231 Azevedo Cir","state":"California"},"type":"Feature","geometry":{"type":"Point","coordinates":[-121.705327,37.189396]}},{"properties":{"city":"Rialto","zip":"92376","geo_score":1.0,"filenumber":"442400","filetransactiontype":"Escrow Only","referringcustomer":"LandSafe_CA","id":"a6lmro9u93wr","geo_precision":"range","address":"620 S Vine Ave","state":"California"},"type":"Feature","geometry":{"type":"Point","coordinates":[-117.393896,34.089966]}},{"properties":{"city":"Los Banos","zip":"93635","geo_score":0.927,"filenumber":"442523","filetransactiontype":"Title &amp; Escrow","referringcustomer":"LandSafe_CA","id":"a6lmrof3q3h9","geo_precision":"range","address":"830 C St","state":"California"},"type":"Feature","geometry":{"type":"Point","coordinates":[-120.840704,37.065379]}},{"properties":{"city":"Placerville","zip":"95667","geo_score":0.898,"filenumber":"442730","filetransactiontype":"Title &amp; Escrow","referringcustomer":"LandSafe_CA","id":"a6lmroecqa38","geo_precision":"range","address":"900 Black Rice Road","state":"California"},"type":"Feature","geometry":{"type":"Point","coordinates":[-120.803749,38.699454]}},{"properties":{"city":"Cameron Park","zip":"95682","geo_score":0.929,"filenumber":"442731","filetransactiontype":"Title &amp; Escrow","referringcustomer":"LandSafe_CA","id":"a6lmroh1ninv","geo_precision":"range","address":"2526 Rosales Street","state":"California"},"type":"Feature","geometry":{"type":"Point","coordinates":[-121.011211,38.662516]}},{"properties":{"city":"Hanford","zip":"93230","geo_score":0.843,"filenumber":"442732","filetransactiontype":"Title &amp; Escrow","referringcustomer":"LandSafe_CA","id":"a6lmrofe89vr","geo_precision":"range","address":"8765 14th Avenue","state":"California"},"type":"Feature","geometry":{"type":"Point","coordinates":[-119.708972,36.344765]}},{"properties":{"city":"Nipoma","zip":"93444","geo_score":0.862,"filenumber":"442849","filetransactiontype":"Title &amp; Escrow","referringcustomer":"LandSafe_CA","id":"a6lmrohz1l84","geo_precision":"range","address":"1595 Via Alta Mesa","state":"California"},"type":"Feature","geometry":{"type":"Point","coordinates":[-120.515222,35.018005]}},{"properties":{"city":"Riverside","zip":"92503","geo_score":0.902,"filenumber":"443030","filetransactiontype":"Escrow Only","referringcustomer":"LandSafe_CA","id":"a6lmrod1nzoz","geo_precision":"range","address":"3710 Calle Curasco","state":"California"},"type":"Feature","geometry":{"type":"Point","coordinates":[-117.510051,33.881913]}},{"properties":{"city":"San Diego","zip":"92114","geo_score":0.732,"filenumber":"443034","filetransactiontype":"Escrow Only","referringcustomer":"LandSafe_CA","id":"a6lmrobjbt39","geo_precision":"street","address":"6434 Akins Ave #504","state":"California"},"type":"Feature","geometry":{"type":"Point","coordinates":[-117.068957,32.709626]}},{"properties":{"city":"Escondido","zip":"92026","geo_score":1.0,"filenumber":"443036","filetransactiontype":"Escrow Only","referringcustomer":"LandSafe_CA","id":"a6lmrojplyq1","geo_precision":"range","address":"1234 Rees Rd","state":"California"},"type":"Feature","geometry":{"type":"Point","coordinates":[-117.115189,33.148878]}},{"properties":{"city":"Lincoln","zip":"95648","geo_score":0.683,"filenumber":"443040","filetransactiontype":"Escrow Only","referringcustomer":"LandSafe_CA","id":"a6lmroj0dv7e","geo_precision":"zip","address":"402 Darragh Ct","state":"California"},"type":"Feature","geometry":{"type":"Point","coordinates":[-121.327143,38.929305]}},{"properties":{"city":"Yuba City","zip":"95993","geo_score":1.0,"filenumber":"443050","filetransactiontype":"Title &amp; Escrow","referringcustomer":"LandSafe_CA","id":"a6lmro8ufzei","geo_precision":"range","address":"1741 Deerfield Dr","state":"California"},"type":"Feature","geometry":{"type":"Point","coordinates":[-121.647541,39.130488]}},{"properties":{"city":"Hollister","zip":"95023","geo_score":0.913,"filenumber":"443064","filetransactiontype":"Title &amp; Escrow","referringcustomer":"LandSafe_CA","id":"a6lmroh6ixkh","geo_precision":"range","address":"791 Del Mar Dr","state":"California"},"type":"Feature","geometry":{"type":"Point","coordinates":[-121.387495,36.844567]}},{"properties":{"city":"Yuba City","zip":"95991","geo_score":0.858,"filenumber":"443072","filetransactiontype":"Title &amp; Escrow","referringcustomer":"LandSafe_CA","id":"a6lmro6tynby","geo_precision":"range","address":"1987 Wild River Dr","state":"California"},"type":"Feature","geometry":{"type":"Point","coordinates":[-121.609767,39.100439]}},{"properties":{"city":"Livingston","zip":"95334","geo_score":0.67,"filenumber":"443085","filetransactiontype":"Title &amp; Escrow","referringcustomer":"LandSafe_CA","id":"a6lmro7kqi60","geo_precision":"range","address":"867 Jordonolla Way","state":"California"},"type":"Feature","geometry":{"type":"Point","coordinates":[-121.114124,37.747401]}},{"properties":{"city":"Jackson","zip":"95642","geo_score":0.735,"filenumber":"443092","filetransactiontype":"Title &amp; Escrow","referringcustomer":"LandSafe_CA","id":"a6lmroi8ps9v","geo_precision":"street","address":"Lot 5 Butte Mountain Est 1","state":"California"},"type":"Feature","geometry":{"type":"Point","coordinates":[-120.726688,38.339687]}},{"properties":{"city":"Crescent City","zip":"95531","geo_score":0.927,"filenumber":"443059","filetransactiontype":"Title &amp; Escrow","referringcustomer":"LandSafe_CA","id":"a6lmrof79xig","geo_precision":"range","address":"2437 Dodane","state":"California"},"type":"Feature","geometry":{"type":"Point","coordinates":[-124.155735,41.755449]}},{"properties":{"city":"Los Angeles","zip":"90015","geo_score":0.922,"filenumber":"443156","filetransactiontype":"Escrow Only","referringcustomer":"LandSafe_CA","id":"a6lmroj9sc48","geo_precision":"range","address":"1111 S Grand Ave","state":"California"},"type":"Feature","geometry":{"type":"Point","coordinates":[-118.262081,34.041411]}},{"properties":{"city":"Livermore","zip":"94551","geo_score":1.0,"filenumber":"443248","filetransactiontype":"Escrow Only","referringcustomer":"LandSafe_CA","id":"a6lmro7vac3f","geo_precision":"range","address":"5199 Peony Dr","state":"California"},"type":"Feature","geometry":{"type":"Point","coordinates":[-121.74188,37.713834]}},{"properties":{"city":"Sacramento","zip":"95823","geo_score":0.805,"filenumber":"443263","filetransactiontype":"Escrow Only","referringcustomer":"LandSafe_CA","id":"a6lmroeungqw","geo_precision":"range","address":"4540 Forest Parkway","state":"California"},"type":"Feature","geometry":{"type":"Point","coordinates":[-121.45139,38.488376]}},{"properties":{"city":"Mentone","zip":"92359","geo_score":0.875,"filenumber":"443275","filetransactiontype":"Escrow Only","referringcustomer":"LandSafe_CA","id":"a6lmro74gnlg","geo_precision":"range","address":"2611 Zanja View Dr","state":"California"},"type":"Feature","geometry":{"type":"Point","coordinates":[-117.092697,34.070122]}},{"properties":{"city":"Hollister","zip":"95023","geo_score":0.913,"filenumber":"443407","filetransactiontype":"Title &amp; Escrow","referringcustomer":"LandSafe_CA","id":"a6lmroc7h7q4","geo_precision":"range","address":"360 Mapleton Avenue","state":"California"},"type":"Feature","geometry":{"type":"Point","coordinates":[-121.410653,36.852796]}},{"properties":{"city":"Copperopolis","zip":"95228","geo_score":1.0,"filenumber":"443290","filetransactiontype":"Title &amp; Escrow","referringcustomer":"LandSafe_CA","id":"a6lmrolfjq0b","geo_precision":"range","address":"3101 Quail Hill Rd","state":"California"},"type":"Feature","geometry":{"type":"Point","coordinates":[-120.626903,37.92068]}},{"properties":{"city":"Arbuckle","zip":"95912","geo_score":0.612,"filenumber":"443293","filetransactiontype":"Title &amp; Escrow","referringcustomer":"LandSafe_CA","id":"a6lmrol8qhqq","geo_precision":"street","address":"1104 Barbara Way","state":"California"},"type":"Feature","geometry":{"type":"Point","coordinates":[-121.633245,39.111934]}},{"properties":{"city":"Los Osos","zip":"93402","geo_score":0.794,"filenumber":"443428","filetransactiontype":"Title &amp; Escrow","referringcustomer":"LandSafe_CA","id":"a6lmrodqtunm","geo_precision":"range","address":"1261 Ninth Street","state":"California"},"type":"Feature","geometry":{"type":"Point","coordinates":[-120.833198,35.328832]}},{"properties":{"city":"Laguna Niguel","zip":"92677","geo_score":0.911,"filenumber":"443384","filetransactiontype":"Escrow Only","referringcustomer":"LandSafe_CA","id":"a6lmrokcsn2c","geo_precision":"range","address":"25102 Calle Playa","state":"California"},"type":"Feature","geometry":{"type":"Point","coordinates":[-117.692275,33.554473]}},{"properties":{"city":"Reseda","zip":"91335","geo_score":1.0,"filenumber":"443391","filetransactiontype":"Escrow Only","referringcustomer":"LandSafe_CA","id":"a6lmrogaj2gj","geo_precision":"range","address":"19465 Lanark St","state":"California"},"type":"Feature","geometry":{"type":"Point","coordinates":[-118.557205,34.21787]}},{"properties":{"city":"Stockton","zip":"95207","geo_score":0.439,"filenumber":"443718","filetransactiontype":"Escrow Only","referringcustomer":"LandSafe_CA","id":"a6lmromb9rm8","geo_precision":"street","address":"4477 La Cresta Way 2","state":"California"},"type":"Feature","geometry":{"type":"Point","coordinates":[-120.829186,38.162571]}},{"properties":{"city":"El Dorado","zip":"95762","geo_score":0.572,"filenumber":"443614","filetransactiontype":"Title &amp; Escrow","referringcustomer":"LandSafe_CA","id":"a6lmrogw7afw","geo_precision":"street","address":"4338 Rimini Way","state":"California"},"type":"Feature","geometry":{"type":"Point","coordinates":[-121.08362,38.732364]}},{"properties":{"city":"Fremont","zip":"94538","geo_score":0.977,"filenumber":"443716","filetransactiontype":"Escrow Only","referringcustomer":"LandSafe_CA","id":"a6lmro8walr7","geo_precision":"range","address":"1980 Barrymore Common T","state":"California"},"type":"Feature","geometry":{"type":"Point","coordinates":[-121.970872,37.553645]}},{"properties":{"city":"El Centro","zip":"92243","geo_score":0.817,"filenumber":"443745","filetransactiontype":"Title &amp; Escrow","referringcustomer":"LandSafe_CA","id":"a6lmro6nh4ut","geo_precision":"street","address":"1776 Silsbee Rd","state":"California"},"type":"Feature","geometry":{"type":"Point","coordinates":[-115.646447,32.779827]}},{"properties":{"city":"West Sacramento","zip":"95691","geo_score":0.683,"filenumber":"443750","filetransactiontype":"Title &amp; Escrow","referringcustomer":"LandSafe_CA","id":"a6lmrojjndy9","geo_precision":"zip","address":"1565 Headslane Rd","state":"California"},"type":"Feature","geometry":{"type":"Point","coordinates":[-121.610919,38.608615]}},{"properties":{"city":"Woodland","zip":"95776","geo_score":0.714,"filenumber":"443946","filetransactiontype":"Title &amp; Escrow","referringcustomer":"LandSafe_CA","id":"a6lmroihb7vv","geo_precision":"street","address":"1393 E Oak Ave #A","state":"California"},"type":"Feature","geometry":{"type":"Point","coordinates":[-121.764301,38.678731]}},{"properties":{"city":"Los Angeles","zip":"90044","geo_score":0.829,"filenumber":"444145","filetransactiontype":"Escrow Only","referringcustomer":"LandSafe_CA","id":"a6lmrocng998","geo_precision":"range","address":"802 West 98th Street","state":"California"},"type":"Feature","geometry":{"type":"Point","coordinates":[-118.289384,33.947016]}},{"properties":{"city":"Corning","zip":"96021","geo_score":0.913,"filenumber":"444320","filetransactiontype":"Title &amp; Escrow","referringcustomer":"LandSafe_CA","id":"a6lmroi9xnw7","geo_precision":"range","address":"911 Chestnut St","state":"California"},"type":"Feature","geometry":{"type":"Point","coordinates":[-122.177336,39.923746]}},{"properties":{"city":"Browns Valley","zip":"95918","geo_score":0.958,"filenumber":"444345","filetransactiontype":"Title &amp; Escrow","referringcustomer":"LandSafe_CA","id":"a6lmrokm16bu","geo_precision":"range","address":"6385 Bald Mountain Dr","state":"California"},"type":"Feature","geometry":{"type":"Point","coordinates":[-121.375699,39.262735]}},{"properties":{"city":"Yuba City","zip":"95993","geo_score":1.0,"filenumber":"444364","filetransactiontype":"Title &amp; Escrow","referringcustomer":"LandSafe_CA","id":"a6lmroinf98s","geo_precision":"range","address":"560 Allen Way","state":"California"},"type":"Feature","geometry":{"type":"Point","coordinates":[-121.650016,39.119225]}},{"properties":{"city":"Long Beach","zip":"90805","geo_score":0.939,"filenumber":"444371","filetransactiontype":"Escrow Only","referringcustomer":"LandSafe_CA","id":"a6lmrob3j64y","geo_precision":"range","address":"1710 McKenzie St","state":"California"},"type":"Feature","geometry":{"type":"Point","coordinates":[-118.172006,33.871911]}},{"properties":{"city":"Modesto","zip":"95354","geo_score":1.0,"filenumber":"451259","filetransactiontype":"Escrow Only","referringcustomer":"LandSafe_CA","id":"a6lmrok7qdjq","geo_precision":"range","address":"409 Empire Ave","state":"California"},"type":"Feature","geometry":{"type":"Point","coordinates":[-120.968561,37.633849]}},{"properties":{"city":"Davis","zip":"95618","geo_score":0.915,"filenumber":"444804","filetransactiontype":"Title &amp; Escrow","referringcustomer":"LandSafe_CA","id":"a6lmroh18m0y","geo_precision":"range","address":"801 Christie Ct","state":"California"},"type":"Feature","geometry":{"type":"Point","coordinates":[-121.716869,38.544858]}},{"properties":{"city":"Coarsegold","zip":"93614","geo_score":1.0,"filenumber":"444807","filetransactiontype":"Title &amp; Escrow","referringcustomer":"LandSafe_CA","id":"a6lmroefdz7d","geo_precision":"range","address":"30215 Corral Dr","state":"California"},"type":"Feature","geometry":{"type":"Point","coordinates":[-119.779581,37.187947]}},{"properties":{"city":"Santa Cruz","zip":"95062","geo_score":0.83,"filenumber":"444830","filetransactiontype":"Title &amp; Escrow","referringcustomer":"LandSafe_CA","id":"a6lmrocuf3v6","geo_precision":"range","address":"509 26th Ave","state":"California"},"type":"Feature","geometry":{"type":"Point","coordinates":[-121.977993,36.961285]}},{"properties":{"city":"Hanford","zip":"93230","geo_score":0.927,"filenumber":"444844","filetransactiontype":"Title &amp; Escrow","referringcustomer":"LandSafe_CA","id":"a6lmrocng84n","geo_precision":"range","address":"212 W Cameron St","state":"California"},"type":"Feature","geometry":{"type":"Point","coordinates":[-119.647845,36.33672]}},{"properties":{"city":"Atwater","zip":"95301","geo_score":0.916,"filenumber":"444969","filetransactiontype":"Title &amp; Escrow","referringcustomer":"LandSafe_CA","id":"a6lmro8yhp02","geo_precision":"range","address":"2133 Wexford Ln","state":"California"},"type":"Feature","geometry":{"type":"Point","coordinates":[-120.586913,37.354929]}},{"properties":{"city":"West Sacramento","zip":"95691","geo_score":0.545,"filenumber":"444977","filetransactiontype":"Title &amp; Escrow","referringcustomer":"LandSafe_CA","id":"a6lmro83p6fu","geo_precision":"street","address":"1734 Chinook Rd","state":"California"},"type":"Feature","geometry":{"type":"Point","coordinates":[-120.81792,38.720917]}},{"properties":{"city":"Oroville","zip":"95965","geo_score":0.8,"filenumber":"444488","filetransactiontype":"Title &amp; Escrow","referringcustomer":"LandSafe_CA","id":"a6lmrohhcjfi","geo_precision":"street","address":"99 Flying Cloud Dr.","state":"California"},"type":"Feature","geometry":{"type":"Point","coordinates":[-121.559666,39.526834]}},{"properties":{"city":"Big Bear City","zip":"92314","geo_score":1.0,"filenumber":"445036","filetransactiontype":"Escrow Only","referringcustomer":"LandSafe_CA","id":"a6lmrob4m2m3","geo_precision":"range","address":"347 Montclair Dr","state":"California"},"type":"Feature","geometry":{"type":"Point","coordinates":[-116.818965,34.255842]}},{"properties":{"city":"Orange","zip":"92866","geo_score":0.805,"filenumber":"444515","filetransactiontype":"Escrow Only","referringcustomer":"LandSafe_CA","id":"a6lmrobkrq6a","geo_precision":"street","address":"700 East Lake Dr #32","state":"California"},"type":"Feature","geometry":{"type":"Point","coordinates":[-117.846747,33.777758]}},{"properties":{"city":"Hanford","zip":"93230","geo_score":0.927,"filenumber":"444524","filetransactiontype":"Title &amp; Escrow","referringcustomer":"LandSafe_CA","id":"a6lmroalkh8u","geo_precision":"range","address":"1410 Stanford Ct","state":"California"},"type":"Feature","geometry":{"type":"Point","coordinates":[-119.667845,36.341228]}},{"properties":{"city":"Rough and Ready","zip":"95975","geo_score":1.0,"filenumber":"444569","filetransactiontype":"Title &amp; Escrow","referringcustomer":"LandSafe_CA","id":"a6lmrolnb69c","geo_precision":"range","address":"16638 Rocker Rd","state":"California"},"type":"Feature","geometry":{"type":"Point","coordinates":[-121.170316,39.229626]}},{"properties":{"city":"Imperial","zip":"92251","geo_score":0.58,"filenumber":"444577","filetransactiontype":"Title &amp; Escrow","referringcustomer":"LandSafe_CA","id":"a6lmroditpqq","geo_precision":"street","address":"282 West Tampico Dr","state":"California"},"type":"Feature","geometry":{"type":"Point","coordinates":[-116.395581,33.725893]}},{"properties":{"city":"Esparto","zip":"95627","geo_score":0.61,"filenumber":"444586","filetransactiontype":"Title &amp; Escrow","referringcustomer":"LandSafe_CA","id":"a6lmrod45ni8","geo_precision":"street","address":"25798 Stephens St","state":"California"},"type":"Feature","geometry":{"type":"Point","coordinates":[-121.972195,38.677901]}},{"properties":{"city":"Stockton","zip":"95204","geo_score":1.0,"filenumber":"444601","filetransactiontype":"Escrow Only","referringcustomer":"LandSafe_CA","id":"a6lmroe5ox7i","geo_precision":"range","address":"2120 Franklin Ave","state":"California"},"type":"Feature","geometry":{"type":"Point","coordinates":[-121.328435,37.964137]}},{"properties":{"city":"San Diego","zip":"92104","geo_score":0.707,"filenumber":"444612","filetransactiontype":"Escrow Only","referringcustomer":"LandSafe_CA","id":"a6lmrokql2ro","geo_precision":"street","address":"3814 Cherokee Ave, #3","state":"California"},"type":"Feature","geometry":{"type":"Point","coordinates":[-117.114446,32.740636]}},{"properties":{"city":"Oakland","zip":"94603","geo_score":0.397,"filenumber":"444657","filetransactiontype":"Escrow Only","referringcustomer":"LandSafe_CA","id":"a6lmro7lu0sq","geo_precision":"street","address":"9830 Saint Elmo Dr","state":"California"},"type":"Feature","geometry":{"type":"Point","coordinates":[-122.265068,37.822766]}},{"properties":{"city":"Concord","zip":"94521","geo_score":0.955,"filenumber":"444677","filetransactiontype":"Escrow Only","referringcustomer":"LandSafe_CA","id":"a6lmrody387c","geo_precision":"range","address":"1394 Morning View Ct","state":"California"},"type":"Feature","geometry":{"type":"Point","coordinates":[-121.993444,37.957848]}},{"properties":{"city":"Mission Viejo","zip":"92692","geo_score":1.0,"filenumber":"444703","filetransactiontype":"Escrow Only","referringcustomer":"LandSafe_CA","id":"a6lmroe3sh18","geo_precision":"range","address":"12 Bayonne","state":"California"},"type":"Feature","geometry":{"type":"Point","coordinates":[-117.649555,33.588589]}},{"properties":{"city":"Hollister","zip":"95023","geo_score":0.913,"filenumber":"444712","filetransactiontype":"Title &amp; Escrow","referringcustomer":"LandSafe_CA","id":"a6lmro7i3h3o","geo_precision":"range","address":"951 Marne Dr","state":"California"},"type":"Feature","geometry":{"type":"Point","coordinates":[-121.384982,36.845761]}},{"properties":{"city":"Red Bluff","zip":"96080","geo_score":0.951,"filenumber":"444847","filetransactiontype":"Title &amp; Escrow","referringcustomer":"LandSafe_CA","id":"a6lmroc0p6pp","geo_precision":"range","address":"2450 Forward Way","state":"California"},"type":"Feature","geometry":{"type":"Point","coordinates":[-122.244533,40.191383]}},{"properties":{"city":"Livingston","zip":"95334","geo_score":0.537,"filenumber":"445137","filetransactiontype":"Title &amp; Escrow","referringcustomer":"LandSafe_CA","id":"a6lmroe6sbxg","geo_precision":"street","address":"657 Calero Ct","state":"California"},"type":"Feature","geometry":{"type":"Point","coordinates":[-120.935771,37.675183]}},{"properties":{"city":"Valley Springs","zip":"95252","geo_score":0.917,"filenumber":"445166","filetransactiontype":"Title &amp; Escrow","referringcustomer":"LandSafe_CA","id":"a6lmro87n80b","geo_precision":"range","address":"2852 Hoffman Dr","state":"California"},"type":"Feature","geometry":{"type":"Point","coordinates":[-120.844619,38.155052]}},{"properties":{"city":"Placerville","zip":"95667","geo_score":0.951,"filenumber":"445397","filetransactiontype":"Title &amp; Escrow","referringcustomer":"LandSafe_CA","id":"a6lmrobhwfft","geo_precision":"range","address":"1641 Cantrell Ln","state":"California"},"type":"Feature","geometry":{"type":"Point","coordinates":[-120.776716,38.674638]}},{"properties":{"city":"Yuba City","zip":"95993","geo_score":1.0,"filenumber":"445511","filetransactiontype":"Title &amp; Escrow","referringcustomer":"LandSafe_CA","id":"a6lmroggk97t","geo_precision":"range","address":"1805 Nand Dr","state":"California"},"type":"Feature","geometry":{"type":"Point","coordinates":[-121.647128,39.101484]}},{"properties":{"city":"Redding","zip":"96002","geo_score":1.0,"filenumber":"445597","filetransactiontype":"Title &amp; Escrow","referringcustomer":"LandSafe_CA","id":"a6lmroitypn3","geo_precision":"range","address":"3535 Dune St","state":"California"},"type":"Feature","geometry":{"type":"Point","coordinates":[-122.323468,40.553712]}},{"properties":{"city":"Creston","zip":"93432","geo_score":1.0,"filenumber":"445683","filetransactiontype":"Title &amp; Escrow","referringcustomer":"LandSafe_CA","id":"a6lmro6pzqvo","geo_precision":"range","address":"3191 Bluegrass Place","state":"California"},"type":"Feature","geometry":{"type":"Point","coordinates":[-120.446632,35.523175]}},{"properties":{"city":"Plumas Lake","zip":"95961","geo_score":0.595,"filenumber":"445854","filetransactiontype":"Title &amp; Escrow","referringcustomer":"LandSafe_CA","id":"a6lmroguy65h","geo_precision":"zip","address":"1698 Rainham Ct","state":"California"},"type":"Feature","geometry":{"type":"Point","coordinates":[-121.391149,39.214767]}},{"properties":{"city":"Fillmore","zip":"93015","geo_score":0.915,"filenumber":"445932","filetransactiontype":"Escrow Only","referringcustomer":"LandSafe_CA","id":"a6lmro7nhtzs","geo_precision":"range","address":"1394 Grand Ave","state":"California"},"type":"Feature","geometry":{"type":"Point","coordinates":[-118.932898,34.417534]}},{"properties":{"city":"Chula Vista","zip":"91915","geo_score":1.0,"filenumber":"445981","filetransactiontype":"Escrow Only","referringcustomer":"LandSafe_CA","id":"a6lmrofj3p9j","geo_precision":"range","address":"2337 Eastridge Loop","state":"California"},"type":"Feature","geometry":{"type":"Point","coordinates":[-116.960694,32.645508]}},{"properties":{"city":"San Jose","zip":"95117","geo_score":1.0,"filenumber":"446199","filetransactiontype":"Escrow Only","referringcustomer":"LandSafe_CA","id":"a6lmroep5cp4","geo_precision":"range","address":"3197 Chivas Place","state":"California"},"type":"Feature","geometry":{"type":"Point","coordinates":[-121.952709,37.301757]}},{"properties":{"city":"Tuolmne","zip":"95379","geo_score":0.988,"filenumber":"446307","filetransactiontype":"Title &amp; Escrow","referringcustomer":"LandSafe_CA","id":"a6lmroap301w","geo_precision":"range","address":"18783 Main Street","state":"California"},"type":"Feature","geometry":{"type":"Point","coordinates":[-120.238629,37.963167]}},{"properties":{"city":"Redding","zip":"96001","geo_score":0.927,"filenumber":"446321","filetransactiontype":"Title &amp; Escrow","referringcustomer":"LandSafe_CA","id":"a6lmroe5dy4c","geo_precision":"range","address":"4453 Tralee Lane","state":"California"},"type":"Feature","geometry":{"type":"Point","coordinates":[-122.435397,40.571863]}},{"properties":{"city":"Rancho Cucamonga","zip":"91730","geo_score":1.0,"filenumber":"446333","filetransactiontype":"Escrow Only","referringcustomer":"LandSafe_CA","id":"a6lmrokxhs2a","geo_precision":"range","address":"8545 Richwood Dr","state":"California"},"type":"Feature","geometry":{"type":"Point","coordinates":[-117.618309,34.097528]}},{"properties":{"city":"Patterson","zip":"95363","geo_score":0.935,"filenumber":"446384","filetransactiontype":"Escrow Only","referringcustomer":"LandSafe_CA","id":"a6lmrolflpxf","geo_precision":"range","address":"147 Ivy Ave","state":"California"},"type":"Feature","geometry":{"type":"Point","coordinates":[-121.138893,37.483929]}},{"properties":{"city":"Salinas","zip":"93905","geo_score":0.922,"filenumber":"446198","filetransactiontype":"Title &amp; Escrow","referringcustomer":"LandSafe_CA","id":"a6lmrogm53aj","geo_precision":"range","address":"154 N Madeira Ave Unit #","state":"California"},"type":"Feature","geometry":{"type":"Point","coordinates":[-121.637646,36.679307]}},{"properties":{"city":"Salinas","zip":"93907","geo_score":0.913,"filenumber":"446208","filetransactiontype":"Title &amp; Escrow","referringcustomer":"LandSafe_CA","id":"a6lmroie4j32","geo_precision":"range","address":"717 Colton Dr","state":"California"},"type":"Feature","geometry":{"type":"Point","coordinates":[-121.664387,36.691318]}},{"properties":{"city":"Merced","zip":"95348","geo_score":0.683,"filenumber":"446222","filetransactiontype":"Title &amp; Escrow","referringcustomer":"LandSafe_CA","id":"a6lmro99pirm","geo_precision":"zip","address":"4673 Beckman Way","state":"California"},"type":"Feature","geometry":{"type":"Point","coordinates":[-120.50975,37.412623]}},{"properties":{"city":"Slymar","zip":"91342","geo_score":0.967,"filenumber":"446647","filetransactiontype":"Escrow Only","referringcustomer":"LandSafe_CA","id":"a6lmrofc5noe","geo_precision":"range","address":"12212 Edgecliff Ave","state":"California"},"type":"Feature","geometry":{"type":"Point","coordinates":[-118.464615,34.295489]}},{"properties":{"city":"Planada","zip":"95365","geo_score":1.0,"filenumber":"446681","filetransactiontype":"Title &amp; Escrow","referringcustomer":"LandSafe_CA","id":"a6lmroj8u1ac","geo_precision":"range","address":"313 Vallejo Ave","state":"California"},"type":"Feature","geometry":{"type":"Point","coordinates":[-120.318686,37.292277]}},{"properties":{"city":"Olivehurst","zip":"95961","geo_score":0.675,"filenumber":"446696","filetransactiontype":"Title &amp; Escrow","referringcustomer":"LandSafe_CA","id":"a6lmro78e1gr","geo_precision":"range","address":"1470 Tarrant Dr","state":"California"},"type":"Feature","geometry":{"type":"Point","coordinates":[-121.877549,39.742448]}},{"properties":{"city":"Watsonville","zip":"95076","geo_score":0.911,"filenumber":"446772","filetransactiontype":"Title &amp; Escrow","referringcustomer":"LandSafe_CA","id":"a6lmrodfkdqk","geo_precision":"range","address":"26 Brooklyn St","state":"California"},"type":"Feature","geometry":{"type":"Point","coordinates":[-121.750698,36.903479]}},{"properties":{"city":"Marysville","zip":"95901","geo_score":0.922,"filenumber":"446835","filetransactiontype":"Title &amp; Escrow","referringcustomer":"LandSafe_CA","id":"a6lmromcivw2","geo_precision":"range","address":"1798 Hile Ave","state":"California"},"type":"Feature","geometry":{"type":"Point","coordinates":[-121.551688,39.132162]}},{"properties":{"city":"Vallejo","zip":"94590","geo_score":0.919,"filenumber":"446847","filetransactiontype":"Escrow Only","referringcustomer":"LandSafe_CA","id":"a6lmrobj3fvy","geo_precision":"range","address":"421 Phelan Ave","state":"California"},"type":"Feature","geometry":{"type":"Point","coordinates":[-122.233252,38.10342]}},{"properties":{"city":"Brentwood","zip":"94513","geo_score":0.61,"filenumber":"446991","filetransactiontype":"Escrow Only","referringcustomer":"LandSafe_CA","id":"a6lmro8n2hu8","geo_precision":"street","address":"2204 Barcelona Court","state":"California"},"type":"Feature","geometry":{"type":"Point","coordinates":[-121.975609,37.786336]}},{"properties":{"city":"Santa Rosa","zip":"95405","geo_score":1.0,"filenumber":"447024","filetransactiontype":"Escrow Only","referringcustomer":"LandSafe_CA","id":"a6lmro9lpp1s","geo_precision":"range","address":"1473 Post Ranch Road","state":"California"},"type":"Feature","geometry":{"type":"Point","coordinates":[-122.683539,38.433596]}},{"properties":{"city":"CANYON LAKE","zip":"92587","geo_score":1.0,"filenumber":"424652","filetransactiontype":"Escrow Only","referringcustomer":"LandSafe_CA","id":"a6lmrolpwjaa","geo_precision":"range","address":"22652 CASTLE CRAG DRIVE","state":"California"},"type":"Feature","geometry":{"type":"Point","coordinates":[-117.263599,33.688426]}},{"properties":{"city":"SIMI VALLEY","zip":"93065","geo_score":0.922,"filenumber":"418963","filetransactiontype":"Escrow Only","referringcustomer":"LandSafe_CA","id":"a6lmrof3v5j4","geo_precision":"range","address":"2085 COVINGTON AVENUE","state":"California"},"type":"Feature","geometry":{"type":"Point","coordinates":[-118.757739,34.253771]}},{"properties":{"city":"Forest Falls","zip":"92339","geo_score":0.936,"filenumber":"447271","filetransactiontype":"Escrow Only","referringcustomer":"LandSafe_CA","id":"a6lmro8vnrf2","geo_precision":"range","address":"40180 Valley of the Falls Dr Unit 2","state":"California"},"type":"Feature","geometry":{"type":"Point","coordinates":[-116.92725,34.087088]}},{"properties":{"city":"Truckee","zip":"96161","geo_score":0.519,"filenumber":"447296","filetransactiontype":"Title &amp; Escrow","referringcustomer":"LandSafe_CA","id":"a6lmroihuqqy","geo_precision":"street","address":"Lot R60 Old Greenwood","state":"California"},"type":"Feature","geometry":{"type":"Point","coordinates":[-120.175295,39.364294]}},{"properties":{"city":"Placerville","zip":"95667","geo_score":0.854,"filenumber":"447310","filetransactiontype":"Title &amp; Escrow","referringcustomer":"LandSafe_CA","id":"a6lmrojgroys","geo_precision":"street","address":"5411 Oak Leaf Circle","state":"California"},"type":"Feature","geometry":{"type":"Point","coordinates":[-120.660376,38.668917]}},{"properties":{"city":"LONG BEACH","zip":"90802","geo_score":1.0,"filenumber":"423427","filetransactiontype":"Escrow Only","referringcustomer":"LandSafe_CA","id":"a6lmro7nufbz","geo_precision":"range","address":"443 NORTH CRYSTAL COURT","state":"California"},"type":"Feature","geometry":{"type":"Point","coordinates":[-118.198735,33.772504]}},{"properties":{"city":"West Sacramento","zip":"95691","geo_score":0.61,"filenumber":"447409","filetransactiontype":"Title &amp; Escrow","referringcustomer":"LandSafe_CA","id":"a6lmroinmigz","geo_precision":"street","address":"3790 Tahoe St","state":"California"},"type":"Feature","geometry":{"type":"Point","coordinates":[-121.116608,38.943546]}},{"properties":{"city":"CAMINO","zip":"95709","geo_score":0.916,"filenumber":"423032","filetransactiontype":"Title &amp; Escrow","referringcustomer":"LandSafe_CA","id":"a6lmrok4cmlx","geo_precision":"range","address":"5340 PONY EXPRESS TRAIL","state":"California"},"type":"Feature","geometry":{"type":"Point","coordinates":[-120.624391,38.749581]}},{"properties":{"city":"Los Angeles","zip":"91402","geo_score":0.919,"filenumber":"447545","filetransactiontype":"Escrow Only","referringcustomer":"LandSafe_CA","id":"a6lmrom9qlac","geo_precision":"range","address":"7901 Woodman Ave","state":"California"},"type":"Feature","geometry":{"type":"Point","coordinates":[-118.430972,34.215309]}},{"properties":{"city":"HAYWARD","zip":"94544","geo_score":0.707,"filenumber":"411222","filetransactiontype":"Escrow Only","referringcustomer":"LandSafe_CA","id":"a6lmro8qtylj","geo_precision":"street","address":"27162 TAMPA AVENUE UNIT # 72","state":"California"},"type":"Feature","geometry":{"type":"Point","coordinates":[-122.078006,37.635967]}},{"properties":{"city":"San Diego","zip":"92122","geo_score":0.439,"filenumber":"447659","filetransactiontype":"Escrow Only","referringcustomer":"LandSafe_CA","id":"a6lmro9a6li8","geo_precision":"street","address":"4080 Rosenda Court, Unit 212","state":"California"},"type":"Feature","geometry":{"type":"Point","coordinates":[-117.229837,32.854504]}},{"properties":{"city":"Indio","zip":"92201","geo_score":0.509,"filenumber":"447691","filetransactiontype":"Escrow Only","referringcustomer":"LandSafe_CA","id":"a6lmrobw59tn","geo_precision":"street","address":"45-160 Banff Springs St","state":"California"},"type":"Feature","geometry":{"type":"Point","coordinates":[-114.598212,33.610336]}},{"properties":{"city":"San Rafael","zip":"94901","geo_score":1.0,"filenumber":"447730","filetransactiontype":"Title &amp; Escrow","referringcustomer":"LandSafe_CA","id":"a6lmroj4aqap","geo_precision":"range","address":"17 Hillcrest Dr","state":"California"},"type":"Feature","geometry":{"type":"Point","coordinates":[-122.524486,37.976257]}},{"properties":{"city":"Clearlake Oaks","zip":"95423","geo_score":1.0,"filenumber":"447749","filetransactiontype":"Title &amp; Escrow","referringcustomer":"LandSafe_CA","id":"a6lmro9t1095","geo_precision":"range","address":"12881 Lakeview Dr","state":"California"},"type":"Feature","geometry":{"type":"Point","coordinates":[-122.67043,39.027673]}},{"properties":{"city":"Oakley","zip":"94561","geo_score":0.434,"filenumber":"447765","filetransactiontype":"Escrow Only","referringcustomer":"LandSafe_CA","id":"a6lmrohysgh3","geo_precision":"street","address":"730 Solitude Dr","state":"California"},"type":"Feature","geometry":{"type":"Point","coordinates":[-121.94745,37.713186]}},{"properties":{"city":"COMPTON","zip":"90222","geo_score":0.92,"filenumber":"418545","filetransactiontype":"Escrow Only","referringcustomer":"LandSafe_CA","id":"a6lmrok8looe","geo_precision":"range","address":"1916 NORTH ANZAC AVENUE","state":"California"},"type":"Feature","geometry":{"type":"Point","coordinates":[-118.238032,33.909876]}},{"properties":{"city":"Stockton","zip":null,"geo_score":0.447,"filenumber":"425921","filetransactiontype":"Title &amp; Escrow","referringcustomer":"LandSafe_CA","id":"a6lmrofbzjhk","geo_precision":"street","address":"2610 Cerruti Street","state":"California"},"type":"Feature","geometry":{"type":"Point","coordinates":[-121.314898,37.907075]}},{"properties":{"city":"SAN JOSE","zip":"95127","geo_score":0.917,"filenumber":"445191","filetransactiontype":"Escrow Only","referringcustomer":"LandSafe_CA","id":"a6lmrok4d5te","geo_precision":"range","address":"3450 EAST HILLS DRIVE","state":"California"},"type":"Feature","geometry":{"type":"Point","coordinates":[-121.819653,37.36576]}},{"properties":{"city":"Live Oak","zip":"95953","geo_score":0.522,"filenumber":"447954","filetransactiontype":"Title &amp; Escrow","referringcustomer":"LandSafe_CA","id":"a6lmroab9rrv","geo_precision":"street","address":"9690 Collier Ave","state":"California"},"type":"Feature","geometry":{"type":"Point","coordinates":[-120.990343,39.21713]}},{"properties":{"city":"SAN JACINTO","zip":"92583","geo_score":0.472,"filenumber":"413453","filetransactiontype":"Escrow Only","referringcustomer":"LandSafe_CA","id":"a6lmro8e7rdz","geo_precision":"street","address":"475 JONNIE WAY","state":"California"},"type":"Feature","geometry":{"type":"Point","coordinates":[-116.936039,33.773671]}},{"properties":{"city":"Irvine","zip":"92612","geo_score":1.0,"filenumber":"448138","filetransactiontype":"Escrow Only","referringcustomer":"LandSafe_CA","id":"a6lmrojzrg4i","geo_precision":"range","address":"7 Acacia Tree Ln","state":"California"},"type":"Feature","geometry":{"type":"Point","coordinates":[-117.814666,33.6603]}},{"properties":{"city":"Chico","zip":"95926","geo_score":0.585,"filenumber":"448186","filetransactiontype":"Title &amp; Escrow","referringcustomer":"LandSafe_CA","id":"a6lmrojhd02a","geo_precision":"zip","address":"3010 Hancock Dr","state":"California"},"type":"Feature","geometry":{"type":"Point","coordinates":[-121.957202,39.779604]}},{"properties":{"city":"Rancho Cordova","zip":"95742","geo_score":0.53,"filenumber":"448218","filetransactiontype":"Escrow Only","referringcustomer":"LandSafe_CA","id":"a6lmro907vez","geo_precision":"street","address":"4325 Hartland Way","state":"California"},"type":"Feature","geometry":{"type":"Point","coordinates":[-121.369249,38.77673]}},{"properties":{"city":"Madera","zip":"93637","geo_score":0.902,"filenumber":"448320","filetransactiontype":"Title &amp; Escrow","referringcustomer":"LandSafe_CA","id":"a6lmrohultnf","geo_precision":"range","address":"27437 San Carlos Ave","state":"California"},"type":"Feature","geometry":{"type":"Point","coordinates":[-120.048095,36.934018]}},{"properties":{"city":"San Jacinto","zip":null,"geo_score":0.464,"filenumber":"420433","filetransactiontype":"Escrow Only","referringcustomer":"LandSafe_CA","id":"a6lmroj6lf29","geo_precision":"street","address":"103 San Remo Avenue","state":"California"},"type":"Feature","geometry":{"type":"Point","coordinates":[-124.145952,40.796532]}},{"properties":{"city":"Porterville","zip":"93257","geo_score":0.92,"filenumber":"448435","filetransactiontype":"Escrow Only","referringcustomer":"LandSafe_CA","id":"a6lmrolz44c0","geo_precision":"range","address":"966 N Esther St","state":"California"},"type":"Feature","geometry":{"type":"Point","coordinates":[-119.00707,36.083324]}},{"properties":{"city":"Richmond","zip":"94804","geo_score":1.0,"filenumber":"448433","filetransactiontype":"Escrow Only","referringcustomer":"LandSafe_CA","id":"a6lmrokmlanb","geo_precision":"range","address":"3421 Ohio Ave","state":"California"},"type":"Feature","geometry":{"type":"Point","coordinates":[-122.337534,37.930869]}},{"properties":{"city":"San Rafael","zip":"94901","geo_score":0.951,"filenumber":"448451","filetransactiontype":"Title &amp; Escrow","referringcustomer":"LandSafe_CA","id":"a6lmrocao04y","geo_precision":"range","address":"201 Chula Vista Dr","state":"California"},"type":"Feature","geometry":{"type":"Point","coordinates":[-122.532291,37.988702]}},{"properties":{"city":"Redlands","zip":"92374","geo_score":0.6,"filenumber":"448466","filetransactiontype":"Escrow Only","referringcustomer":"LandSafe_CA","id":"a6lmrojecpg9","geo_precision":"street","address":"1600 Sundown Court","state":"California"},"type":"Feature","geometry":{"type":"Point","coordinates":[-117.231219,34.063551]}},{"properties":{"city":"Clovis","zip":"93619","geo_score":0.708,"filenumber":"448502","filetransactiontype":"Escrow Only","referringcustomer":"LandSafe_CA","id":"a6lmro8v2lx9","geo_precision":"street","address":"1736 North Hughes Ave","state":"California"},"type":"Feature","geometry":{"type":"Point","coordinates":[-119.700147,36.844177]}},{"properties":{"city":"Livingston","zip":"95334","geo_score":1.0,"filenumber":"448515","filetransactiontype":"Title &amp; Escrow","referringcustomer":"LandSafe_CA","id":"a6lmroc3n949","geo_precision":"range","address":"1037 Sunrise Ct","state":"California"},"type":"Feature","geometry":{"type":"Point","coordinates":[-120.727248,37.380438]}},{"properties":{"city":"Mather","zip":"95655","geo_score":0.639,"filenumber":"448570","filetransactiontype":"Escrow Only","referringcustomer":"LandSafe_CA","id":"a6lmroe3ouzh","geo_precision":"zip","address":"4368 Aubergine Way","state":"California"},"type":"Feature","geometry":{"type":"Point","coordinates":[-121.296894,38.566573]}},{"properties":{"city":"VALENCIA","zip":"91354","geo_score":0.683,"filenumber":"423054","filetransactiontype":"Escrow Only","referringcustomer":"LandSafe_CA","id":"a6lmrogjoceo","geo_precision":"zip","address":"23739 WEST STAGECOAST WAY","state":"California"},"type":"Feature","geometry":{"type":"Point","coordinates":[-118.298662,33.786594]}},{"properties":{"city":"Bakersfield","zip":"93308","geo_score":0.911,"filenumber":"448634","filetransactiontype":"Escrow Only","referringcustomer":"LandSafe_CA","id":"a6lmroichr6g","geo_precision":"range","address":"1201 Castaic Ave","state":"California"},"type":"Feature","geometry":{"type":"Point","coordinates":[-119.0456,35.418897]}},{"properties":{"city":"Vallejo","zip":"94591","geo_score":1.0,"filenumber":"448637","filetransactiontype":"Escrow Only","referringcustomer":"LandSafe_CA","id":"a6lmroc95rym","geo_precision":"range","address":"109 Heartwood Court","state":"California"},"type":"Feature","geometry":{"type":"Point","coordinates":[-122.211362,38.104814]}},{"properties":{"city":"Needles","zip":"92363","geo_score":0.815,"filenumber":"448685","filetransactiontype":"Escrow Only","referringcustomer":"LandSafe_CA","id":"a6lmrokmqpxu","geo_precision":"range","address":"2040 Parkway St","state":"California"},"type":"Feature","geometry":{"type":"Point","coordinates":[-114.625311,34.833213]}},{"properties":{"city":"Granite Bay","zip":"95746","geo_score":1.0,"filenumber":"448643","filetransactiontype":"Escrow Only","referringcustomer":"LandSafe_CA","id":"a6lmroea165i","geo_precision":"range","address":"9274 Muir Way","state":"California"},"type":"Feature","geometry":{"type":"Point","coordinates":[-121.175048,38.729692]}},{"properties":{"city":"Pico Rivera","zip":"90660","geo_score":0.941,"filenumber":"448690","filetransactiontype":"Escrow Only","referringcustomer":"LandSafe_CA","id":"a6lmroelo4g7","geo_precision":"range","address":"7770 Crossway Dr","state":"California"},"type":"Feature","geometry":{"type":"Point","coordinates":[-118.10854,33.972853]}},{"properties":{"city":"Landers","zip":"92285","geo_score":0.91,"filenumber":"448689","filetransactiontype":"Escrow Only","referringcustomer":"LandSafe_CA","id":"a6lmroak4iht","geo_precision":"range","address":"59621 Stearman Rd","state":"California"},"type":"Feature","geometry":{"type":"Point","coordinates":[-116.361981,34.273414]}},{"properties":{"city":"LOS ANGELES GARDENA AREA","zip":"90247","geo_score":0.926,"filenumber":"421826","filetransactiontype":"Escrow Only","referringcustomer":"LandSafe_CA","id":"a6lmrod8yf4u","geo_precision":"range","address":"817 WEST 145TH STREET","state":"California"},"type":"Feature","geometry":{"type":"Point","coordinates":[-118.289578,33.900369]}},{"properties":{"city":"San Diego","zip":"92115","geo_score":0.805,"filenumber":"448742","filetransactiontype":"Escrow Only","referringcustomer":"LandSafe_CA","id":"a6lmro9qxvjb","geo_precision":"street","address":"5046 Collwood Way, 58","state":"California"},"type":"Feature","geometry":{"type":"Point","coordinates":[-117.084796,32.768023]}},{"properties":{"city":"Santa Rosa","zip":"95407","geo_score":0.492,"filenumber":"448751","filetransactiontype":"Escrow Only","referringcustomer":"LandSafe_CA","id":"a6lmroabg3r6","geo_precision":"street","address":"843 David Lee Court","state":"California"},"type":"Feature","geometry":{"type":"Point","coordinates":[-122.730992,38.417555]}},{"properties":{"city":"Concord","zip":"94518","geo_score":1.0,"filenumber":"448771","filetransactiontype":"Escrow Only","referringcustomer":"LandSafe_CA","id":"a6lmroeaw0nf","geo_precision":"range","address":"917 Honora Ave","state":"California"},"type":"Feature","geometry":{"type":"Point","coordinates":[-122.028033,37.945747]}},{"properties":{"city":"PASO ROBLES","zip":"93446","geo_score":0.916,"filenumber":"425105","filetransactiontype":"Title &amp; Escrow","referringcustomer":"LandSafe_CA","id":"a6lmrodzq29r","geo_precision":"range","address":"4255 JARDINE ROAD","state":"California"},"type":"Feature","geometry":{"type":"Point","coordinates":[-120.605608,35.663235]}},{"properties":{"city":"ROYAL OAKS","zip":"95076","geo_score":0.924,"filenumber":"440827","filetransactiontype":"Title &amp; Escrow","referringcustomer":"LandSafe_CA","id":"a6lmro76clzd","geo_precision":"range","address":"12745 FAIR WAY","state":"California"},"type":"Feature","geometry":{"type":"Point","coordinates":[-121.758163,36.875828]}},{"properties":{"city":"San Diego","zip":"92113","geo_score":1.0,"filenumber":"448784","filetransactiontype":"Escrow Only","referringcustomer":"LandSafe_CA","id":"a6lmrojzl87g","geo_precision":"range","address":"3873-3875 Birch St","state":"California"},"type":"Feature","geometry":{"type":"Point","coordinates":[-117.111029,32.686591]}},{"properties":{"city":"Stockton","zip":"95210","geo_score":1.0,"filenumber":"448791","filetransactiontype":"Escrow Only","referringcustomer":"LandSafe_CA","id":"a6lmrobemdcb","geo_precision":"range","address":"8152 Lemans Ave","state":"California"},"type":"Feature","geometry":{"type":"Point","coordinates":[-121.288128,38.023594]}},{"properties":{"city":"Chula Vista","zip":"91913","geo_score":1.0,"filenumber":"448798","filetransactiontype":"Escrow Only","referringcustomer":"LandSafe_CA","id":"a6lmrolytuzg","geo_precision":"range","address":"1768 Sage Tree Court","state":"California"},"type":"Feature","geometry":{"type":"Point","coordinates":[-116.984275,32.636617]}},{"properties":{"city":"Bakersfield","zip":"93308","geo_score":0.911,"filenumber":"448803","filetransactiontype":"Escrow Only","referringcustomer":"LandSafe_CA","id":"a6lmro7y6x5o","geo_precision":"range","address":"1004 Sheridan Ave","state":"California"},"type":"Feature","geometry":{"type":"Point","coordinates":[-119.011149,35.431171]}},{"properties":{"city":"Selma","zip":"93662","geo_score":0.912,"filenumber":"448861","filetransactiontype":"Escrow Only","referringcustomer":"LandSafe_CA","id":"a6lmroilw7cd","geo_precision":"range","address":"2626 A Street","state":"California"},"type":"Feature","geometry":{"type":"Point","coordinates":[-119.609584,36.571996]}},{"properties":{"city":"Dinuba","zip":"93618","geo_score":0.919,"filenumber":"448871","filetransactiontype":"Escrow Only","referringcustomer":"LandSafe_CA","id":"a6lmro7ozhud","geo_precision":"range","address":"1053 Cara Rd","state":"California"},"type":"Feature","geometry":{"type":"Point","coordinates":[-119.39876,36.554654]}},{"properties":{"city":"Valley Springs","zip":"95252","geo_score":0.917,"filenumber":"448920","filetransactiontype":"Title &amp; Escrow","referringcustomer":"LandSafe_CA","id":"a6lmrodz8u56","geo_precision":"range","address":"4251 Bartelink Dr","state":"California"},"type":"Feature","geometry":{"type":"Point","coordinates":[-120.844895,38.136617]}},{"properties":{"city":"Castro Valley","zip":"94546","geo_score":1.0,"filenumber":"449033","filetransactiontype":"Escrow Only","referringcustomer":"LandSafe_CA","id":"a6lmrodwvn9l","geo_precision":"range","address":"3577 Jerald Court","state":"California"},"type":"Feature","geometry":{"type":"Point","coordinates":[-122.087508,37.708156]}},{"properties":{"city":"La Quinta","zip":"92253","geo_score":0.565,"filenumber":"449025","filetransactiontype":"Escrow Only","referringcustomer":"LandSafe_CA","id":"a6lmro5vh9ni","geo_precision":"street","address":"60-359 Honeysuckle St","state":"California"},"type":"Feature","geometry":{"type":"Point","coordinates":[-116.338262,33.758537]}},{"properties":{"city":"San Diego","zip":"92129","geo_score":1.0,"filenumber":"449052","filetransactiontype":"Escrow Only","referringcustomer":"LandSafe_CA","id":"a6lmro79kip8","geo_precision":"range","address":"13780 Via Rimini","state":"California"},"type":"Feature","geometry":{"type":"Point","coordinates":[-117.098606,32.96579]}},{"properties":{"city":"Citrus Heights","zip":"95621","geo_score":1.0,"filenumber":"449054","filetransactiontype":"Escrow Only","referringcustomer":"LandSafe_CA","id":"a6lmrolermlk","geo_precision":"range","address":"7319 Villa Del Sol Ln","state":"California"},"type":"Feature","geometry":{"type":"Point","coordinates":[-121.292915,38.671064]}},{"properties":{"city":"North Highlands","zip":"95660","geo_score":0.916,"filenumber":"449202","filetransactiontype":"Escrow Only","referringcustomer":"LandSafe_CA","id":"a6lmrom2infn","geo_precision":"range","address":"5728 Rosario Blvd","state":"California"},"type":"Feature","geometry":{"type":"Point","coordinates":[-121.377037,38.671566]}},{"properties":{"city":"Esparto","zip":"95627","geo_score":1.0,"filenumber":"449219","filetransactiontype":"Title &amp; Escrow","referringcustomer":"LandSafe_CA","id":"a6lmroayqsud","geo_precision":"range","address":"26418 Capay St","state":"California"},"type":"Feature","geometry":{"type":"Point","coordinates":[-122.019342,38.694843]}},{"properties":{"city":"Stockton","zip":"95209","geo_score":1.0,"filenumber":"449228","filetransactiontype":"Escrow Only","referringcustomer":"LandSafe_CA","id":"a6lmro9kgy2i","geo_precision":"range","address":"10638 Hollow Tree Ln","state":"California"},"type":"Feature","geometry":{"type":"Point","coordinates":[-121.345346,38.052247]}},{"properties":{"city":"Soledad","zip":"93960","geo_score":0.916,"filenumber":"449379","filetransactiontype":"Title &amp; Escrow","referringcustomer":"LandSafe_CA","id":"a6lmroexbt7i","geo_precision":"range","address":"723 Portola St","state":"California"},"type":"Feature","geometry":{"type":"Point","coordinates":[-121.321759,36.44169]}},{"properties":{"city":"Stockton","zip":"95206","geo_score":0.902,"filenumber":"449531","filetransactiontype":"Escrow Only","referringcustomer":"LandSafe_CA","id":"a6lmroe7erie","geo_precision":"range","address":"5117 Jetty Dr","state":"California"},"type":"Feature","geometry":{"type":"Point","coordinates":[-121.325615,37.898211]}},{"properties":{"city":"El Sobrante","zip":"94803","geo_score":1.0,"filenumber":"449569","filetransactiontype":"Escrow Only","referringcustomer":"LandSafe_CA","id":"a6lmro7iqfv1","geo_precision":"range","address":"4728 San Pablo Dam Rd","state":"California"},"type":"Feature","geometry":{"type":"Point","coordinates":[-122.297026,37.964519]}},{"properties":{"city":"Agoura Hills","zip":"91301","geo_score":0.938,"filenumber":"449606","filetransactiontype":"Escrow Only","referringcustomer":"LandSafe_CA","id":"a6lmro7o39p7","geo_precision":"range","address":"6475 Chesebro Rd","state":"California"},"type":"Feature","geometry":{"type":"Point","coordinates":[-118.737942,34.165425]}},{"properties":{"city":"Santa Clarita","zip":"91350","geo_score":0.505,"filenumber":"449612","filetransactiontype":"Escrow Only","referringcustomer":"LandSafe_CA","id":"a6lmrog0om51","geo_precision":"street","address":"25419 Calcutta Pass Ln","state":"California"},"type":"Feature","geometry":{"type":"Point","coordinates":[-118.423589,34.312142]}},{"properties":{"city":"River Pines","zip":"95675","geo_score":0.512,"filenumber":"449618","filetransactiontype":"Title &amp; Escrow","referringcustomer":"LandSafe_CA","id":"a6lmrofpgbb0","geo_precision":"street","address":"22860 Iris Ln","state":"California"},"type":"Feature","geometry":{"type":"Point","coordinates":[-121.288812,38.682341]}},{"properties":{"city":"Thousand Palms","zip":"92276","geo_score":0.941,"filenumber":"449748","filetransactiontype":"Escrow Only","referringcustomer":"LandSafe_CA","id":"a6lmro8eweab","geo_precision":"range","address":"30805 Rose View Ln","state":"California"},"type":"Feature","geometry":{"type":"Point","coordinates":[-116.393075,33.825116]}},{"properties":{"city":"Riverside","zip":"92504","geo_score":0.902,"filenumber":"449742","filetransactiontype":"Escrow Only","referringcustomer":"LandSafe_CA","id":"a6lmroda0bbj","geo_precision":"range","address":"2824 Sonora Pl","state":"California"},"type":"Feature","geometry":{"type":"Point","coordinates":[-117.396428,33.929267]}},{"properties":{"city":"Cambria","zip":"93428","geo_score":1.0,"filenumber":"449781","filetransactiontype":"Escrow Only","referringcustomer":"LandSafe_CA","id":"a6lmroh7dl5i","geo_precision":"range","address":"2157 Wilton Dr","state":"California"},"type":"Feature","geometry":{"type":"Point","coordinates":[-121.083634,35.556019]}},{"properties":{"city":"POLLOCK PINES","zip":"95726","geo_score":0.919,"filenumber":"422654","filetransactiontype":"Title &amp; Escrow","referringcustomer":"LandSafe_CA","id":"a6lmrolmv9dj","geo_precision":"range","address":"6290 RIDGEWAY DRIVE","state":"California"},"type":"Feature","geometry":{"type":"Point","coordinates":[-120.584411,38.758564]}},{"properties":{"city":"Visalia","zip":"93292","geo_score":0.963,"filenumber":"449955","filetransactiontype":"Escrow Only","referringcustomer":"LandSafe_CA","id":"a6lmrodhyxst","geo_precision":"range","address":"3729 E Stapp Ct","state":"California"},"type":"Feature","geometry":{"type":"Point","coordinates":[-119.250856,36.329823]}},{"properties":{"city":"Napa","zip":"94558","geo_score":0.92,"filenumber":"449988","filetransactiontype":"Escrow Only","referringcustomer":"LandSafe_CA","id":"a6lmrocx8ld3","geo_precision":"range","address":"988 Elnora Ct","state":"California"},"type":"Feature","geometry":{"type":"Point","coordinates":[-122.293921,38.317216]}},{"properties":{"city":"Yuba City","zip":"95991","geo_score":0.911,"filenumber":"450063","filetransactiontype":"Title &amp; Escrow","referringcustomer":"LandSafe_CA","id":"a6lmroht2b96","geo_precision":"range","address":"189 South Barrett Road","state":"California"},"type":"Feature","geometry":{"type":"Point","coordinates":[-121.63107,39.125134]}},{"properties":{"city":"Salton City","zip":"92275","geo_score":0.49,"filenumber":"450134","filetransactiontype":"Title &amp; Escrow","referringcustomer":"LandSafe_CA","id":"a6lmrol1h6d3","geo_precision":"street","address":"1272 Malat Ave","state":"California"},"type":"Feature","geometry":{"type":"Point","coordinates":[-115.979239,33.333101]}},{"properties":{"city":"Union City","zip":"94587","geo_score":0.913,"filenumber":"450139","filetransactiontype":"Escrow Only","referringcustomer":"LandSafe_CA","id":"a6lmrofnpchv","geo_precision":"range","address":"34963 Skylark Dr","state":"California"},"type":"Feature","geometry":{"type":"Point","coordinates":[-122.01344,37.58413]}},{"properties":{"city":"Winnetka","zip":"91306","geo_score":1.0,"filenumber":"450226","filetransactiontype":"Escrow Only","referringcustomer":"LandSafe_CA","id":"a6lmrom5md0u","geo_precision":"range","address":"20407 Parthenia St","state":"California"},"type":"Feature","geometry":{"type":"Point","coordinates":[-118.57791,34.228211]}},{"properties":{"city":"San Jose","zip":"95110","geo_score":1.0,"filenumber":"450244","filetransactiontype":"Escrow Only","referringcustomer":"LandSafe_CA","id":"a6lmrod2t9q5","geo_precision":"range","address":"1094 Vine St","state":"California"},"type":"Feature","geometry":{"type":"Point","coordinates":[-121.882251,37.317023]}},{"properties":{"city":"San Jose","zip":"95111","geo_score":0.475,"filenumber":"450458","filetransactiontype":"Escrow Only","referringcustomer":"LandSafe_CA","id":"a6lmroc8fk1y","geo_precision":"street","address":"2625 Corde Terra Cir","state":"California"},"type":"Feature","geometry":{"type":"Point","coordinates":[-121.986727,37.320184]}},{"properties":{"city":"San Bernardino","zip":"92404","geo_score":0.6,"filenumber":"450464","filetransactiontype":"Escrow Only","referringcustomer":"LandSafe_CA","id":"a6lmroh5udlp","geo_precision":"zip","address":"7053 Tippercanoe Ave","state":"California"},"type":"Feature","geometry":{"type":"Point","coordinates":[-117.243375,34.148899]}},{"properties":{"city":"Vacaville","zip":"95687","geo_score":1.0,"filenumber":"450479","filetransactiontype":"Escrow Only","referringcustomer":"LandSafe_CA","id":"a6lmrok6bwyi","geo_precision":"range","address":"666 Arcadia Dr","state":"California"},"type":"Feature","geometry":{"type":"Point","coordinates":[-121.955208,38.359662]}},{"properties":{"city":"Scotts Valley","zip":"95066","geo_score":1.0,"filenumber":"450583","filetransactiontype":"Escrow Only","referringcustomer":"LandSafe_CA","id":"a6lmroi9rzds","geo_precision":"range","address":"2 Casa Way","state":"California"},"type":"Feature","geometry":{"type":"Point","coordinates":[-122.011351,37.064733]}},{"properties":{"city":"RODEO","zip":"94572","geo_score":0.796,"filenumber":"414599","filetransactiontype":"Escrow Only","referringcustomer":"LandSafe_CA","id":"a6lmrolsqasg","geo_precision":"range","address":"821 3RD STREET","state":"California"},"type":"Feature","geometry":{"type":"Point","coordinates":[-122.264869,38.035133]}},{"properties":{"city":"MURRIETA","zip":"92563","geo_score":0.48,"filenumber":"417496","filetransactiontype":"Escrow Only","referringcustomer":"LandSafe_CA","id":"a6lmrokgcmg8","geo_precision":"street","address":"33772 SALVIA LANE","state":"California"},"type":"Feature","geometry":{"type":"Point","coordinates":[-117.176035,33.731166]}},{"properties":{"city":"INDIO","zip":"92201","geo_score":0.911,"filenumber":"419357","filetransactiontype":"Escrow Only","referringcustomer":"LandSafe_CA","id":"a6lmroh0zrla","geo_precision":"range","address":"81229 PALMYRA AVENUE","state":"California"},"type":"Feature","geometry":{"type":"Point","coordinates":[-116.24699,33.725297]}},{"properties":{"city":"RIVERSIDE","zip":"92507","geo_score":0.924,"filenumber":"417044","filetransactiontype":"Escrow Only","referringcustomer":"LandSafe_CA","id":"a6lmro89yvwl","geo_precision":"range","address":"3636 KANSAS AVENUE","state":"California"},"type":"Feature","geometry":{"type":"Point","coordinates":[-117.35717,33.977809]}},{"properties":{"city":"PALM SPRINGS","zip":"92262","geo_score":0.488,"filenumber":"420447","filetransactiontype":"Escrow Only","referringcustomer":"LandSafe_CA","id":"a6lmrocqwtyc","geo_precision":"street","address":"288 CALLE LA SOLEDAD","state":"California"},"type":"Feature","geometry":{"type":"Point","coordinates":[-116.544059,33.804987]}},{"properties":{"city":"Palmdale","zip":"93591","geo_score":0.958,"filenumber":"450766","filetransactiontype":"Escrow Only","referringcustomer":"LandSafe_CA","id":"a6lmrojikp8d","geo_precision":"range","address":"17314 Laredo Vista Ave","state":"California"},"type":"Feature","geometry":{"type":"Point","coordinates":[-117.821755,34.60043]}},{"properties":{"city":"San Jose","zip":"95002","geo_score":0.613,"filenumber":"450808","filetransactiontype":"Escrow Only","referringcustomer":"LandSafe_CA","id":"a6lmroaqa3xp","geo_precision":"zip","address":"015-05-138","state":"California"},"type":"Feature","geometry":{"type":"Point","coordinates":[-121.705327,37.189396]}},{"properties":{"city":"YUCCA VALLEY","zip":"92284","geo_score":1.0,"filenumber":"423037","filetransactiontype":"Escrow Only","referringcustomer":"LandSafe_CA","id":"a6lmrofryrt1","geo_precision":"range","address":"7457 LUCERNE VISTA","state":"California"},"type":"Feature","geometry":{"type":"Point","coordinates":[-116.40825,34.116983]}},{"properties":{"city":"FONTANA","zip":"92336","geo_score":0.61,"filenumber":"421493","filetransactiontype":"Escrow Only","referringcustomer":"LandSafe_CA","id":"a6lmro96o6nc","geo_precision":"street","address":"13421 SUMTER STREET","state":"California"},"type":"Feature","geometry":{"type":"Point","coordinates":[-116.69635,35.26827]}},{"properties":{"city":"APPLE VALLEY","zip":"92307","geo_score":0.917,"filenumber":"415891","filetransactiontype":"Escrow Only","referringcustomer":"LandSafe_CA","id":"a6lmroi3weaf","geo_precision":"range","address":"13822 PAWNEE ROAD","state":"California"},"type":"Feature","geometry":{"type":"Point","coordinates":[-117.18525,34.502791]}},{"properties":{"city":"SAN JOSE","zip":"95133","geo_score":0.887,"filenumber":"422291","filetransactiontype":"Escrow Only","referringcustomer":"LandSafe_CA","id":"a6lmro96upbr","geo_precision":"range","address":"807 WYMAN WAY UNIT 4","state":"California"},"type":"Feature","geometry":{"type":"Point","coordinates":[-121.854734,37.378779]}},{"properties":{"city":"SACRAMENTO","zip":"95823","geo_score":0.838,"filenumber":"423629","filetransactiontype":"Escrow Only","referringcustomer":"LandSafe_CA","id":"a6lmrola46fu","geo_precision":"range","address":"5101 53RD AVENUE","state":"California"},"type":"Feature","geometry":{"type":"Point","coordinates":[-121.445601,38.503485]}},{"properties":{"city":"Fremont","zip":"94538","geo_score":1.0,"filenumber":"450817","filetransactiontype":"Escrow Only","referringcustomer":"LandSafe_CA","id":"a6lmrobgr7ow","geo_precision":"range","address":"39960 Michelle St","state":"California"},"type":"Feature","geometry":{"type":"Point","coordinates":[-121.969232,37.545204]}},{"properties":{"city":"Isleton","zip":"95641","geo_score":0.902,"filenumber":"450858","filetransactiontype":"Escrow Only","referringcustomer":"LandSafe_CA","id":"a6lmrokto668","geo_precision":"range","address":"24 4th Ave","state":"California"},"type":"Feature","geometry":{"type":"Point","coordinates":[-121.616679,38.160904]}},{"properties":{"city":"Victorville","zip":"92394","geo_score":1.0,"filenumber":"450863","filetransactiontype":"Escrow Only","referringcustomer":"LandSafe_CA","id":"a6lmroky3gv0","geo_precision":"range","address":"15786 Arbolada Ln","state":"California"},"type":"Feature","geometry":{"type":"Point","coordinates":[-117.31994,34.535045]}},{"properties":{"city":"Sylmar","zip":"91342","geo_score":0.805,"filenumber":"450900","filetransactiontype":"Escrow Only","referringcustomer":"LandSafe_CA","id":"a6lmrokk3viw","geo_precision":"street","address":"12563 Bradley Ave # 10","state":"California"},"type":"Feature","geometry":{"type":"Point","coordinates":[-118.445626,34.294512]}},{"properties":{"city":"LAKEWOOD","zip":"90713","geo_score":1.0,"filenumber":"418051","filetransactiontype":"Escrow Only","referringcustomer":"LandSafe_CA","id":"a6lmrom4697f","geo_precision":"range","address":"6920 TANGLEWOOD STREET","state":"California"},"type":"Feature","geometry":{"type":"Point","coordinates":[-118.098996,33.841206]}},{"properties":{"city":"Ojai","zip":"93022","geo_score":0.919,"filenumber":"451034","filetransactiontype":"Escrow Only","referringcustomer":"LandSafe_CA","id":"a6lmro8u6j50","geo_precision":"range","address":"159 Bundren St","state":"California"},"type":"Feature","geometry":{"type":"Point","coordinates":[-119.300399,34.399232]}},{"properties":{"city":"Clovis","zip":"93611","geo_score":0.977,"filenumber":"451054","filetransactiontype":"Escrow Only","referringcustomer":"LandSafe_CA","id":"a6lmrocnky1u","geo_precision":"range","address":"1488 Getyysburg Ave","state":"California"},"type":"Feature","geometry":{"type":"Point","coordinates":[-119.688982,36.801234]}},{"properties":{"city":"Santa Ana","zip":"92706","geo_score":1.0,"filenumber":"451001","filetransactiontype":"Escrow Only","referringcustomer":"LandSafe_CA","id":"a6lmrolhji23","geo_precision":"range","address":"926 W Orange Rd","state":"California"},"type":"Feature","geometry":{"type":"Point","coordinates":[-117.87703,33.776734]}},{"properties":{"city":"Oxnard","zip":"93033","geo_score":1.0,"filenumber":"451057","filetransactiontype":"Escrow Only","referringcustomer":"LandSafe_CA","id":"a6lmrodmrm08","geo_precision":"range","address":"603 E Poplar St","state":"California"},"type":"Feature","geometry":{"type":"Point","coordinates":[-119.171096,34.174192]}},{"properties":{"city":"Lake Elsinore","zip":"92532","geo_score":0.902,"filenumber":"451180","filetransactiontype":"Escrow Only","referringcustomer":"LandSafe_CA","id":"a6lmro5vyodq","geo_precision":"range","address":"4 Corte Rivera","state":"California"},"type":"Feature","geometry":{"type":"Point","coordinates":[-117.289816,33.677293]}},{"properties":{"city":"Oxnard","zip":"93036","geo_score":1.0,"filenumber":"451202","filetransactiontype":"Escrow Only","referringcustomer":"LandSafe_CA","id":"a6lmroe15w5w","geo_precision":"range","address":"2601 Upper Bay Dr","state":"California"},"type":"Feature","geometry":{"type":"Point","coordinates":[-119.188095,34.235353]}},{"properties":{"city":"Citrus Heights","zip":"95621","geo_score":1.0,"filenumber":"451174","filetransactiontype":"Escrow Only","referringcustomer":"LandSafe_CA","id":"a6lmrods56wa","geo_precision":"range","address":"7436 Kanai Ave","state":"California"},"type":"Feature","geometry":{"type":"Point","coordinates":[-121.29262,38.701361]}},{"properties":{"city":"Mission Viejo","zip":"92691","geo_score":1.0,"filenumber":"451193","filetransactiontype":"Escrow Only","referringcustomer":"LandSafe_CA","id":"a6lmrod99ax4","geo_precision":"range","address":"26877 Calle Alcala","state":"California"},"type":"Feature","geometry":{"type":"Point","coordinates":[-117.66154,33.623971]}},{"properties":{"city":"San Leandro","zip":"94578","geo_score":1.0,"filenumber":"451198","filetransactiontype":"Escrow Only","referringcustomer":"LandSafe_CA","id":"a6lmro9lcj5z","geo_precision":"range","address":"16668 Winding Blvd","state":"California"},"type":"Feature","geometry":{"type":"Point","coordinates":[-122.10134,37.699986]}},{"properties":{"city":"Rancho Cucamonga","zip":"91739","geo_score":0.488,"filenumber":"451292","filetransactiontype":"Escrow Only","referringcustomer":"LandSafe_CA","id":"a6lmrod4sjud","geo_precision":"street","address":"12367 Green Tree Dr","state":"California"},"type":"Feature","geometry":{"type":"Point","coordinates":[-117.527703,34.135177]}},{"properties":{"city":"Norwalk","zip":"90650","geo_score":0.912,"filenumber":"451327","filetransactiontype":"Escrow Only","referringcustomer":"LandSafe_CA","id":"a6lmrohy5s7c","geo_precision":"range","address":"11208 LeFloss Ave","state":"California"},"type":"Feature","geometry":{"type":"Point","coordinates":[-118.100279,33.931691]}},{"properties":{"city":"Stockton","zip":"95206","geo_score":0.585,"filenumber":"451339","filetransactiontype":"Escrow Only","referringcustomer":"LandSafe_CA","id":"a6lmroftqxe4","geo_precision":"zip","address":"3125 Ogden Lane","state":"California"},"type":"Feature","geometry":{"type":"Point","coordinates":[-121.147442,37.904925]}},{"properties":{"city":"Pearblossom","zip":"93553","geo_score":0.902,"filenumber":"451405","filetransactiontype":"Escrow Only","referringcustomer":"LandSafe_CA","id":"a6lmroafod5j","geo_precision":"range","address":"13244 East Avenue W11","state":"California"},"type":"Feature","geometry":{"type":"Point","coordinates":[-117.892637,34.499142]}},{"properties":{"city":"Foster City","zip":"94404","geo_score":1.0,"filenumber":"451555","filetransactiontype":"Escrow Only","referringcustomer":"LandSafe_CA","id":"a6lmroji4hyc","geo_precision":"range","address":"126 Albacore Lane","state":"California"},"type":"Feature","geometry":{"type":"Point","coordinates":[-122.25066,37.558773]}},{"properties":{"city":"Galt","zip":"95632","geo_score":0.912,"filenumber":"451580","filetransactiontype":"Escrow Only","referringcustomer":"LandSafe_CA","id":"a6lmroc0eeg2","geo_precision":"range","address":"1134 Amberhill Ave","state":"California"},"type":"Feature","geometry":{"type":"Point","coordinates":[-121.283364,38.287927]}},{"properties":{"city":"Fresno","zip":"93722","geo_score":1.0,"filenumber":"451652","filetransactiontype":"Escrow Only","referringcustomer":"LandSafe_CA","id":"a6lmrohp4ay6","geo_precision":"range","address":"5265 North Vernal Ave","state":"California"},"type":"Feature","geometry":{"type":"Point","coordinates":[-119.863267,36.81291]}},{"properties":{"city":"Elk Grove","zip":"95757","geo_score":0.505,"filenumber":"451666","filetransactiontype":"Escrow Only","referringcustomer":"LandSafe_CA","id":"a6lmrol1hcca","geo_precision":"street","address":"9625 Spring Breeze Ct","state":"California"},"type":"Feature","geometry":{"type":"Point","coordinates":[-122.650029,38.459765]}},{"properties":{"city":"Dana Point","zip":"92629","geo_score":0.919,"filenumber":"451891","filetransactiontype":"Escrow Only","referringcustomer":"LandSafe_CA","id":"a6lmro9l2iud","geo_precision":"range","address":"33781 Robles Dr","state":"California"},"type":"Feature","geometry":{"type":"Point","coordinates":[-117.701805,33.472138]}},{"properties":{"city":"San Diego","zip":"92104","geo_score":0.476,"filenumber":"451960","filetransactiontype":"Escrow Only","referringcustomer":"LandSafe_CA","id":"a6lmro9mhrxw","geo_precision":"street","address":"4262 Wilson Ave, Unit 7","state":"California"},"type":"Feature","geometry":{"type":"Point","coordinates":[-117.116881,32.74413]}},{"properties":{"city":"Orangevale","zip":"95662","geo_score":1.0,"filenumber":"452074","filetransactiontype":"Escrow Only","referringcustomer":"LandSafe_CA","id":"a6lmroag17m2","geo_precision":"range","address":"8570 Biruta Ave","state":"California"},"type":"Feature","geometry":{"type":"Point","coordinates":[-121.241217,38.69943]}},{"properties":{"city":"HACIENDA HEIGHTS","zip":"91745","geo_score":0.683,"filenumber":"422682","filetransactiontype":"Escrow Only","referringcustomer":"LandSafe_CA","id":"a6lmro7vs9i2","geo_precision":"zip","address":"1860 CRAIGTON AVENUE","state":"California"},"type":"Feature","geometry":{"type":"Point","coordinates":[-117.981631,33.976114]}},{"properties":{"city":"Patterson","zip":"95363","geo_score":0.484,"filenumber":"452143","filetransactiontype":"Escrow Only","referringcustomer":"LandSafe_CA","id":"a6lmrom1acjf","geo_precision":"street","address":"234 Garden Patch Way","state":"California"},"type":"Feature","geometry":{"type":"Point","coordinates":[-121.445337,37.756226]}},{"properties":{"city":"Lodi","zip":"95240","geo_score":0.913,"filenumber":"452178","filetransactiontype":"Escrow Only","referringcustomer":"LandSafe_CA","id":"a6lmroewpumg","geo_precision":"range","address":"808/810 Woodrow St","state":"California"},"type":"Feature","geometry":{"type":"Point","coordinates":[-121.258078,38.125247]}},{"properties":{"city":"Santa Cruz","zip":"95062","geo_score":0.913,"filenumber":"452192","filetransactiontype":"Escrow Only","referringcustomer":"LandSafe_CA","id":"a6lmroh29y70","geo_precision":"range","address":"1654 Shirley Ln","state":"California"},"type":"Feature","geometry":{"type":"Point","coordinates":[-121.972056,36.972931]}},{"properties":{"city":"Lancaster","zip":"93535","geo_score":0.583,"filenumber":"452231","filetransactiontype":"Escrow Only","referringcustomer":"LandSafe_CA","id":"a6lmrollzy8b","geo_precision":"street","address":"2722 La Mesa Ct","state":"California"},"type":"Feature","geometry":{"type":"Point","coordinates":[-118.095812,34.68286]}},{"properties":{"city":"Sacramento","zip":"95825","geo_score":0.941,"filenumber":"452235","filetransactiontype":"Escrow Only","referringcustomer":"LandSafe_CA","id":"a6lmroluuehk","geo_precision":"range","address":"2213 Tevis Rd","state":"California"},"type":"Feature","geometry":{"type":"Point","coordinates":[-121.404857,38.605008]}},{"properties":{"city":"Chino","zip":"91710","geo_score":0.583,"filenumber":"452291","filetransactiontype":"Escrow Only","referringcustomer":"LandSafe_CA","id":"a6lmrof6ek48","geo_precision":"street","address":"16051 Begonia Ave","state":"California"},"type":"Feature","geometry":{"type":"Point","coordinates":[-117.671817,34.077861]}},{"properties":{"city":"Temecula","zip":"92592","geo_score":1.0,"filenumber":"452295","filetransactiontype":"Escrow Only","referringcustomer":"LandSafe_CA","id":"a6lmrojq6gkt","geo_precision":"range","address":"32245 Callesito Fadrique","state":"California"},"type":"Feature","geometry":{"type":"Point","coordinates":[-117.093835,33.463228]}},{"properties":{"city":"San Diego","zip":"92139","geo_score":1.0,"filenumber":"452344","filetransactiontype":"Escrow Only","referringcustomer":"LandSafe_CA","id":"a6lmroi3xr1d","geo_precision":"range","address":"7303 Latrobe Circle","state":"California"},"type":"Feature","geometry":{"type":"Point","coordinates":[-117.038476,32.685546]}},{"properties":{"city":"Palmdale","zip":"93552","geo_score":0.819,"filenumber":"452364","filetransactiontype":"Escrow Only","referringcustomer":"LandSafe_CA","id":"a6lmro6qb89q","geo_precision":"street","address":"37723 49th St East","state":"California"},"type":"Feature","geometry":{"type":"Point","coordinates":[-118.042009,34.566013]}},{"properties":{"city":"Escondido","zip":"92025","geo_score":0.819,"filenumber":"452375","filetransactiontype":"Escrow Only","referringcustomer":"LandSafe_CA","id":"a6lmrod1w8g1","geo_precision":"range","address":"403 West 8th Ave","state":"California"},"type":"Feature","geometry":{"type":"Point","coordinates":[-117.081097,33.113304]}},{"properties":{"city":"Lake Elsinore","zip":"92530","geo_score":0.955,"filenumber":"452386","filetransactiontype":"Escrow Only","referringcustomer":"LandSafe_CA","id":"a6lmrogoe7s2","geo_precision":"range","address":"16377 Lakeshore Dr 5A","state":"California"},"type":"Feature","geometry":{"type":"Point","coordinates":[-117.376195,33.690525]}},{"properties":{"city":"Palmdale","zip":"93552","geo_score":1.0,"filenumber":"452397","filetransactiontype":"Escrow Only","referringcustomer":"LandSafe_CA","id":"a6lmroizvm2g","geo_precision":"range","address":"5455 Cisero Dr","state":"California"},"type":"Feature","geometry":{"type":"Point","coordinates":[-118.031922,34.551808]}},{"properties":{"city":"Stockton","zip":"95212","geo_score":0.434,"filenumber":"452493","filetransactiontype":"Escrow Only","referringcustomer":"LandSafe_CA","id":"a6lmrofn2pe0","geo_precision":"street","address":"3738 Mykala Dr","state":"California"},"type":"Feature","geometry":{"type":"Point","coordinates":[-120.863114,38.13415]}},{"properties":{"city":"Hemet","zip":"92545","geo_score":1.0,"filenumber":"452499","filetransactiontype":"Escrow Only","referringcustomer":"LandSafe_CA","id":"a6lmroft9gwm","geo_precision":"range","address":"26130 Calvert Ave","state":"California"},"type":"Feature","geometry":{"type":"Point","coordinates":[-117.067983,33.741864]}},{"properties":{"city":"Temecula","zip":"92591","geo_score":1.0,"filenumber":"452532","filetransactiontype":"Escrow Only","referringcustomer":"LandSafe_CA","id":"a6lmro9linb7","geo_precision":"range","address":"39721 Creative Dr","state":"California"},"type":"Feature","geometry":{"type":"Point","coordinates":[-117.148077,33.542525]}},{"properties":{"city":"Hemet","zip":"92545","geo_score":1.0,"filenumber":"452538","filetransactiontype":"Escrow Only","referringcustomer":"LandSafe_CA","id":"a6lmroeuc47l","geo_precision":"range","address":"991 Burton St","state":"California"},"type":"Feature","geometry":{"type":"Point","coordinates":[-116.99822,33.732132]}},{"properties":{"city":"Bakersfield","zip":"93312","geo_score":0.92,"filenumber":"452560","filetransactiontype":"Escrow Only","referringcustomer":"LandSafe_CA","id":"a6lmrof72di7","geo_precision":"range","address":"10113 Cave Ave","state":"California"},"type":"Feature","geometry":{"type":"Point","coordinates":[-119.115115,35.391838]}},{"properties":{"city":"Hayward","zip":"94544","geo_score":1.0,"filenumber":"452709","filetransactiontype":"Escrow Only","referringcustomer":"LandSafe_CA","id":"a6lmroet57gs","geo_precision":"range","address":"31926 Albany St","state":"California"},"type":"Feature","geometry":{"type":"Point","coordinates":[-122.03349,37.612674]}},{"properties":{"city":"Trinidad","zip":"95570","geo_score":0.855,"filenumber":"452752","filetransactiontype":"Title &amp; Escrow","referringcustomer":"LandSafe_CA","id":"a6lmroelsn03","geo_precision":"range","address":"3134 Patricks Point Drive","state":"California"},"type":"Feature","geometry":{"type":"Point","coordinates":[-124.156607,41.11707]}},{"properties":{"city":"Concord","zip":"94518","geo_score":1.0,"filenumber":"452737","filetransactiontype":"Escrow Only","referringcustomer":"LandSafe_CA","id":"a6lmroe5573r","geo_precision":"range","address":"1042 Kaski Ln","state":"California"},"type":"Feature","geometry":{"type":"Point","coordinates":[-122.009046,37.95236]}},{"properties":{"city":"Brawley","zip":"92227","geo_score":0.916,"filenumber":"452766","filetransactiontype":"Title &amp; Escrow","referringcustomer":"LandSafe_CA","id":"a6lmroay7qv7","geo_precision":"range","address":"188 J St","state":"California"},"type":"Feature","geometry":{"type":"Point","coordinates":[-115.539695,32.974216]}},{"properties":{"city":"SAN DIEGO","zip":"92126","geo_score":0.915,"filenumber":"418053","filetransactiontype":"Escrow Only","referringcustomer":"LandSafe_CA","id":"a6lmro67ktvv","geo_precision":"range","address":"8677 AQUARIUS DRIVE","state":"California"},"type":"Feature","geometry":{"type":"Point","coordinates":[-117.137098,32.929935]}},{"properties":{"city":"SACRAMENTO","zip":"95841","geo_score":0.902,"filenumber":"420314","filetransactiontype":"Escrow Only","referringcustomer":"LandSafe_CA","id":"a6lmro66impv","geo_precision":"range","address":"5705 WALNUT AVENUE","state":"California"},"type":"Feature","geometry":{"type":"Point","coordinates":[-121.345777,38.669985]}},{"properties":{"city":"Barstow","zip":"92311","geo_score":0.916,"filenumber":"452876","filetransactiontype":"Escrow Only","referringcustomer":"LandSafe_CA","id":"a6lmroktq2qh","geo_precision":"range","address":"34414 J St","state":"California"},"type":"Feature","geometry":{"type":"Point","coordinates":[-117.05189,34.875865]}},{"properties":{"city":"Anaheim","zip":"92807","geo_score":0.717,"filenumber":"452896","filetransactiontype":"Escrow Only","referringcustomer":"LandSafe_CA","id":"a6lmrolk1u5o","geo_precision":"range","address":"1060 S Romano Ct","state":"California"},"type":"Feature","geometry":{"type":"Point","coordinates":[-117.738986,33.84823]}},{"properties":{"city":"Pomona","zip":"91766","geo_score":0.82,"filenumber":"453316","filetransactiontype":"Escrow Only","referringcustomer":"LandSafe_CA","id":"a6lmrofid2n7","geo_precision":"range","address":"983 East 7th Street","state":"California"},"type":"Feature","geometry":{"type":"Point","coordinates":[-117.737541,34.05361]}},{"properties":{"city":"Hesperia","zip":"92345","geo_score":0.837,"filenumber":"453286","filetransactiontype":"Escrow Only","referringcustomer":"LandSafe_CA","id":"a6lmro866vmj","geo_precision":"range","address":"15560 Live Oak","state":"California"},"type":"Feature","geometry":{"type":"Point","coordinates":[-117.323462,34.432569]}},{"properties":{"city":"FRESNO","zip":"93726","geo_score":1.0,"filenumber":"422982","filetransactiontype":"Escrow Only","referringcustomer":"LandSafe_CA","id":"a6lmrod51nv4","geo_precision":"range","address":"4451 NORTH MAPLE AVENUE","state":"California"},"type":"Feature","geometry":{"type":"Point","coordinates":[-119.745228,36.798813]}},{"properties":{"city":"VENTURA","zip":"93003","geo_score":1.0,"filenumber":"425922","filetransactiontype":"Escrow Only","referringcustomer":"LandSafe_CA","id":"a6lmrodhnk2l","geo_precision":"range","address":"2492 LEXINGTON DRIVE","state":"California"},"type":"Feature","geometry":{"type":"Point","coordinates":[-119.263278,34.276526]}},{"properties":{"city":"El Cajon","zip":"92020","geo_score":0.915,"filenumber":"453776","filetransactiontype":"Escrow Only","referringcustomer":"LandSafe_CA","id":"a6lmroct90rp","geo_precision":"range","address":"787 S Sunshine Ave","state":"California"},"type":"Feature","geometry":{"type":"Point","coordinates":[-116.964798,32.788734]}},{"properties":{"city":"Fairfax","zip":"94930","geo_score":0.916,"filenumber":"453816","filetransactiontype":"Title &amp; Escrow","referringcustomer":"LandSafe_CA","id":"a6lmroal4gal","geo_precision":"range","address":"48 Geary Ave","state":"California"},"type":"Feature","geometry":{"type":"Point","coordinates":[-122.587965,37.989212]}},{"properties":{"city":"Fair Oaks","zip":"95628","geo_score":0.644,"filenumber":"453829","filetransactiontype":"Escrow Only","referringcustomer":"LandSafe_CA","id":"a6lmrobgvjci","geo_precision":"street","address":"5349 Terrace Oak Circle","state":"California"},"type":"Feature","geometry":{"type":"Point","coordinates":[-121.211536,38.661149]}},{"properties":{"city":"EL DORADO HILLS","zip":"95762","geo_score":0.973,"filenumber":"420179","filetransactiontype":"Title &amp; Escrow","referringcustomer":"LandSafe_CA","id":"a6lmroaocfnq","geo_precision":"range","address":"1820 CALAVERAS DRIVE","state":"California"},"type":"Feature","geometry":{"type":"Point","coordinates":[-121.077881,38.708644]}},{"properties":{"city":"CHULA VISTA","zip":"91911","geo_score":1.0,"filenumber":"424673","filetransactiontype":"Escrow Only","referringcustomer":"LandSafe_CA","id":"a6lmro6rxbor","geo_precision":"range","address":"278 CHERYL PLACE","state":"California"},"type":"Feature","geometry":{"type":"Point","coordinates":[-117.045995,32.61877]}},{"properties":{"city":"West Sacramento","zip":"95605","geo_score":0.909,"filenumber":"454683","filetransactiontype":"Title &amp; Escrow","referringcustomer":"LandSafe_CA","id":"a6lmrokvb319","geo_precision":"range","address":"1101 Pierce St","state":"California"},"type":"Feature","geometry":{"type":"Point","coordinates":[-121.529556,38.596983]}},{"properties":{"city":"CHINO HILLS","zip":"91709","geo_score":0.911,"filenumber":"409462","filetransactiontype":"Escrow Only","referringcustomer":"LandSafe_CA","id":"a6lmroa0l8jd","geo_precision":"range","address":"1199/1203 CARBON CANYON ROAD","state":"California"},"type":"Feature","geometry":{"type":"Point","coordinates":[-117.77717,33.949365]}}],"is_temporal":false,"author":{"url":"","metadata":null,"contact_name":null,"contact_address":null,"source":null,"contact_phone":null},"source":"","pagination":{"sort":null,"start":0,"total":472,"limit":1000000},"state":"complete","tags":"","published":"2014-08-14T22:08:31-04:00","id":225827}