{"type":"FeatureCollection","data_type":"Dataset","url_type":null,"permissions":[{"permissions":{"download":true,"view":true},"group_id":"everyone"}],"classification":null,"title":"LND_As_Sent_-_ran_April_9th","count":480,"stream_id":225826,"contributor":{"url":"http://geocommons.com/users/39447","name":"sam.felipe"},"data_attributes":null,"calculation_params":null,"icon_link":null,"link":"http://geocommons.com/overlays/225826.json","extent":[-122.931,32.5659,-73.9069,40.7689],"geometry_types":["point"],"unique_name":null,"name":"LND_As_Sent_-_ran_April_9th","feature_count":480,"description":"","next_feature":null,"is_raster":false,"short_classification":"Y","stats":{},"features":[{"properties":{"city":"Santa Barbara","zip":"11111","geo_score":0.268,"filetransactiontype":"LandSafe A Title Only","referringcustomer":"LandSafe_CA","id":"a6avqmhca67j","geo_precision":"street","address":"1232 Santa Claus lane","state":"California"},"type":"Feature","geometry":{"type":"Point","coordinates":[-73.906908,40.768888]}},{"properties":{"city":"Oakdale","zip":"95361","geo_score":0.911,"filetransactiontype":"LandSafe A Report Only","referringcustomer":"LandSafe_CA","id":"a6avqmb8f94z","geo_precision":"range","address":"1779 WEST J STREET","state":"California"},"type":"Feature","geometry":{"type":"Point","coordinates":[-120.871082,37.755124]}},{"properties":{"city":"Johnson Valley","zip":"92356","geo_score":0.61,"filetransactiontype":"LandSafe A Report Only","referringcustomer":"LandSafe_CA","id":"a6avqmk2taxd","geo_precision":"street","address":"51436 CHOLLA AVENUE","state":"California"},"type":"Feature","geometry":{"type":"Point","coordinates":[-117.288545,34.403833]}},{"properties":{"city":"Woodland","zip":"95695","geo_score":0.577,"filetransactiontype":"LandSafe A Title Only","referringcustomer":"LandSafe_CA","id":"a6avqmkjzq14","geo_precision":"street","address":"18134 GADWALL STREET","state":"California"},"type":"Feature","geometry":{"type":"Point","coordinates":[-121.553851,38.549811]}},{"properties":{"city":"Corona","zip":"92883","geo_score":0.447,"filetransactiontype":"LandSafe A Report Only","referringcustomer":"LandSafe_CA","id":"a6avqmnqqwmk","geo_precision":"street","address":"4358 PALAZZO LANE","state":"California"},"type":"Feature","geometry":{"type":"Point","coordinates":[-117.85309,33.788187]}},{"properties":{"city":"San Jose","zip":"95148","geo_score":1.0,"filetransactiontype":"LandSafe A Report Only","referringcustomer":"LandSafe_CA","id":"a6avqmc5ngfc","geo_precision":"range","address":"3130 REMINGTON WAY","state":"California"},"type":"Feature","geometry":{"type":"Point","coordinates":[-121.786986,37.325097]}},{"properties":{"city":"Santa Cruz","zip":"95062","geo_score":0.721,"filetransactiontype":"LandSafe A Report Only","referringcustomer":"LandSafe_CA","id":"a6avqma1z5du","geo_precision":"street","address":"1200 CAPITOLA RD #18","state":"California"},"type":"Feature","geometry":{"type":"Point","coordinates":[-121.996054,36.981073]}},{"properties":{"city":"CORONA","zip":"92870","geo_score":0.859,"filetransactiontype":"LandSafe A Report Only","referringcustomer":"LandSafe_CA","id":"a6avqminskl1","geo_precision":"range","address":"908 CORONA AVE","state":"California"},"type":"Feature","geometry":{"type":"Point","coordinates":[-117.849209,33.905072]}},{"properties":{"city":"PERRIS","zip":"92571","geo_score":0.545,"filetransactiontype":"LandSafe A Report Only","referringcustomer":"LandSafe_CA","id":"a6avqme2v4iu","geo_precision":"street","address":"3085 CLAPPER STREET","state":"California"},"type":"Feature","geometry":{"type":"Point","coordinates":[-117.25226,33.685681]}},{"properties":{"city":"Tustin","zip":"92782","geo_score":0.805,"filetransactiontype":"LandSafe A Report Only","referringcustomer":"LandSafe_CA","id":"a6avqmos04jx","geo_precision":"street","address":"2800 KELLER DRIVE #232","state":"California"},"type":"Feature","geometry":{"type":"Point","coordinates":[-117.78873,33.73442]}},{"properties":{"city":"LOS ANGELES","zip":"90016","geo_score":1.0,"filetransactiontype":"LandSafe A Report Only","referringcustomer":"LandSafe_CA","id":"a6avqmkfe2gc","geo_precision":"range","address":"5854 BOWCROFT ST","state":"California"},"type":"Feature","geometry":{"type":"Point","coordinates":[-118.37401,34.019247]}},{"properties":{"city":"TORRANCE","zip":"90505","geo_score":1.0,"filetransactiontype":"LandSafe A Report Only","referringcustomer":"LandSafe_CA","id":"a6avqmklrvha","geo_precision":"range","address":"24222 PARK STREET","state":"California"},"type":"Feature","geometry":{"type":"Point","coordinates":[-118.349917,33.803839]}},{"properties":{"city":"LOS ANGELES","zip":"90007","geo_score":0.916,"filetransactiontype":"LandSafe A Report Only","referringcustomer":"LandSafe_CA","id":"a6avqmcaw5n0","geo_precision":"range","address":"1612 W 24TH ST","state":"California"},"type":"Feature","geometry":{"type":"Point","coordinates":[-118.297814,34.034534]}},{"properties":{"city":"CYPRESS","zip":"90630","geo_score":0.916,"filetransactiontype":"LandSafe A Report Only","referringcustomer":"LandSafe_CA","id":"a6avqma4f6pz","geo_precision":"range","address":"6053 RONALD CIRCLE","state":"California"},"type":"Feature","geometry":{"type":"Point","coordinates":[-118.027386,33.823617]}},{"properties":{"city":"FONTANA","zip":"92336","geo_score":0.542,"filetransactiontype":"LandSafe A Report Only","referringcustomer":"LandSafe_CA","id":"a6avqmjzooea","geo_precision":"street","address":"7111 PROVIDENCE WAY","state":"California"},"type":"Feature","geometry":{"type":"Point","coordinates":[-117.167028,34.04445]}},{"properties":{"city":"SAN JACINTO","zip":"92583","geo_score":0.551,"filetransactiontype":"LandSafe A Report Only","referringcustomer":"LandSafe_CA","id":"a6avqmm8x3zn","geo_precision":"street","address":"1888 TENNYSON STREET","state":"California"},"type":"Feature","geometry":{"type":"Point","coordinates":[-117.294793,33.952168]}},{"properties":{"city":"IDYLWILD","zip":"92549","geo_score":0.989,"filetransactiontype":"LandSafe A Report Only","referringcustomer":"LandSafe_CA","id":"a6avqmn7uvwk","geo_precision":"range","address":"53820 COUNTRY CLUB DR.","state":"California"},"type":"Feature","geometry":{"type":"Point","coordinates":[-116.728164,33.734454]}},{"properties":{"city":"WEST HILLS","zip":"91304","geo_score":0.902,"filetransactiontype":"LandSafe A Report Only","referringcustomer":"LandSafe_CA","id":"a6avqmpy4bhm","geo_precision":"range","address":"23296 COHASSET STREET","state":"California"},"type":"Feature","geometry":{"type":"Point","coordinates":[-118.638038,34.206128]}},{"properties":{"city":"MORENO VALLEY","zip":"92553","geo_score":0.962,"filetransactiontype":"LandSafe A Report Only","referringcustomer":"LandSafe_CA","id":"a6avqmg5abni","geo_precision":"range","address":"25900 BARTRAM COURT","state":"California"},"type":"Feature","geometry":{"type":"Point","coordinates":[-117.211126,33.933936]}},{"properties":{"city":"FREMONT","zip":"94538","geo_score":1.0,"filetransactiontype":"LandSafe A Report Only","referringcustomer":"LandSafe_CA","id":"a6avqmnbs0qw","geo_precision":"range","address":"4761 NATALIE AVENUE","state":"California"},"type":"Feature","geometry":{"type":"Point","coordinates":[-121.980267,37.530134]}},{"properties":{"city":"ELK GROVE","zip":"95624","geo_score":0.915,"filetransactiontype":"LandSafe A Report Only","referringcustomer":"LandSafe_CA","id":"a6avqmf2yf2q","geo_precision":"range","address":"8740 BLUE MAIDEN WAY","state":"California"},"type":"Feature","geometry":{"type":"Point","coordinates":[-121.392077,38.444261]}},{"properties":{"city":"SANTA BARBARA","zip":"93109","geo_score":0.87,"filetransactiontype":"LandSafe A Report Only","referringcustomer":"LandSafe_CA","id":"a6avqmfcd8z2","geo_precision":"range","address":"480 TERRACE RD","state":"California"},"type":"Feature","geometry":{"type":"Point","coordinates":[-119.711747,34.402108]}},{"properties":{"city":"Compton Area","zip":"90222","geo_score":0.911,"filetransactiontype":"LandSafe A Report Only","referringcustomer":"LandSafe_CA","id":"a6avqmlith33","geo_precision":"range","address":"2028 EAST LUCIEN STREET","state":"California"},"type":"Feature","geometry":{"type":"Point","coordinates":[-118.235558,33.910624]}},{"properties":{"city":"MURRIETA","zip":"92562","geo_score":0.805,"filetransactiontype":"LandSafe A Report Only","referringcustomer":"LandSafe_CA","id":"a6avqmkulrs8","geo_precision":"street","address":"24909 MADISON AVENUE #1013","state":"California"},"type":"Feature","geometry":{"type":"Point","coordinates":[-117.229765,33.584322]}},{"properties":{"city":"LOS GATOS","zip":"95033","geo_score":0.878,"filetransactiontype":"LandSafe A Report Only","referringcustomer":"LandSafe_CA","id":"a6avqmkkumdt","geo_precision":"range","address":"1100 WHITE ROCK ROAD","state":"California"},"type":"Feature","geometry":{"type":"Point","coordinates":[-122.025506,37.148807]}},{"properties":{"city":"FRESNO","zip":"93722","geo_score":0.61,"filetransactiontype":"LandSafe A Report Only","referringcustomer":"LandSafe_CA","id":"a6avqmg7ueiz","geo_precision":"street","address":"4697 W PINE AVE","state":"California"},"type":"Feature","geometry":{"type":"Point","coordinates":[-119.835541,36.761972]}},{"properties":{"city":"SANTEE","zip":"92071","geo_score":1.0,"filetransactiontype":"LandSafe A Report Only","referringcustomer":"LandSafe_CA","id":"a6avqmp60lod","geo_precision":"range","address":"9761 MAST BLVD","state":"California"},"type":"Feature","geometry":{"type":"Point","coordinates":[-116.985799,32.854778]}},{"properties":{"city":"VACAVILLE","zip":"95687","geo_score":1.0,"filetransactiontype":"LandSafe A Report Only","referringcustomer":"LandSafe_CA","id":"a6avqmdcszrp","geo_precision":"range","address":"106 KENYON DR","state":"California"},"type":"Feature","geometry":{"type":"Point","coordinates":[-121.956276,38.34729]}},{"properties":{"city":"FREMONT","zip":"94536","geo_score":1.0,"filetransactiontype":"LandSafe A Report Only","referringcustomer":"LandSafe_CA","id":"a6avqmkxqekl","geo_precision":"range","address":"1012 WALNUT AVE","state":"California"},"type":"Feature","geometry":{"type":"Point","coordinates":[-121.96757,37.561423]}},{"properties":{"city":"WATSONVILLE","zip":"95076","geo_score":0.911,"filetransactiontype":"LandSafe A Report Only","referringcustomer":"LandSafe_CA","id":"a6avqmm0szwf","geo_precision":"range","address":"26 BROOKLYN STREET","state":"California"},"type":"Feature","geometry":{"type":"Point","coordinates":[-121.750698,36.903479]}},{"properties":{"city":"NEEDLES","zip":"92363","geo_score":0.815,"filetransactiontype":"LandSafe A Report Only","referringcustomer":"LandSafe_CA","id":"a6avqmhgxank","geo_precision":"range","address":"2040 PARKWAY ST","state":"California"},"type":"Feature","geometry":{"type":"Point","coordinates":[-114.625311,34.833213]}},{"properties":{"city":"BARSTOW","zip":"92311","geo_score":0.916,"filetransactiontype":"LandSafe A Report Only","referringcustomer":"LandSafe_CA","id":"a6avqmdyq6w5","geo_precision":"range","address":"34414 J STREET","state":"California"},"type":"Feature","geometry":{"type":"Point","coordinates":[-117.05189,34.875865]}},{"properties":{"city":"PALM SPRINGS","zip":"92262","geo_score":1.0,"filetransactiontype":"LandSafe A Report Only","referringcustomer":"LandSafe_CA","id":"a6avqmc63w2p","geo_precision":"range","address":"567 WEST SUNVIEW AVENUE","state":"California"},"type":"Feature","geometry":{"type":"Point","coordinates":[-116.553675,33.865538]}},{"properties":{"city":"RANCHO CUCAMONGA","zip":"91730","geo_score":1.0,"filetransactiontype":"LandSafe A Report Only","referringcustomer":"LandSafe_CA","id":"a6avqml9qbxf","geo_precision":"range","address":"8652 WILLOW DR","state":"California"},"type":"Feature","geometry":{"type":"Point","coordinates":[-117.588643,34.096733]}},{"properties":{"city":"SAN BERNARDINO","zip":"92407","geo_score":0.902,"filetransactiontype":"LandSafe A Report Only","referringcustomer":"LandSafe_CA","id":"a6avqmkzjg0p","geo_precision":"range","address":"3674 RIDGELINE DRIVE","state":"California"},"type":"Feature","geometry":{"type":"Point","coordinates":[-117.299551,34.159774]}},{"properties":{"city":"ELK GROVE","zip":"95757","geo_score":0.463,"filetransactiontype":"LandSafe A Report Only","referringcustomer":"LandSafe_CA","id":"a6avqmernc96","geo_precision":"street","address":"7105 PAUL DO MAR WAY","state":"California"},"type":"Feature","geometry":{"type":"Point","coordinates":[-122.787045,38.528984]}},{"properties":{"city":"CORONA","zip":"92883","geo_score":1.0,"filetransactiontype":"LandSafe A Report Only","referringcustomer":"LandSafe_CA","id":"a6avqmp6ylei","geo_precision":"range","address":"9195 DESERT ACACIA LN","state":"California"},"type":"Feature","geometry":{"type":"Point","coordinates":[-117.500156,33.791564]}},{"properties":{"city":"LOS ANGELES","zip":"90002","geo_score":0.822,"filetransactiontype":"LandSafe A Report Only","referringcustomer":"LandSafe_CA","id":"a6avqmo5izok","geo_precision":"range","address":"1783 SANTA ANA BOULE","state":"California"},"type":"Feature","geometry":{"type":"Point","coordinates":[-118.24102,33.93911]}},{"properties":{"city":"IRVINE","zip":"92603","geo_score":0.488,"filetransactiontype":"LandSafe A Report Only","referringcustomer":"LandSafe_CA","id":"a6avqmf954xc","geo_precision":"street","address":"133 DANBROOK","state":"California"},"type":"Feature","geometry":{"type":"Point","coordinates":[-117.91279,33.680119]}},{"properties":{"city":"TEMECULA","zip":"92591","geo_score":1.0,"filetransactiontype":"LandSafe A Report Only","referringcustomer":"LandSafe_CA","id":"a6avqmc9it38","geo_precision":"range","address":"30884 MEDINAH WAY","state":"California"},"type":"Feature","geometry":{"type":"Point","coordinates":[-117.121517,33.51398]}},{"properties":{"city":"STEVENSON RANCH","zip":"91381","geo_score":0.912,"filetransactiontype":"LandSafe A Report Only","referringcustomer":"LandSafe_CA","id":"a6avqmdgnxrd","geo_precision":"range","address":"26018 TENNYSON LANE","state":"California"},"type":"Feature","geometry":{"type":"Point","coordinates":[-118.599481,34.39447]}},{"properties":{"city":"RIVERSIDE","zip":"92508","geo_score":0.497,"filetransactiontype":"LandSafe A Report Only","referringcustomer":"LandSafe_CA","id":"a6avqmifw6dh","geo_precision":"street","address":"8292 LAUREL RIDGE ROAD","state":"California"},"type":"Feature","geometry":{"type":"Point","coordinates":[-117.413113,34.006513]}},{"properties":{"city":"UPLAND","zip":"91786","geo_score":0.597,"filetransactiontype":"LandSafe A Report Only","referringcustomer":"LandSafe_CA","id":"a6avqmdoew9o","geo_precision":"zip","address":"725 SAWTOOTH DRIVE","state":"California"},"type":"Feature","geometry":{"type":"Point","coordinates":[-117.656444,34.155564]}},{"properties":{"city":"SAN JOSE","zip":"95127","geo_score":0.917,"filetransactiontype":"LandSafe A Report Only","referringcustomer":"LandSafe_CA","id":"a6avqmgk92lb","geo_precision":"range","address":"299 PENNYHILL DRIVE","state":"California"},"type":"Feature","geometry":{"type":"Point","coordinates":[-121.839812,37.37075]}},{"properties":{"city":"LOS ANGELES","zip":"90065","geo_score":1.0,"filetransactiontype":"LandSafe A Report Only","referringcustomer":"LandSafe_CA","id":"a6avqmgtnq5d","geo_precision":"range","address":"1949 KEMPER CIRCLE","state":"California"},"type":"Feature","geometry":{"type":"Point","coordinates":[-118.23285,34.102595]}},{"properties":{"city":"LAGUNA HILLS","zip":"92653","geo_score":0.769,"filetransactiontype":"LandSafe A Report Only","referringcustomer":"LandSafe_CA","id":"a6avqmjh878b","geo_precision":"street","address":"23436 CAMINITO JUANICO #274","state":"California"},"type":"Feature","geometry":{"type":"Point","coordinates":[-117.736486,33.625422]}},{"properties":{"city":"RANCHO MIRAGE","zip":"92270","geo_score":1.0,"filetransactiontype":"LandSafe A Report Only","referringcustomer":"LandSafe_CA","id":"a6avqmmrd1a5","geo_precision":"range","address":"69785 CAMINO PACIFICO","state":"California"},"type":"Feature","geometry":{"type":"Point","coordinates":[-116.44342,33.796237]}},{"properties":{"city":"FONTANA","zip":"92336","geo_score":0.434,"filetransactiontype":"LandSafe A Report Only","referringcustomer":"LandSafe_CA","id":"a6avqmnr3m8r","geo_precision":"street","address":"14981 CATANIA WAY","state":"California"},"type":"Feature","geometry":{"type":"Point","coordinates":[-117.029528,34.054407]}},{"properties":{"city":"PALM SPRINGS","zip":"92262","geo_score":0.971,"filetransactiontype":"LandSafe A Report Only","referringcustomer":"LandSafe_CA","id":"a6avqmf2vtjg","geo_precision":"range","address":"503 SUNSET WAY","state":"California"},"type":"Feature","geometry":{"type":"Point","coordinates":[-116.521649,33.830435]}},{"properties":{"city":"MORENO VALLEY","zip":"92551","geo_score":0.604,"filetransactiontype":"LandSafe A Report Only","referringcustomer":"LandSafe_CA","id":"a6avqmcl6rvp","geo_precision":"street","address":"25344 MAROON CREEK COURT","state":"California"},"type":"Feature","geometry":{"type":"Point","coordinates":[-117.214973,33.885745]}},{"properties":{"city":"NORWALK","zip":"90650","geo_score":0.912,"filetransactiontype":"LandSafe A Report Only","referringcustomer":"LandSafe_CA","id":"a6avqmi4sufe","geo_precision":"range","address":"12744 HARVEST AVENUE","state":"California"},"type":"Feature","geometry":{"type":"Point","coordinates":[-118.091834,33.91558]}},{"properties":{"city":"OAKLEY","zip":"94561","geo_score":1.0,"filetransactiontype":"LandSafe A Report Only","referringcustomer":"LandSafe_CA","id":"a6avqma0z0su","geo_precision":"range","address":"1979 WEST SUMMERFIELD COURT","state":"California"},"type":"Feature","geometry":{"type":"Point","coordinates":[-121.730568,38.003052]}},{"properties":{"city":"HESPERIA","zip":"92345","geo_score":0.878,"filetransactiontype":"LandSafe A Report Only","referringcustomer":"LandSafe_CA","id":"a6avqmgjho6d","geo_precision":"range","address":"11463 SHANGRI-LA AVENUE","state":"California"},"type":"Feature","geometry":{"type":"Point","coordinates":[-117.347914,34.458825]}},{"properties":{"city":"DALY CITY","zip":"94014","geo_score":0.915,"filetransactiontype":"LandSafe A Report Only","referringcustomer":"LandSafe_CA","id":"a6avqmi8mxkc","geo_precision":"range","address":"154 RIO VERDE ST","state":"California"},"type":"Feature","geometry":{"type":"Point","coordinates":[-122.416151,37.706125]}},{"properties":{"city":"SAN YSIDRO","zip":"92173","geo_score":0.937,"filetransactiontype":"LandSafe A Report Only","referringcustomer":"LandSafe_CA","id":"a6avqmpgx7oo","geo_precision":"range","address":"1670 LAS BUJIAS COURT","state":"California"},"type":"Feature","geometry":{"type":"Point","coordinates":[-117.043593,32.565948]}},{"properties":{"city":"NORTH HOLLYWOOD","zip":"91605","geo_score":1.0,"filetransactiontype":"LandSafe A Report Only","referringcustomer":"LandSafe_CA","id":"a6avqmawnwqx","geo_precision":"range","address":"7651 BECK AVENUE","state":"California"},"type":"Feature","geometry":{"type":"Point","coordinates":[-118.383417,34.20938]}},{"properties":{"city":"ONTARIO","zip":"91762","geo_score":0.971,"filetransactiontype":"LandSafe A Report Only","referringcustomer":"LandSafe_CA","id":"a6avqma3xqv4","geo_precision":"range","address":"1413 WEST GRANADA CO","state":"California"},"type":"Feature","geometry":{"type":"Point","coordinates":[-117.677267,34.073475]}},{"properties":{"city":"LADERA RANCH","zip":"92694","geo_score":0.698,"filetransactiontype":"LandSafe A Report Only","referringcustomer":"LandSafe_CA","id":"a6avqmkcqeyl","geo_precision":"range","address":"41 REESE CREEK","state":"California"},"type":"Feature","geometry":{"type":"Point","coordinates":[-117.585017,33.579004]}},{"properties":{"city":"BARSTOW","zip":"92311","geo_score":0.723,"filetransactiontype":"LandSafe A Report Only","referringcustomer":"LandSafe_CA","id":"a6avqmh0wut6","geo_precision":"street","address":"2241 RUBY DRIVE","state":"California"},"type":"Feature","geometry":{"type":"Point","coordinates":[-117.03138,34.87537]}},{"properties":{"city":"MODESTO","zip":"95355","geo_score":0.837,"filetransactiontype":"LandSafe A Report Only","referringcustomer":"LandSafe_CA","id":"a6avqmkvqrbc","geo_precision":"street","address":"2804 ORCHARD PARK WAY","state":"California"},"type":"Feature","geometry":{"type":"Point","coordinates":[-120.953983,37.678059]}},{"properties":{"city":"SANTA ROSA","zip":"95405","geo_score":1.0,"filetransactiontype":"LandSafe A Report Only","referringcustomer":"LandSafe_CA","id":"a6avqmhob6xn","geo_precision":"range","address":"1473 POST RANCH ROAD","state":"California"},"type":"Feature","geometry":{"type":"Point","coordinates":[-122.683539,38.433596]}},{"properties":{"city":"SACRAMENTO","zip":"95822","geo_score":1.0,"filetransactiontype":"LandSafe A Report Only","referringcustomer":"LandSafe_CA","id":"a6avqmg51sof","geo_precision":"range","address":"6006 MCLAREN AVE","state":"California"},"type":"Feature","geometry":{"type":"Point","coordinates":[-121.501589,38.5169]}},{"properties":{"city":"SAN DIEGO","zip":"92116","geo_score":0.89,"filetransactiontype":"LandSafe A Report Only","referringcustomer":"LandSafe_CA","id":"a6avqmnljqfi","geo_precision":"range","address":"4821 CIRCLE DRIVE","state":"California"},"type":"Feature","geometry":{"type":"Point","coordinates":[-117.110686,32.764768]}},{"properties":{"city":"SAN JACINTO","zip":"92583","geo_score":0.927,"filetransactiontype":"LandSafe A Report Only","referringcustomer":"LandSafe_CA","id":"a6avqmk85d6k","geo_precision":"range","address":"1106 SERENA DRIVE","state":"California"},"type":"Feature","geometry":{"type":"Point","coordinates":[-116.979446,33.807042]}},{"properties":{"city":"STOCKTON","zip":"95207","geo_score":0.909,"filetransactiontype":"LandSafe A Report Only","referringcustomer":"LandSafe_CA","id":"a6avqmety591","geo_precision":"range","address":"4407 TOWNEHOME DRIVE","state":"California"},"type":"Feature","geometry":{"type":"Point","coordinates":[-121.2942,37.993568]}},{"properties":{"city":"COMPTON","zip":"90220","geo_score":0.922,"filetransactiontype":"LandSafe A Report Only","referringcustomer":"LandSafe_CA","id":"a6avqmpea7y7","geo_precision":"range","address":"2304 WEST CLAUDE STREET","state":"California"},"type":"Feature","geometry":{"type":"Point","coordinates":[-118.251508,33.885122]}},{"properties":{"city":"PERRIS","zip":"92571","geo_score":1.0,"filetransactiontype":"LandSafe A Report Only","referringcustomer":"LandSafe_CA","id":"a6avqmpesbpq","geo_precision":"range","address":"341 RECOGNITION LANE","state":"California"},"type":"Feature","geometry":{"type":"Point","coordinates":[-117.218427,33.798087]}},{"properties":{"city":"SAN JACINTO","zip":"92583","geo_score":0.927,"filetransactiontype":"LandSafe A Report Only","referringcustomer":"LandSafe_CA","id":"a6avqmiz7kf2","geo_precision":"range","address":"310 QUANDT RANCH ROAD","state":"California"},"type":"Feature","geometry":{"type":"Point","coordinates":[-116.963319,33.811751]}},{"properties":{"city":"FALLBROOK","zip":"92028","geo_score":0.912,"filetransactiontype":"LandSafe A Report Only","referringcustomer":"LandSafe_CA","id":"a6avqmi3blzd","geo_precision":"range","address":"474 SOLANA REAL","state":"California"},"type":"Feature","geometry":{"type":"Point","coordinates":[-117.258056,33.299958]}},{"properties":{"city":"PANORAMA CITY","zip":"91402","geo_score":1.0,"filetransactiontype":"LandSafe A Report Only","referringcustomer":"LandSafe_CA","id":"a6avqmeyezr3","geo_precision":"range","address":"13845 ROSCOE BOULEVARD","state":"California"},"type":"Feature","geometry":{"type":"Point","coordinates":[-118.434427,34.221653]}},{"properties":{"city":"IRVINE","zip":"92612","geo_score":0.683,"filetransactiontype":"LandSafe A Report Only","referringcustomer":"LandSafe_CA","id":"a6avqmpasmeb","geo_precision":"zip","address":"3365 WATERMARKE PLACE","state":"California"},"type":"Feature","geometry":{"type":"Point","coordinates":[-117.782805,33.615525]}},{"properties":{"city":"RIVERSIDE","zip":"92503","geo_score":0.902,"filetransactiontype":"LandSafe A Report Only","referringcustomer":"LandSafe_CA","id":"a6avqmcgf3l3","geo_precision":"range","address":"11226 NEWMARKET DRIVE","state":"California"},"type":"Feature","geometry":{"type":"Point","coordinates":[-117.468948,33.890354]}},{"properties":{"city":"EL CAJON","zip":"92020","geo_score":0.915,"filetransactiontype":"LandSafe A Report Only","referringcustomer":"LandSafe_CA","id":"a6avqma10gwm","geo_precision":"range","address":"787 SOUTH SUNSHINE AVENUE","state":"California"},"type":"Feature","geometry":{"type":"Point","coordinates":[-116.964798,32.788734]}},{"properties":{"city":"CONCORD","zip":"94518","geo_score":1.0,"filetransactiontype":"LandSafe A Report Only","referringcustomer":"LandSafe_CA","id":"a6avqmlbb6ra","geo_precision":"range","address":"1251 APPLE DRIVE","state":"California"},"type":"Feature","geometry":{"type":"Point","coordinates":[-122.042827,37.947487]}},{"properties":{"city":"LOS ANGELES","zip":"90013","geo_score":0.863,"filetransactiontype":"LandSafe A Report Only","referringcustomer":"LandSafe_CA","id":"a6avqma7h7cy","geo_precision":"range","address":"530 MOLINO ST UNIT 114","state":"California"},"type":"Feature","geometry":{"type":"Point","coordinates":[-118.233895,34.041525]}},{"properties":{"city":"CONCORD","zip":"94521","geo_score":1.0,"filetransactiontype":"LandSafe A Report Only","referringcustomer":"LandSafe_CA","id":"a6avqmm76lo9","geo_precision":"range","address":"4817 CHEROKEE DR","state":"California"},"type":"Feature","geometry":{"type":"Point","coordinates":[-121.978072,37.96163]}},{"properties":{"city":"LYNWOOD","zip":"90262","geo_score":0.512,"filetransactiontype":"LandSafe A Report Only","referringcustomer":"LandSafe_CA","id":"a6avqmk32cn0","geo_precision":"street","address":"3934-3934 1/2 LUGO AVENUE","state":"California"},"type":"Feature","geometry":{"type":"Point","coordinates":[-118.189895,33.918199]}},{"properties":{"city":"LANCASTER","zip":"93535","geo_score":0.924,"filetransactiontype":"LandSafe A Report Only","referringcustomer":"LandSafe_CA","id":"a6avqmdxep2s","geo_precision":"range","address":"2151 EAST AVENUE K3","state":"California"},"type":"Feature","geometry":{"type":"Point","coordinates":[-118.091579,34.675114]}},{"properties":{"city":"FONTANA","zip":"92336","geo_score":1.0,"filetransactiontype":"LandSafe A Report Only","referringcustomer":"LandSafe_CA","id":"a6avqmcp9x57","geo_precision":"range","address":"16315 JACKSON DR","state":"California"},"type":"Feature","geometry":{"type":"Point","coordinates":[-117.448018,34.119821]}},{"properties":{"city":"ANTIOCH","zip":"94509","geo_score":0.912,"filetransactiontype":"LandSafe A Report Only","referringcustomer":"LandSafe_CA","id":"a6avqmn60u4h","geo_precision":"range","address":"2901 SUNSET LN","state":"California"},"type":"Feature","geometry":{"type":"Point","coordinates":[-121.803739,37.994007]}},{"properties":{"city":"FONTANA","zip":"92335","geo_score":0.959,"filetransactiontype":"LandSafe A Report Only","referringcustomer":"LandSafe_CA","id":"a6avqmd7m5wt","geo_precision":"range","address":"15389 HIBISCUS AVE","state":"California"},"type":"Feature","geometry":{"type":"Point","coordinates":[-117.469471,34.08881]}},{"properties":{"city":"DELANO","zip":"93215","geo_score":1.0,"filetransactiontype":"LandSafe A Report Only","referringcustomer":"LandSafe_CA","id":"a6avqmmz8udo","geo_precision":"range","address":"631 UNION ST","state":"California"},"type":"Feature","geometry":{"type":"Point","coordinates":[-119.229076,35.765298]}},{"properties":{"city":"Los Angeles","zip":"90003","geo_score":0.571,"filetransactiontype":"LandSafe A Report Only","referringcustomer":"LandSafe_CA","id":"a6avqmo8oh4l","geo_precision":"street","address":"155 E 88TH PL #A,B,C","state":"California"},"type":"Feature","geometry":{"type":"Point","coordinates":[-118.273866,33.957184]}},{"properties":{"city":"HAYWARD","zip":"94541","geo_score":0.941,"filetransactiontype":"LandSafe A Report Only","referringcustomer":"LandSafe_CA","id":"a6avqmalkn5y","geo_precision":"range","address":"1476 CLAY ST","state":"California"},"type":"Feature","geometry":{"type":"Point","coordinates":[-122.072361,37.674596]}},{"properties":{"city":"LOS ANGELES","zip":"90045","geo_score":0.354,"filetransactiontype":"LandSafe A Report Only","referringcustomer":"FNMA","id":"a6avqmemj1sp","geo_precision":"street","address":"7111 LA TIJERA BLVD APT B202","state":"California"},"type":"Feature","geometry":{"type":"Point","coordinates":[-118.426909,33.973535]}},{"properties":{"city":"WATSONVILLE","zip":"95076","geo_score":0.911,"filetransactiontype":"LandSafe A Report Only","referringcustomer":"FNMA","id":"a6avqmhb06bb","geo_precision":"range","address":"97 KLASSEN LANE","state":"California"},"type":"Feature","geometry":{"type":"Point","coordinates":[-121.763917,36.960944]}},{"properties":{"city":"SANTA CRUZ","zip":"95062","geo_score":0.72,"filetransactiontype":"LandSafe A Report Only","referringcustomer":"FNMA","id":"a6avqmpfinko","geo_precision":"street","address":"1200 CAPITOLA ROAD #17","state":"California"},"type":"Feature","geometry":{"type":"Point","coordinates":[-121.996346,36.981547]}},{"properties":{"city":"CRDARPINES PARK","zip":"92322","geo_score":0.799,"filetransactiontype":"LandSafe A Report Only","referringcustomer":"LandSafe_CA","id":"a6avqmismp6r","geo_precision":"street","address":"22076 PINE DRIVE","state":"California"},"type":"Feature","geometry":{"type":"Point","coordinates":[-117.316193,34.243879]}},{"properties":{"city":"MENIFEE","zip":"92584","geo_score":0.512,"filetransactiontype":"LandSafe A Report Only","referringcustomer":"FNMA","id":"a6avqmdzcnfe","geo_precision":"street","address":"31435 NORTHCREST CT","state":"California"},"type":"Feature","geometry":{"type":"Point","coordinates":[-117.490186,34.008269]}},{"properties":{"city":"GARDEN GROVE","zip":"92845","geo_score":1.0,"filetransactiontype":"LandSafe A Report Only","referringcustomer":"LandSafe_CA","id":"a6avqmalu9x9","geo_precision":"range","address":"12577 CLUSTER PINES ROAD","state":"California"},"type":"Feature","geometry":{"type":"Point","coordinates":[-118.012869,33.779711]}},{"properties":{"city":"APPLE VALLEY","zip":"92308","geo_score":1.0,"filetransactiontype":"LandSafe A Report Only","referringcustomer":"LandSafe_CA","id":"a6avqmmys6yd","geo_precision":"range","address":"12398 TAMIANI ROAD","state":"California"},"type":"Feature","geometry":{"type":"Point","coordinates":[-117.20269,34.477086]}},{"properties":{"city":"MURRIETA CA 92563","zip":"92563","geo_score":0.577,"filetransactiontype":"LandSafe A Report Only","referringcustomer":"LandSafe_CA","id":"a6avqmcwj0xn","geo_precision":"street","address":"33639 PETUNIA STREET","state":"California"},"type":"Feature","geometry":{"type":"Point","coordinates":[-117.199015,33.7263]}},{"properties":{"city":"MODESTO","zip":"95355","geo_score":1.0,"filetransactiontype":"LandSafe A Report Only","referringcustomer":"LandSafe_CA","id":"a6avqmk1s4zz","geo_precision":"range","address":"3525 LAUDING WAY","state":"California"},"type":"Feature","geometry":{"type":"Point","coordinates":[-120.93012,37.684039]}},{"properties":{"city":"PORFIRIO","zip":"91402","geo_score":0.906,"filetransactiontype":"LandSafe A Report Only","referringcustomer":"LandSafe_CA","id":"a6avqmk5t0cg","geo_precision":"range","address":"9800 VESPER AVE 4","state":"California"},"type":"Feature","geometry":{"type":"Point","coordinates":[-118.450235,34.246714]}},{"properties":{"city":"RUNNING SPRINGS","zip":"92382","geo_score":0.819,"filetransactiontype":"LandSafe A Report Only","referringcustomer":"LandSafe_CA","id":"a6avqmjdbk5y","geo_precision":"range","address":"2354 SPRING OAK DR","state":"California"},"type":"Feature","geometry":{"type":"Point","coordinates":[-117.122264,34.212573]}},{"properties":{"city":"LIVERMORE","zip":"94551","geo_score":0.878,"filetransactiontype":"LandSafe A Report Only","referringcustomer":"LandSafe_CA","id":"a6avqmmwnu7w","geo_precision":"range","address":"5828 CRESTMONT AVE","state":"California"},"type":"Feature","geometry":{"type":"Point","coordinates":[-121.727334,37.720078]}},{"properties":{"city":"WINNETKA","zip":"91306","geo_score":1.0,"filetransactiontype":"LandSafe A Report Only","referringcustomer":"LandSafe_CA","id":"a6avqmmxqoif","geo_precision":"range","address":"20407 PARTHENIA STREET","state":"California"},"type":"Feature","geometry":{"type":"Point","coordinates":[-118.57791,34.228211]}},{"properties":{"city":"LOS ANGELES","zip":"90002","geo_score":0.829,"filetransactiontype":"LandSafe A Report Only","referringcustomer":"FNMA","id":"a6avqmmpx0kj","geo_precision":"range","address":"644 EAST 93RD STREET","state":"California"},"type":"Feature","geometry":{"type":"Point","coordinates":[-118.264332,33.952005]}},{"properties":{"city":"SOUTH SAN FRANCISCO","zip":"94080","geo_score":0.937,"filetransactiontype":"LandSafe A Report Only","referringcustomer":"LandSafe_CA","id":"a6avqmd8v0pt","geo_precision":"range","address":"15 DAMONTE COURT","state":"California"},"type":"Feature","geometry":{"type":"Point","coordinates":[-122.407101,37.665588]}},{"properties":{"city":"SYLMAR","zip":"91342","geo_score":0.805,"filetransactiontype":"LandSafe A Report Only","referringcustomer":"LandSafe_CA","id":"a6avqmarbn14","geo_precision":"street","address":"14380 FOOTHILL BOULEVARD #17","state":"California"},"type":"Feature","geometry":{"type":"Point","coordinates":[-118.338221,34.272505]}},{"properties":{"city":"LYNWOOD","zip":"90262","geo_score":0.951,"filetransactiontype":"LandSafe A Report Only","referringcustomer":"LandSafe_CA","id":"a6avqmjiltmz","geo_precision":"range","address":"3827 LE SAGE ST","state":"California"},"type":"Feature","geometry":{"type":"Point","coordinates":[-118.197464,33.929621]}},{"properties":{"city":"LOS ANGELES","zip":"91311","geo_score":0.473,"filetransactiontype":"LandSafe A Report Only","referringcustomer":"LandSafe_CA","id":"a6avqmqc1tx0","geo_precision":"street","address":"10234 OKLAHOMA AVENUE #F","state":"California"},"type":"Feature","geometry":{"type":"Point","coordinates":[-118.586376,34.25539]}},{"properties":{"city":"TUSTIN","zip":"92782","geo_score":0.683,"filetransactiontype":"LandSafe A Report Only","referringcustomer":"LandSafe_CA","id":"a6avqmhpedco","geo_precision":"zip","address":"211 LIBERTY STREET","state":"California"},"type":"Feature","geometry":{"type":"Point","coordinates":[-117.816189,33.705787]}},{"properties":{"city":"GARDEN GROVE","zip":"92843","geo_score":0.805,"filetransactiontype":"LandSafe A Report Only","referringcustomer":"LandSafe_CA","id":"a6avqmawf79a","geo_precision":"street","address":"13361 PALM STREET, #1,2,3,4","state":"California"},"type":"Feature","geometry":{"type":"Point","coordinates":[-117.915603,33.774191]}},{"properties":{"city":"SACRAMENTO","zip":"95823","geo_score":0.922,"filetransactiontype":"LandSafe A Report Only","referringcustomer":"FNMA","id":"a6avqmejq9y1","geo_precision":"range","address":"6905 Milbrook Way","state":"California"},"type":"Feature","geometry":{"type":"Point","coordinates":[-121.45906,38.500286]}},{"properties":{"city":"CITRUS HEIGHTS","zip":"95610","geo_score":1.0,"filetransactiontype":"LandSafe A Report Only","referringcustomer":"LandSafe_CA","id":"a6avqmalgvl9","geo_precision":"range","address":"7716 GUENIVERE WAY","state":"California"},"type":"Feature","geometry":{"type":"Point","coordinates":[-121.278652,38.671349]}},{"properties":{"city":"pacifica","zip":"94044","geo_score":0.915,"filetransactiontype":"LandSafe A Report Only","referringcustomer":"LandSafe_CA","id":"a6avqme2jrv9","geo_precision":"range","address":"949 SACRAMENTO TERRACE","state":"California"},"type":"Feature","geometry":{"type":"Point","coordinates":[-122.481747,37.635384]}},{"properties":{"city":"SALINAS","zip":"93905","geo_score":1.0,"filetransactiontype":"LandSafe A Title Only","referringcustomer":"LandSafe_CA","id":"a6avqmkamm0z","geo_precision":"range","address":"1179 BOBCAT WAY","state":"California"},"type":"Feature","geometry":{"type":"Point","coordinates":[-121.592535,36.689111]}},{"properties":{"city":"LIVERMORE","zip":"94551","geo_score":1.0,"filetransactiontype":"LandSafe A Report Only","referringcustomer":"LandSafe_CA","id":"a6avqmks8oxw","geo_precision":"range","address":"5296 PEONY DRIVE","state":"California"},"type":"Feature","geometry":{"type":"Point","coordinates":[-121.741629,37.715143]}},{"properties":{"city":"SANTA MARIA","zip":"93454","geo_score":0.912,"filetransactiontype":"LandSafe A Report Only","referringcustomer":"LandSafe_CA","id":"a6avqmfwjd9z","geo_precision":"range","address":"207 NORTH PALISADE DRIVE","state":"California"},"type":"Feature","geometry":{"type":"Point","coordinates":[-120.411428,34.95369]}},{"properties":{"city":"SAN RAMON","zip":"94583","geo_score":1.0,"filetransactiontype":"LandSafe A Report Only","referringcustomer":"FNMA","id":"a6avqmohctih","geo_precision":"range","address":"7573 INTERLACHEN AVE","state":"California"},"type":"Feature","geometry":{"type":"Point","coordinates":[-121.936815,37.72556]}},{"properties":{"city":"APTOS","zip":"95003","geo_score":0.471,"filetransactiontype":"LandSafe A Report Only","referringcustomer":"LandSafe_CA","id":"a6avqmgzz5ay","geo_precision":"street","address":"512 A &amp; B LAVERNE AVENUE","state":"California"},"type":"Feature","geometry":{"type":"Point","coordinates":[-121.916719,36.980225]}},{"properties":{"city":"SANTA CRUZ","zip":"95062","geo_score":0.913,"filetransactiontype":"LandSafe A Report Only","referringcustomer":"FNMA","id":"a6avqmgv0iz1","geo_precision":"range","address":"1781 SOMMERFELD AVENUE","state":"California"},"type":"Feature","geometry":{"type":"Point","coordinates":[-121.970346,36.975086]}},{"properties":{"city":"HOLLISTER","zip":"95203","geo_score":0.573,"filetransactiontype":"LandSafe A Title Only","referringcustomer":"LandSafe_CA","id":"a6avqmf40xx4","geo_precision":"range","address":"1251 ASPEN CIRCLE","state":"California"},"type":"Feature","geometry":{"type":"Point","coordinates":[-120.349918,38.254706]}},{"properties":{"city":"CARSON","zip":"90745","geo_score":1.0,"filetransactiontype":"LandSafe A Report Only","referringcustomer":"LandSafe_CA","id":"a6avqmi122kb","geo_precision":"range","address":"425 E 211TH STREET","state":"California"},"type":"Feature","geometry":{"type":"Point","coordinates":[-118.269579,33.838088]}},{"properties":{"city":"POMONA","zip":"91766","geo_score":0.888,"filetransactiontype":"LandSafe A Report Only","referringcustomer":"LandSafe_CA","id":"a6avqmod5s67","geo_precision":"range","address":"1074 FREMONT STREET","state":"California"},"type":"Feature","geometry":{"type":"Point","coordinates":[-117.762257,34.041788]}},{"properties":{"city":"SYLMAR","zip":"91342","geo_score":1.0,"filetransactiontype":"LandSafe A Report Only","referringcustomer":"LandSafe_CA","id":"a6avqmjct5w3","geo_precision":"range","address":"13397 WHEELER AVENUE","state":"California"},"type":"Feature","geometry":{"type":"Point","coordinates":[-118.430447,34.314543]}},{"properties":{"city":"BELLFLOWER","zip":"90706","geo_score":1.0,"filetransactiontype":"LandSafe A Report Only","referringcustomer":"LandSafe_CA","id":"a6avqmah08tf","geo_precision":"range","address":"10414 FAYWOOD STREET","state":"California"},"type":"Feature","geometry":{"type":"Point","coordinates":[-118.112751,33.897564]}},{"properties":{"city":"FONTANA","zip":"92337","geo_score":0.878,"filetransactiontype":"LandSafe A Report Only","referringcustomer":"LandSafe_CA","id":"a6avqmeevzxf","geo_precision":"street","address":"15468 COLT AVENUE","state":"California"},"type":"Feature","geometry":{"type":"Point","coordinates":[-117.465305,34.045487]}},{"properties":{"city":"WINCHESTER","zip":"92596","geo_score":0.484,"filetransactiontype":"LandSafe A Report Only","referringcustomer":"LandSafe_CA","id":"a6avqmgbvt42","geo_precision":"street","address":"35015 LANTERN LIGHT DRIVE","state":"California"},"type":"Feature","geometry":{"type":"Point","coordinates":[-117.399281,33.698153]}},{"properties":{"city":"THOUSAND OAKS","zip":"91361","geo_score":0.869,"filetransactiontype":"LandSafe A Report Only","referringcustomer":"LandSafe_CA","id":"a6avqmhzx4ox","geo_precision":"range","address":"1936 STONESGATE STRE","state":"California"},"type":"Feature","geometry":{"type":"Point","coordinates":[-118.842686,34.150985]}},{"properties":{"city":"LANCASTER","zip":"93536","geo_score":0.924,"filetransactiontype":"LandSafe A Report Only","referringcustomer":"LandSafe_CA","id":"a6avqmed2j9r","geo_precision":"range","address":"43346 EDSON AVENUE","state":"California"},"type":"Feature","geometry":{"type":"Point","coordinates":[-118.177137,34.670298]}},{"properties":{"city":"RANCHO SANTA MARGARI","zip":"92688","geo_score":0.919,"filetransactiontype":"LandSafe A Report Only","referringcustomer":"LandSafe_CA","id":"a6avqmdrrmvi","geo_precision":"range","address":"26 SANTA CRUZ","state":"California"},"type":"Feature","geometry":{"type":"Point","coordinates":[-117.623989,33.635291]}},{"properties":{"city":"HEMET","zip":"92545","geo_score":0.447,"filetransactiontype":"LandSafe A Report Only","referringcustomer":"LandSafe_CA","id":"a6avqmovl718","geo_precision":"street","address":"1900 DAINTY WAY","state":"California"},"type":"Feature","geometry":{"type":"Point","coordinates":[-117.337757,33.932314]}},{"properties":{"city":"BAKERSFIELD","zip":"93311","geo_score":0.683,"filetransactiontype":"LandSafe A Report Only","referringcustomer":"LandSafe_CA","id":"a6avqmkcpw1w","geo_precision":"zip","address":"8912 BROADWAY AVENUE","state":"California"},"type":"Feature","geometry":{"type":"Point","coordinates":[-118.905173,35.294405]}},{"properties":{"city":"DIAMOND BAR","zip":"91765","geo_score":1.0,"filetransactiontype":"LandSafe A Report Only","referringcustomer":"FNMA","id":"a6avqmc8x1zg","geo_precision":"range","address":"515 GREAT BEND DRIVE","state":"California"},"type":"Feature","geometry":{"type":"Point","coordinates":[-117.81133,34.015108]}},{"properties":{"city":"SANTA CRUZ","zip":"95065","geo_score":0.951,"filetransactiontype":"LandSafe A Report Only","referringcustomer":"LandSafe_CA","id":"a6avqmpdd4lf","geo_precision":"range","address":"1823 MOUNT VISTA COURT","state":"California"},"type":"Feature","geometry":{"type":"Point","coordinates":[-121.979319,36.993814]}},{"properties":{"city":"Forest Falls","zip":"92339","geo_score":1.0,"filetransactiontype":"LandSafe A Title Only","referringcustomer":"LandSafe_CA","id":"a6avqmj6sxt8","geo_precision":"range","address":"39373 Prospect Dr","state":"California"},"type":"Feature","geometry":{"type":"Point","coordinates":[-116.943897,34.090402]}},{"properties":{"city":"Santa Cruz","zip":"95060","geo_score":0.837,"filetransactiontype":"LandSafe A Report Only","referringcustomer":"LandSafe_CA","id":"a6avqmn8mzne","geo_precision":"range","address":"515 DUFOUR","state":"California"},"type":"Feature","geometry":{"type":"Point","coordinates":[-122.040727,36.962906]}},{"properties":{"city":"PLUMAS LAKE","zip":"95961","geo_score":0.595,"filetransactiontype":"LandSafe A Report Only","referringcustomer":"LandSafe_CA","id":"a6avqmcyjf9b","geo_precision":"zip","address":"1651 BELVEDERE WAY","state":"California"},"type":"Feature","geometry":{"type":"Point","coordinates":[-121.391149,39.214767]}},{"properties":{"city":"THOUSAND OAKS","zip":"91360","geo_score":0.474,"filetransactiontype":"LandSafe A Report Only","referringcustomer":"LandSafe_CA","id":"a6avqmav15kb","geo_precision":"street","address":"787 E. AVENIDA DE LOS ARBOLES","state":"California"},"type":"Feature","geometry":{"type":"Point","coordinates":[-118.873303,34.218064]}},{"properties":{"city":"ARLETA AREA","zip":"91331","geo_score":0.912,"filetransactiontype":"LandSafe A Report Only","referringcustomer":"LandSafe_CA","id":"a6avqmil473c","geo_precision":"range","address":"13219 REEDLEY STREET","state":"California"},"type":"Feature","geometry":{"type":"Point","coordinates":[-118.420053,34.227576]}},{"properties":{"city":"LOS ANGELES","zip":"90025","geo_score":0.777,"filetransactiontype":"LandSafe A Report Only","referringcustomer":"LandSafe_CA","id":"a6avqmktk1bt","geo_precision":"street","address":"1323 SOUTH CARMELINA AVE #101","state":"California"},"type":"Feature","geometry":{"type":"Point","coordinates":[-118.468449,34.040748]}},{"properties":{"city":"SACRAMENTO","zip":"95826","geo_score":0.927,"filetransactiontype":"LandSafe A Report Only","referringcustomer":"LandSafe_CA","id":"a6avqmka9p3n","geo_precision":"range","address":"3808 - 3810 WESTPORTER DR","state":"California"},"type":"Feature","geometry":{"type":"Point","coordinates":[-121.354694,38.546726]}},{"properties":{"city":"LOS ANGELES","zip":"90016","geo_score":1.0,"filetransactiontype":"LandSafe A Report Only","referringcustomer":"LandSafe_CA","id":"a6avqmlz5owe","geo_precision":"range","address":"5772 CORBETT STREET","state":"California"},"type":"Feature","geometry":{"type":"Point","coordinates":[-118.37121,34.02507]}},{"properties":{"city":"OAKLEY","zip":"94561","geo_score":1.0,"filetransactiontype":"LandSafe A Report Only","referringcustomer":"LandSafe_CA","id":"a6avqmokxbe6","geo_precision":"range","address":"1251 WEST CYPRESS ROAD","state":"California"},"type":"Feature","geometry":{"type":"Point","coordinates":[-121.717781,37.990539]}},{"properties":{"city":"LEMON GROVE","zip":"91945","geo_score":1.0,"filetransactiontype":"LandSafe A Report Only","referringcustomer":"LandSafe_CA","id":"a6avqmlbm62i","geo_precision":"range","address":"7429 BERYL STREET","state":"California"},"type":"Feature","geometry":{"type":"Point","coordinates":[-117.037036,32.729719]}},{"properties":{"city":"FELTON","zip":"95018","geo_score":0.902,"filetransactiontype":"LandSafe A Report Only","referringcustomer":"LandSafe_CA","id":"a6avqmdnmojp","geo_precision":"range","address":"10333 EAST ZAYANTE ROAD","state":"California"},"type":"Feature","geometry":{"type":"Point","coordinates":[-122.039807,37.095832]}},{"properties":{"city":"SANTA CRUZ","zip":"95062","geo_score":0.816,"filetransactiontype":"LandSafe A Report Only","referringcustomer":"LandSafe_CA","id":"a6avqmddoan3","geo_precision":"range","address":"2284 7th Ave","state":"California"},"type":"Feature","geometry":{"type":"Point","coordinates":[-121.989599,36.982233]}},{"properties":{"city":"BEN LOMOND","zip":"95005","geo_score":0.924,"filetransactiontype":"LandSafe A Report Only","referringcustomer":"LandSafe_CA","id":"a6avqmp6c5i8","geo_precision":"range","address":"1110 DUNDEE AVE","state":"California"},"type":"Feature","geometry":{"type":"Point","coordinates":[-122.093558,37.08168]}},{"properties":{"city":"OAKLAND","zip":"94619","geo_score":1.0,"filetransactiontype":"LandSafe A Report Only","referringcustomer":"LandSafe_CA","id":"a6avqmpuar9d","geo_precision":"range","address":"3001 COURTLAND AVENUE","state":"California"},"type":"Feature","geometry":{"type":"Point","coordinates":[-122.199785,37.783094]}},{"properties":{"city":"VALLEJO","zip":"94591","geo_score":1.0,"filetransactiontype":"LandSafe A Report Only","referringcustomer":"LandSafe_CA","id":"a6avqmh7cuft","geo_precision":"range","address":"430 TOPSAIL DRIVE","state":"California"},"type":"Feature","geometry":{"type":"Point","coordinates":[-122.202242,38.071965]}},{"properties":{"city":"LOS ANGELES","zip":"90015","geo_score":0.727,"filetransactiontype":"LandSafe A Report Only","referringcustomer":"LandSafe_CA","id":"a6avqmmlz0rp","geo_precision":"range","address":"600 WEST 9TH STREET NO 408","state":"California"},"type":"Feature","geometry":{"type":"Point","coordinates":[-118.260367,34.045124]}},{"properties":{"city":"YORBA LINDA","zip":"92877","geo_score":0.805,"filetransactiontype":"LandSafe A Report Only","referringcustomer":"LandSafe_CA","id":"a6avqmqittsa","geo_precision":"range","address":"5640 GREENBRIAR DRIVE","state":"California"},"type":"Feature","geometry":{"type":"Point","coordinates":[-117.751646,33.880502]}},{"properties":{"city":"FRESNO","zip":"93722","geo_score":1.0,"filetransactiontype":"LandSafe A Report Only","referringcustomer":"LandSafe_CA","id":"a6avqmgi45vt","geo_precision":"range","address":"3052 WEST PICO AVENUE","state":"California"},"type":"Feature","geometry":{"type":"Point","coordinates":[-119.845545,36.801209]}},{"properties":{"city":"LOS ANGELES","zip":"91040","geo_score":0.824,"filetransactiontype":"LandSafe A Report Only","referringcustomer":"LandSafe_CA","id":"a6avqmlo8uep","geo_precision":"range","address":"10916 MESETA AVENUE","state":"California"},"type":"Feature","geometry":{"type":"Point","coordinates":[-118.368401,34.254203]}},{"properties":{"city":"CASTIAC","zip":"91384","geo_score":0.972,"filetransactiontype":"LandSafe A Report Only","referringcustomer":"LandSafe_CA","id":"a6avqmooy7hp","geo_precision":"range","address":"27837 FIREBRAND DR","state":"California"},"type":"Feature","geometry":{"type":"Point","coordinates":[-118.621321,34.458806]}},{"properties":{"city":"CONCORD","zip":"94521","geo_score":1.0,"filetransactiontype":"LandSafe A Report Only","referringcustomer":"LandSafe_CA","id":"a6avqmop1mtc","geo_precision":"range","address":"3955 KAURI COURT","state":"California"},"type":"Feature","geometry":{"type":"Point","coordinates":[-122.003452,37.963542]}},{"properties":{"city":"FRESNO","zip":"93728","geo_score":1.0,"filetransactiontype":"LandSafe A Report Only","referringcustomer":"LandSafe_CA","id":"a6avqmp6k0ju","geo_precision":"range","address":"1035 NORTH FARRIS AVENUE","state":"California"},"type":"Feature","geometry":{"type":"Point","coordinates":[-119.811955,36.756059]}},{"properties":{"city":"SAN DIEGO","zip":"92128","geo_score":0.805,"filetransactiontype":"LandSafe A Report Only","referringcustomer":"LandSafe_CA","id":"a6avqmhheshn","geo_precision":"range","address":"6662 OAKRIDGE RD","state":"California"},"type":"Feature","geometry":{"type":"Point","coordinates":[-117.052266,32.801455]}},{"properties":{"city":"ARVIN","zip":"93203","geo_score":0.909,"filetransactiontype":"LandSafe A Report Only","referringcustomer":"LandSafe_CA","id":"a6avqmat6ga8","geo_precision":"range","address":"564 WALNUT DRIVE","state":"California"},"type":"Feature","geometry":{"type":"Point","coordinates":[-118.837635,35.204225]}},{"properties":{"city":"LINCOLN","zip":"95648","geo_score":1.0,"filetransactiontype":"LandSafe A Report Only","referringcustomer":"LandSafe_CA","id":"a6avqmeu10gh","geo_precision":"range","address":"807 DOVE COURT","state":"California"},"type":"Feature","geometry":{"type":"Point","coordinates":[-121.307184,38.896609]}},{"properties":{"city":"BAKERSFIELD","zip":"93314","geo_score":0.415,"filetransactiontype":"LandSafe A Report Only","referringcustomer":"LandSafe_CA","id":"a6avqmk6suhy","geo_precision":"street","address":"13014 FALL RIVER PLACE","state":"California"},"type":"Feature","geometry":{"type":"Point","coordinates":[-118.871976,35.408023]}},{"properties":{"city":"CHULA VISTA","zip":"91911","geo_score":1.0,"filetransactiontype":"LandSafe A Report Only","referringcustomer":"LandSafe_CA","id":"a6avqmnlgfv6","geo_precision":"range","address":"93 LEANNA STREET","state":"California"},"type":"Feature","geometry":{"type":"Point","coordinates":[-117.052474,32.617501]}},{"properties":{"city":"MODESTO","zip":"95358","geo_score":0.325,"filetransactiontype":"LandSafe A Report Only","referringcustomer":"LandSafe_CA","id":"a6avqmio3kk0","geo_precision":"street","address":"1709 ST. CHARLOTTE LANE","state":"California"},"type":"Feature","geometry":{"type":"Point","coordinates":[-120.25405,37.998494]}},{"properties":{"city":"CHULA VISTA","zip":"91913","geo_score":0.805,"filetransactiontype":"LandSafe A Report Only","referringcustomer":"LandSafe_CA","id":"a6avqmh7kdjz","geo_precision":"street","address":"1388 CHALLIS PLACE #221","state":"California"},"type":"Feature","geometry":{"type":"Point","coordinates":[-116.977115,32.628209]}},{"properties":{"city":"SACRAMENTO","zip":"94203","geo_score":0.683,"filetransactiontype":"LandSafe A Report Only","referringcustomer":"LandSafe_CA","id":"a6avqmqd4d4k","geo_precision":"zip","address":"3165 HOGARTH DRIVE","state":"California"},"type":"Feature","geometry":{"type":"Point","coordinates":[-121.555406,38.380456]}},{"properties":{"city":"CORONA","zip":"92883","geo_score":0.447,"filetransactiontype":"LandSafe A Report Only","referringcustomer":"LandSafe_CA","id":"a6avqmhbb4ku","geo_precision":"street","address":"27852 CIRRUS CIRCLE","state":"California"},"type":"Feature","geometry":{"type":"Point","coordinates":[-117.906252,33.791047]}},{"properties":{"city":"PLEASANTON","zip":"94588","geo_score":1.0,"filetransactiontype":"LandSafe A Report Only","referringcustomer":"LandSafe_CA","id":"a6avqmfbdvpd","geo_precision":"range","address":"3994 PIMLICO DRIVE","state":"California"},"type":"Feature","geometry":{"type":"Point","coordinates":[-121.868299,37.700975]}},{"properties":{"city":"NORTH HOLLYWOOD","zip":"91605","geo_score":1.0,"filetransactiontype":"LandSafe A Report Only","referringcustomer":"LandSafe_CA","id":"a6avqmo8t6t5","geo_precision":"range","address":"7417 LEMP AVENUE","state":"California"},"type":"Feature","geometry":{"type":"Point","coordinates":[-118.384489,34.205123]}},{"properties":{"city":"RICHMOND","zip":"94805","geo_score":0.902,"filetransactiontype":"LandSafe A Report Only","referringcustomer":"LandSafe_CA","id":"a6avqmf6wvo5","geo_precision":"range","address":"715 40TH ST","state":"California"},"type":"Feature","geometry":{"type":"Point","coordinates":[-122.329867,37.940946]}},{"properties":{"city":"BAKERSFIELD","zip":"93309","geo_score":0.92,"filetransactiontype":"LandSafe A Report Only","referringcustomer":"LandSafe_CA","id":"a6avqmb91kmk","geo_precision":"range","address":"3559 BELLE TERRACE AVENUE","state":"California"},"type":"Feature","geometry":{"type":"Point","coordinates":[-119.043784,35.346769]}},{"properties":{"city":"OAKLEY","zip":"94561","geo_score":1.0,"filetransactiontype":"LandSafe A Report Only","referringcustomer":"LandSafe_CA","id":"a6avqmqa60q8","geo_precision":"range","address":"1831 GATEWAY DRIVE","state":"California"},"type":"Feature","geometry":{"type":"Point","coordinates":[-121.730218,37.985822]}},{"properties":{"city":"SACRAMENTO","zip":"95829","geo_score":1.0,"filetransactiontype":"LandSafe A Report Only","referringcustomer":"LandSafe_CA","id":"a6avqmgzl1un","geo_precision":"range","address":"9168 KINBRACE CT","state":"California"},"type":"Feature","geometry":{"type":"Point","coordinates":[-121.359692,38.463392]}},{"properties":{"city":"TURLOCK","zip":"95380","geo_score":0.902,"filetransactiontype":"LandSafe A Report Only","referringcustomer":"LandSafe_CA","id":"a6avqmk9hwsf","geo_precision":"street","address":"691 SPRUCE STREET","state":"California"},"type":"Feature","geometry":{"type":"Point","coordinates":[-120.853508,37.487001]}},{"properties":{"city":"SAN BERNARDINO","zip":"92405","geo_score":0.708,"filetransactiontype":"LandSafe A Report Only","referringcustomer":"LandSafe_CA","id":"a6avqmgqwmku","geo_precision":"street","address":"1440 WEST EDGEHILL ROAD #71","state":"California"},"type":"Feature","geometry":{"type":"Point","coordinates":[-117.298538,34.153064]}},{"properties":{"city":"SUISUN CITY","zip":"94585","geo_score":0.857,"filetransactiontype":"LandSafe A Report Only","referringcustomer":"LandSafe_CA","id":"a6avqmnj6bip","geo_precision":"range","address":"702 CHULA VISTA WAY","state":"California"},"type":"Feature","geometry":{"type":"Point","coordinates":[-121.985741,38.252004]}},{"properties":{"city":"WHITTIER","zip":"90603","geo_score":0.902,"filetransactiontype":"LandSafe A Report Only","referringcustomer":"LandSafe_CA","id":"a6avqmcgzavv","geo_precision":"range","address":"15668 YERMO STREET","state":"California"},"type":"Feature","geometry":{"type":"Point","coordinates":[-117.996927,33.936168]}},{"properties":{"city":"APPLE VALLEY CA 92307","zip":"SAN BERNARDINO","geo_score":0.398,"filetransactiontype":"LandSafe A Report Only","referringcustomer":"LandSafe_CA","id":"a6avqmjkzxos","geo_precision":"street","address":"17865 PASEO LUNADO","state":"California"},"type":"Feature","geometry":{"type":"Point","coordinates":[-121.814945,40.512478]}},{"properties":{"city":"FONTANA","zip":"92336","geo_score":1.0,"filetransactiontype":"LandSafe A Report Only","referringcustomer":"LandSafe_CA","id":"a6avqmhm3xpl","geo_precision":"range","address":"16987 WALNUT COURT","state":"California"},"type":"Feature","geometry":{"type":"Point","coordinates":[-117.434497,34.128107]}},{"properties":{"city":"GUADALUPE","zip":"91434","geo_score":0.607,"filetransactiontype":"LandSafe A Report Only","referringcustomer":"LandSafe_CA","id":"a6avqmpqndoi","geo_precision":"zip","address":"5196 SURF BIRD LANE","state":"California"},"type":"Feature","geometry":{"type":"Point","coordinates":[-118.448971,34.186672]}},{"properties":{"city":"CANOGA PARK","zip":"91306","geo_score":0.922,"filetransactiontype":"LandSafe A Report Only","referringcustomer":"LandSafe_CA","id":"a6avqmfw6v4c","geo_precision":"range","address":"8647 CORBIN AVENUE","state":"California"},"type":"Feature","geometry":{"type":"Point","coordinates":[-118.5623,34.227528]}},{"properties":{"city":"RESEDA AREA los angeles","zip":"91335","geo_score":0.932,"filetransactiontype":"LandSafe A Report Only","referringcustomer":"LandSafe_CA","id":"a6avqme8acx2","geo_precision":"range","address":"17939 BURTON STREET","state":"California"},"type":"Feature","geometry":{"type":"Point","coordinates":[-118.52318,34.220039]}},{"properties":{"city":"VICTORVILLE","zip":"92392","geo_score":0.512,"filetransactiontype":"LandSafe A Report Only","referringcustomer":"LandSafe_CA","id":"a6avqmebaf57","geo_precision":"street","address":"11905 ELLIOT WAY","state":"California"},"type":"Feature","geometry":{"type":"Point","coordinates":[-116.15831,34.722159]}},{"properties":{"city":"SAN DIMAS","zip":"91773","geo_score":1.0,"filetransactiontype":"LandSafe A Report Only","referringcustomer":"LandSafe_CA","id":"a6avqma246jy","geo_precision":"range","address":"744 N NORTHCAPE AVE","state":"California"},"type":"Feature","geometry":{"type":"Point","coordinates":[-117.80118,34.1149]}},{"properties":{"city":"SUISUN CITY","zip":"94585","geo_score":0.902,"filetransactiontype":"LandSafe A Report Only","referringcustomer":"LandSafe_CA","id":"a6avqmblxtrv","geo_precision":"range","address":"910 CRAVEN DRIVE","state":"California"},"type":"Feature","geometry":{"type":"Point","coordinates":[-122.007484,38.242652]}},{"properties":{"city":"FAIRFIELD","zip":"94533","geo_score":0.902,"filetransactiontype":"LandSafe A Report Only","referringcustomer":"LandSafe_CA","id":"a6avqmanis5x","geo_precision":"range","address":"1362 QUAIL DRIVE","state":"California"},"type":"Feature","geometry":{"type":"Point","coordinates":[-122.006301,38.271079]}},{"properties":{"city":"CHINO","zip":"91710","geo_score":0.919,"filetransactiontype":"LandSafe A Report Only","referringcustomer":"LandSafe_CA","id":"a6avqmjbh251","geo_precision":"range","address":"13004 BALTIMORE COURT","state":"California"},"type":"Feature","geometry":{"type":"Point","coordinates":[-117.710468,34.01701]}},{"properties":{"city":"CHULA VISTA","zip":"91913","geo_score":1.0,"filetransactiontype":"LandSafe A Report Only","referringcustomer":"LandSafe_CA","id":"a6avqmgwqyro","geo_precision":"range","address":"2128 BLUEWATER LANE","state":"California"},"type":"Feature","geometry":{"type":"Point","coordinates":[-116.974645,32.649702]}},{"properties":{"city":"SAN BERNARDINO","zip":"92410","geo_score":1.0,"filetransactiontype":"LandSafe A Report Only","referringcustomer":"LandSafe_CA","id":"a6avqmcb9k6q","geo_precision":"range","address":"550 NORTH G STREET","state":"California"},"type":"Feature","geometry":{"type":"Point","coordinates":[-117.298656,34.109261]}},{"properties":{"city":"OAKLAND","zip":"94606","geo_score":1.0,"filetransactiontype":"LandSafe A Report Only","referringcustomer":"LandSafe_CA","id":"a6avqmi5ehq8","geo_precision":"range","address":"1315-1317 INTERNATIONAL BLVD","state":"California"},"type":"Feature","geometry":{"type":"Point","coordinates":[-122.247074,37.789836]}},{"properties":{"city":"SAN FRANSISCO","zip":"94124","geo_score":0.992,"filetransactiontype":"LandSafe A Report Only","referringcustomer":"LandSafe_CA","id":"a6avqmaqyozo","geo_precision":"range","address":"1734 MCKINNON AVE","state":"California"},"type":"Feature","geometry":{"type":"Point","coordinates":[-122.391602,37.737272]}},{"properties":{"city":"VICTORVILLE","zip":"92395","geo_score":0.902,"filetransactiontype":"LandSafe A Report Only","referringcustomer":"LandSafe_CA","id":"a6avqmlesjn9","geo_precision":"range","address":"12428 SPRING VALLEY PARKWAY","state":"California"},"type":"Feature","geometry":{"type":"Point","coordinates":[-117.267893,34.477012]}},{"properties":{"city":"THOUSAND OAKS","zip":"91362","geo_score":1.0,"filetransactiontype":"LandSafe A Report Only","referringcustomer":"LandSafe_CA","id":"a6avqml3btnm","geo_precision":"range","address":"1634 EL VERANO DRIVE","state":"California"},"type":"Feature","geometry":{"type":"Point","coordinates":[-118.849421,34.194741]}},{"properties":{"city":"LA PUENTE","zip":"91744","geo_score":0.939,"filetransactiontype":"LandSafe A Report Only","referringcustomer":"LandSafe_CA","id":"a6avqmit6hr4","geo_precision":"range","address":"16342 DALARK STREET","state":"California"},"type":"Feature","geometry":{"type":"Point","coordinates":[-117.927203,34.046514]}},{"properties":{"city":"HIGHLAND","zip":"92346","geo_score":0.917,"filetransactiontype":"LandSafe A Report Only","referringcustomer":"LandSafe_CA","id":"a6avqmjmdb8t","geo_precision":"range","address":"7131 BRADFORD AVE","state":"California"},"type":"Feature","geometry":{"type":"Point","coordinates":[-117.205296,34.124085]}},{"properties":{"city":"HIGHLAND","zip":"92346","geo_score":0.561,"filetransactiontype":"LandSafe A Report Only","referringcustomer":"LandSafe_CA","id":"a6avqmeebev6","geo_precision":"street","address":"7179 CHERRYWOOD COURT","state":"California"},"type":"Feature","geometry":{"type":"Point","coordinates":[-117.348051,34.416873]}},{"properties":{"city":"PLAYA VISTA","zip":"90094","geo_score":0.795,"filetransactiontype":"LandSafe A Report Only","referringcustomer":"LandSafe_CA","id":"a6avqmavcjb4","geo_precision":"street","address":"13031-126 VILLOSA PLACE","state":"California"},"type":"Feature","geometry":{"type":"Point","coordinates":[-118.424758,33.97381]}},{"properties":{"city":"PALM DESERT","zip":"92211","geo_score":1.0,"filetransactiontype":"LandSafe A Report Only","referringcustomer":"LandSafe_CA","id":"a6avqmliuh8e","geo_precision":"range","address":"76716 OKLAHOMA AVENUE","state":"California"},"type":"Feature","geometry":{"type":"Point","coordinates":[-116.327044,33.732552]}},{"properties":{"city":"Stockton","zip":"95205","geo_score":0.892,"filetransactiontype":"LandSafe A Report Only","referringcustomer":"LandSafe_CA","id":"a6avqmlwm1n0","geo_precision":"range","address":"2483 Mistletoe Avenue","state":"California"},"type":"Feature","geometry":{"type":"Point","coordinates":[-121.266164,37.98662]}},{"properties":{"city":"SANTA ROSA","zip":"95403","geo_score":0.913,"filetransactiontype":"LandSafe A Report Only","referringcustomer":"LandSafe_CA","id":"a6avqmmhepin","geo_precision":"range","address":"3609 SUMATRA DRIVE","state":"California"},"type":"Feature","geometry":{"type":"Point","coordinates":[-122.750881,38.478742]}},{"properties":{"city":"LANCASTER","zip":"93536","geo_score":0.729,"filetransactiontype":"LandSafe A Report Only","referringcustomer":"LandSafe_CA","id":"a6avqmmd1j02","geo_precision":"street","address":"43444 HAMPTON STREET","state":"California"},"type":"Feature","geometry":{"type":"Point","coordinates":[-118.237231,34.68586]}},{"properties":{"city":"WILTON","zip":"95693","geo_score":1.0,"filetransactiontype":"LandSafe A Report Only","referringcustomer":"LandSafe_CA","id":"a6avqmcepeus","geo_precision":"range","address":"9661 MARTINGALE CT","state":"California"},"type":"Feature","geometry":{"type":"Point","coordinates":[-121.201444,38.40909]}},{"properties":{"city":"MORENO VALLEY","zip":"92555","geo_score":0.661,"filetransactiontype":"LandSafe A Report Only","referringcustomer":"LandSafe_CA","id":"a6avqmcitcpc","geo_precision":"street","address":"26287 -E IRIS AVE","state":"California"},"type":"Feature","geometry":{"type":"Point","coordinates":[-117.366732,33.887116]}},{"properties":{"city":"RICHMOND","zip":"94804","geo_score":1.0,"filetransactiontype":"LandSafe A Report Only","referringcustomer":"LandSafe_CA","id":"a6avqmhrhqn8","geo_precision":"range","address":"230 MARINA LAKES DR #229","state":"California"},"type":"Feature","geometry":{"type":"Point","coordinates":[-122.341593,37.913508]}},{"properties":{"city":"CARLSBAD","zip":"92009","geo_score":0.878,"filetransactiontype":"LandSafe A Report Only","referringcustomer":"LandSafe_CA","id":"a6avqmhsaa0t","geo_precision":"range","address":"7505 JEREZ CT UNIT B","state":"California"},"type":"Feature","geometry":{"type":"Point","coordinates":[-117.248121,33.088047]}},{"properties":{"city":"LAGUNA HILLS","zip":"92653","geo_score":0.807,"filetransactiontype":"LandSafe A Report Only","referringcustomer":"LandSafe_CA","id":"a6avqmhdkog8","geo_precision":"range","address":"22985 CAMINITO MAR UNIT 208","state":"California"},"type":"Feature","geometry":{"type":"Point","coordinates":[-117.734074,33.630424]}},{"properties":{"city":"LOS ANGELES","zip":"91040","geo_score":0.922,"filetransactiontype":"LandSafe A Report Only","referringcustomer":"LandSafe_CA","id":"a6avqmgmp4z8","geo_precision":"range","address":"8318 OWENS STREET","state":"California"},"type":"Feature","geometry":{"type":"Point","coordinates":[-118.313531,34.264059]}},{"properties":{"city":"SANTA ANA","zip":"92706","geo_score":0.967,"filetransactiontype":"LandSafe A Report Only","referringcustomer":"LandSafe_CA","id":"a6avqmidlvlq","geo_precision":"range","address":"934 WEST SHARON RD","state":"California"},"type":"Feature","geometry":{"type":"Point","coordinates":[-117.877343,33.77123]}},{"properties":{"city":"SACRAMENTO","zip":"95822","geo_score":1.0,"filetransactiontype":"LandSafe A Report Only","referringcustomer":"LandSafe_CA","id":"a6avqmdyg5qx","geo_precision":"range","address":"7350 SLOCUM COURT","state":"California"},"type":"Feature","geometry":{"type":"Point","coordinates":[-121.498975,38.490612]}},{"properties":{"city":"POMONA","zip":"91766","geo_score":0.917,"filetransactiontype":"LandSafe A Report Only","referringcustomer":"LandSafe_CA","id":"a6avqmlglv8w","geo_precision":"range","address":"32 SAGE CANYON ROAD","state":"California"},"type":"Feature","geometry":{"type":"Point","coordinates":[-117.772806,34.044218]}},{"properties":{"city":"LEONA VALLEY","zip":"93551","geo_score":0.828,"filetransactiontype":"LandSafe A Report Only","referringcustomer":"LandSafe_CA","id":"a6avqmim5qxx","geo_precision":"range","address":"40053 97TH ST WEST","state":"California"},"type":"Feature","geometry":{"type":"Point","coordinates":[-118.301976,34.613131]}},{"properties":{"city":"HIGHLAND","zip":"92346","geo_score":0.917,"filetransactiontype":"LandSafe A Report Only","referringcustomer":"LandSafe_CA","id":"a6avqmi4mva6","geo_precision":"range","address":"7557 LILLIAN LANE","state":"California"},"type":"Feature","geometry":{"type":"Point","coordinates":[-117.213653,34.11734]}},{"properties":{"city":"LOS ANGELES","zip":"90044","geo_score":0.912,"filetransactiontype":"LandSafe A Report Only","referringcustomer":"LandSafe_CA","id":"a6avqmoywn2m","geo_precision":"range","address":"9132 S HOOVER ST","state":"California"},"type":"Feature","geometry":{"type":"Point","coordinates":[-118.286952,33.953726]}},{"properties":{"city":"BAKERSFIELD","zip":"93305","geo_score":0.911,"filetransactiontype":"LandSafe A Report Only","referringcustomer":"LandSafe_CA","id":"a6avqmdw84ga","geo_precision":"range","address":"1522 CRESTVIEW DR","state":"California"},"type":"Feature","geometry":{"type":"Point","coordinates":[-118.975254,35.388764]}},{"properties":{"city":"SAN DIEGO","zip":"92128","geo_score":0.475,"filetransactiontype":"LandSafe A Report Only","referringcustomer":"LandSafe_CA","id":"a6avqmnwqahe","geo_precision":"street","address":"2821 VILLAS WAY","state":"California"},"type":"Feature","geometry":{"type":"Point","coordinates":[-117.049621,33.031934]}},{"properties":{"city":"ROHNERT PARK","zip":"94928","geo_score":0.876,"filetransactiontype":"LandSafe A Report Only","referringcustomer":"LandSafe_CA","id":"a6avqmqcbzg6","geo_precision":"street","address":"771 E COTATI AVE 7","state":"California"},"type":"Feature","geometry":{"type":"Point","coordinates":[-122.694637,38.330664]}},{"properties":{"city":"SAN JOSE","zip":"95110","geo_score":1.0,"filetransactiontype":"LandSafe A Report Only","referringcustomer":"LandSafe_CA","id":"a6avqmnglhlx","geo_precision":"range","address":"1386 PALM ST","state":"California"},"type":"Feature","geometry":{"type":"Point","coordinates":[-121.880951,37.311762]}},{"properties":{"city":"SANTA MARIA","zip":"93454","geo_score":0.912,"filetransactiontype":"LandSafe A Report Only","referringcustomer":"LandSafe_CA","id":"a6avqmex0ug2","geo_precision":"range","address":"732 E FESLER ST","state":"California"},"type":"Feature","geometry":{"type":"Point","coordinates":[-120.426217,34.956533]}},{"properties":{"city":"LOS ANGELES","zip":"90046","geo_score":0.912,"filetransactiontype":"LandSafe A Report Only","referringcustomer":"LandSafe_CA","id":"a6avqmgsw35u","geo_precision":"range","address":"840 N FULLER","state":"California"},"type":"Feature","geometry":{"type":"Point","coordinates":[-118.349825,34.086045]}},{"properties":{"city":"CHULA VISTA","zip":"91910","geo_score":0.75,"filetransactiontype":"LandSafe A Report Only","referringcustomer":"LandSafe_CA","id":"a6avqmjrj61n","geo_precision":"street","address":"100 OLD RANCH DR","state":"California"},"type":"Feature","geometry":{"type":"Point","coordinates":[-117.060877,32.640577]}},{"properties":{"city":"CRESTLINE","zip":"92325","geo_score":0.82,"filetransactiontype":"LandSafe A Report Only","referringcustomer":"LandSafe_CA","id":"a6avqmlc7v04","geo_precision":"range","address":"24398 HORST DR","state":"California"},"type":"Feature","geometry":{"type":"Point","coordinates":[-117.270235,34.239088]}},{"properties":{"city":"PACIFICA","zip":"94044","geo_score":0.915,"filetransactiontype":"LandSafe A Report Only","referringcustomer":"LandSafe_CA","id":"a6avqmhd5xnc","geo_precision":"range","address":"551 HEATHCLIFF DR","state":"California"},"type":"Feature","geometry":{"type":"Point","coordinates":[-122.475361,37.646862]}},{"properties":{"city":"EL CAJON","zip":"92019","geo_score":1.0,"filetransactiontype":"LandSafe A Report Only","referringcustomer":"LandSafe_CA","id":"a6avqmp2nll3","geo_precision":"range","address":"6123 DEHESA RD","state":"California"},"type":"Feature","geometry":{"type":"Point","coordinates":[-116.82191,32.802114]}},{"properties":{"city":"SKY VALLEY","zip":"92241","geo_score":0.421,"filetransactiontype":"LandSafe A Report Only","referringcustomer":"LandSafe_CA","id":"a6avqmixk2kj","geo_precision":"street","address":"PENN LN APN:647-130-023-0","state":"California"},"type":"Feature","geometry":{"type":"Point","coordinates":[-116.347319,33.903646]}},{"properties":{"city":"Vallejo","zip":"94590","geo_score":0.581,"filetransactiontype":"LandSafe A Report Only","referringcustomer":"LandSafe_CA","id":"a6avqmqestji","geo_precision":"street","address":"2305 PINNACLE POINT","state":"California"},"type":"Feature","geometry":{"type":"Point","coordinates":[-122.263423,38.007723]}},{"properties":{"city":"fresno","zip":"93704","geo_score":1.0,"filetransactiontype":"LandSafe A Report Only","referringcustomer":"LandSafe_CA","id":"a6avqme9flyr","geo_precision":"range","address":"768 W CELESTE AVE","state":"California"},"type":"Feature","geometry":{"type":"Point","coordinates":[-119.80742,36.821059]}},{"properties":{"city":"EL SOBRANTE","zip":"94803","geo_score":0.805,"filetransactiontype":"LandSafe A Report Only","referringcustomer":"LandSafe_CA","id":"a6avqma6808q","geo_precision":"range","address":"1817 BONITA RD","state":"California"},"type":"Feature","geometry":{"type":"Point","coordinates":[-122.319665,37.959052]}},{"properties":{"city":"REDLANDS","zip":"92374","geo_score":0.967,"filetransactiontype":"LandSafe A Report Only","referringcustomer":"LandSafe_CA","id":"a6avqmilhhsg","geo_precision":"range","address":"1550 NORTH CHURCH STREET","state":"California"},"type":"Feature","geometry":{"type":"Point","coordinates":[-117.173723,34.075537]}},{"properties":{"city":"RIVERSIDE","zip":"92509","geo_score":0.587,"filetransactiontype":"LandSafe A Report Only","referringcustomer":"LandSafe_CA","id":"a6avqmp1n071","geo_precision":"street","address":"7835 CORTE CASTILLO","state":"California"},"type":"Feature","geometry":{"type":"Point","coordinates":[-117.139819,33.51504]}},{"properties":{"city":"LOS ANGELES","zip":"93535","geo_score":0.643,"filetransactiontype":"LandSafe A Report Only","referringcustomer":"LandSafe_CA","id":"a6avqmfo3lov","geo_precision":"street","address":"LANCASTER CA 93535","state":"California"},"type":"Feature","geometry":{"type":"Point","coordinates":[-118.130413,34.696689]}},{"properties":{"city":"WEST HILLS CA 91307","zip":"91307","geo_score":0.957,"filetransactiontype":"LandSafe A Report Only","referringcustomer":"LandSafe_CA","id":"a6avqmelnil3","geo_precision":"range","address":"23009 VANOWEN STREET","state":"California"},"type":"Feature","geometry":{"type":"Point","coordinates":[-118.627334,34.19371]}},{"properties":{"city":"SACRAMENTO","zip":"95842","geo_score":0.434,"filetransactiontype":"LandSafe A Report Only","referringcustomer":"LandSafe_CA","id":"a6avqmfp6ttt","geo_precision":"street","address":"7213 LA TOUR DRIVE","state":"California"},"type":"Feature","geometry":{"type":"Point","coordinates":[-121.357962,38.722789]}},{"properties":{"city":"AREA OF SACRAMENTO","zip":"95842","geo_score":0.963,"filetransactiontype":"LandSafe A Report Only","referringcustomer":"LandSafe_CA","id":"a6avqmodlqaa","geo_precision":"range","address":"5817 DIABLO DRIVE","state":"California"},"type":"Feature","geometry":{"type":"Point","coordinates":[-121.336611,38.693182]}},{"properties":{"city":"LODI","zip":"95240","geo_score":0.913,"filetransactiontype":"LandSafe A Report Only","referringcustomer":"LandSafe_CA","id":"a6avqmqgh1y4","geo_precision":"range","address":"1155 ORANGEWOOD DRIVE","state":"California"},"type":"Feature","geometry":{"type":"Point","coordinates":[-121.287443,38.148785]}},{"properties":{"city":"LOS ANGELES/ TARZANA","zip":"91356","geo_score":0.748,"filetransactiontype":"LandSafe A Report Only","referringcustomer":"LandSafe_CA","id":"a6avqmli49lm","geo_precision":"street","address":"5700 ETIWANDA AVENUE # 169","state":"California"},"type":"Feature","geometry":{"type":"Point","coordinates":[-118.531688,34.163349]}},{"properties":{"city":"SAN BERNARDINO","zip":"92405","geo_score":0.819,"filetransactiontype":"LandSafe A Report Only","referringcustomer":"LandSafe_CA","id":"a6avqmnv1ega","geo_precision":"range","address":"266 WEST 24TH STREET","state":"California"},"type":"Feature","geometry":{"type":"Point","coordinates":[-117.288758,34.137897]}},{"properties":{"city":"LONG BEACH","zip":"90813","geo_score":0.807,"filetransactiontype":"LandSafe A Report Only","referringcustomer":"LandSafe_CA","id":"a6avqmk8m2mg","geo_precision":"street","address":"1203 PACIFIC AVENUE","state":"California"},"type":"Feature","geometry":{"type":"Point","coordinates":[-118.19372,33.782593]}},{"properties":{"city":"DESERT HOT SPRINGS","zip":"92240","geo_score":0.909,"filetransactiontype":"LandSafe A Report Only","referringcustomer":"LandSafe_CA","id":"a6avqmct9run","geo_precision":"range","address":"9638 SAN SIMEON DR","state":"California"},"type":"Feature","geometry":{"type":"Point","coordinates":[-116.496287,33.978953]}},{"properties":{"city":"CONCORD","zip":"94519","geo_score":1.0,"filetransactiontype":"LandSafe A Report Only","referringcustomer":"LandSafe_CA","id":"a6avqmkekj2k","geo_precision":"range","address":"3531 WALNUT AVENUE","state":"California"},"type":"Feature","geometry":{"type":"Point","coordinates":[-122.010006,37.974684]}},{"properties":{"city":"VAL VERDE AREA","zip":"91384","geo_score":0.619,"filetransactiontype":"LandSafe A Report Only","referringcustomer":"LandSafe_CA","id":"a6avqmb6ef2k","geo_precision":"street","address":"28710 TAFT COURT","state":"California"},"type":"Feature","geometry":{"type":"Point","coordinates":[-118.656463,34.442198]}},{"properties":{"city":"SOUTH SANFRANSISCO","zip":"94080","geo_score":0.937,"filetransactiontype":"LandSafe A Report Only","referringcustomer":"LandSafe_CA","id":"a6avqmn0j4m0","geo_precision":"range","address":"100 RANDOLPH AVENUE","state":"California"},"type":"Feature","geometry":{"type":"Point","coordinates":[-122.404278,37.665027]}},{"properties":{"city":"GALT","zip":"95632","geo_score":0.815,"filetransactiontype":"LandSafe A Report Only","referringcustomer":"LandSafe_CA","id":"a6avqmpue7yy","geo_precision":"range","address":"797 BAY HEIGHTS DRIVE","state":"California"},"type":"Feature","geometry":{"type":"Point","coordinates":[-121.300596,38.287129]}},{"properties":{"city":"SANTA ROSA","zip":"95407","geo_score":0.913,"filetransactiontype":"LandSafe A Report Only","referringcustomer":"LandSafe_CA","id":"a6avqmeffxe7","geo_precision":"range","address":"1322 BEACHWOOD DRIVE","state":"California"},"type":"Feature","geometry":{"type":"Point","coordinates":[-122.720649,38.424667]}},{"properties":{"city":"CITRUS HEIGHTS","zip":"95610","geo_score":1.0,"filetransactiontype":"LandSafe A Report Only","referringcustomer":"LandSafe_CA","id":"a6avqmcru043","geo_precision":"range","address":"7686 POPPY WAY","state":"California"},"type":"Feature","geometry":{"type":"Point","coordinates":[-121.2823,38.709763]}},{"properties":{"city":"RICHMOND","zip":"94803","geo_score":0.912,"filetransactiontype":"LandSafe A Report Only","referringcustomer":"LandSafe_CA","id":"a6avqmpxtnqb","geo_precision":"range","address":"36 PARK LN","state":"California"},"type":"Feature","geometry":{"type":"Point","coordinates":[-122.30883,37.982362]}},{"properties":{"city":"TRACY","zip":"95376","geo_score":0.916,"filetransactiontype":"LandSafe A Report Only","referringcustomer":"LandSafe_CA","id":"a6avqmli45ak","geo_precision":"range","address":"2040 VALLERAND ROAD","state":"California"},"type":"Feature","geometry":{"type":"Point","coordinates":[-121.437358,37.751207]}},{"properties":{"city":"WATSONVILLE CA","zip":"95076","geo_score":0.398,"filetransactiontype":"LandSafe A Report Only","referringcustomer":"LandSafe_CA","id":"a6avqme6kb2z","geo_precision":"street","address":"96 VISTA POINT DR 601","state":"California"},"type":"Feature","geometry":{"type":"Point","coordinates":[-121.769269,36.947286]}},{"properties":{"city":"CROCKET","zip":"94525","geo_score":0.805,"filetransactiontype":"LandSafe A Report Only","referringcustomer":"LandSafe_CA","id":"a6avqmcsbxh4","geo_precision":"range","address":"914 5TH AVE","state":"California"},"type":"Feature","geometry":{"type":"Point","coordinates":[-122.225577,38.051653]}},{"properties":{"city":"FRESNO","zip":"93722","geo_score":1.0,"filetransactiontype":"LandSafe A Report Only","referringcustomer":"LandSafe_CA","id":"a6avqmcqsjb3","geo_precision":"range","address":"3637 WEST HARVARD AVENUE","state":"California"},"type":"Feature","geometry":{"type":"Point","coordinates":[-119.858913,36.773048]}},{"properties":{"city":"OAKLAND","zip":"94621","geo_score":1.0,"filetransactiontype":"LandSafe A Report Only","referringcustomer":"LandSafe_CA","id":"a6avqmipzjzu","geo_precision":"range","address":"5620 HARMON AVE","state":"California"},"type":"Feature","geometry":{"type":"Point","coordinates":[-122.197277,37.770248]}},{"properties":{"city":"SAN LEANDRO","zip":"94577","geo_score":1.0,"filetransactiontype":"LandSafe A Report Only","referringcustomer":"LandSafe_CA","id":"a6avqmnnrwh6","geo_precision":"range","address":"355 MAUD AVENUE","state":"California"},"type":"Feature","geometry":{"type":"Point","coordinates":[-122.149825,37.722674]}},{"properties":{"city":"RODEO","zip":"94572","geo_score":0.476,"filetransactiontype":"LandSafe A Report Only","referringcustomer":"LandSafe_CA","id":"a6avqmjvgdso","geo_precision":"street","address":"780 EDWARD WERTH DRIVE","state":"California"},"type":"Feature","geometry":{"type":"Point","coordinates":[-122.22555,38.109083]}},{"properties":{"city":"LIVERMORE","zip":"94551","geo_score":1.0,"filetransactiontype":"LandSafe A Report Only","referringcustomer":"LandSafe_CA","id":"a6avqmmmqj36","geo_precision":"range","address":"2073 BLUEBELL DRIVE","state":"California"},"type":"Feature","geometry":{"type":"Point","coordinates":[-121.745317,37.719081]}},{"properties":{"city":"CLOVIS","zip":"93612","geo_score":0.935,"filetransactiontype":"LandSafe A Report Only","referringcustomer":"LandSafe_CA","id":"a6avqmbfd64k","geo_precision":"range","address":"1333 ADLER DRIVE","state":"California"},"type":"Feature","geometry":{"type":"Point","coordinates":[-119.723755,36.814853]}},{"properties":{"city":"ELK GROVE","zip":"95624","geo_score":0.915,"filetransactiontype":"LandSafe A Report Only","referringcustomer":"LandSafe_CA","id":"a6avqmkh1e1w","geo_precision":"range","address":"9262 THOROUGHBRED WAY","state":"California"},"type":"Feature","geometry":{"type":"Point","coordinates":[-121.353774,38.410153]}},{"properties":{"city":"RANCHO CUCAMONGA","zip":"91739","geo_score":0.43,"filetransactiontype":"LandSafe A Report Only","referringcustomer":"LandSafe_CA","id":"a6avqmm7m3by","geo_precision":"street","address":"12640 CHIMNEY ROCK DRIVE","state":"California"},"type":"Feature","geometry":{"type":"Point","coordinates":[-117.682966,34.125175]}},{"properties":{"city":"SAN DIEGO","zip":"92103","geo_score":0.707,"filetransactiontype":"LandSafe A Report Only","referringcustomer":"LandSafe_CA","id":"a6avqml9on7l","geo_precision":"street","address":"4057 FIRST AVENUE #106","state":"California"},"type":"Feature","geometry":{"type":"Point","coordinates":[-117.163939,32.731369]}},{"properties":{"city":"BENICIA","zip":"94510","geo_score":1.0,"filetransactiontype":"LandSafe A Report Only","referringcustomer":"LandSafe_CA","id":"a6avqmejfv2j","geo_precision":"range","address":"397 EAST O STREET","state":"California"},"type":"Feature","geometry":{"type":"Point","coordinates":[-122.148083,38.053511]}},{"properties":{"city":"CORONA","zip":"92879","geo_score":1.0,"filetransactiontype":"LandSafe A Report Only","referringcustomer":"LandSafe_CA","id":"a6avqmo39l28","geo_precision":"range","address":"1012 SYCAMORE LANE","state":"California"},"type":"Feature","geometry":{"type":"Point","coordinates":[-117.550816,33.868101]}},{"properties":{"city":"NAPA","zip":"94559","geo_score":0.927,"filetransactiontype":"LandSafe A Report Only","referringcustomer":"LandSafe_CA","id":"a6avqmf6k954","geo_precision":"range","address":"2011 POLLEY DRIVE","state":"California"},"type":"Feature","geometry":{"type":"Point","coordinates":[-122.264972,38.285723]}},{"properties":{"city":"FRESNO","zip":"93720","geo_score":0.805,"filetransactiontype":"LandSafe A Report Only","referringcustomer":"LandSafe_CA","id":"a6avqmdfqivr","geo_precision":"street","address":"2864 EAST CROMWELL AVENUE","state":"California"},"type":"Feature","geometry":{"type":"Point","coordinates":[-119.739421,36.847386]}},{"properties":{"city":"BAKERSFIELD","zip":"93313","geo_score":0.683,"filetransactiontype":"LandSafe A Report Only","referringcustomer":"LandSafe_CA","id":"a6avqmg0x6tt","geo_precision":"zip","address":"4409 Wildcat Ave","state":"California"},"type":"Feature","geometry":{"type":"Point","coordinates":[-119.013543,35.27581]}},{"properties":{"city":"LANDERS","zip":"92283","geo_score":0.78,"filetransactiontype":"LandSafe A Report Only","referringcustomer":"LandSafe_CA","id":"a6avqmdyv14j","geo_precision":"range","address":"55474 DESIDERIA DR","state":"California"},"type":"Feature","geometry":{"type":"Point","coordinates":[-116.452192,34.27494]}},{"properties":{"city":"AUBURN","zip":"95602","geo_score":1.0,"filetransactiontype":"LandSafe A Report Only","referringcustomer":"LandSafe_CA","id":"a6avqmgsi772","geo_precision":"range","address":"4985 LORIN COURT","state":"California"},"type":"Feature","geometry":{"type":"Point","coordinates":[-121.071736,38.980507]}},{"properties":{"city":"BAKERSFIELD","zip":"93312","geo_score":0.519,"filetransactiontype":"LandSafe A Report Only","referringcustomer":"LandSafe_CA","id":"a6avqminvfqc","geo_precision":"street","address":"10720 ALEXANDER FALLS AVENUE","state":"California"},"type":"Feature","geometry":{"type":"Point","coordinates":[-119.093714,35.406434]}},{"properties":{"city":"STOCKTON","zip":"95209","geo_score":0.922,"filetransactiontype":"LandSafe A Report Only","referringcustomer":"LandSafe_CA","id":"a6avqmha4uvg","geo_precision":"range","address":"2356 WAGNER HEIGHTS ROAD","state":"California"},"type":"Feature","geometry":{"type":"Point","coordinates":[-121.344714,38.03421]}},{"properties":{"city":"NEWARK","zip":"94560","geo_score":0.571,"filetransactiontype":"LandSafe A Report Only","referringcustomer":"LandSafe_CA","id":"a6avqmittt08","geo_precision":"street","address":"6301 JOAQUIN MURIETA AVE #D","state":"California"},"type":"Feature","geometry":{"type":"Point","coordinates":[-121.9999,37.522132]}},{"properties":{"city":"40087 HOLDEN CIRCLE","zip":"92591","geo_score":0.92,"filetransactiontype":"LandSafe A Report Only","referringcustomer":"LandSafe_CA","id":"a6avqmitij6k","geo_precision":"range","address":"40087 HOLDEN CIRCLE","state":"California"},"type":"Feature","geometry":{"type":"Point","coordinates":[-117.126592,33.5387]}},{"properties":{"city":"TEMECULA","zip":"92592","geo_score":1.0,"filetransactiontype":"LandSafe A Report Only","referringcustomer":"LandSafe_CA","id":"a6avqmpi7dzm","geo_precision":"range","address":"44769 BANANAL WAY","state":"California"},"type":"Feature","geometry":{"type":"Point","coordinates":[-117.091648,33.476529]}},{"properties":{"city":"ORANGE VALLEY","zip":"95662","geo_score":0.984,"filetransactiontype":"LandSafe A Report Only","referringcustomer":"LandSafe_CA","id":"a6avqmcct598","geo_precision":"range","address":"9322 BROOKS ANN WAY","state":"California"},"type":"Feature","geometry":{"type":"Point","coordinates":[-121.20555,38.690117]}},{"properties":{"city":"REDLANDS","zip":"92373","geo_score":0.857,"filetransactiontype":"LandSafe A Report Only","referringcustomer":"LandSafe_CA","id":"a6avqmiz6cph","geo_precision":"street","address":"11200 ALABAMA ST","state":"California"},"type":"Feature","geometry":{"type":"Point","coordinates":[-117.20881,34.059242]}},{"properties":{"city":"LA QUINTA","zip":"92253","geo_score":1.0,"filetransactiontype":"LandSafe A Report Only","referringcustomer":"LandSafe_CA","id":"a6avqmda7fzi","geo_precision":"range","address":"56408 PALMS DRIVE","state":"California"},"type":"Feature","geometry":{"type":"Point","coordinates":[-116.241915,33.640296]}},{"properties":{"city":"SANTA CRUZ","zip":"95006","geo_score":0.902,"filetransactiontype":"LandSafe A Report Only","referringcustomer":"LandSafe_CA","id":"a6avqmj72txe","geo_precision":"range","address":"18150 HIGHWAY 9","state":"California"},"type":"Feature","geometry":{"type":"Point","coordinates":[-122.142691,37.187448]}},{"properties":{"city":"FELTON","zip":"95018","geo_score":0.805,"filetransactiontype":"LandSafe A Report Only","referringcustomer":"LandSafe_CA","id":"a6avqmbikobo","geo_precision":"range","address":"38 AZALEA AVENUE","state":"California"},"type":"Feature","geometry":{"type":"Point","coordinates":[-122.053468,37.050797]}},{"properties":{"city":"CATHEDRAL CITY","zip":"92234","geo_score":1.0,"filetransactiontype":"LandSafe A Report Only","referringcustomer":"LandSafe_CA","id":"a6avqmc2mt83","geo_precision":"range","address":"31080 Avenida Del Padre","state":"California"},"type":"Feature","geometry":{"type":"Point","coordinates":[-116.460955,33.822633]}},{"properties":{"city":"CHINO HILLS","zip":"91709","geo_score":0.911,"filetransactiontype":"LandSafe A Report Only","referringcustomer":"LandSafe_CA","id":"a6avqmglkyrk","geo_precision":"range","address":"4901 GLENVIEW STREET","state":"California"},"type":"Feature","geometry":{"type":"Point","coordinates":[-117.697756,33.949833]}},{"properties":{"city":"VALENCIA","zip":"91381","geo_score":0.923,"filetransactiontype":"LandSafe A Report Only","referringcustomer":"LandSafe_CA","id":"a6avqmnd5c4z","geo_precision":"range","address":"26834 PINE CLIFF PLACE","state":"California"},"type":"Feature","geometry":{"type":"Point","coordinates":[-118.579047,34.40892]}},{"properties":{"city":"FRESNO","zip":"93703","geo_score":1.0,"filetransactiontype":"LandSafe A Report Only","referringcustomer":"LandSafe_CA","id":"a6avqmhagvba","geo_precision":"range","address":"2936 NORTH ROWELL AVENUE","state":"California"},"type":"Feature","geometry":{"type":"Point","coordinates":[-119.751654,36.777187]}},{"properties":{"city":"MARTINEZ","zip":"94553","geo_score":0.902,"filetransactiontype":"LandSafe A Report Only","referringcustomer":"LandSafe_CA","id":"a6avqmdbsusm","geo_precision":"range","address":"2150 POMONA AVENUE","state":"California"},"type":"Feature","geometry":{"type":"Point","coordinates":[-122.123354,38.010022]}},{"properties":{"city":"PITTSBURG","zip":"94564","geo_score":0.805,"filetransactiontype":"LandSafe A Report Only","referringcustomer":"LandSafe_CA","id":"a6avqmancc3v","geo_precision":"range","address":"153 BRUNO AVE","state":"California"},"type":"Feature","geometry":{"type":"Point","coordinates":[-121.896224,38.023164]}},{"properties":{"city":"BAKERSFIELD","zip":"93304","geo_score":1.0,"filetransactiontype":"LandSafe A Report Only","referringcustomer":"LandSafe_CA","id":"a6avqmhuis17","geo_precision":"range","address":"2521 ECHO AVENUE","state":"California"},"type":"Feature","geometry":{"type":"Point","coordinates":[-119.0303,35.334047]}},{"properties":{"city":"SAN PEDRO","zip":"90731","geo_score":0.916,"filetransactiontype":"LandSafe A Report Only","referringcustomer":"LandSafe_CA","id":"a6avqmez9cbn","geo_precision":"range","address":"866 WEST 22ND STREET","state":"California"},"type":"Feature","geometry":{"type":"Point","coordinates":[-118.295836,33.724272]}},{"properties":{"city":"SYLMAR AREA","zip":"91342","geo_score":0.766,"filetransactiontype":"LandSafe A Report Only","referringcustomer":"LandSafe_CA","id":"a6avqmg3ujje","geo_precision":"street","address":"14031 ASTORIA STREET #105","state":"California"},"type":"Feature","geometry":{"type":"Point","coordinates":[-118.423238,34.325336]}},{"properties":{"city":"CARMICHAEL","zip":"95608","geo_score":1.0,"filetransactiontype":"LandSafe A Report Only","referringcustomer":"LandSafe_CA","id":"a6avqmdra1fk","geo_precision":"range","address":"4711 GOOD COURT","state":"California"},"type":"Feature","geometry":{"type":"Point","coordinates":[-121.352971,38.626843]}},{"properties":{"city":"ENCINO","zip":"91316","geo_score":0.805,"filetransactiontype":"LandSafe A Report Only","referringcustomer":"LandSafe_CA","id":"a6avqmchxfb0","geo_precision":"street","address":"5235 NEWCASTLE AVENUE #205","state":"California"},"type":"Feature","geometry":{"type":"Point","coordinates":[-118.525066,34.156374]}},{"properties":{"city":"LOS ANGELES","zip":"90003","geo_score":0.357,"filetransactiontype":"LandSafe A Report Only","referringcustomer":"LandSafe_CA","id":"a6avqmjaad0s","geo_precision":"street","address":"346 E. 57TH ST.","state":"California"},"type":"Feature","geometry":{"type":"Point","coordinates":[-118.192859,34.109562]}},{"properties":{"city":"POMONA","zip":"91768","geo_score":1.0,"filetransactiontype":"LandSafe A Report Only","referringcustomer":"LandSafe_CA","id":"a6avqmldtdc5","geo_precision":"range","address":"1429 SPRING TREE LANE","state":"California"},"type":"Feature","geometry":{"type":"Point","coordinates":[-117.784644,34.071249]}},{"properties":{"city":"HIGHLAND","zip":"92346","geo_score":0.917,"filetransactiontype":"LandSafe A Report Only","referringcustomer":"LandSafe_CA","id":"a6avqmka23pu","geo_precision":"range","address":"7426 NYE DRIVE","state":"California"},"type":"Feature","geometry":{"type":"Point","coordinates":[-117.201815,34.117582]}},{"properties":{"city":"SANTA BARBARA","zip":"93111","geo_score":1.0,"filetransactiontype":"LandSafe A Report Only","referringcustomer":"LandSafe_CA","id":"a6avqmk05cia","geo_precision":"range","address":"406 EVONSHIRE AVE","state":"California"},"type":"Feature","geometry":{"type":"Point","coordinates":[-119.790988,34.433607]}},{"properties":{"city":"LOS ANGELES","zip":"90018","geo_score":0.902,"filetransactiontype":"LandSafe A Report Only","referringcustomer":"LandSafe_CA","id":"a6avqmarzquq","geo_precision":"range","address":"2718 5TH AVENUE","state":"California"},"type":"Feature","geometry":{"type":"Point","coordinates":[-118.322414,34.030438]}},{"properties":{"city":"LAGUNA BEACH","zip":"92651","geo_score":0.91,"filetransactiontype":"LandSafe A Report Only","referringcustomer":"LandSafe_CA","id":"a6avqmq7l7pc","geo_precision":"range","address":"1697 TEMPLE HILLS DRIVE","state":"California"},"type":"Feature","geometry":{"type":"Point","coordinates":[-117.768671,33.542194]}},{"properties":{"city":"IRVINE","zip":"92612","geo_score":1.0,"filetransactiontype":"LandSafe A Report Only","referringcustomer":"LandSafe_CA","id":"a6avqmihacoi","geo_precision":"range","address":"14 LAGO SUD #7","state":"California"},"type":"Feature","geometry":{"type":"Point","coordinates":[-117.83313,33.658852]}},{"properties":{"city":"CORONA","zip":"92881","geo_score":0.683,"filetransactiontype":"LandSafe A Report Only","referringcustomer":"LandSafe_CA","id":"a6avqmhwr6o5","geo_precision":"zip","address":"2553 FAIRGLEN PLACE","state":"California"},"type":"Feature","geometry":{"type":"Point","coordinates":[-116.055617,33.752886]}},{"properties":{"city":"MURRIETA","zip":"92562","geo_score":0.683,"filetransactiontype":"LandSafe A Report Only","referringcustomer":"LandSafe_CA","id":"a6avqmea19xq","geo_precision":"zip","address":"23598 WILMINGTON COURT","state":"California"},"type":"Feature","geometry":{"type":"Point","coordinates":[-116.861027,33.44204]}},{"properties":{"city":"ORANGE","zip":"92832","geo_score":0.829,"filetransactiontype":"LandSafe A Report Only","referringcustomer":"LandSafe_CA","id":"a6avqmcywfri","geo_precision":"range","address":"610 WEST ROSELLIN AVENUE","state":"California"},"type":"Feature","geometry":{"type":"Point","coordinates":[-117.935028,33.86325]}},{"properties":{"city":"ESCALON","zip":"95320","geo_score":0.939,"filetransactiontype":"LandSafe A Report Only","referringcustomer":"LandSafe_CA","id":"a6avqmoxza0g","geo_precision":"range","address":"1706 SANCHEZ WAY","state":"California"},"type":"Feature","geometry":{"type":"Point","coordinates":[-121.008554,37.794128]}},{"properties":{"city":"STOCKTON","zip":"95207","geo_score":0.883,"filetransactiontype":"LandSafe A Report Only","referringcustomer":"LandSafe_CA","id":"a6avqmio42nd","geo_precision":"range","address":"6034 NORTH ALTURAS AVENUE","state":"California"},"type":"Feature","geometry":{"type":"Point","coordinates":[-121.312175,38.00648]}},{"properties":{"city":"MURRIETA","zip":"92562","geo_score":1.0,"filetransactiontype":"LandSafe A Report Only","referringcustomer":"LandSafe_CA","id":"a6avqmmds965","geo_precision":"range","address":"24689 LEAFWOOD DRIVE","state":"California"},"type":"Feature","geometry":{"type":"Point","coordinates":[-117.187602,33.575726]}},{"properties":{"city":"HUNTINGTON PARK","zip":"90255","geo_score":0.944,"filetransactiontype":"LandSafe A Report Only","referringcustomer":"LandSafe_CA","id":"a6avqmn8qdq9","geo_precision":"range","address":"2905 WALNUT STREET","state":"California"},"type":"Feature","geometry":{"type":"Point","coordinates":[-118.217545,33.972529]}},{"properties":{"city":"TRACY","zip":"95376","geo_score":0.916,"filetransactiontype":"LandSafe A Report Only","referringcustomer":"LandSafe_CA","id":"a6avqme3qc28","geo_precision":"range","address":"1940 VALLERAND ROAD","state":"California"},"type":"Feature","geometry":{"type":"Point","coordinates":[-121.437351,37.750562]}},{"properties":{"city":"SANTA BARBARA","zip":"93101","geo_score":0.923,"filetransactiontype":"LandSafe A Report Only","referringcustomer":"LandSafe_CA","id":"a6avqmeo3yf2","geo_precision":"range","address":"1816 CHINO STREET","state":"California"},"type":"Feature","geometry":{"type":"Point","coordinates":[-119.721294,34.420677]}},{"properties":{"city":"NORTH HIGHLANDS","zip":"95660","geo_score":0.916,"filetransactiontype":"LandSafe A Report Only","referringcustomer":"LandSafe_CA","id":"a6avqmc5n0th","geo_precision":"range","address":"3825 EL ORO STREET","state":"California"},"type":"Feature","geometry":{"type":"Point","coordinates":[-121.375122,38.670547]}},{"properties":{"city":"Carmichael","zip":"95608","geo_score":0.932,"filetransactiontype":"LandSafe A Report Only","referringcustomer":"LandSafe_CA","id":"a6avqmkjvfg8","geo_precision":"range","address":"6044 VIA CASITAS AVENUE","state":"California"},"type":"Feature","geometry":{"type":"Point","coordinates":[-121.323751,38.670192]}},{"properties":{"city":"SAN PABLO","zip":"94806","geo_score":0.607,"filetransactiontype":"LandSafe A Report Only","referringcustomer":"LandSafe_CA","id":"a6avqmm0luz9","geo_precision":"zip","address":"112 CARMEL STREET","state":"California"},"type":"Feature","geometry":{"type":"Point","coordinates":[-122.316359,37.993534]}},{"properties":{"city":"GOSHEN","zip":"93291","geo_score":0.837,"filetransactiontype":"LandSafe A Report Only","referringcustomer":"LandSafe_CA","id":"a6avqmicemul","geo_precision":"range","address":"30770 JUNIPER ROAD","state":"California"},"type":"Feature","geometry":{"type":"Point","coordinates":[-119.422539,36.348339]}},{"properties":{"city":"VISALIA","zip":"93291","geo_score":0.807,"filetransactiontype":"LandSafe A Report Only","referringcustomer":"LandSafe_CA","id":"a6avqmpf0hot","geo_precision":"range","address":"1615 NORTH HALL STREET","state":"California"},"type":"Feature","geometry":{"type":"Point","coordinates":[-119.308962,36.343754]}},{"properties":{"city":"SACRAMENTO","zip":"95821","geo_score":0.932,"filetransactiontype":"LandSafe A Report Only","referringcustomer":"LandSafe_CA","id":"a6avqmfkcfzt","geo_precision":"range","address":"4409 HAZELWOOD AVENUE","state":"California"},"type":"Feature","geometry":{"type":"Point","coordinates":[-121.361944,38.613111]}},{"properties":{"city":"SACRAMENTO","zip":"95822","geo_score":1.0,"filetransactiontype":"LandSafe A Report Only","referringcustomer":"LandSafe_CA","id":"a6avqmf74cj6","geo_precision":"range","address":"1461 KITCHNER RD","state":"California"},"type":"Feature","geometry":{"type":"Point","coordinates":[-121.50296,38.517165]}},{"properties":{"city":"BLOOMINGTON","zip":"92316","geo_score":0.902,"filetransactiontype":"LandSafe A Report Only","referringcustomer":"LandSafe_CA","id":"a6avqmju8yrp","geo_precision":"range","address":"17862 MARYGOLD AVE","state":"California"},"type":"Feature","geometry":{"type":"Point","coordinates":[-117.414346,34.074048]}},{"properties":{"city":"RANCHO SANTA MARGARITA","zip":"92688","geo_score":0.917,"filetransactiontype":"LandSafe A Report Only","referringcustomer":"LandSafe_CA","id":"a6avqmiod8ky","geo_precision":"range","address":"161 ENCANTADO CANYON","state":"California"},"type":"Feature","geometry":{"type":"Point","coordinates":[-117.61532,33.618036]}},{"properties":{"city":"BREA","zip":null,"geo_score":0.61,"filetransactiontype":"LandSafe A Report Only","referringcustomer":"LandSafe_CA","id":"a6avqmkyh3go","geo_precision":"street","address":"145 BUCKTHORN DRIVE","state":"California"},"type":"Feature","geometry":{"type":"Point","coordinates":[-122.358074,40.598397]}},{"properties":{"city":"EMERVILLE","zip":"94608","geo_score":0.557,"filetransactiontype":"LandSafe A Report Only","referringcustomer":"LandSafe_CA","id":"a6avqmm1kgtb","geo_precision":"street","address":"4 ANCHOR DRIVE UNIT #F229","state":"California"},"type":"Feature","geometry":{"type":"Point","coordinates":[-122.304497,37.837194]}},{"properties":{"city":"BOULDER CREEK","zip":"95006","geo_score":0.919,"filetransactiontype":"LandSafe A Report Only","referringcustomer":"LandSafe_CA","id":"a6avqmmlljrj","geo_precision":"range","address":"111 CULLIGAN COURT","state":"California"},"type":"Feature","geometry":{"type":"Point","coordinates":[-122.1583,37.15203]}},{"properties":{"city":"RANCHO MIRAGE","zip":"92270","geo_score":1.0,"filetransactiontype":"LandSafe A Report Only","referringcustomer":"LandSafe_CA","id":"a6avqmgnaom6","geo_precision":"range","address":"29 DUKE DRIVE","state":"California"},"type":"Feature","geometry":{"type":"Point","coordinates":[-116.423259,33.765464]}},{"properties":{"city":"PITTSBURG","zip":"94565","geo_score":0.97,"filetransactiontype":"LandSafe A Report Only","referringcustomer":"LandSafe_CA","id":"a6avqmhnu8b4","geo_precision":"range","address":"2338 WOODHILL DR","state":"California"},"type":"Feature","geometry":{"type":"Point","coordinates":[-121.954831,38.008817]}},{"properties":{"city":"OXNARD","zip":"93036","geo_score":1.0,"filetransactiontype":"LandSafe A Report Only","referringcustomer":"LandSafe_CA","id":"a6avqmhnyl0o","geo_precision":"range","address":"4877 BURSON WAY","state":"California"},"type":"Feature","geometry":{"type":"Point","coordinates":[-119.150204,34.258218]}},{"properties":{"city":"ONTARIO","zip":"91762","geo_score":1.0,"filetransactiontype":"LandSafe A Report Only","referringcustomer":"LandSafe_CA","id":"a6avqmfuoah0","geo_precision":"range","address":"512 W D ST","state":"California"},"type":"Feature","geometry":{"type":"Point","coordinates":[-117.65621,34.067002]}},{"properties":{"city":"INGLEWOOD","zip":"90301","geo_score":1.0,"filetransactiontype":"LandSafe A Report Only","referringcustomer":"LandSafe_CA","id":"a6avqmqe38o1","geo_precision":"range","address":"435 EAST TAMARACK AVENUE, #162","state":"California"},"type":"Feature","geometry":{"type":"Point","coordinates":[-118.351638,33.955472]}},{"properties":{"city":"VISALIA","zip":"93292","geo_score":1.0,"filetransactiontype":"LandSafe A Report Only","referringcustomer":"LandSafe_CA","id":"a6avqmkfxt7r","geo_precision":"range","address":"123 N SIMON ST","state":"California"},"type":"Feature","geometry":{"type":"Point","coordinates":[-119.25421,36.329873]}},{"properties":{"city":"NEWMAN","zip":"95360","geo_score":0.61,"filetransactiontype":"LandSafe A Report Only","referringcustomer":"LandSafe_CA","id":"a6avqmqhjhpm","geo_precision":"street","address":"538 BONANZA DRIVE","state":"California"},"type":"Feature","geometry":{"type":"Point","coordinates":[-120.246993,38.040378]}},{"properties":{"city":"FRESNO","zip":"93706","geo_score":0.843,"filetransactiontype":"LandSafe A Report Only","referringcustomer":"LandSafe_CA","id":"a6avqmpzezt0","geo_precision":"range","address":"1242 WEST VALENCIA","state":"California"},"type":"Feature","geometry":{"type":"Point","coordinates":[-119.825786,36.723087]}},{"properties":{"city":"CITRUS HEIGHTS","zip":"95621","geo_score":1.0,"filetransactiontype":"LandSafe A Report Only","referringcustomer":"LandSafe_CA","id":"a6avqmj2v6rm","geo_precision":"range","address":"6835 BLOWING WIND WAY","state":"California"},"type":"Feature","geometry":{"type":"Point","coordinates":[-121.323531,38.689674]}},{"properties":{"city":"SAN BERNARDINO","zip":"92376","geo_score":0.925,"filetransactiontype":"LandSafe A Report Only","referringcustomer":"LandSafe_CA","id":"a6avqml2y0yp","geo_precision":"range","address":"2730 W COLLEGE DR","state":"California"},"type":"Feature","geometry":{"type":"Point","coordinates":[-117.34901,34.089413]}},{"properties":{"city":"VALLEY CENTER","zip":"92082","geo_score":1.0,"filetransactiontype":"LandSafe A Report Only","referringcustomer":"LandSafe_CA","id":"a6avqmohfah2","geo_precision":"range","address":"26650 N LAKE WOHLFORD RD","state":"California"},"type":"Feature","geometry":{"type":"Point","coordinates":[-116.97196,33.198692]}},{"properties":{"city":"SACRAMENTO","zip":"95820","geo_score":0.902,"filetransactiontype":"LandSafe A Report Only","referringcustomer":"LandSafe_CA","id":"a6avqmnfgf72","geo_precision":"range","address":"3905 65TH STREET","state":"California"},"type":"Feature","geometry":{"type":"Point","coordinates":[-121.428605,38.539531]}},{"properties":{"city":"ORANGE VALLEY","zip":"95662","geo_score":0.984,"filetransactiontype":"LandSafe A Report Only","referringcustomer":"LandSafe_CA","id":"a6avqmd6ybzf","geo_precision":"range","address":"6629 HAZEL AVE","state":"California"},"type":"Feature","geometry":{"type":"Point","coordinates":[-121.225461,38.686295]}},{"properties":{"city":"LOS ANGELES","zip":"90043","geo_score":0.735,"filetransactiontype":"LandSafe A Report Only","referringcustomer":"LandSafe_CA","id":"a6avqmk5vlu6","geo_precision":"range","address":"6400 11TH AVE 1-4","state":"California"},"type":"Feature","geometry":{"type":"Point","coordinates":[-118.329367,33.981768]}},{"properties":{"city":"FONTANA","zip":"92336","geo_score":1.0,"filetransactiontype":"LandSafe A Report Only","referringcustomer":"LandSafe_CA","id":"a6avqmog889g","geo_precision":"range","address":"15584 CARAVELLE AVENU","state":"California"},"type":"Feature","geometry":{"type":"Point","coordinates":[-117.465018,34.132956]}},{"properties":{"city":"SAN DIEGO","zip":"92154","geo_score":1.0,"filetransactiontype":"LandSafe A Report Only","referringcustomer":"LandSafe_CA","id":"a6avqmojx6au","geo_precision":"range","address":"920 CALEB COURT","state":"California"},"type":"Feature","geometry":{"type":"Point","coordinates":[-117.059145,32.580241]}},{"properties":{"city":"WINNETKA","zip":"91306","geo_score":0.805,"filetransactiontype":"LandSafe A Report Only","referringcustomer":"LandSafe_CA","id":"a6avqmhh3cuw","geo_precision":"street","address":"7515 WINNETKA AVENUE #111","state":"California"},"type":"Feature","geometry":{"type":"Point","coordinates":[-118.570956,34.186803]}},{"properties":{"city":"WHITTER","zip":"90605","geo_score":0.955,"filetransactiontype":"LandSafe A Report Only","referringcustomer":"LandSafe_CA","id":"a6avqmmciria","geo_precision":"range","address":"13925 OVAL DRIVE","state":"California"},"type":"Feature","geometry":{"type":"Point","coordinates":[-118.031806,33.949033]}},{"properties":{"city":"TAFT","zip":"93268","geo_score":0.594,"filetransactiontype":"LandSafe A Report Only","referringcustomer":"LandSafe_CA","id":"a6avqmimx0xp","geo_precision":"zip","address":"106 BRANDON AVENUE","state":"California"},"type":"Feature","geometry":{"type":"Point","coordinates":[-119.406783,35.206076]}},{"properties":{"city":"PALMDALE","zip":"93550","geo_score":0.707,"filetransactiontype":"LandSafe A Report Only","referringcustomer":"LandSafe_CA","id":"a6avqmd6kf3y","geo_precision":"street","address":"2554 OLIVE DRIVE #138","state":"California"},"type":"Feature","geometry":{"type":"Point","coordinates":[-118.076221,34.554354]}},{"properties":{"city":"ENCINITAS","zip":"92024","geo_score":0.912,"filetransactiontype":"LandSafe A Report Only","referringcustomer":"LandSafe_CA","id":"a6avqmj9lmyf","geo_precision":"range","address":"314 CHAPALITA DR","state":"California"},"type":"Feature","geometry":{"type":"Point","coordinates":[-117.251668,33.040942]}},{"properties":{"city":"INDIO","zip":"92201","geo_score":0.911,"filetransactiontype":"LandSafe A Report Only","referringcustomer":"LandSafe_CA","id":"a6avqmpyxgio","geo_precision":"range","address":"82324 SANTA ROSA AVENUE","state":"California"},"type":"Feature","geometry":{"type":"Point","coordinates":[-116.228468,33.722041]}},{"properties":{"city":"MODESTO","zip":"95355","geo_score":1.0,"filetransactiontype":"LandSafe A Report Only","referringcustomer":"LandSafe_CA","id":"a6avqmbojjsq","geo_precision":"range","address":"1517 CABRILLO COURT","state":"California"},"type":"Feature","geometry":{"type":"Point","coordinates":[-120.970702,37.674745]}},{"properties":{"city":"RIVERSIDE","zip":"92503","geo_score":0.902,"filetransactiontype":"LandSafe A Report Only","referringcustomer":"LandSafe_CA","id":"a6avqmh6km0v","geo_precision":"range","address":"3702 CALLE MONADA","state":"California"},"type":"Feature","geometry":{"type":"Point","coordinates":[-117.50929,33.882357]}},{"properties":{"city":"WILDOMAR AREA","zip":"92595","geo_score":0.52,"filetransactiontype":"LandSafe A Report Only","referringcustomer":"LandSafe_CA","id":"a6avqmd7ju9k","geo_precision":"street","address":"36048 COUNTRY PARK DRIVE","state":"California"},"type":"Feature","geometry":{"type":"Point","coordinates":[-117.073574,33.775904]}},{"properties":{"city":"STOCKTON","zip":"95204","geo_score":1.0,"filetransactiontype":"LandSafe A Report Only","referringcustomer":"LandSafe_CA","id":"a6avqmapw68l","geo_precision":"range","address":"3916 MONIQUE CIRCLE","state":"California"},"type":"Feature","geometry":{"type":"Point","coordinates":[-121.290313,37.988222]}},{"properties":{"city":"WATSONVILLE","zip":"95076","geo_score":0.911,"filetransactiontype":"LandSafe A Report Only","referringcustomer":"LandSafe_CA","id":"a6avqmdsbaee","geo_precision":"range","address":"320 FORD STREET","state":"California"},"type":"Feature","geometry":{"type":"Point","coordinates":[-121.767301,36.910287]}},{"properties":{"city":"SACRAMENTO","zip":"95823","geo_score":0.922,"filetransactiontype":"LandSafe A Report Only","referringcustomer":"LandSafe_CA","id":"a6avqmetc351","geo_precision":"range","address":"31 MILPITAS CIRCLE","state":"California"},"type":"Feature","geometry":{"type":"Point","coordinates":[-121.442013,38.457546]}},{"properties":{"city":"PALMDALE","zip":"93552","geo_score":0.721,"filetransactiontype":"LandSafe A Report Only","referringcustomer":"LandSafe_CA","id":"a6avqmbv4qmt","geo_precision":"street","address":"5767 AVENUE Q-10","state":"California"},"type":"Feature","geometry":{"type":"Point","coordinates":[-118.049485,34.576568]}},{"properties":{"city":"SELMA","zip":"93662","geo_score":0.912,"filetransactiontype":"LandSafe A Report Only","referringcustomer":"LandSafe_CA","id":"a6avqmkkc2j7","geo_precision":"range","address":"2003 GAITHER ST","state":"California"},"type":"Feature","geometry":{"type":"Point","coordinates":[-119.610695,36.574391]}},{"properties":{"city":"VISALIA","zip":"93292","geo_score":0.781,"filetransactiontype":"LandSafe A Report Only","referringcustomer":"LandSafe_CA","id":"a6avqmjmxohn","geo_precision":"street","address":"2622 WEST OAK RIDGE AVENUE","state":"California"},"type":"Feature","geometry":{"type":"Point","coordinates":[-119.281437,36.352558]}},{"properties":{"city":"PORTERVILLE","zip":"93257","geo_score":0.847,"filetransactiontype":"LandSafe A Report Only","referringcustomer":"LandSafe_CA","id":"a6avqmfp5lgr","geo_precision":"range","address":"1216 NORTH WESTSIDE ave","state":"California"},"type":"Feature","geometry":{"type":"Point","coordinates":[-119.045216,36.087857]}},{"properties":{"city":"ORANGE VALLEY","zip":"95662","geo_score":0.984,"filetransactiontype":"LandSafe A Report Only","referringcustomer":"LandSafe_CA","id":"a6avqmntk9c0","geo_precision":"range","address":"6822 THUNDERHEAD CIR","state":"California"},"type":"Feature","geometry":{"type":"Point","coordinates":[-121.257571,38.687568]}},{"properties":{"city":"STOCKTON","zip":"95212","geo_score":1.0,"filetransactiontype":"LandSafe A Report Only","referringcustomer":"LandSafe_CA","id":"a6avqmeunr8o","geo_precision":"range","address":"5828 RAYANNA DRIVE","state":"California"},"type":"Feature","geometry":{"type":"Point","coordinates":[-121.273993,38.013291]}},{"properties":{"city":"CORONA","zip":"92880","geo_score":0.947,"filetransactiontype":"LandSafe A Report Only","referringcustomer":"LandSafe_CA","id":"a6avqmcolugr","geo_precision":"range","address":"7024 MEADOW RDG","state":"California"},"type":"Feature","geometry":{"type":"Point","coordinates":[-117.580752,33.960006]}},{"properties":{"city":"LOS ANGELES","zip":"90011","geo_score":0.916,"filetransactiontype":"LandSafe A Report Only","referringcustomer":"LandSafe_CA","id":"a6avqmddu3rf","geo_precision":"range","address":"923-925 EAST 41ST PLACE","state":"California"},"type":"Feature","geometry":{"type":"Point","coordinates":[-118.259688,34.008369]}},{"properties":{"city":"WATSONVILLE","zip":"95076","geo_score":0.911,"filetransactiontype":"LandSafe A Report Only","referringcustomer":"LandSafe_CA","id":"a6avqmim0up7","geo_precision":"range","address":"46 JEFFERSON STREET","state":"California"},"type":"Feature","geometry":{"type":"Point","coordinates":[-121.755457,36.915096]}},{"properties":{"city":"LOS ANGELES","zip":"90047","geo_score":0.533,"filetransactiontype":"LandSafe A Report Only","referringcustomer":"LandSafe_CA","id":"a6avqmn7x09q","geo_precision":"street","address":"1522 W. 58TH PLACE","state":"California"},"type":"Feature","geometry":{"type":"Point","coordinates":[-118.300196,33.988349]}},{"properties":{"city":"LA QUINTA","zip":"92253","geo_score":1.0,"filetransactiontype":"LandSafe A Report Only","referringcustomer":"LandSafe_CA","id":"a6avqmmkqvma","geo_precision":"range","address":"80416 RIVIERA","state":"California"},"type":"Feature","geometry":{"type":"Point","coordinates":[-116.259711,33.632398]}},{"properties":{"city":"ONTARIO","zip":"91761","geo_score":0.902,"filetransactiontype":"LandSafe A Report Only","referringcustomer":"LandSafe_CA","id":"a6avqmmfaae5","geo_precision":"range","address":"3631 OAK CREEK DRIVE UNIT B","state":"California"},"type":"Feature","geometry":{"type":"Point","coordinates":[-117.572007,34.020885]}},{"properties":{"city":"ORANGE","zip":"92869","geo_score":1.0,"filetransactiontype":"LandSafe A Report Only","referringcustomer":"LandSafe_CA","id":"a6avqml58xr8","geo_precision":"range","address":"7302 E WRANGLER CIRCLE","state":"California"},"type":"Feature","geometry":{"type":"Point","coordinates":[-117.776335,33.795509]}},{"properties":{"city":"TORRANCE AREA CITY","zip":"90501","geo_score":0.758,"filetransactiontype":"LandSafe A Report Only","referringcustomer":"LandSafe_CA","id":"a6avqmpdvdqu","geo_precision":"street","address":"21107 NORMANDIE AVENUE","state":"California"},"type":"Feature","geometry":{"type":"Point","coordinates":[-118.299551,33.835564]}},{"properties":{"city":"DOWNEY","zip":"90241","geo_score":1.0,"filetransactiontype":"LandSafe A Report Only","referringcustomer":"LandSafe_CA","id":"a6avqmmyu733","geo_precision":"range","address":"10923 STUDEBAKER RD","state":"California"},"type":"Feature","geometry":{"type":"Point","coordinates":[-118.098701,33.934205]}},{"properties":{"city":"CARMICHAEL","zip":"95608","geo_score":1.0,"filetransactiontype":"LandSafe A Report Only","referringcustomer":"LandSafe_CA","id":"a6avqmfzma49","geo_precision":"range","address":"2306 FALLWATER LANE","state":"California"},"type":"Feature","geometry":{"type":"Point","coordinates":[-121.340044,38.609532]}},{"properties":{"city":"LOS ANGELES","zip":"90017","geo_score":0.941,"filetransactiontype":"LandSafe A Report Only","referringcustomer":"LandSafe_CA","id":"a6avqmb5btvt","geo_precision":"range","address":"1234 WILSHIRE BLVD 421","state":"California"},"type":"Feature","geometry":{"type":"Point","coordinates":[-118.265368,34.053274]}},{"properties":{"city":"TORRANCE","zip":"90502","geo_score":0.88,"filetransactiontype":"LandSafe A Report Only","referringcustomer":"LandSafe_CA","id":"a6avqmhuspge","geo_precision":"range","address":"22330 MEYLER ST 9","state":"California"},"type":"Feature","geometry":{"type":"Point","coordinates":[-118.294738,33.82424]}},{"properties":{"city":"ADELANTO","zip":"92301","geo_score":0.585,"filetransactiontype":"LandSafe A Report Only","referringcustomer":"LandSafe_CA","id":"a6avqmdeu69f","geo_precision":"zip","address":"14557 FOXGLOVE LANE","state":"California"},"type":"Feature","geometry":{"type":"Point","coordinates":[-117.631168,34.602213]}},{"properties":{"city":"HAYWARD","zip":"94541","geo_score":0.824,"filetransactiontype":"LandSafe A Report Only","referringcustomer":"LandSafe_CA","id":"a6avqmqghw7u","geo_precision":"range","address":"22717 6TH STREET","state":"California"},"type":"Feature","geometry":{"type":"Point","coordinates":[-122.071685,37.677943]}},{"properties":{"city":"SACRAMENTO","zip":"95842","geo_score":1.0,"filetransactiontype":"LandSafe A Report Only","referringcustomer":"LandSafe_CA","id":"a6avqmdgx80r","geo_precision":"range","address":"4844 KINGBIRD WAY","state":"California"},"type":"Feature","geometry":{"type":"Point","coordinates":[-121.352526,38.688434]}},{"properties":{"city":"HERALD","zip":"95638","geo_score":0.919,"filetransactiontype":"LandSafe A Report Only","referringcustomer":"LandSafe_CA","id":"a6avqmcudit0","geo_precision":"range","address":"12509 CLAY STATION ROAD","state":"California"},"type":"Feature","geometry":{"type":"Point","coordinates":[-121.171777,38.305224]}},{"properties":{"city":"LOMA LINDA","zip":"92354","geo_score":1.0,"filetransactiontype":"LandSafe A Report Only","referringcustomer":"LandSafe_CA","id":"a6avqmh5zdfz","geo_precision":"range","address":"11811 COLUMBIA COURT","state":"California"},"type":"Feature","geometry":{"type":"Point","coordinates":[-117.222103,34.03898]}},{"properties":{"city":"SACRAMENTO","zip":"95815","geo_score":0.967,"filetransactiontype":"LandSafe A Report Only","referringcustomer":"LandSafe_CA","id":"a6avqmioofan","geo_precision":"range","address":"640 ELEANOR AVENUE","state":"California"},"type":"Feature","geometry":{"type":"Point","coordinates":[-121.450943,38.616654]}},{"properties":{"city":"SAN BERNARDINO","zip":"92405","geo_score":0.819,"filetransactiontype":"LandSafe A Report Only","referringcustomer":"LandSafe_CA","id":"a6avqmnb3x1p","geo_precision":"range","address":"980 WEST 25TH STREET","state":"California"},"type":"Feature","geometry":{"type":"Point","coordinates":[-117.305013,34.13883]}},{"properties":{"city":"VISALIA","zip":"93291","geo_score":0.916,"filetransactiontype":"LandSafe A Report Only","referringcustomer":"LandSafe_CA","id":"a6avqmc9ukic","geo_precision":"range","address":"1843 N MASELLI CT","state":"California"},"type":"Feature","geometry":{"type":"Point","coordinates":[-119.350782,36.346235]}},{"properties":{"city":"ROSEVELLE","zip":"95661","geo_score":0.561,"filetransactiontype":"LandSafe A Report Only","referringcustomer":"LandSafe_CA","id":"a6avqmfcyeia","geo_precision":"street","address":"1789 HEATHER GARDEN LANE","state":"California"},"type":"Feature","geometry":{"type":"Point","coordinates":[-121.263104,38.728955]}},{"properties":{"city":"CITRUS HEIGHTS","zip":"95610","geo_score":1.0,"filetransactiontype":"LandSafe A Report Only","referringcustomer":"LandSafe_CA","id":"a6avqmojc3p8","geo_precision":"range","address":"7420 RANCH AVE","state":"California"},"type":"Feature","geometry":{"type":"Point","coordinates":[-121.292032,38.670067]}},{"properties":{"city":"SAN JOSE","zip":"95116","geo_score":1.0,"filetransactiontype":"LandSafe A Report Only","referringcustomer":"LandSafe_CA","id":"a6avqmivsgje","geo_precision":"range","address":"1236 PEACH COURT","state":"California"},"type":"Feature","geometry":{"type":"Point","coordinates":[-121.861033,37.343619]}},{"properties":{"city":"TRACY","zip":"95376","geo_score":0.597,"filetransactiontype":"LandSafe A Report Only","referringcustomer":"LandSafe_CA","id":"a6avqmnkfwmu","geo_precision":"street","address":"8975 W FAIROAKS RD","state":"California"},"type":"Feature","geometry":{"type":"Point","coordinates":[-121.408059,37.702456]}},{"properties":{"city":"LOS ANGELES","zip":"90037","geo_score":0.916,"filetransactiontype":"LandSafe A Report Only","referringcustomer":"LandSafe_CA","id":"a6avqmddywgq","geo_precision":"range","address":"1321 WEST 51ST PLACE","state":"California"},"type":"Feature","geometry":{"type":"Point","coordinates":[-118.298026,33.995971]}},{"properties":{"city":"PITTSBURG","zip":"94565","geo_score":0.97,"filetransactiontype":"LandSafe A Report Only","referringcustomer":"LandSafe_CA","id":"a6avqma9lyij","geo_precision":"range","address":"1008 MEPHAM DR","state":"California"},"type":"Feature","geometry":{"type":"Point","coordinates":[-121.902093,38.020945]}},{"properties":{"city":"SAN FRANSISCO","zip":"94112","geo_score":0.992,"filetransactiontype":"LandSafe A Report Only","referringcustomer":"LandSafe_CA","id":"a6avqmhsxpy7","geo_precision":"range","address":"2439 ALEMANY BLVD","state":"California"},"type":"Feature","geometry":{"type":"Point","coordinates":[-122.445368,37.715477]}},{"properties":{"city":"ARVIN","zip":"93203","geo_score":0.909,"filetransactiontype":"LandSafe A Report Only","referringcustomer":"LandSafe_CA","id":"a6avqma29z7a","geo_precision":"range","address":"1009 AUSTIN CT","state":"California"},"type":"Feature","geometry":{"type":"Point","coordinates":[-118.840436,35.19618]}},{"properties":{"city":"RANCHO CORDOVA","zip":"95670","geo_score":0.91,"filetransactiontype":"LandSafe A Report Only","referringcustomer":"LandSafe_CA","id":"a6avqmg0tlgx","geo_precision":"range","address":"2361 ROSADO WAY","state":"California"},"type":"Feature","geometry":{"type":"Point","coordinates":[-121.282357,38.609749]}},{"properties":{"city":"THREE","zip":"93271","geo_score":0.72,"filetransactiontype":"LandSafe A Report Only","referringcustomer":"LandSafe_CA","id":"a6avqmgztpru","geo_precision":"street","address":"43429 SIERRA DRIVE","state":"California"},"type":"Feature","geometry":{"type":"Point","coordinates":[-118.871876,36.459488]}},{"properties":{"city":"PACIFICA","zip":"94044","geo_score":0.915,"filetransactiontype":"LandSafe A Report Only","referringcustomer":"LandSafe_CA","id":"a6avqmbsq1wq","geo_precision":"range","address":"203 AVALON DR","state":"California"},"type":"Feature","geometry":{"type":"Point","coordinates":[-122.489626,37.647044]}},{"properties":{"city":"SAN FRANSISCO","zip":"94103","geo_score":0.992,"filetransactiontype":"LandSafe A Report Only","referringcustomer":"LandSafe_CA","id":"a6avqmon5ooe","geo_precision":"range","address":"140 SOUTH VAN NESS AVENUE","state":"California"},"type":"Feature","geometry":{"type":"Point","coordinates":[-122.418525,37.772423]}},{"properties":{"city":"LATHROP","zip":"95330","geo_score":0.902,"filetransactiontype":"LandSafe A Report Only","referringcustomer":"LandSafe_CA","id":"a6avqmgzqzl7","geo_precision":"range","address":"17995 EARLY FROST LANE","state":"California"},"type":"Feature","geometry":{"type":"Point","coordinates":[-121.309281,37.79691]}},{"properties":{"city":"SAN JOSE","zip":"95116","geo_score":0.805,"filetransactiontype":"LandSafe A Report Only","referringcustomer":"LandSafe_CA","id":"a6avqmpoyswt","geo_precision":"street","address":"360 COYOTE CREEK PLACE","state":"California"},"type":"Feature","geometry":{"type":"Point","coordinates":[-121.872094,37.353016]}},{"properties":{"city":"GLEN ELLEN","zip":"95442","geo_score":0.938,"filetransactiontype":"LandSafe A Report Only","referringcustomer":"LandSafe_CA","id":"a6avqmig1a69","geo_precision":"range","address":"15275 ARNOLD DRIVE","state":"California"},"type":"Feature","geometry":{"type":"Point","coordinates":[-122.513545,38.341394]}},{"properties":{"city":"VISALIA","zip":"93277","geo_score":0.875,"filetransactiontype":"LandSafe A Report Only","referringcustomer":"LandSafe_CA","id":"a6avqmbdr7he","geo_precision":"range","address":"1820 SOUTH WEST STREET","state":"California"},"type":"Feature","geometry":{"type":"Point","coordinates":[-119.296966,36.314493]}},{"properties":{"city":"ALAMEDA","zip":"94501","geo_score":1.0,"filetransactiontype":"LandSafe A Report Only","referringcustomer":"LandSafe_CA","id":"a6avqmbsjlrl","geo_precision":"range","address":"1598 PACIFIC AVENUE","state":"California"},"type":"Feature","geometry":{"type":"Point","coordinates":[-122.25645,37.774338]}},{"properties":{"city":"SIMI VALLEY","zip":"93063","geo_score":0.716,"filetransactiontype":"LandSafe A Report Only","referringcustomer":"LandSafe_CA","id":"a6avqmaf64e6","geo_precision":"street","address":"2324 ARCHWOOD LANE #86","state":"California"},"type":"Feature","geometry":{"type":"Point","coordinates":[-118.688942,34.277544]}},{"properties":{"city":"MODESTO","zip":"95358","geo_score":1.0,"filetransactiontype":"LandSafe A Report Only","referringcustomer":"LandSafe_CA","id":"a6avqmhnulhn","geo_precision":"range","address":"2404 MANHATTAN WAY","state":"California"},"type":"Feature","geometry":{"type":"Point","coordinates":[-121.006023,37.596337]}},{"properties":{"city":"OJAI","zip":"93023","geo_score":0.909,"filetransactiontype":"LandSafe A Report Only","referringcustomer":"LandSafe_CA","id":"a6avqme0vgxn","geo_precision":"range","address":"1681 KENEWA STREET","state":"California"},"type":"Feature","geometry":{"type":"Point","coordinates":[-119.275774,34.410295]}},{"properties":{"city":"COLFAX","zip":"95713","geo_score":0.902,"filetransactiontype":"LandSafe A Report Only","referringcustomer":"LandSafe_CA","id":"a6avqmn91nfj","geo_precision":"range","address":"22305 CANYON WAY","state":"California"},"type":"Feature","geometry":{"type":"Point","coordinates":[-120.962688,39.060152]}},{"properties":{"city":"SAN LEANDRO","zip":"94577","geo_score":1.0,"filetransactiontype":"LandSafe A Report Only","referringcustomer":"LandSafe_CA","id":"a6avqmmo6d7b","geo_precision":"range","address":"616 ELSIE AVENUE","state":"California"},"type":"Feature","geometry":{"type":"Point","coordinates":[-122.145648,37.722697]}},{"properties":{"city":"BORON","zip":"93516","geo_score":0.923,"filetransactiontype":"LandSafe A Report Only","referringcustomer":"LandSafe_CA","id":"a6avqmfk4wxn","geo_precision":"range","address":"24072 CHAPARRAL AVE","state":"California"},"type":"Feature","geometry":{"type":"Point","coordinates":[-117.70246,35.002653]}},{"properties":{"city":"WATSONVILLE","zip":"95076","geo_score":0.911,"filetransactiontype":"LandSafe A Report Only","referringcustomer":"LandSafe_CA","id":"a6avqmo5qx3c","geo_precision":"range","address":"37 ROOSEVELT STREET","state":"California"},"type":"Feature","geometry":{"type":"Point","coordinates":[-121.755887,36.920681]}},{"properties":{"city":"VICTORVILLE","zip":"92394","geo_score":0.526,"filetransactiontype":"LandSafe A Report Only","referringcustomer":"LandSafe_CA","id":"a6avqmi0k4pj","geo_precision":"street","address":"14574 ADOBE PLACE","state":"California"},"type":"Feature","geometry":{"type":"Point","coordinates":[-117.28277,34.401866]}},{"properties":{"city":"IDLLWILD","zip":"92549","geo_score":0.989,"filetransactiontype":"LandSafe A Report Only","referringcustomer":"LandSafe_CA","id":"a6avqmh5n901","geo_precision":"range","address":"25585 BIG ROCK DRIVE","state":"California"},"type":"Feature","geometry":{"type":"Point","coordinates":[-116.739282,33.755031]}},{"properties":{"city":"WATSONVILLE","zip":"95076","geo_score":0.911,"filetransactiontype":"LandSafe A Report Only","referringcustomer":"LandSafe_CA","id":"a6avqme1q2tk","geo_precision":"range","address":"1204 SAN MIGUEL CANYON ROAD","state":"California"},"type":"Feature","geometry":{"type":"Point","coordinates":[-121.690013,36.850358]}},{"properties":{"city":"BURBANK","zip":"91505","geo_score":0.919,"filetransactiontype":"LandSafe A Report Only","referringcustomer":"LandSafe_CA","id":"a6avqmcqx2si","geo_precision":"range","address":"1107 NORTH FLORENCE street","state":"California"},"type":"Feature","geometry":{"type":"Point","coordinates":[-118.3404,34.176207]}},{"properties":{"city":"CAMARILLO","zip":"93010","geo_score":0.929,"filetransactiontype":"LandSafe A Report Only","referringcustomer":"LandSafe_CA","id":"a6avqmanl36r","geo_precision":"range","address":"244 NORTH LOOP DRIVE","state":"California"},"type":"Feature","geometry":{"type":"Point","coordinates":[-119.039975,34.2475]}},{"properties":{"city":"FRESNO","zip":"93703","geo_score":1.0,"filetransactiontype":"LandSafe A Report Only","referringcustomer":"LandSafe_CA","id":"a6avqmg68d5m","geo_precision":"range","address":"2424 EAST HEDGES AVENUE","state":"California"},"type":"Feature","geometry":{"type":"Point","coordinates":[-119.78254,36.759542]}},{"properties":{"city":"TAFT","zip":"93268","geo_score":0.911,"filetransactiontype":"LandSafe A Report Only","referringcustomer":"LandSafe_CA","id":"a6avqmj9t4pc","geo_precision":"range","address":"402 SIERRA STREET","state":"California"},"type":"Feature","geometry":{"type":"Point","coordinates":[-119.470073,35.141827]}},{"properties":{"city":"SALIDA","zip":"95368","geo_score":1.0,"filetransactiontype":"LandSafe A Report Only","referringcustomer":"LandSafe_CA","id":"a6avqmg5tz63","geo_precision":"range","address":"5329 JEPPSON COURT","state":"California"},"type":"Feature","geometry":{"type":"Point","coordinates":[-121.092061,37.709304]}},{"properties":{"city":"VALLEJO","zip":"94589","geo_score":0.916,"filetransactiontype":"LandSafe A Report Only","referringcustomer":"LandSafe_CA","id":"a6avqmmljkdt","geo_precision":"range","address":"125 HERMOSA AVENUE","state":"California"},"type":"Feature","geometry":{"type":"Point","coordinates":[-122.247573,38.123119]}},{"properties":{"city":"GIRLOY","zip":"95020","geo_score":0.902,"filetransactiontype":"LandSafe A Report Only","referringcustomer":"LandSafe_CA","id":"a6avqmlu2rqk","geo_precision":"range","address":"9875 WILFORD WAY","state":"California"},"type":"Feature","geometry":{"type":"Point","coordinates":[-121.554315,37.049257]}},{"properties":{"city":"FAIRFIELD","zip":"94534","geo_score":0.827,"filetransactiontype":"LandSafe A Report Only","referringcustomer":"LandSafe_CA","id":"a6avqmpte8yo","geo_precision":"range","address":"2475 TEN GATE ROAD","state":"California"},"type":"Feature","geometry":{"type":"Point","coordinates":[-122.058013,38.27662]}},{"properties":{"city":"SCOTTS VALLEY","zip":"95066","geo_score":0.963,"filetransactiontype":"LandSafe A Report Only","referringcustomer":"LandSafe_CA","id":"a6avqmaoxbxi","geo_precision":"range","address":"5525 SCOTTS VALLEY DRIVE 10","state":"California"},"type":"Feature","geometry":{"type":"Point","coordinates":[-122.008667,37.060547]}},{"properties":{"city":"HESPERIA","zip":"92345","geo_score":0.902,"filetransactiontype":"LandSafe A Report Only","referringcustomer":"LandSafe_CA","id":"a6avqmc8gxor","geo_precision":"range","address":"9057 QUINCY AVE","state":"California"},"type":"Feature","geometry":{"type":"Point","coordinates":[-117.249192,34.415893]}},{"properties":{"city":"ONTARIO","zip":"91762","geo_score":1.0,"filetransactiontype":"LandSafe A Report Only","referringcustomer":"LandSafe_CA","id":"a6avqmjfjbhq","geo_precision":"range","address":"11155 TUDOR AVENUE","state":"California"},"type":"Feature","geometry":{"type":"Point","coordinates":[-117.701098,34.050836]}},{"properties":{"city":"PICO RIVERA","zip":"90660","geo_score":0.941,"filetransactiontype":"LandSafe A Report Only","referringcustomer":"LandSafe_CA","id":"a6avqmeuzubz","geo_precision":"range","address":"7457 CRAVELL AVENUE","state":"California"},"type":"Feature","geometry":{"type":"Point","coordinates":[-118.099306,33.975277]}},{"properties":{"city":"FRESNO","zip":"93703","geo_score":0.967,"filetransactiontype":"LandSafe A Report Only","referringcustomer":"LandSafe_CA","id":"a6avqmctfdlg","geo_precision":"range","address":"2056 S MAPLE AVE","state":"California"},"type":"Feature","geometry":{"type":"Point","coordinates":[-119.745392,36.76886]}},{"properties":{"city":"BAKERSFIELD","zip":"93308","geo_score":0.911,"filetransactiontype":"LandSafe A Report Only","referringcustomer":"LandSafe_CA","id":"a6avqmmc8mao","geo_precision":"range","address":"207 OILDALE DR","state":"California"},"type":"Feature","geometry":{"type":"Point","coordinates":[-119.029911,35.406874]}},{"properties":{"city":"PORTERVILLE","zip":"93257","geo_score":0.497,"filetransactiontype":"LandSafe A Report Only","referringcustomer":"LandSafe_CA","id":"a6avqmcvklg3","geo_precision":"street","address":"22276 W. THURMAN AVE.","state":"California"},"type":"Feature","geometry":{"type":"Point","coordinates":[-119.066811,36.07061]}},{"properties":{"city":"SAN JOSE","zip":"95113","geo_score":0.805,"filetransactiontype":"LandSafe A Report Only","referringcustomer":"LandSafe_CA","id":"a6avqmdserzc","geo_precision":"range","address":"817 NORTH CAPITOL AVENUE #1","state":"California"},"type":"Feature","geometry":{"type":"Point","coordinates":[-121.835349,37.362368]}},{"properties":{"city":"VALLEJO","zip":"94591","geo_score":0.808,"filetransactiontype":"LandSafe A Report Only","referringcustomer":"LandSafe_CA","id":"a6avqmax7yoo","geo_precision":"street","address":"4173 PENNY LANE","state":"California"},"type":"Feature","geometry":{"type":"Point","coordinates":[-122.200838,38.133722]}},{"properties":{"city":"ORANGEVILLE","zip":"95662","geo_score":0.982,"filetransactiontype":"LandSafe A Report Only","referringcustomer":"LandSafe_CA","id":"a6avqma95nky","geo_precision":"range","address":"8631 STRATUS DRIVE","state":"California"},"type":"Feature","geometry":{"type":"Point","coordinates":[-121.240831,38.679349]}},{"properties":{"city":"ANREHEIM","zip":"92802","geo_score":0.976,"filetransactiontype":"LandSafe A Report Only","referringcustomer":"LandSafe_CA","id":"a6avqmlp1sba","geo_precision":"range","address":"1124 WEST BEACON AVENUE","state":"California"},"type":"Feature","geometry":{"type":"Point","coordinates":[-117.924694,33.821145]}},{"properties":{"city":"VALLEJO","zip":"94591","geo_score":1.0,"filetransactiontype":"LandSafe A Report Only","referringcustomer":"LandSafe_CA","id":"a6avqmj30dfi","geo_precision":"range","address":"109 NAVONE ST","state":"California"},"type":"Feature","geometry":{"type":"Point","coordinates":[-122.229129,38.076998]}},{"properties":{"city":"MODESTO","zip":"95355","geo_score":1.0,"filetransactiontype":"LandSafe A Report Only","referringcustomer":"LandSafe_CA","id":"a6avqme9gvnk","geo_precision":"range","address":"1012 MCGUIRE DR.","state":"California"},"type":"Feature","geometry":{"type":"Point","coordinates":[-120.951985,37.656961]}},{"properties":{"city":"STOCKTON","zip":"95206","geo_score":0.709,"filetransactiontype":"LandSafe A Report Only","referringcustomer":"LandSafe_CA","id":"a6avqmbsx7f3","geo_precision":"street","address":"2803 TECUMSEH LN","state":"California"},"type":"Feature","geometry":{"type":"Point","coordinates":[-121.237752,37.918896]}},{"properties":{"city":"LITTLEROCK","zip":"93543","geo_score":0.835,"filetransactiontype":"LandSafe A Report Only","referringcustomer":"LandSafe_CA","id":"a6avqmn6aufy","geo_precision":"range","address":"35631 82ND STREET EAST","state":"California"},"type":"Feature","geometry":{"type":"Point","coordinates":[-117.983677,34.528773]}},{"properties":{"city":"TULARE","zip":"93274","geo_score":0.846,"filetransactiontype":"LandSafe A Report Only","referringcustomer":"LandSafe_CA","id":"a6avqmb07jsc","geo_precision":"range","address":"233 D STREET","state":"California"},"type":"Feature","geometry":{"type":"Point","coordinates":[-119.356243,36.208321]}},{"properties":{"city":"SUNLAND","zip":"91040","geo_score":1.0,"filetransactiontype":"LandSafe A Report Only","referringcustomer":"LandSafe_CA","id":"a6avqml8dtsa","geo_precision":"range","address":"9433 WENTWORTH STREET","state":"California"},"type":"Feature","geometry":{"type":"Point","coordinates":[-118.338092,34.263869]}},{"properties":{"city":"RANCHO SANTA MARGARITA","zip":"92688","geo_score":0.917,"filetransactiontype":"LandSafe A Report Only","referringcustomer":"LandSafe_CA","id":"a6avqmmrgmr9","geo_precision":"range","address":"15 VIA HACIENDA","state":"California"},"type":"Feature","geometry":{"type":"Point","coordinates":[-117.606211,33.625375]}},{"properties":{"city":"RODEO","zip":"94572","geo_score":0.796,"filetransactiontype":"LandSafe A Report Only","referringcustomer":"LandSafe_CA","id":"a6avqmetlpbr","geo_precision":"range","address":"721 4TH STREET","state":"California"},"type":"Feature","geometry":{"type":"Point","coordinates":[-122.266068,38.033097]}},{"properties":{"city":"SELMA","zip":"93662","geo_score":0.912,"filetransactiontype":"LandSafe A Report Only","referringcustomer":"LandSafe_CA","id":"a6avqml51io6","geo_precision":"range","address":"1401 OAK STREET","state":"California"},"type":"Feature","geometry":{"type":"Point","coordinates":[-119.604215,36.579064]}},{"properties":{"city":"STOCKTON","zip":"95206","geo_score":0.463,"filetransactiontype":"LandSafe A Report Only","referringcustomer":"LandSafe_CA","id":"a6avqmcyjucw","geo_precision":"street","address":"3529 CAPE YORK COURT","state":"California"},"type":"Feature","geometry":{"type":"Point","coordinates":[-121.285754,38.121148]}},{"properties":{"city":"SELMA","zip":"93662","geo_score":0.912,"filetransactiontype":"LandSafe A Report Only","referringcustomer":"LandSafe_CA","id":"a6avqmmhmrhz","geo_precision":"range","address":"6192 EAST FLORAL AVENUE","state":"California"},"type":"Feature","geometry":{"type":"Point","coordinates":[-119.679195,36.576357]}},{"properties":{"city":"RIVERBANK","zip":"95367","geo_score":1.0,"filetransactiontype":"LandSafe A Report Only","referringcustomer":"LandSafe_CA","id":"a6avqmjsr6ho","geo_precision":"range","address":"2055 LAREDO LANE","state":"California"},"type":"Feature","geometry":{"type":"Point","coordinates":[-120.961326,37.730101]}},{"properties":{"city":"SAN LEANDRO","zip":"94579","geo_score":1.0,"filetransactiontype":"LandSafe A Report Only","referringcustomer":"LandSafe_CA","id":"a6avqmbsm1l7","geo_precision":"range","address":"2027 GULFSTREAM WAY","state":"California"},"type":"Feature","geometry":{"type":"Point","coordinates":[-122.164589,37.688537]}},{"properties":{"city":"LATHROP","zip":"95330","geo_score":0.902,"filetransactiontype":"LandSafe A Report Only","referringcustomer":"LandSafe_CA","id":"a6avqmi4xhpm","geo_precision":"range","address":"220 CHARMAINE COURT","state":"California"},"type":"Feature","geometry":{"type":"Point","coordinates":[-121.285853,37.825141]}},{"properties":{"city":"ESCONDIDO","zip":null,"geo_score":0.805,"filetransactiontype":"LandSafe A Report Only","referringcustomer":"LandSafe_CA","id":"a6avqmdeo58a","geo_precision":"range","address":"9043 HARMONY GROVE ROAD","state":"California"},"type":"Feature","geometry":{"type":"Point","coordinates":[-117.154874,33.08393]}},{"properties":{"city":"ROSEVILLE","zip":"95678","geo_score":0.732,"filetransactiontype":"LandSafe A Report Only","referringcustomer":"LandSafe_CA","id":"a6avqmfvyao3","geo_precision":"range","address":"208 BRANCH COURT","state":"California"},"type":"Feature","geometry":{"type":"Point","coordinates":[-121.278072,38.547456]}},{"properties":{"city":"SAN JOSE","zip":"95115","geo_score":0.805,"filetransactiontype":"LandSafe A Report Only","referringcustomer":"LandSafe_CA","id":"a6avqmf2abtr","geo_precision":"range","address":"8354 CHARBONO COURT","state":"California"},"type":"Feature","geometry":{"type":"Point","coordinates":[-121.750302,37.284582]}},{"properties":{"city":"SAN JOSE","zip":"95116","geo_score":1.0,"filetransactiontype":"LandSafe A Report Only","referringcustomer":"LandSafe_CA","id":"a6avqmo1gzjl","geo_precision":"range","address":"12 SILCREEK DRIVE","state":"California"},"type":"Feature","geometry":{"type":"Point","coordinates":[-121.854322,37.35762]}},{"properties":{"city":"SANTA CLARA","zip":"95054","geo_score":0.5,"filetransactiontype":"LandSafe A Report Only","referringcustomer":"LandSafe_CA","id":"a6avqmhqgddy","geo_precision":"street","address":"1869 SILVA PLACE","state":"California"},"type":"Feature","geometry":{"type":"Point","coordinates":[-121.59487,37.01947]}},{"properties":{"city":"SANTA ROSA","zip":"95401","geo_score":0.924,"filetransactiontype":"LandSafe A Report Only","referringcustomer":"LandSafe_CA","id":"a6avqmfykwi8","geo_precision":"range","address":"214 ROYAL CT","state":"California"},"type":"Feature","geometry":{"type":"Point","coordinates":[-122.807355,38.461496]}},{"properties":{"city":"HEALDSBURG","zip":"95448","geo_score":0.912,"filetransactiontype":"LandSafe A Report Only","referringcustomer":"LandSafe_CA","id":"a6avqmmq80lk","geo_precision":"range","address":"1957 REDWOOD DRIVE","state":"California"},"type":"Feature","geometry":{"type":"Point","coordinates":[-122.842134,38.623398]}},{"properties":{"city":"FAIRFIELD","zip":"94533","geo_score":0.902,"filetransactiontype":"LandSafe A Report Only","referringcustomer":"LandSafe_CA","id":"a6avqmk506j8","geo_precision":"range","address":"1673 FLAMINGO DR","state":"California"},"type":"Feature","geometry":{"type":"Point","coordinates":[-122.02407,38.260303]}},{"properties":{"city":"LODI","zip":"95242","geo_score":1.0,"filetransactiontype":"LandSafe A Report Only","referringcustomer":"LandSafe_CA","id":"a6avqmi2ly92","geo_precision":"range","address":"915 INTERLAKEN DR","state":"California"},"type":"Feature","geometry":{"type":"Point","coordinates":[-121.304181,38.122571]}},{"properties":{"city":"FORESTVILLE","zip":"95436","geo_score":0.909,"filetransactiontype":"LandSafe A Report Only","referringcustomer":"LandSafe_CA","id":"a6avqmbtnrki","geo_precision":"range","address":"11144 ICE BOX CANYON RD","state":"California"},"type":"Feature","geometry":{"type":"Point","coordinates":[-122.930715,38.501904]}},{"properties":{"city":"PETALUMA","zip":"94952","geo_score":0.767,"filetransactiontype":"LandSafe A Report Only","referringcustomer":"LandSafe_CA","id":"a6avqmlcp7wz","geo_precision":"street","address":"110 PAYRAN STREET","state":"California"},"type":"Feature","geometry":{"type":"Point","coordinates":[-122.635068,38.243429]}},{"properties":{"city":"WATSONVILLE","zip":"95076","geo_score":0.911,"filetransactiontype":"LandSafe A Report Only","referringcustomer":"LandSafe_CA","id":"a6avqmpidp90","geo_precision":"range","address":"237 SUNNYHILLS DRIVE","state":"California"},"type":"Feature","geometry":{"type":"Point","coordinates":[-121.784607,36.928895]}},{"properties":{"city":"APTOS","zip":"95003","geo_score":0.902,"filetransactiontype":"LandSafe A Report Only","referringcustomer":"LandSafe_CA","id":"a6avqmjmhcev","geo_precision":"range","address":"527 CLUBHOUSE DRIVE","state":"California"},"type":"Feature","geometry":{"type":"Point","coordinates":[-121.884863,36.969395]}},{"properties":{"city":"FREMONT","zip":"34536","geo_score":0.805,"filetransactiontype":"LandSafe A Report Only","referringcustomer":"LandSafe_CA","id":"a6avqmo3t4k2","geo_precision":"range","address":"38840 ARGONAUT WAY","state":"California"},"type":"Feature","geometry":{"type":"Point","coordinates":[-121.992547,37.546455]}},{"properties":{"city":"SANTEE","zip":"92071","geo_score":1.0,"filetransactiontype":"LandSafe A Report Only","referringcustomer":"LandSafe_CA","id":"a6avqmnq4t19","geo_precision":"range","address":"8608 FANITA DRIVE","state":"California"},"type":"Feature","geometry":{"type":"Point","coordinates":[-117.000707,32.833112]}},{"properties":{"city":"WESTMINISTER","zip":"92683","geo_score":0.919,"filetransactiontype":"LandSafe A Report Only","referringcustomer":"LandSafe_CA","id":"a6avqmmmcp5o","geo_precision":"range","address":"13382 LEE DRIVE","state":"California"},"type":"Feature","geometry":{"type":"Point","coordinates":[-118.029933,33.768476]}},{"properties":{"city":"SACRAMENTO","zip":"95815","geo_score":0.967,"filetransactiontype":"LandSafe A Report Only","referringcustomer":"LandSafe_CA","id":"a6avqmevfopt","geo_precision":"range","address":"1001 FRIENZA AVE","state":"California"},"type":"Feature","geometry":{"type":"Point","coordinates":[-121.443882,38.612933]}},{"properties":{"city":"WATSONVILLE","zip":"95076","geo_score":0.911,"filetransactiontype":"LandSafe A Report Only","referringcustomer":"LandSafe_CA","id":"a6avqmngk1cv","geo_precision":"range","address":"239 LAS LOMAS DRIVE","state":"California"},"type":"Feature","geometry":{"type":"Point","coordinates":[-121.735031,36.876051]}},{"properties":{"city":"ENCINITAS","zip":"92024","geo_score":0.912,"filetransactiontype":"LandSafe A Report Only","referringcustomer":"LandSafe_CA","id":"a6avqmn4c1ki","geo_precision":"range","address":"701 CYPRESS HILLS DR","state":"California"},"type":"Feature","geometry":{"type":"Point","coordinates":[-117.273251,33.060966]}},{"properties":{"city":"SACRAMENTO","zip":"95823","geo_score":0.922,"filetransactiontype":"LandSafe A Report Only","referringcustomer":"LandSafe_CA","id":"a6avqmdyl2ly","geo_precision":"range","address":"16 MONAGHAN CIR","state":"California"},"type":"Feature","geometry":{"type":"Point","coordinates":[-121.436975,38.469414]}},{"properties":{"city":"RIVERSIDE","zip":"92509","geo_score":0.922,"filetransactiontype":"LandSafe A Report Only","referringcustomer":"LandSafe_CA","id":"a6avqmpqn3gs","geo_precision":"range","address":"5191 BEACH STREET","state":"California"},"type":"Feature","geometry":{"type":"Point","coordinates":[-117.494877,33.993523]}},{"properties":{"city":"PORT HUENEME","zip":"93041","geo_score":1.0,"filetransactiontype":"LandSafe A Report Only","referringcustomer":"LandSafe_CA","id":"a6avqml1qk39","geo_precision":"range","address":"255 SOUTH VENTURA ROAD #227","state":"California"},"type":"Feature","geometry":{"type":"Point","coordinates":[-119.195463,34.146206]}},{"properties":{"city":"MENIFEE","zip":"92584","geo_score":0.683,"filetransactiontype":"LandSafe A Report Only","referringcustomer":"LandSafe_CA","id":"a6avqmcxs36n","geo_precision":"zip","address":"30308 SKIPSTONE WAY","state":"California"},"type":"Feature","geometry":{"type":"Point","coordinates":[-116.055617,33.752886]}},{"properties":{"city":"VACAVILLE","zip":"95687","geo_score":0.672,"filetransactiontype":"LandSafe A Report Only","referringcustomer":"LandSafe_CA","id":"a6avqmjtske3","geo_precision":"street","address":"2007 RED SUNSET CT","state":"California"},"type":"Feature","geometry":{"type":"Point","coordinates":[-121.973711,38.354833]}},{"properties":{"city":"SANTA ROSA","zip":"95406","geo_score":0.805,"filetransactiontype":"LandSafe A Report Only","referringcustomer":"LandSafe_CA","id":"a6avqmkjrdio","geo_precision":"range","address":"4725 MONTGOMERY DR","state":"California"},"type":"Feature","geometry":{"type":"Point","coordinates":[-122.665837,38.460359]}},{"properties":{"city":"WINDSOR","zip":"95492","geo_score":0.824,"filetransactiontype":"LandSafe A Report Only","referringcustomer":"LandSafe_CA","id":"a6avqmlxpgb0","geo_precision":"range","address":"1119 ROCHIOLI DR","state":"California"},"type":"Feature","geometry":{"type":"Point","coordinates":[-122.803545,38.560534]}},{"properties":{"city":"LANCASTER","zip":"93535","geo_score":0.471,"filetransactiontype":"LandSafe A Report Only","referringcustomer":"LandSafe_CA","id":"a6avqmnbcsc6","geo_precision":"street","address":"44720 AVENIDA LINDA","state":"California"},"type":"Feature","geometry":{"type":"Point","coordinates":[-118.093274,34.697427]}},{"properties":{"city":"ELK GROVE","zip":"95624","geo_score":0.915,"filetransactiontype":"LandSafe A Report Only","referringcustomer":"LandSafe_CA","id":"a6avqmm15phh","geo_precision":"range","address":"9328 MOYNELLO COURT","state":"California"},"type":"Feature","geometry":{"type":"Point","coordinates":[-121.376684,38.419083]}},{"properties":{"city":"ORANGE","zip":"92867","geo_score":0.894,"filetransactiontype":"LandSafe A Report Only","referringcustomer":"LandSafe_CA","id":"a6avqml1hb3f","geo_precision":"range","address":"855 N LEMMON APT 6","state":"California"},"type":"Feature","geometry":{"type":"Point","coordinates":[-117.855262,33.801668]}},{"properties":{"city":"VACAVILLE","zip":"95687","geo_score":0.973,"filetransactiontype":"LandSafe A Report Only","referringcustomer":"LandSafe_CA","id":"a6avqmf9t1re","geo_precision":"range","address":"105 REPUBLIC WY","state":"California"},"type":"Feature","geometry":{"type":"Point","coordinates":[-121.959411,38.332496]}},{"properties":{"city":"BRENTWOOD","zip":"94513","geo_score":1.0,"filetransactiontype":"LandSafe A Report Only","referringcustomer":"LandSafe_CA","id":"a6avqmh37uxl","geo_precision":"range","address":"2639 PRESIDIO DRIVE","state":"California"},"type":"Feature","geometry":{"type":"Point","coordinates":[-121.747062,37.935695]}},{"properties":{"city":"PALM DESERT","zip":"92260","geo_score":0.917,"filetransactiontype":"LandSafe A Report Only","referringcustomer":"LandSafe_CA","id":"a6avqmoahjas","geo_precision":"range","address":"67 CAMINO ARROYO SOUTH","state":"California"},"type":"Feature","geometry":{"type":"Point","coordinates":[-116.374068,33.741183]}},{"properties":{"city":"AMERICAN CANYON","zip":"94503","geo_score":1.0,"filetransactiontype":"LandSafe A Report Only","referringcustomer":"LandSafe_CA","id":"a6avqmkaf33z","geo_precision":"range","address":"2 DONALDSON WAY","state":"California"},"type":"Feature","geometry":{"type":"Point","coordinates":[-122.262016,38.170449]}},{"properties":{"city":"PATTERSON","zip":"95363","geo_score":0.935,"filetransactiontype":"LandSafe A Report Only","referringcustomer":"LandSafe_CA","id":"a6avqmn8v0xw","geo_precision":"range","address":"556 TRAINA DRIVE","state":"California"},"type":"Feature","geometry":{"type":"Point","coordinates":[-121.130881,37.461349]}},{"properties":{"city":"SAN PABLO","zip":"94806","geo_score":0.778,"filetransactiontype":"LandSafe A Report Only","referringcustomer":"LandSafe_CA","id":"a6avqmatsprh","geo_precision":"range","address":"2825 NORTH 20TH STREET","state":"California"},"type":"Feature","geometry":{"type":"Point","coordinates":[-122.345086,37.971096]}},{"properties":{"city":"SAN JOSE","zip":"95111","geo_score":1.0,"filetransactiontype":"LandSafe A Report Only","referringcustomer":"LandSafe_CA","id":"a6avqmavin5u","geo_precision":"range","address":"513 SOUTHSIDE DRIVE","state":"California"},"type":"Feature","geometry":{"type":"Point","coordinates":[-121.836748,37.294353]}},{"properties":{"city":"VALLEJO","zip":"94591","geo_score":1.0,"filetransactiontype":"LandSafe A Report Only","referringcustomer":"LandSafe_CA","id":"a6avqmah0ihb","geo_precision":"range","address":"6246 PEBBLE BEACH DRIVE","state":"California"},"type":"Feature","geometry":{"type":"Point","coordinates":[-122.198275,38.124277]}},{"properties":{"city":"CARLSBAD","zip":"92011","geo_score":0.941,"filetransactiontype":"LandSafe A Report Only","referringcustomer":"LandSafe_CA","id":"a6avqmnffvwf","geo_precision":"range","address":"6879 TRADEWINDS DRIVE","state":"California"},"type":"Feature","geometry":{"type":"Point","coordinates":[-117.318608,33.104721]}},{"properties":{"city":"ANTIOCH","zip":"94531","geo_score":1.0,"filetransactiontype":"LandSafe A Report Only","referringcustomer":"LandSafe_CA","id":"a6avqmpw57pd","geo_precision":"range","address":"4941 EUREKA MINE CT","state":"California"},"type":"Feature","geometry":{"type":"Point","coordinates":[-121.80657,37.966154]}},{"properties":{"city":"PACIFICA","zip":"94044","geo_score":0.915,"filetransactiontype":"LandSafe A Report Only","referringcustomer":"LandSafe_CA","id":"a6avqmjo449p","geo_precision":"range","address":"160 Salada Ave","state":"California"},"type":"Feature","geometry":{"type":"Point","coordinates":[-122.49102,37.634651]}},{"properties":{"city":"MARTINEZ","zip":"94553","geo_score":0.902,"filetransactiontype":"LandSafe A Report Only","referringcustomer":"LandSafe_CA","id":"a6avqmeydnzr","geo_precision":"range","address":"1527 CENTER AVENUE","state":"California"},"type":"Feature","geometry":{"type":"Point","coordinates":[-122.096069,37.98369]}},{"properties":{"city":"VALLEJO","zip":"94590","geo_score":0.724,"filetransactiontype":"LandSafe A Report Only","referringcustomer":"LandSafe_CA","id":"a6avqmopvwr5","geo_precision":"street","address":"718 DANIELS AVE","state":"California"},"type":"Feature","geometry":{"type":"Point","coordinates":[-122.266756,38.122706]}},{"properties":{"city":"CAPOTIOLA","zip":"95010","geo_score":0.783,"filetransactiontype":"LandSafe A Report Only","referringcustomer":"LandSafe_CA","id":"a6avqmlpfynr","geo_precision":"street","address":"4280 DIAMOND ST #2","state":"California"},"type":"Feature","geometry":{"type":"Point","coordinates":[-121.962097,36.971126]}},{"properties":{"city":"GILROY","zip":"95020","geo_score":0.61,"filetransactiontype":"LandSafe A Report Only","referringcustomer":"LandSafe_CA","id":"a6avqmfm34og","geo_precision":"street","address":"5990 BALTUSROL DRIVE","state":"California"},"type":"Feature","geometry":{"type":"Point","coordinates":[-121.880478,36.961302]}},{"properties":{"city":"WATSONVILLE","zip":"95076","geo_score":0.882,"filetransactiontype":"LandSafe A Report Only","referringcustomer":"LandSafe_CA","id":"a6avqmfqfrxs","geo_precision":"range","address":"571 VIVIANNE DRIVE","state":"California"},"type":"Feature","geometry":{"type":"Point","coordinates":[-121.742952,36.92325]}},{"properties":{"city":"SACRAMENTO","zip":"95815","geo_score":0.967,"filetransactiontype":"LandSafe A Report Only","referringcustomer":"LandSafe_CA","id":"a6avqmfrjmwt","geo_precision":"range","address":"1621 FRIENZA AVENUE","state":"California"},"type":"Feature","geometry":{"type":"Point","coordinates":[-121.429645,38.612915]}},{"properties":{"city":"OAKLAND","zip":"94603","geo_score":0.916,"filetransactiontype":"LandSafe A Report Only","referringcustomer":"LandSafe_CA","id":"a6avqmdupvwi","geo_precision":"range","address":"1334 93RD AVENUE","state":"California"},"type":"Feature","geometry":{"type":"Point","coordinates":[-122.174248,37.747347]}},{"properties":{"city":"STOCKTON","zip":"95206","geo_score":0.61,"filetransactiontype":"LandSafe A Report Only","referringcustomer":"LandSafe_CA","id":"a6avqmqdi9my","geo_precision":"street","address":"2321 E 6TH ST","state":"California"},"type":"Feature","geometry":{"type":"Point","coordinates":[-121.274238,37.933054]}},{"properties":{"city":"MODESTO","zip":"95358","geo_score":1.0,"filetransactiontype":"LandSafe A Report Only","referringcustomer":"LandSafe_CA","id":"a6avqmbkx4yz","geo_precision":"range","address":"1616 BOISE AVENUE","state":"California"},"type":"Feature","geometry":{"type":"Point","coordinates":[-121.007127,37.607402]}},{"properties":{"city":"FOSTER CITY","zip":"94404","geo_score":1.0,"filetransactiontype":"LandSafe A Report Only","referringcustomer":"LandSafe_CA","id":"a6avqmo1xeze","geo_precision":"range","address":"1463 MARLIN AVENUE","state":"California"},"type":"Feature","geometry":{"type":"Point","coordinates":[-122.251136,37.5637]}},{"properties":{"city":"ALBANY","zip":"94706","geo_score":1.0,"filetransactiontype":"LandSafe A Report Only","referringcustomer":"LandSafe_CA","id":"a6avqmdtrray","geo_precision":"range","address":"717 STANNAGE AVENUE","state":"California"},"type":"Feature","geometry":{"type":"Point","coordinates":[-122.298182,37.893539]}},{"properties":{"city":"YUCAIPA","zip":"92399","geo_score":0.902,"filetransactiontype":"LandSafe A Report Only","referringcustomer":"LandSafe_CA","id":"a6avqmn4nbja","geo_precision":"range","address":"12812 DOUGLAS STREET","state":"California"},"type":"Feature","geometry":{"type":"Point","coordinates":[-117.030097,34.025505]}},{"properties":{"city":"VALLEJO","zip":"94591","geo_score":1.0,"filetransactiontype":"LandSafe A Report Only","referringcustomer":"LandSafe_CA","id":"a6avqmbnlxin","geo_precision":"range","address":"238 WOODROW AVENUE","state":"California"},"type":"Feature","geometry":{"type":"Point","coordinates":[-122.227566,38.092251]}},{"properties":{"city":"STOCKTON","zip":"95207","geo_score":0.909,"filetransactiontype":"LandSafe A Report Only","referringcustomer":"LandSafe_CA","id":"a6avqmilhnd6","geo_precision":"range","address":"2290 PICCARDO CIR","state":"California"},"type":"Feature","geometry":{"type":"Point","coordinates":[-121.335693,37.981351]}},{"properties":{"city":"FRESNO","zip":"93722","geo_score":1.0,"filetransactiontype":"LandSafe A Report Only","referringcustomer":"LandSafe_CA","id":"a6avqmlmrzqi","geo_precision":"range","address":"3103 WEST ASHCROFT AVENUE","state":"California"},"type":"Feature","geometry":{"type":"Point","coordinates":[-119.846129,36.798408]}},{"properties":{"city":"CONCORD","zip":"94521","geo_score":0.958,"filetransactiontype":"LandSafe A Report Only","referringcustomer":"LandSafe_CA","id":"a6avqmob7fzc","geo_precision":"range","address":"25 ANGI LANE","state":"California"},"type":"Feature","geometry":{"type":"Point","coordinates":[-121.958488,37.957815]}},{"properties":{"city":"SACRAMENTO","zip":"95829","geo_score":1.0,"filetransactiontype":"LandSafe A Report Only","referringcustomer":"LandSafe_CA","id":"a6avqmnmnn9d","geo_precision":"range","address":"7388 BRADSHAW RD","state":"California"},"type":"Feature","geometry":{"type":"Point","coordinates":[-121.334952,38.493031]}},{"properties":{"city":"OAKLAND","zip":"94606","geo_score":0.916,"filetransactiontype":"LandSafe A Report Only","referringcustomer":"LandSafe_CA","id":"a6avqmqj72a2","geo_precision":"range","address":"1941 E 24TH ST","state":"California"},"type":"Feature","geometry":{"type":"Point","coordinates":[-122.23361,37.793467]}},{"properties":{"city":"WILDOMAR","zip":"92595","geo_score":1.0,"filetransactiontype":"LandSafe A Report Only","referringcustomer":"LandSafe_CA","id":"a6avqmoy4egh","geo_precision":"range","address":"21750 DUNN ST","state":"California"},"type":"Feature","geometry":{"type":"Point","coordinates":[-117.273665,33.597645]}},{"properties":{"city":"RANCHO CORDOVA","zip":"95670","geo_score":0.91,"filetransactiontype":"LandSafe A Report Only","referringcustomer":"LandSafe_CA","id":"a6avqmmnijor","geo_precision":"range","address":"2407 NEGRARA WAY","state":"California"},"type":"Feature","geometry":{"type":"Point","coordinates":[-121.295268,38.605048]}},{"properties":{"city":"CARUTHERS","zip":"93609","geo_score":0.877,"filetransactiontype":"LandSafe A Report Only","referringcustomer":"LandSafe_CA","id":"a6avqmgrqqao","geo_precision":"range","address":"2318 WEST MOUNTAIN VIEW AVE","state":"California"},"type":"Feature","geometry":{"type":"Point","coordinates":[-119.831593,36.547198]}},{"properties":{"city":"SACRAMENTO","zip":"95815","geo_score":0.967,"filetransactiontype":"LandSafe A Report Only","referringcustomer":"LandSafe_CA","id":"a6avqmk7keti","geo_precision":"range","address":"2101 WATERFORD ROAD","state":"California"},"type":"Feature","geometry":{"type":"Point","coordinates":[-121.423674,38.604091]}}],"is_temporal":false,"author":{"url":"","metadata":null,"contact_name":null,"contact_address":null,"source":null,"contact_phone":null},"source":"","pagination":{"sort":null,"start":0,"total":480,"limit":1000000},"state":"complete","tags":"","published":"2014-08-14T22:08:22-04:00","id":225826}