{"type":"FeatureCollection","data_type":"Dataset","url_type":null,"permissions":[{"permissions":{"download":true,"view":true},"group_id":"everyone"}],"classification":null,"title":"WE, W&amp;S Americas Coverage","count":42,"stream_id":22609,"contributor":{"url":"http://geocommons.com/users/10808","name":"sommelier"},"data_attributes":null,"calculation_params":null,"icon_link":null,"link":"http://geocommons.com/overlays/22609.json","extent":[-141.001,-55.7206,-12.1553,83.623],"geometry_types":[],"unique_name":null,"name":"WE, W&S Americas Coverage","feature_count":42,"description":"","next_feature":null,"is_raster":false,"short_classification":"Y","stats":{"GMI_CNTRY":{"max":35,"mean":1.02380952380952,"variance":29.7799070847852,"stdev":5.45709694661779,"min":0,"median":0}},"features":[{"properties":{"NAME":"Antigua and Barbuda","id":"a6dx56mtd7zu","REGION":"Caribbean","GMI_CNTRY":0},"type":"Feature","geometry":null},{"properties":{"NAME":"Argentina","id":"a6dx56iiw6sw","REGION":"Latin America","GMI_CNTRY":2},"type":"Feature","geometry":null},{"properties":{"NAME":"Bahamas, The","id":"a6dx56mt2w9g","REGION":"Caribbean","GMI_CNTRY":0},"type":"Feature","geometry":null},{"properties":{"NAME":"Barbados","id":"a6dx56wpcx12","REGION":"Caribbean","GMI_CNTRY":0},"type":"Feature","geometry":null},{"properties":{"NAME":"Belize","id":"a6dx56p68db3","REGION":"Latin America","GMI_CNTRY":0},"type":"Feature","geometry":null},{"properties":{"NAME":"Bermuda","id":"a6dx56jjdh9m","REGION":"North America","GMI_CNTRY":0},"type":"Feature","geometry":null},{"properties":{"NAME":"Bolivia","id":"a6dx56p4n5ve","REGION":"Latin America","GMI_CNTRY":0},"type":"Feature","geometry":null},{"properties":{"NAME":"Brazil","id":"a6dx56w3kj27","REGION":"Latin America","GMI_CNTRY":0},"type":"Feature","geometry":null},{"properties":{"NAME":"Canada","id":"a6dx56n3ej02","REGION":"North America","GMI_CNTRY":0},"type":"Feature","geometry":null},{"properties":{"NAME":"Chile","id":"a6dx56qujiy0","REGION":"Latin America","GMI_CNTRY":6},"type":"Feature","geometry":null},{"properties":{"NAME":"Colombia","id":"a6dx56rt6d6b","REGION":"Latin America","GMI_CNTRY":0},"type":"Feature","geometry":null},{"properties":{"NAME":"Costa Rica","id":"a6dx56l673t8","REGION":"Latin America","GMI_CNTRY":0},"type":"Feature","geometry":null},{"properties":{"NAME":"Cuba","id":"a6dx56smso5r","REGION":"Caribbean","GMI_CNTRY":0},"type":"Feature","geometry":null},{"properties":{"NAME":"Dominica","id":"a6dx56hg1vbg","REGION":"Caribbean","GMI_CNTRY":0},"type":"Feature","geometry":null},{"properties":{"NAME":"Dominican Republic","id":"a6dx56oz5yk1","REGION":"Caribbean","GMI_CNTRY":0},"type":"Feature","geometry":null},{"properties":{"NAME":"Ecuador","id":"a6dx56p9gvgc","REGION":"Latin America","GMI_CNTRY":0},"type":"Feature","geometry":null},{"properties":{"NAME":"El Salvador","id":"a6dx56rbnqhe","REGION":"Latin America","GMI_CNTRY":0},"type":"Feature","geometry":null},{"properties":{"NAME":"Falkland Islands (Islas Malvinas)","id":"a6dx56gz8mgt","REGION":"Latin America","GMI_CNTRY":0},"type":"Feature","geometry":null},{"properties":{"NAME":"French Guiana","id":"a6dx56udl41q","REGION":"Latin America","GMI_CNTRY":0},"type":"Feature","geometry":null},{"properties":{"NAME":"Greenland","id":"a6dx56vxtoch","REGION":"North America","GMI_CNTRY":35},"type":"Feature","geometry":null},{"properties":{"NAME":"Grenada","id":"a6dx56n4fnw0","REGION":"Caribbean","GMI_CNTRY":0},"type":"Feature","geometry":null},{"properties":{"NAME":"Guadeloupe","id":"a6dx56o0p7d6","REGION":"Caribbean","GMI_CNTRY":0},"type":"Feature","geometry":null},{"properties":{"NAME":"Guatemala","id":"a6dx56mt2lry","REGION":"Latin America","GMI_CNTRY":0},"type":"Feature","geometry":null},{"properties":{"NAME":"Guyana","id":"a6dx56wwjfdv","REGION":"Latin America","GMI_CNTRY":0},"type":"Feature","geometry":null},{"properties":{"NAME":"Haiti","id":"a6dx56l0cuu5","REGION":"Caribbean","GMI_CNTRY":0},"type":"Feature","geometry":null},{"properties":{"NAME":"Honduras","id":"a6dx56oj7f3e","REGION":"Latin America","GMI_CNTRY":0},"type":"Feature","geometry":null},{"properties":{"NAME":"Jamaica","id":"a6dx56m4g1sj","REGION":"Caribbean","GMI_CNTRY":0},"type":"Feature","geometry":null},{"properties":{"NAME":"Martinique","id":"a6dx56mt5uc3","REGION":"Caribbean","GMI_CNTRY":0},"type":"Feature","geometry":null},{"properties":{"NAME":"Mexico","id":"a6dx56tk7zxv","REGION":"Latin America","GMI_CNTRY":0},"type":"Feature","geometry":null},{"properties":{"NAME":"Nicaragua","id":"a6dx56lx2w20","REGION":"Latin America","GMI_CNTRY":0},"type":"Feature","geometry":null},{"properties":{"NAME":"Panama","id":"a6dx56obixpq","REGION":"Latin America","GMI_CNTRY":0},"type":"Feature","geometry":null},{"properties":{"NAME":"Paraguay","id":"a6dx56hwim7b","REGION":"Latin America","GMI_CNTRY":0},"type":"Feature","geometry":null},{"properties":{"NAME":"Peru","id":"a6dx56k755m2","REGION":"Latin America","GMI_CNTRY":0},"type":"Feature","geometry":null},{"properties":{"NAME":"Puerto Rico","id":"a6dx56n3tav6","REGION":"Caribbean","GMI_CNTRY":0},"type":"Feature","geometry":null},{"properties":{"NAME":"St. Christopher-Nevis","id":"a6dx56lsbrwv","REGION":"Caribbean","GMI_CNTRY":0},"type":"Feature","geometry":null},{"properties":{"NAME":"St. Lucia","id":"a6dx56n9alfc","REGION":"Caribbean","GMI_CNTRY":0},"type":"Feature","geometry":null},{"properties":{"NAME":"St. Vincent and the Grenadines","id":"a6dx56uyklsd","REGION":"Caribbean","GMI_CNTRY":0},"type":"Feature","geometry":null},{"properties":{"NAME":"Suriname","id":"a6dx56h9khw7","REGION":"Latin America","GMI_CNTRY":0},"type":"Feature","geometry":null},{"properties":{"NAME":"Trinidad and Tobago","id":"a6dx56mwitcl","REGION":"Caribbean","GMI_CNTRY":0},"type":"Feature","geometry":null},{"properties":{"NAME":"Turks and Caicos Islands","id":"a6dx56kohseh","REGION":"Caribbean","GMI_CNTRY":0},"type":"Feature","geometry":null},{"properties":{"NAME":"Uruguay","id":"a6dx56t21y5p","REGION":"Latin America","GMI_CNTRY":0},"type":"Feature","geometry":null},{"properties":{"NAME":"Venezuela","id":"a6dx56tszryn","REGION":"Latin America","GMI_CNTRY":0},"type":"Feature","geometry":null}],"is_temporal":false,"author":{"url":"","metadata":"","contact_name":"","contact_address":"","source":"","contact_phone":""},"source":"","pagination":{"sort":null,"start":0,"total":42,"limit":1000000},"state":"complete","tags":"","published":"2014-08-10T14:56:03-04:00","id":22609}