{"type":"FeatureCollection","data_type":"Dataset","url_type":null,"permissions":[{"permissions":{"download":true,"view":true},"group_id":"everyone"}],"classification":null,"title":"WE, W&amp;S, Sante Americas Coverage","count":42,"stream_id":22618,"contributor":{"url":"http://geocommons.com/users/10808","name":"sommelier"},"data_attributes":null,"calculation_params":null,"icon_link":null,"link":"http://geocommons.com/overlays/22618.json","extent":[-141.001,-55.7206,-12.1553,83.623],"geometry_types":[],"unique_name":null,"name":"WE, W&S, Sante Americas Coverage","feature_count":42,"description":"","next_feature":null,"is_raster":false,"short_classification":"Y","stats":{"GMI_CNTRY":{"max":35,"mean":1.02380952380952,"variance":29.7799070847852,"stdev":5.45709694661779,"min":0,"median":0}},"features":[{"properties":{"NAME":"Antigua and Barbuda","id":"a6f9hkan6ki7","REGION":"Caribbean","GMI_CNTRY":0},"type":"Feature","geometry":null},{"properties":{"NAME":"Argentina","id":"a6f9hk8v2bhu","REGION":"Latin America","GMI_CNTRY":2},"type":"Feature","geometry":null},{"properties":{"NAME":"Bahamas, The","id":"a6f9hk0dobzp","REGION":"Caribbean","GMI_CNTRY":0},"type":"Feature","geometry":null},{"properties":{"NAME":"Barbados","id":"a6f9hk9wxaw8","REGION":"Caribbean","GMI_CNTRY":0},"type":"Feature","geometry":null},{"properties":{"NAME":"Belize","id":"a6f9hk0nqy42","REGION":"Latin America","GMI_CNTRY":0},"type":"Feature","geometry":null},{"properties":{"NAME":"Bermuda","id":"a6f9hk8cdhmd","REGION":"North America","GMI_CNTRY":0},"type":"Feature","geometry":null},{"properties":{"NAME":"Bolivia","id":"a6f9hk2w9x2q","REGION":"Latin America","GMI_CNTRY":0},"type":"Feature","geometry":null},{"properties":{"NAME":"Brazil","id":"a6f9hjygyuli","REGION":"Latin America","GMI_CNTRY":0},"type":"Feature","geometry":null},{"properties":{"NAME":"Canada","id":"a6f9hkdv7mj5","REGION":"North America","GMI_CNTRY":0},"type":"Feature","geometry":null},{"properties":{"NAME":"Chile","id":"a6f9hkdu7kab","REGION":"Latin America","GMI_CNTRY":6},"type":"Feature","geometry":null},{"properties":{"NAME":"Colombia","id":"a6f9hk9cu3d8","REGION":"Latin America","GMI_CNTRY":0},"type":"Feature","geometry":null},{"properties":{"NAME":"Costa Rica","id":"a6f9hk1nvgdn","REGION":"Latin America","GMI_CNTRY":0},"type":"Feature","geometry":null},{"properties":{"NAME":"Cuba","id":"a6f9hk12w8f5","REGION":"Caribbean","GMI_CNTRY":0},"type":"Feature","geometry":null},{"properties":{"NAME":"Dominica","id":"a6f9hk5uojlc","REGION":"Caribbean","GMI_CNTRY":0},"type":"Feature","geometry":null},{"properties":{"NAME":"Dominican Republic","id":"a6f9hk4qxrtn","REGION":"Caribbean","GMI_CNTRY":0},"type":"Feature","geometry":null},{"properties":{"NAME":"Ecuador","id":"a6f9hk93gz84","REGION":"Latin America","GMI_CNTRY":0},"type":"Feature","geometry":null},{"properties":{"NAME":"El Salvador","id":"a6f9hk4pi1yw","REGION":"Latin America","GMI_CNTRY":0},"type":"Feature","geometry":null},{"properties":{"NAME":"Falkland Islands (Islas Malvinas)","id":"a6f9hk35uscg","REGION":"Latin America","GMI_CNTRY":0},"type":"Feature","geometry":null},{"properties":{"NAME":"French Guiana","id":"a6f9hkdbg5yq","REGION":"Latin America","GMI_CNTRY":0},"type":"Feature","geometry":null},{"properties":{"NAME":"Greenland","id":"a6f9hk0zktzm","REGION":"North America","GMI_CNTRY":35},"type":"Feature","geometry":null},{"properties":{"NAME":"Grenada","id":"a6f9hk6mxnav","REGION":"Caribbean","GMI_CNTRY":0},"type":"Feature","geometry":null},{"properties":{"NAME":"Guadeloupe","id":"a6f9hk8nbf5i","REGION":"Caribbean","GMI_CNTRY":0},"type":"Feature","geometry":null},{"properties":{"NAME":"Guatemala","id":"a6f9hk88z4l7","REGION":"Latin America","GMI_CNTRY":0},"type":"Feature","geometry":null},{"properties":{"NAME":"Guyana","id":"a6f9hk90k3wv","REGION":"Latin America","GMI_CNTRY":0},"type":"Feature","geometry":null},{"properties":{"NAME":"Haiti","id":"a6f9hkb6etih","REGION":"Caribbean","GMI_CNTRY":0},"type":"Feature","geometry":null},{"properties":{"NAME":"Honduras","id":"a6f9hk1u7zfn","REGION":"Latin America","GMI_CNTRY":0},"type":"Feature","geometry":null},{"properties":{"NAME":"Jamaica","id":"a6f9hkaacnz0","REGION":"Caribbean","GMI_CNTRY":0},"type":"Feature","geometry":null},{"properties":{"NAME":"Martinique","id":"a6f9hk9bmmc9","REGION":"Caribbean","GMI_CNTRY":0},"type":"Feature","geometry":null},{"properties":{"NAME":"Mexico","id":"a6f9hkddd3ty","REGION":"Latin America","GMI_CNTRY":0},"type":"Feature","geometry":null},{"properties":{"NAME":"Nicaragua","id":"a6f9hk8z8kpa","REGION":"Latin America","GMI_CNTRY":0},"type":"Feature","geometry":null},{"properties":{"NAME":"Panama","id":"a6f9hk3octr2","REGION":"Latin America","GMI_CNTRY":0},"type":"Feature","geometry":null},{"properties":{"NAME":"Paraguay","id":"a6f9hk38vtkd","REGION":"Latin America","GMI_CNTRY":0},"type":"Feature","geometry":null},{"properties":{"NAME":"Peru","id":"a6f9hkbqrjmf","REGION":"Latin America","GMI_CNTRY":0},"type":"Feature","geometry":null},{"properties":{"NAME":"Puerto Rico","id":"a6f9hk46b0wp","REGION":"Caribbean","GMI_CNTRY":0},"type":"Feature","geometry":null},{"properties":{"NAME":"St. Christopher-Nevis","id":"a6f9hk3m4vul","REGION":"Caribbean","GMI_CNTRY":0},"type":"Feature","geometry":null},{"properties":{"NAME":"St. Lucia","id":"a6f9hk0wo5uo","REGION":"Caribbean","GMI_CNTRY":0},"type":"Feature","geometry":null},{"properties":{"NAME":"St. Vincent and the Grenadines","id":"a6f9hk8fa12a","REGION":"Caribbean","GMI_CNTRY":0},"type":"Feature","geometry":null},{"properties":{"NAME":"Suriname","id":"a6f9hk6t11cf","REGION":"Latin America","GMI_CNTRY":0},"type":"Feature","geometry":null},{"properties":{"NAME":"Trinidad and Tobago","id":"a6f9hk9q9zci","REGION":"Caribbean","GMI_CNTRY":0},"type":"Feature","geometry":null},{"properties":{"NAME":"Turks and Caicos Islands","id":"a6f9hk61ie9z","REGION":"Caribbean","GMI_CNTRY":0},"type":"Feature","geometry":null},{"properties":{"NAME":"Uruguay","id":"a6f9hjyicvcr","REGION":"Latin America","GMI_CNTRY":0},"type":"Feature","geometry":null},{"properties":{"NAME":"Venezuela","id":"a6f9hkafc0ij","REGION":"Latin America","GMI_CNTRY":0},"type":"Feature","geometry":null}],"is_temporal":false,"author":{"url":"","metadata":"","contact_name":"","contact_address":"","source":"","contact_phone":""},"source":"","pagination":{"sort":null,"start":0,"total":42,"limit":1000000},"state":"complete","tags":"","published":"2014-08-10T14:56:38-04:00","id":22618}