{"type":"FeatureCollection","data_type":"Dataset","url_type":null,"permissions":[{"permissions":{"download":true,"view":true},"group_id":"everyone"}],"classification":null,"title":"HQs (1)","count":40,"stream_id":226583,"contributor":{"url":"http://geocommons.com/users/36336","name":"steph.shaw"},"data_attributes":null,"calculation_params":null,"icon_link":null,"link":"http://geocommons.com/overlays/226583.json","extent":[-88.6862,36.9231,-80.0015,41.2916],"geometry_types":["point"],"unique_name":null,"name":"HQs (1)","feature_count":40,"description":"","next_feature":null,"is_raster":false,"short_classification":"Y","stats":{},"features":[{"properties":{"city":"Louisville","zip":"40202","partner":"Anthem Blue Cross &amp; Blue Shield","# of employees in ky":"1200","geo_score":0.717,"street":"618 West Liberty Street","id":"a66qmg0ugvm8","geo_precision":"street"},"type":"Feature","geometry":{"type":"Point","coordinates":[-85.760465,38.253428]}},{"properties":{"city":"Louisville","zip":"40210","partner":"Brown-Forman","# of employees in ky":"1134","geo_score":0.902,"street":"850 Dixie Highway","id":"a66qmftfwhep","geo_precision":"range"},"type":"Feature","geometry":{"type":"Point","coordinates":[-85.783677,38.244943]}},{"properties":{"city":"Lexington","zip":"40507","partner":"Central Bank","# of employees in ky":"518","geo_score":0.902,"street":"300 West Vine Street","id":"a66qmfy7z9l7","geo_precision":"range"},"type":"Feature","geometry":{"type":"Point","coordinates":[-84.4998,38.047498]}},{"properties":{"city":"Lexington","zip":"40503","partner":"Central Baptist Hospital","# of employees in ky":"15000","geo_score":0.805,"street":"1740 Nicholasville Road","id":"a66qmg5n43lf","geo_precision":"range"},"type":"Feature","geometry":{"type":"Point","coordinates":[-84.513903,38.018815]}},{"properties":{"city":"Louisville","zip":"40222","partner":"Ceridian Stored Value Solutions","# of employees in ky":"184","geo_score":0.781,"street":"101 Bullit Lane","id":"a66qmfuu1yms","geo_precision":"range"},"type":"Feature","geometry":{"type":"Point","coordinates":[-85.613562,38.246812]}},{"properties":{"city":"Frankfort","zip":"40601","partner":"Commonwealth of Kentucky","# of employees in ky":"33,799","geo_score":0.752,"street":"300 West Broadway","id":"a66qmg2tc9ha","geo_precision":"range"},"type":"Feature","geometry":{"type":"Point","coordinates":[-84.877018,38.199693]}},{"properties":{"city":"Lexington","zip":"40508","partner":"Community Action Council","# of employees in ky":"280","geo_score":0.902,"street":"740 West High Street","id":"a66qmfxp0phn","geo_precision":"range"},"type":"Feature","geometry":{"type":"Point","coordinates":[-84.505604,38.050256]}},{"properties":{"city":"Pikeville","zip":"41501","partner":"Community Trust Bank","# of employees in ky":"975","geo_score":0.44,"street":"50 Weddington Branch Road, Ste A","id":"a66qmfxpqwgo","geo_precision":"street"},"type":"Feature","geometry":{"type":"Point","coordinates":[-82.521007,37.482586]}},{"properties":{"city":"Paducah","zip":"42001","partner":"Computer Services, Inc.","# of employees in ky":null,"geo_score":0.625,"street":"3901 Technology Drive","id":"a66qmfv5zwbv","geo_precision":"street"},"type":"Feature","geometry":{"type":"Point","coordinates":[-88.674658,37.077771]}},{"properties":{"city":"Twinsburg","zip":"44087","partner":"CVS Caremark","# of employees in ky":"?","geo_score":0.902,"street":"1920 Enterprise Parkway","id":"a66qmg04welc","geo_precision":"range"},"type":"Feature","geometry":{"type":"Point","coordinates":[-81.450668,41.291647]}},{"properties":{"city":"Lexington","zip":"40513","partner":"Darley","# of employees in ky":"201","geo_score":0.464,"street":"3333 Bowman Mill Road","id":"a66qmfvixkqz","geo_precision":"street"},"type":"Feature","geometry":{"type":"Point","coordinates":[-84.50068,38.011148]}},{"properties":{"city":"Lexington","zip":"40507","partner":"Dean Dorton Allen Ford, PLLC","# of employees in ky":"145","geo_score":0.458,"street":"106 West Vine Street, Ste. 600","id":"a66qmftffhwn","geo_precision":"street"},"type":"Feature","geometry":{"type":"Point","coordinates":[-84.491002,38.041056]}},{"properties":{"city":"Louisville","zip":"40202","partner":"Dinsmore &amp; Shohl","# of employees in ky":"?","geo_score":0.714,"street":"101 South Fifth Street, Suite 2500","id":"a66qmfspbd99","geo_precision":"street"},"type":"Feature","geometry":{"type":"Point","coordinates":[-85.758179,38.256799]}},{"properties":{"city":"Hazard","zip":"41701","partner":"EKCEP","# of employees in ky":"25","geo_score":0.829,"street":"941 North Main Street","id":"a66qmg0ddhnn","geo_precision":"range"},"type":"Feature","geometry":{"type":"Point","coordinates":[-83.195121,37.253077]}},{"properties":{"city":"Pittsburgh","zip":"15222","partner":"EQT Corporation","# of employees in ky":"250","geo_score":0.902,"street":"625 Liberty Avenue","id":"a66qmftm0sga","geo_precision":"range"},"type":"Feature","geometry":{"type":"Point","coordinates":[-80.001505,40.442006]}},{"properties":{"city":"Ghent","zip":"41045","partner":"Gallatin Steel","# of employees in ky":"450","geo_score":0.585,"street":"4831 US Highway","id":"a66qmg2uj8ie","geo_precision":"zip"},"type":"Feature","geometry":{"type":"Point","coordinates":[-85.047073,38.715638]}},{"properties":{"city":"Louisville","zip":"40225","partner":"GE Appliances &amp; Lighting","# of employees in ky":"5000","geo_score":0.401,"street":"Appliance Park, AP 3 - 215A","id":"a66qmfrqvw4d","geo_precision":"street"},"type":"Feature","geometry":{"type":"Point","coordinates":[-85.615093,38.250301]}},{"properties":{"city":"Highland Heights","zip":"41076","partner":"General Cable","# of employees in ky":"360","geo_score":0.849,"street":"4 Tesseneer Dr.","id":"a66qmg5xpyar","geo_precision":"range"},"type":"Feature","geometry":{"type":"Point","coordinates":[-84.465204,39.04146]}},{"properties":{"city":"Lexington","zip":"40507","partner":"Gray Construction","# of employees in ky":null,"geo_score":0.902,"street":"10 Quality Street","id":"a66qmfsqx0qn","geo_precision":"range"},"type":"Feature","geometry":{"type":"Point","coordinates":[-84.494091,38.043746]}},{"properties":{"city":"Paducah","zip":"42001","partner":"Harper Industries","# of employees in ky":"150","geo_score":0.304,"street":"960 North H.C. Mathis","id":"a66qmfzxzrbs","geo_precision":"street"},"type":"Feature","geometry":{"type":"Point","coordinates":[-88.686244,37.09794]}},{"properties":{"city":"Louisville","zip":"40202","partner":"Hilliard Lyons","# of employees in ky":null,"geo_score":0.902,"street":"500 West Jefferson Street","id":"a66qmg6xlymc","geo_precision":"range"},"type":"Feature","geometry":{"type":"Point","coordinates":[-85.758671,38.254017]}},{"properties":{"city":"Winfield","zip":"25213","partner":"Innovatitve Mattress Solutions","# of employees in ky":"105","geo_score":0.902,"street":"2982 Winfield Road","id":"a66qmfv3z1ir","geo_precision":"range"},"type":"Feature","geometry":{"type":"Point","coordinates":[-81.871787,38.534657]}},{"properties":{"city":"Versailles","zip":"40383","partner":"KCTCS (Kentucky Community &amp; Technical College System","# of employees in ky":null,"geo_score":0.815,"street":"300 North Main Street","id":"a66qmfwxifwv","geo_precision":"range"},"type":"Feature","geometry":{"type":"Point","coordinates":[-84.729853,38.057064]}},{"properties":{"city":"Lexington","zip":"40507","partner":"Kentucky Employers' Mutual Insurance","# of employees in ky":"198","geo_score":0.805,"street":"250 West Main Street","id":"a66qmg6z3tnj","geo_precision":"range"},"type":"Feature","geometry":{"type":"Point","coordinates":[-84.498381,38.04772]}},{"properties":{"city":"Louisville","zip":"40202","partner":"LG&amp;E and KU Energy LLC","# of employees in ky":"3116","geo_score":0.902,"street":"220 West Main Street","id":"a66qmg4p3gn0","geo_precision":"range"},"type":"Feature","geometry":{"type":"Point","coordinates":[-85.753584,38.256308]}},{"properties":{"city":"Russellville","zip":"42276","partner":"Logan Aluminum","# of employees in ky":"1002","geo_score":0.699,"street":"6920 Lewisburg Road","id":"a66qmftyv4v3","geo_precision":"range"},"type":"Feature","geometry":{"type":"Point","coordinates":[-86.938329,36.923095]}},{"properties":{"city":"Louisville","zip":"40202","partner":"Norton Healthcare","# of employees in ky":"11,916","geo_score":0.902,"street":"233 East Broadway","id":"a66qmfw70k9h","geo_precision":"range"},"type":"Feature","geometry":{"type":"Point","coordinates":[-85.751166,38.24554]}},{"properties":{"city":"Owensboro","zip":"42303","partner":"Owensboro Medical Health System","# of employees in ky":"3400","geo_score":0.902,"street":"811 East Parrish Avenue","id":"a66qmfxco5lw","geo_precision":"range"},"type":"Feature","geometry":{"type":"Point","coordinates":[-87.10215,37.765134]}},{"properties":{"city":"Paducah","zip":"42003","partner":"Paducah and Louisville Railway","# of employees in ky":null,"geo_score":0.902,"street":"1500 Kentucky Avenue","id":"a66qmg5pfo3n","geo_precision":"range"},"type":"Feature","geometry":{"type":"Point","coordinates":[-88.613112,37.079376]}},{"properties":{"city":"Louisville","zip":"40299","partner":"Papa John's International, Inc","# of employees in ky":"1,500","geo_score":0.824,"street":"2002 Papa John's Boulevard","id":"a66qmg7mbj0o","geo_precision":"range"},"type":"Feature","geometry":{"type":"Point","coordinates":[-85.530446,38.211796]}},{"properties":{"city":"Erlanger","zip":"41018","partner":"Perfetti Van Melle","# of employees in ky":null,"geo_score":0.841,"street":"3645 Turfway Rd.","id":"a66qmfuqooud","geo_precision":"range"},"type":"Feature","geometry":{"type":"Point","coordinates":[-84.630746,39.013176]}},{"properties":{"city":"Pikeville","zip":"41501","partner":"Pikeville Medical Center","# of employees in ky":"1995","geo_score":0.522,"street":"911 Bypass Road","id":"a66qmg37d3vf","geo_precision":"street"},"type":"Feature","geometry":{"type":"Point","coordinates":[-82.524136,37.487276]}},{"properties":{"city":"Nicholasville","zip":"40356","partner":"R.J. Corman Railroad Group","# of employees in ky":"450","geo_score":0.361,"street":"101 R.J. Corman Drive","id":"a66qmg4betj6","geo_precision":"street"},"type":"Feature","geometry":{"type":"Point","coordinates":[-84.593633,37.867546]}},{"properties":{"city":"Lexington","zip":"40507","partner":"Sturgill, Turner, Barker &amp; Moloney, PLLC","# of employees in ky":"50","geo_score":0.857,"street":"333 West Vine Street, Suite 1400","id":"a66qmfxbnq9k","geo_precision":"street"},"type":"Feature","geometry":{"type":"Point","coordinates":[-84.498854,38.046526]}},{"properties":{"city":"Erlanger","zip":"41018","partner":"Toyota Manufacturing","# of employees in ky":"9682","geo_score":0.503,"street":"25 Atlantic Avenue","id":"a66qmfz0q0jb","geo_precision":"street"},"type":"Feature","geometry":{"type":"Point","coordinates":[-84.660435,38.963525]}},{"properties":{"city":"Lexington","zip":"40509","partner":"UK Federal Credit Union","# of employees in ky":"121","geo_score":0.709,"street":"2557 Sir Barton Way","id":"a66qmg3ybiw9","geo_precision":"street"},"type":"Feature","geometry":{"type":"Point","coordinates":[-84.421217,38.028521]}},{"properties":{"city":"Lexington","zip":"40536","partner":"UK Healthcare","# of employees in ky":"7500","geo_score":0.805,"street":"800 Rose Street","id":"a66qmg15i68r","geo_precision":"range"},"type":"Feature","geometry":{"type":"Point","coordinates":[-84.506717,38.032914]}},{"properties":{"city":"Lexington","zip":"40506","partner":"University of Kentucky","# of employees in ky":"13,500","geo_score":0.452,"street":"101 Scovell Hall 0064","id":"a66qmg2q56t5","geo_precision":"street"},"type":"Feature","geometry":{"type":"Point","coordinates":[-84.498457,38.024426]}},{"properties":{"city":"Louisville","zip":"40208","partner":"University of Louisville","# of employees in ky":"6,500","geo_score":0.902,"street":"1980 Arthur Street","id":"a66qmfzbsrdh","geo_precision":"range"},"type":"Feature","geometry":{"type":"Point","coordinates":[-85.752766,38.218629]}},{"properties":{"city":"Lexington","zip":"40510","partner":"W. Rogers Company","# of employees in ky":"100","geo_score":0.902,"street":"649 Bizzell Drive","id":"a66qmfxgo9ig","geo_precision":"range"},"type":"Feature","geometry":{"type":"Point","coordinates":[-84.541078,38.064739]}}],"is_temporal":false,"author":{"url":"","metadata":"","contact_name":"","contact_address":"","source":"","contact_phone":""},"source":"","pagination":{"sort":null,"start":0,"total":40,"limit":1000000},"state":"complete","tags":"","published":"2014-08-14T22:59:40-04:00","id":226583}