{"type":"FeatureCollection","data_type":"Dataset","url_type":null,"permissions":[{"permissions":{"download":true,"view":true},"group_id":"everyone"}],"classification":null,"title":"VZW OH RFP CSV","count":134,"stream_id":226928,"contributor":{"url":"http://geocommons.com/users/12008","name":"pantheon"},"data_attributes":null,"calculation_params":null,"icon_link":null,"link":"http://geocommons.com/overlays/226928.json","extent":[-84.7362,39.0308,-81.0024,41.7266],"geometry_types":["point"],"unique_name":null,"name":"VZW OH RFP CSV","feature_count":134,"description":"","next_feature":null,"is_raster":false,"short_classification":"Y","stats":{},"features":[{"properties":{"city":"TOLEDO","lon":"-83 35 45","zip":"43613","county":"LUCAS","geo_score":1.0,"site name":"OH ALEXIS","msc":"Cleveland","id":"a6oil2so40y9","geo_precision":"range","address":"5740 JACKMAN RD","lat":"41 43 13","state":"OH"},"type":"Feature","geometry":{"type":"Point","coordinates":[-83.585525,41.720321]}},{"properties":{"city":"TOLEDO","lon":"-84 56 52","zip":"43623","county":"LUCAS","geo_score":1.0,"site name":"OH ALEXIS WEST","msc":"Cleveland","id":"a6oil2m350vi","geo_precision":"range","address":"3335 W ALEXIS RD","lat":"42 26 17","state":"OH"},"type":"Feature","geometry":{"type":"Point","coordinates":[-83.624377,41.72081]}},{"properties":{"city":"SHEFFIELD LAKE","lon":"-82 04 51","zip":"44054","county":"LORAIN","geo_score":1.0,"site name":"OH AVON LAKE","msc":"Akron","id":"a6oil2jb3rfz","geo_precision":"range","address":"5211 OSTER RD","lat":"41 29 00","state":"OH"},"type":"Feature","geometry":{"type":"Point","coordinates":[-82.078111,41.482237]}},{"properties":{"city":"AVON LAKE","lon":"-82 01 17.79","zip":"44012","county":"LORAIN","geo_score":1.0,"site name":"OH AVON NORTH","msc":"Akron","id":"a6oil2kurlwy","geo_precision":"range","address":"32841 WALKER ROAD","lat":"41 29 29.65","state":"OH"},"type":"Feature","geometry":{"type":"Point","coordinates":[-82.022941,41.493186]}},{"properties":{"city":"BEAVERCREEK","lon":"-84 05 11","zip":"45431","county":"GREENE","geo_score":0.92,"site name":"OH BEAVERCREEK","msc":"Duff","id":"a6oil2mrhwjq","geo_precision":"range","address":"4086 KEMP RD","lat":"39 45 46","state":"OH"},"type":"Feature","geometry":{"type":"Point","coordinates":[-84.083627,39.757125]}},{"properties":{"city":"NORTH CANTON","lon":"-81 25 36","zip":"44709","county":"STARK","geo_score":0.805,"site name":"OH BELDEN VILLAGE","msc":"Akron","id":"a6oil2l9atfy","geo_precision":"range","address":"5820 DRESSLER ROAD NW","lat":"40 52 02","state":"OH"},"type":"Feature","geometry":{"type":"Point","coordinates":[-81.429124,40.866754]}},{"properties":{"city":"BELLVILLE","lon":"-82 33 39","zip":"44813","county":"RICHLAND","geo_score":0.88,"site name":"OH BELLVILLE","msc":"Lewis Center","id":"a6oil2nbxzio","geo_precision":"range","address":"1338 HONEY CREEK ROAD","lat":"40 35 54","state":"OH"},"type":"Feature","geometry":{"type":"Point","coordinates":[-82.567238,40.594224]}},{"properties":{"city":"TIPP CITY","lon":"-84 05 15","zip":"45371","county":"MIAMI","geo_score":0.916,"site name":"OH BETHEL TOWNSHIP","msc":"Duff","id":"a6oil2szr8jo","geo_precision":"range","address":"8975 SOUTH STATE ROUTE 201","lat":"39 53 48","state":"OH"},"type":"Feature","geometry":{"type":"Point","coordinates":[-84.088225,39.898507]}},{"properties":{"city":"NEW CARLISLE","lon":"-84 00 05","zip":"45344","county":"CLARK","geo_score":0.518,"site name":"OH BIRD","msc":"Duff","id":"a6oil2s2qc4s","geo_precision":"street","address":"4015 DAYTON-LAKEVIEW ROAD (SR-","lat":"39 59 38","state":"OH"},"type":"Feature","geometry":{"type":"Point","coordinates":[-84.047422,39.898134]}},{"properties":{"city":"BRUNSWICK","lon":"-81.79417","zip":"44212","county":"MEDINA","geo_score":0.806,"site name":"OH BRUNSWICK [ALLTEL]","msc":"Akron","id":"a6oil2w6s2u7","geo_precision":"street","address":"1528 INDUSTRIAL PKWY","lat":"41.23444","state":"OH"},"type":"Feature","geometry":{"type":"Point","coordinates":[-81.793652,41.238384]}},{"properties":{"city":"CRIDERSVILLE","lon":"-84 12 29","zip":"45806","county":"AUGLAIZE","geo_score":0.715,"site name":"OH BUCKLAND","msc":"Maumee","id":"a6oil2w87b1g","geo_precision":"street","address":"19507 STATE ROUTE 501","lat":"40 38 03","state":"OH"},"type":"Feature","geometry":{"type":"Point","coordinates":[-84.203511,40.657047]}},{"properties":{"city":"DAYTON","lon":"-84 12 32","zip":"45408","county":"MONTGOMERY","geo_score":1.0,"site name":"OH BURKHAM PARK","msc":"Duff","id":"a6oil2s2o8vt","geo_precision":"range","address":"755 ALBANY ST","lat":"39 44 48","state":"OH"},"type":"Feature","geometry":{"type":"Point","coordinates":[-84.208704,39.746006]}},{"properties":{"city":"BUTLER","lon":"-82 26 22","zip":"44822","county":"RICHLAND","geo_score":0.935,"site name":"OH BUTLER","msc":"Lewis Center","id":"a6oil2m5x01l","geo_precision":"range","address":"1929 CASSELL RD","lat":"40 35 31","state":"OH"},"type":"Feature","geometry":{"type":"Point","coordinates":[-82.440829,40.586992]}},{"properties":{"city":"DAYTON","lon":"-84 13 26","zip":"45414","county":"MONTGOMERY","geo_score":0.91,"site name":"OH BUTLER TOWNSHIP","msc":"Duff","id":"a6oil2hwg610","geo_precision":"range","address":"6675 BRANTFORD RD","lat":"39 50 27","state":"OH"},"type":"Feature","geometry":{"type":"Point","coordinates":[-84.217585,39.843123]}},{"properties":{"city":"CANAL FULTON","lon":"-81 37 28","zip":"44614","county":"STARK","geo_score":0.923,"site name":"OH CANAL FULTON","msc":"Akron","id":"a6oil2i625fv","geo_precision":"range","address":"14625 MARSHALLVILLE ST NW","lat":"40 53 27","state":"OH"},"type":"Feature","geometry":{"type":"Point","coordinates":[-81.629683,40.891044]}},{"properties":{"city":"WAYNESBURG","lon":"-81 17 44","zip":"44688","county":"STARK","geo_score":0.91,"site name":"OH CANTON SOUTH","msc":"Akron","id":"a6oil2vug2wi","geo_precision":"range","address":"5920 FAIRHILL ST SE","lat":"40 43 42","state":"OH"},"type":"Feature","geometry":{"type":"Point","coordinates":[-81.297902,40.730859]}},{"properties":{"city":"SANDUSKY","lon":"-82 40 58","zip":"44870","county":"ERIE","geo_score":0.774,"site name":"OH CEDAR POINT PARK","msc":"Cleveland","id":"a6oil2nwwt5y","geo_precision":"street","address":"1529 THIRD ST (ONE CAUSEWAY DR","lat":"41 28 58","state":"OH"},"type":"Feature","geometry":{"type":"Point","coordinates":[-82.694296,41.450879]}},{"properties":{"city":"FAIRBORN","lon":"-84 01 02.06","zip":"45324","county":"GREENE","geo_score":0.91,"site name":"OH CHADWICK","msc":"Duff","id":"a6oil2kwcdsi","geo_precision":"range","address":"2088 BEAVER VALLEY RD","lat":"39 47 04.51","state":"OH"},"type":"Feature","geometry":{"type":"Point","coordinates":[-84.021421,39.784905]}},{"properties":{"city":"COLUMBUS","lon":"-82 55 09.6","zip":"43219","county":"FRANKLIN","geo_score":1.0,"site name":"OH CITY GATE","msc":"Lewis Center","id":"a6oil2md5qg0","geo_precision":"range","address":"2246 CITYGATE DR","lat":"40 00 56.7","state":"OH"},"type":"Feature","geometry":{"type":"Point","coordinates":[-82.921985,40.014802]}},{"properties":{"city":"DAYTON","lon":"-84 13 22","zip":"45458","county":"MONTGOMERY","geo_score":0.902,"site name":"OH DAYTON MALL","msc":"Duff","id":"a6oil2l0kxjp","geo_precision":"range","address":"8953 KINGSRIDGE DR","lat":"39 37 53","state":"OH"},"type":"Feature","geometry":{"type":"Point","coordinates":[-84.222085,39.630275]}},{"properties":{"city":"LIMA","lon":"-84 10 42.31","zip":"45807","county":"ALLEN","geo_score":0.873,"site name":"OH DELPHOS II","msc":"Maumee","id":"a6oil2vwdmad","geo_precision":"street","address":"4152 ELIDA ROAD (CERTIFIED)","lat":"40 46 41.89","state":"OH"},"type":"Feature","geometry":{"type":"Point","coordinates":[-84.165211,40.770396]}},{"properties":{"city":"CANTON","lon":"-81 23 53","zip":"44709","county":"STARK","geo_score":0.71,"site name":"OH DOWNTOWN CANTON WEST","msc":"Akron","id":"a6oil2qypx2p","geo_precision":"street","address":"2565 FULTON DRIVE NW","lat":"40 49 32","state":"OH"},"type":"Feature","geometry":{"type":"Point","coordinates":[-81.39327,40.822485]}},{"properties":{"city":"LORAIN","lon":"-82 11 13","zip":"44052","county":"LORAIN","geo_score":1.0,"site name":"OH DOWNTOWN LORAIN","msc":"Akron","id":"a6oil2wezlj4","geo_precision":"range","address":"144 OBERLIN AVE","lat":"41 28 04","state":"OH"},"type":"Feature","geometry":{"type":"Point","coordinates":[-82.184825,41.468699]}},{"properties":{"city":"MORAINE","lon":"-84 13 35.995","zip":"45439","county":"MONTGOMERY","geo_score":0.913,"site name":"OH DRYDEN","msc":"Duff","id":"a6oil2ljlzg4","geo_precision":"range","address":"3223 DRYDEN RD","lat":"39 42 02.328","state":"OH"},"type":"Feature","geometry":{"type":"Point","coordinates":[-84.224982,39.701107]}},{"properties":{"city":"KETTERING","lon":"-84 07 56","zip":"45429","county":"MONTGOMERY","geo_score":0.913,"site name":"OH EAST KETTERING","msc":"Duff","id":"a6oil2tinc80","geo_precision":"range","address":"2756 CULVER AVE","lat":"39 42 23","state":"OH"},"type":"Feature","geometry":{"type":"Point","coordinates":[-84.13357,39.704751]}},{"properties":{"city":"ZANESVILLE","lon":"-81 57 40","zip":"43701","county":"MUSKINGUM","geo_score":0.902,"site name":"OH EAST ZANESVILLE PCS","msc":"Lewis Center","id":"a6oil2jwoojw","geo_precision":"range","address":"539B PLEASANT GROVE ROAD","lat":"39 57 34","state":"OH"},"type":"Feature","geometry":{"type":"Point","coordinates":[-81.960232,39.950736]}},{"properties":{"city":"COLUMBUS","lon":"-82 54 43.00","zip":"43219","county":"FRANKLIN","geo_score":0.683,"site name":"OH EASTON WAY","msc":"Lewis Center","id":"a6oil2qujrg2","geo_precision":"zip","address":"3900 CHAGRIN DR","lat":"40-02-56.24","state":"OH"},"type":"Feature","geometry":{"type":"Point","coordinates":[-82.910251,40.032615]}},{"properties":{"city":"LIMA","lon":"-84 08 33.1","zip":"45805","county":"ALLEN","geo_score":1.0,"site name":"OH ELM &amp; CABLE","msc":"Maumee","id":"a6oil2we34nh","geo_precision":"zip","address":"2341 SPENCERVILLE ROAD (OH-117","lat":"40 43 44.5","state":"OH"},"type":"Feature","geometry":{"type":"Point","coordinates":[-84.169749,40.733043]}},{"properties":{"city":"ELYRIA (EATON TOWNSHIP)","lon":"-82 03 06.28","zip":"44039","county":"LORAIN","geo_score":0.81,"site name":"OH ELYRIA SOUTHEAST","msc":"Akron","id":"a6oil2lbrogf","geo_precision":"street","address":"37502 BUTTERNUT RIDGE RD","lat":"41 20 28.13","state":"OH"},"type":"Feature","geometry":{"type":"Point","coordinates":[-82.069386,41.328511]}},{"properties":{"city":"MIAMISBURG","lon":"-84 16 50","zip":"45342","county":"MONTGOMERY","geo_score":0.815,"site name":"OH EXPOSURE","msc":"Duff","id":"a6oil2nhpfes","geo_precision":"range","address":"1010 N FOURTH ST","lat":"39 39 07","state":"OH"},"type":"Feature","geometry":{"type":"Point","coordinates":[-84.282576,39.651021]}},{"properties":{"city":"FAIRBORN","lon":"-84 00 29","zip":"45324","county":"GREENE","geo_score":0.765,"site name":"OH FAIRBORN","msc":"Duff","id":"a6oil2n9ep87","geo_precision":"range","address":"565 YELLOW SPRINGS-FAIRFIELD R","lat":"39 49 13","state":"OH"},"type":"Feature","geometry":{"type":"Point","coordinates":[-84.007853,39.820604]}},{"properties":{"city":"FRANKLIN","lon":"-84 16 49","zip":"45005","county":"WARREN","geo_score":0.744,"site name":"OH FRANKLIN","msc":"Duff","id":"a6oil2o3d2ft","geo_precision":"street","address":"5781 NORTH STATE ROUTE 123","lat":"39 31 35","state":"OH"},"type":"Feature","geometry":{"type":"Point","coordinates":[-84.294788,39.545789]}},{"properties":{"city":"FREMONT","lon":"-83 10 15","zip":"43420","county":"SANDUSKY","geo_score":0.612,"site name":"OH FREMONT","msc":"Cleveland","id":"a6oil2rxloj9","geo_precision":"street","address":"765 MUSKELLUNGE CREEK ROAD (CR","lat":"41 21 21","state":"OH"},"type":"Feature","geometry":{"type":"Point","coordinates":[-83.054884,41.414452]}},{"properties":{"city":"FREMONT","lon":"-83 06 43.9","zip":"43420","county":"SANDUSKY","geo_score":0.911,"site name":"OH FREMONT DOWNTOWN","msc":"Cleveland","id":"a6oil2rl2rkt","geo_precision":"range","address":"1115 NORTH FRONT ST","lat":"41 21 32.3","state":"OH"},"type":"Feature","geometry":{"type":"Point","coordinates":[-83.112739,41.358294]}},{"properties":{"city":"MIAMISBURG","lon":"-84 13 21.80","zip":"45459","county":"MONTGOMERY","geo_score":0.571,"site name":"OH GEM CITY","msc":"Duff","id":"a6oil2p00yet","geo_precision":"street","address":"504 SPRINGBORO PIKE","lat":"39 38 49.38","state":"OH"},"type":"Feature","geometry":{"type":"Point","coordinates":[-84.201776,39.651447]}},{"properties":{"city":"AKRON","lon":"-81.63556","zip":"44333","county":"SUMMIT","geo_score":0.939,"site name":"OH GHENT [ALLTEL]","msc":"Akron","id":"a6oil2kk6d41","geo_precision":"range","address":"405 N CLEVELAND MASSILLON RD","lat":"41.14611","state":"OH"},"type":"Feature","geometry":{"type":"Point","coordinates":[-81.637155,41.147444]}},{"properties":{"city":"HAMILTON","lon":"-84 37 45","zip":"45013","county":"BUTLER","geo_score":0.913,"site name":"OH HAMILTON","msc":"Duff","id":"a6oil2r4m7ly","geo_precision":"range","address":"1505 BOYLE RD","lat":"39 25 41","state":"OH"},"type":"Feature","geometry":{"type":"Point","coordinates":[-84.628033,39.428122]}},{"properties":{"city":"HARTVILLE","lon":"-81 19 49","zip":"44632","county":"STARK","geo_score":1.0,"site name":"OH HARTVILLE","msc":"Akron","id":"a6oil2sc899u","geo_precision":"range","address":"13014 LAKE AVE NE","lat":"40 58 15","state":"OH"},"type":"Feature","geometry":{"type":"Point","coordinates":[-81.331121,40.97136]}},{"properties":{"city":"TOLEDO","lon":"-83 42 15","zip":"43615","county":"LUCAS","geo_score":0.922,"site name":"OH HAVEN PARK","msc":"Cleveland","id":"a6oil2hny0oy","geo_precision":"range","address":"1015 N MCCORD RD","lat":"41 39 03","state":"OH"},"type":"Feature","geometry":{"type":"Point","coordinates":[-83.703644,41.651792]}},{"properties":{"city":"HUNTSBURG","lon":"-81.084825","zip":"44046","county":"GEAUGA","geo_score":0.878,"site name":"OH HUNTSBURG [ALLTEL]","msc":"Akron","id":"a6oil2szp7on","geo_precision":"range","address":"12603 PRINCETON RD","lat":"41.52794444","state":"OH"},"type":"Feature","geometry":{"type":"Point","coordinates":[-81.090048,41.527537]}},{"properties":{"city":"TOLEDO","lon":"-83 31 15","zip":"43608","county":"LUCAS","geo_score":0.865,"site name":"OH I-280 NORTH","msc":"Cleveland","id":"a6oil2jp8fp9","geo_precision":"range","address":"1242 NORTH EXPRESSWAY DR","lat":"41 41 26","state":"OH"},"type":"Feature","geometry":{"type":"Point","coordinates":[-83.523591,41.690317]}},{"properties":{"city":"TOLEDO","lon":"-83 30 24","zip":"43612","county":"LUCAS","geo_score":0.961,"site name":"OH I-75 &amp; ALEXIS","msc":"Cleveland","id":"a6oil2h22lg0","geo_precision":"range","address":"6010 HAGMAN RD","lat":"41 43 35","state":"OH"},"type":"Feature","geometry":{"type":"Point","coordinates":[-83.508835,41.72663]}},{"properties":{"city":"LIMA","lon":"-84 00 12","zip":"45807","county":"ALLEN","geo_score":0.913,"site name":"OH I-75 &amp; US30","msc":"Duff","id":"a6oil2j5n54o","geo_precision":"range","address":"5415 E STATE RD","lat":"40 49 06","state":"OH"},"type":"Feature","geometry":{"type":"Point","coordinates":[-84.005061,40.819275]}},{"properties":{"city":"DAYTON","lon":"-84 11 21","zip":"45414","county":"MONTGOMERY","geo_score":0.91,"site name":"OH I75 &amp; NEEDMORE","msc":"Maumee","id":"a6oil2gr1zxc","geo_precision":"range","address":"5311 WADSWORTH ROAD","lat":"39 49 10","state":"OH"},"type":"Feature","geometry":{"type":"Point","coordinates":[-84.187213,39.823554]}},{"properties":{"city":"LAKE MILTON","lon":"-80 59 58","zip":"44429","county":"MAHONING","geo_score":0.922,"site name":"OH I76 &amp; YOUNGSTOWN","msc":"Akron","id":"a6oil2qmajx4","geo_precision":"range","address":"1155 COUNTY LINE RD","lat":"41 06 24","state":"OH"},"type":"Feature","geometry":{"type":"Point","coordinates":[-81.002401,41.10672]}},{"properties":{"city":"NORTH CANTON","lon":"-81 28 41.33","zip":"44720","county":"STARK","geo_score":0.925,"site name":"OH JACKSON TOWNSHIP CNTN","msc":"Akron","id":"a6oil2o0mqn7","geo_precision":"range","address":"6946 PORTAGE ST NW","lat":"40 52 39.77","state":"OH"},"type":"Feature","geometry":{"type":"Point","coordinates":[-81.477947,40.878824]}},{"properties":{"city":"TOLEDO","lon":"-83 39 33","zip":"43615","county":"LUCAS","geo_score":0.922,"site name":"OH JOHNSTON CORNER","msc":"Cleveland","id":"a6oil2j52366","geo_precision":"range","address":"4950 ANGOLA RD","lat":"41 37 31","state":"OH"},"type":"Feature","geometry":{"type":"Point","coordinates":[-83.66423,41.622664]}},{"properties":{"city":"WAYNESVILLE","lon":"-84 09 55","zip":"45068","county":"WARREN","geo_score":0.894,"site name":"OH KENRICKSVILLE","msc":"Duff","id":"a6oil2sbem46","geo_precision":"range","address":"7560 NORTH STATE ROUTE 48","lat":"39 32 48","state":"OH"},"type":"Feature","geometry":{"type":"Point","coordinates":[-84.16602,39.546227]}},{"properties":{"city":"KENT","lon":"-81 20 58","zip":"44240","county":"PORTAGE","geo_score":0.864,"site name":"OH KENT DOWNTOWN","msc":"Akron","id":"a6oil2uy1x5z","geo_precision":"range","address":"341 OAK ST","lat":"41 09 02","state":"OH"},"type":"Feature","geometry":{"type":"Point","coordinates":[-81.363316,41.145836]}},{"properties":{"city":"DAYTON","lon":"-84 10 14","zip":"45419","county":"MONTGOMERY","geo_score":0.93,"site name":"OH KETTERING","msc":"Duff","id":"a6oil2n61kwe","geo_precision":"range","address":"2600 FAR HILLS AVE","lat":"39 42 27","state":"OH"},"type":"Feature","geometry":{"type":"Point","coordinates":[-84.170761,39.707248]}},{"properties":{"city":"LEBANON","lon":"-84 10 29","zip":"45036","county":"WARREN","geo_score":0.912,"site name":"OH LEBANON","msc":"Duff","id":"a6oil2io6inw","geo_precision":"range","address":"1790 WOOD RD","lat":"39 24 09","state":"OH"},"type":"Feature","geometry":{"type":"Point","coordinates":[-84.175487,39.402079]}},{"properties":{"city":"LIMA","lon":"-84 05 52","zip":"45801","county":"ALLEN","geo_score":0.915,"site name":"OH LIMA DOWNTOWN","msc":"Maumee","id":"a6oil2pgntsc","geo_precision":"range","address":"356 N PARK AVE","lat":"40 44 36","state":"OH"},"type":"Feature","geometry":{"type":"Point","coordinates":[-84.097569,40.743347]}},{"properties":{"city":"ADA","lon":"-83 52 49.7","zip":"45810","county":"ALLEN","geo_score":0.913,"site name":"OH LIMA EAST","msc":"Maumee","id":"a6oil2p8lmev","geo_precision":"range","address":"2241 N HARDIN RD","lat":"40 46 21.4","state":"OH"},"type":"Feature","geometry":{"type":"Point","coordinates":[-83.879905,40.772978]}},{"properties":{"city":"LIMA","lon":"-84 04 36.9","zip":"45804","county":"ALLEN","geo_score":0.902,"site name":"OH LIMA EAST II","msc":"Maumee","id":"a6oil2ss0iw6","geo_precision":"range","address":"1812 EAST FOURTH ST","lat":"40 42 58.5","state":"OH"},"type":"Feature","geometry":{"type":"Point","coordinates":[-84.073042,40.716995]}},{"properties":{"city":"LIMA","lon":"-84 07 47","zip":"45805","county":"ALLEN","geo_score":0.805,"site name":"OH LIMA NORTH","msc":"Maumee","id":"a6oil2r85sx5","geo_precision":"street","address":"14660 N ROSEDALE AVE","lat":"40 45 24","state":"OH"},"type":"Feature","geometry":{"type":"Point","coordinates":[-84.130656,40.754828]}},{"properties":{"city":"LIMA","lon":"-84 06 25","zip":"45804","county":"ALLEN","geo_score":0.74,"site name":"OH LIMA SOUTH","msc":"Maumee","id":"a6oil2sbcgwz","geo_precision":"street","address":"2589 MCCLAIN (205 WEST HANTHOR","lat":"40 42 07","state":"OH"},"type":"Feature","geometry":{"type":"Point","coordinates":[-84.108031,40.716773]}},{"properties":{"city":"LIMA","lon":"-84 11 03","zip":"45806","county":"ALLEN","geo_score":0.805,"site name":"OH LIMA WEST","msc":"Maumee","id":"a6oil2p94ml3","geo_precision":"range","address":"771 S COPUS RD","lat":"40 43 43","state":"OH"},"type":"Feature","geometry":{"type":"Point","coordinates":[-84.18687,40.728936]}},{"properties":{"city":"ALLIANCE","lon":"-81 10 17","zip":"44601","county":"STARK","geo_score":0.935,"site name":"OH LIMAVILLE","msc":"Akron","id":"a6oil2tm7zw1","geo_precision":"range","address":"13226 MCCALLUM AVE NE","lat":"40 57 47","state":"OH"},"type":"Feature","geometry":{"type":"Point","coordinates":[-81.172338,40.962514]}},{"properties":{"city":"LOUISVILLE","lon":"-81 13 44","zip":"44641","county":"STARK","geo_score":0.912,"site name":"OH LOUISVILLE","msc":"Akron","id":"a6oil2q6w8yu","geo_precision":"range","address":"6710 N NICKELPLATE ST","lat":"40 52 06","state":"OH"},"type":"Feature","geometry":{"type":"Point","coordinates":[-81.228912,40.869142]}},{"properties":{"city":"BERKEY","lon":"-83 48 27","zip":"43504","county":"LUCAS","geo_score":0.915,"site name":"OH LYONS","msc":"Cleveland","id":"a6oil2ptg26w","geo_precision":"range","address":"3300 WASHBURN RD","lat":"41 40 42","state":"OH"},"type":"Feature","geometry":{"type":"Point","coordinates":[-83.805939,41.676101]}},{"properties":{"city":"MANSFIELD","lon":"-82 34 03","zip":"44906","county":"RICHLAND","geo_score":0.924,"site name":"OH MANSFIELD 1","msc":"Lewis Center","id":"a6oil2of4gva","geo_precision":"range","address":"1570 WEST COOK RD","lat":"40 43 04","state":"OH"},"type":"Feature","geometry":{"type":"Point","coordinates":[-82.567118,40.71594]}},{"properties":{"city":"MANSFIELD","lon":"-82 31 27","zip":"44902","county":"RICHLAND","geo_score":1.0,"site name":"OH MANSFIELD DOWNTOWN","msc":"Lewis Center","id":"a6oil2j9u13r","geo_precision":"range","address":"74 STURGES AVE","lat":"40 45 24","state":"OH"},"type":"Feature","geometry":{"type":"Point","coordinates":[-82.523276,40.756982]}},{"properties":{"city":"MANSFIELD","lon":"-82 25 43.19","zip":"44903","county":"RICHLAND","geo_score":0.592,"site name":"OH MANSFIELD EAST","msc":"Lewis Center","id":"a6oil2uu0i4w","geo_precision":"street","address":"2330 PARK AVENUE EAST (EMBARQ","lat":"40 45 50.75","state":"OH"},"type":"Feature","geometry":{"type":"Point","coordinates":[-82.52641,40.778158]}},{"properties":{"city":"MASSILLON","lon":"-81.57068","zip":"44647","county":"STARK","geo_score":0.945,"site name":"OH MASSILLON [ALLTEL]","msc":"Akron","id":"a6oil2phbypu","geo_precision":"range","address":"11529 FORTY CORNERS RD NW","lat":"40.84472","state":"OH"},"type":"Feature","geometry":{"type":"Point","coordinates":[-81.565773,40.837622]}},{"properties":{"city":"MASSILLON","lon":"-81 30 24","zip":"44646","county":"STARK","geo_score":0.84,"site name":"OH MASSILLON DOWNTOWN","msc":"Akron","id":"a6oil2w58iaj","geo_precision":"range","address":"345 16TH ST SE","lat":"40 47 35","state":"OH"},"type":"Feature","geometry":{"type":"Point","coordinates":[-81.504698,40.792919]}},{"properties":{"city":"MASSILLON","lon":"-81 32 13","zip":"44647","county":"STARK","geo_score":0.937,"site name":"OH MASSILLON NORTH","msc":"Akron","id":"a6oil2or7ydb","geo_precision":"range","address":"3691 RIVERSIDE DRIVE NW","lat":"40 50 00","state":"OH"},"type":"Feature","geometry":{"type":"Point","coordinates":[-81.535145,40.836081]}},{"properties":{"city":"MIAMISBURG","lon":"-84 16 22","zip":"45342","county":"MONTGOMERY","geo_score":0.912,"site name":"OH MIAMI TOWNSHIP (DYTN)","msc":"Duff","id":"a6oil2oklk2k","geo_precision":"range","address":"5226 SHEPHARD RD","lat":"39 36 41","state":"OH"},"type":"Feature","geometry":{"type":"Point","coordinates":[-84.27195,39.613612]}},{"properties":{"city":"MIDDLE POINT","lon":"-84 27 08","zip":"45863","county":"VAN WERT","geo_score":0.911,"site name":"OH MIDDLE POINT","msc":"Maumee","id":"a6oil2lhj1hg","geo_precision":"range","address":"19184 LINCOLN HWY","lat":"40 52 18","state":"OH"},"type":"Feature","geometry":{"type":"Point","coordinates":[-84.453872,40.872653]}},{"properties":{"city":"TRENTON","lon":"-84 29 13","zip":"45067","county":"BUTLER","geo_score":0.902,"site name":"OH MILTONVILLE","msc":"Duff","id":"a6oil2lg5cp8","geo_precision":"range","address":"5106 THOMAS RD","lat":"39 31 02","state":"OH"},"type":"Feature","geometry":{"type":"Point","coordinates":[-84.486813,39.516944]}},{"properties":{"city":"BATAVIA","lon":"-84 09 42","zip":"45103","county":"CLERMONT","geo_score":0.899,"site name":"OH MOUNT HOLLY","msc":"Duff","id":"a6oil2wu2s92","geo_precision":"range","address":"2192 UNION CHAPPEL RD","lat":"39 01 45","state":"OH"},"type":"Feature","geometry":{"type":"Point","coordinates":[-84.164844,39.030803]}},{"properties":{"city":"LOVELAND","lon":"-84 11 27","zip":"45140","county":"WARREN","geo_score":0.902,"site name":"OH MURDOCK","msc":"Duff","id":"a6oil2or1zyo","geo_precision":"range","address":"10607 DALLASBURG RD","lat":"39 16 22","state":"OH"},"type":"Feature","geometry":{"type":"Point","coordinates":[-84.189055,39.27297]}},{"properties":{"city":"NEW CARLISLE","lon":"-84 01 19.11","zip":"45344","county":"CLARK","geo_score":0.929,"site name":"OH NEW CARLISLE","msc":"Duff","id":"a6oil2jvcn1t","geo_precision":"range","address":"440 N MAIN ST","lat":"39 56 43.76","state":"OH"},"type":"Feature","geometry":{"type":"Point","coordinates":[-84.02444,39.943562]}},{"properties":{"city":"MANSFIELD","lon":"-82 30 32","zip":"44904","county":"RICHLAND","geo_score":0.682,"site name":"OH NORTH MANSFIELD","msc":"Lewis Center","id":"a6oil2w57fc4","geo_precision":"street","address":"1258 N MAIN ST","lat":"40 47 49","state":"OH"},"type":"Feature","geometry":{"type":"Point","coordinates":[-82.515101,40.741026]}},{"properties":{"city":"DAYTON","lon":"-84 14 22","zip":"45406","county":"MONTGOMERY","geo_score":0.941,"site name":"OH NORTHWEST DAYTON","msc":"Duff","id":"a6oil2gijm26","geo_precision":"range","address":"2113 LITCHFIELD AVE","lat":"39 47 13","state":"OH"},"type":"Feature","geometry":{"type":"Point","coordinates":[-84.239454,39.787554]}},{"properties":{"city":"NORTHWOOD","lon":"-83 27 23","zip":"43619","county":"WOOD","geo_score":0.824,"site name":"OH NORTHWOOD","msc":"Cleveland","id":"a6oil2jnvw87","geo_precision":"range","address":"3035 EAST PLAZA DR","lat":"41 36 10","state":"OH"},"type":"Feature","geometry":{"type":"Point","coordinates":[-83.456992,41.607243]}},{"properties":{"city":"OLMSTED FALLS","lon":"-81 58 13","zip":"44138","county":"CUYAHOGA","geo_score":1.0,"site name":"OH OLMSTED FALLS","msc":"Akron","id":"a6oil2gnqahs","geo_precision":"range","address":"7986 BRONSON RD","lat":"41 22 30","state":"OH"},"type":"Feature","geometry":{"type":"Point","coordinates":[-81.967238,41.375687]}},{"properties":{"city":"BEAVERCREEK","lon":"-84 01 32","zip":"45385","county":"GREENE","geo_score":0.629,"site name":"OH OMEGA","msc":"Duff","id":"a6oil2vrq24g","geo_precision":"street","address":"591 SOUTH ORCHARD LANE","lat":"39 42 18","state":"OH"},"type":"Feature","geometry":{"type":"Point","coordinates":[-83.918936,39.690298]}},{"properties":{"city":"MANSFIELD","lon":"-82 36 41","zip":"44906","county":"RICHLAND","geo_score":0.924,"site name":"OH ONTARIO","msc":"Lewis Center","id":"a6oil2qlpz3j","geo_precision":"range","address":"817 BEER RD","lat":"40 46 26","state":"OH"},"type":"Feature","geometry":{"type":"Point","coordinates":[-82.609454,40.764831]}},{"properties":{"city":"TOLEDO","lon":"-83 29 44","zip":"43605","county":"LUCAS","geo_score":1.0,"site name":"OH OREGON DOWNTOWN","msc":"Cleveland","id":"a6oil2tyzesy","geo_precision":"range","address":"356 POPLAR ST","lat":"41 38 26","state":"OH"},"type":"Feature","geometry":{"type":"Point","coordinates":[-83.495835,41.645325]}},{"properties":{"city":"TOLEDO","lon":"-83 40 1.03","zip":"43615","county":"LUCAS","geo_score":0.922,"site name":"OH OTTAWA HILLS","msc":"Cleveland","id":"a6oil2iiu7dk","geo_precision":"range","address":"1309 NORTH REYNOLDS RD","lat":"41 39 6.99","state":"OH"},"type":"Feature","geometry":{"type":"Point","coordinates":[-83.664655,41.651941]}},{"properties":{"city":"OXFORD","lon":"-84 44 12","zip":"45056","county":"BUTLER","geo_score":0.833,"site name":"OH OXFORD","msc":"Duff","id":"a6oil2gnkac5","geo_precision":"range","address":"306 S OAK ST","lat":"39 30 21","state":"OH"},"type":"Feature","geometry":{"type":"Point","coordinates":[-84.73616,39.507193]}},{"properties":{"city":"SANDUSKY","lon":"-82 39 07","zip":"44870","county":"ERIE","geo_score":0.884,"site name":"OH PERKINS TOWNSHIP","msc":"Cleveland","id":"a6oil2uassns","geo_precision":"street","address":"5920 STATE ROUTE 250 (MILAN RO","lat":"41 23 58","state":"OH"},"type":"Feature","geometry":{"type":"Point","coordinates":[-82.701426,41.446274]}},{"properties":{"city":"MASSILLON","lon":"-81 29 00","zip":"44646","county":"STARK","geo_score":0.913,"site name":"OH PERRY TOWNSHIP CNTN","msc":"Akron","id":"a6oil2ktvw6j","geo_precision":"range","address":"6900 RICHVILLE DRIVE SW","lat":"40 46 09","state":"OH"},"type":"Feature","geometry":{"type":"Point","coordinates":[-81.481743,40.766959]}},{"properties":{"city":"NORTH CANTON","lon":"-81 20 39","zip":"44720","county":"STARK","geo_score":0.902,"site name":"OH PLAIN TOWNSHIP (CNTN)","msc":"Akron","id":"a6oil2i2xkw1","geo_precision":"range","address":"2108 SCHNEIDER ST NE","lat":"40 51 05","state":"OH"},"type":"Feature","geometry":{"type":"Point","coordinates":[-81.367853,40.867618]}},{"properties":{"city":"MEDINA","lon":"-81.71444","zip":"44256","county":"MEDINA","geo_score":0.91,"site name":"OH REMSEN CORNERS [ALLTEL]","msc":"Akron","id":"a6oil2tq2wo5","geo_precision":"range","address":"2916 STATE RD","lat":"41.19611","state":"OH"},"type":"Feature","geometry":{"type":"Point","coordinates":[-81.710193,41.197655]}},{"properties":{"city":"SEVILLE","lon":"-81.8135","zip":"44273","county":"MEDINA","geo_score":0.916,"site name":"OH RIVERSTYX [ALLTEL]","msc":"Akron","id":"a6oil2htxgk7","geo_precision":"range","address":"8165 TOWER ROAD","lat":"41.0514","state":"OH"},"type":"Feature","geometry":{"type":"Point","coordinates":[-81.814389,41.052985]}},{"properties":{"city":"MONROEVILLE","lon":"-82 41 34","zip":"44847","county":"ERIE","geo_score":0.911,"site name":"OH SANDUSKY","msc":"Cleveland","id":"a6oil2i22qx9","geo_precision":"range","address":"9216 RANSOM RD","lat":"41 20 14","state":"OH"},"type":"Feature","geometry":{"type":"Point","coordinates":[-82.693523,41.332592]}},{"properties":{"city":"SANDUSKY","lon":"-82 43 02","zip":"44870","county":"ERIE","geo_score":0.841,"site name":"OH SANDUSKY DOWNTOWN","msc":"Cleveland","id":"a6oil2t2qeoy","geo_precision":"range","address":"1202 NORTH DEPOT ST","lat":"41 26 26","state":"OH"},"type":"Feature","geometry":{"type":"Point","coordinates":[-82.71725,41.440874]}},{"properties":{"city":"SANDUSKY","lon":"-82 40 29.9","zip":"44870","county":"ERIE","geo_score":0.962,"site name":"OH SANDUSKY DOWNTOWN II","msc":"Cleveland","id":"a6oil2mnk727","geo_precision":"range","address":"1005 E STRUB RD","lat":"41 25 26.5","state":"OH"},"type":"Feature","geometry":{"type":"Point","coordinates":[-82.675752,41.422398]}},{"properties":{"city":"SPRING VALLEY","lon":"-84 00 21","zip":"45370","county":"GREENE","geo_score":0.61,"site name":"OH SEABISCUIT","msc":"Duff","id":"a6oil2h5ah5f","geo_precision":"street","address":"3285 HOUSTON RD","lat":"39 35 45","state":"OH"},"type":"Feature","geometry":{"type":"Point","coordinates":[-84.335051,40.245619]}},{"properties":{"city":"GRANVILLE","lon":"-82 29 13.01","zip":"43023","county":"LICKING","geo_score":0.871,"site name":"OH SHARON VALLEY","msc":"Lewis Center","id":"a6oil2lahmb6","geo_precision":"range","address":"1942 WELSH HILLS RD","lat":"40 05 08.08","state":"OH"},"type":"Feature","geometry":{"type":"Point","coordinates":[-82.490645,40.085135]}},{"properties":{"city":"SHEFFIELD LAKE","lon":"-82 04 05","zip":"44054","county":"LORAIN","geo_score":0.571,"site name":"OH SHEFFIELD TOWNSHIP SOUTH","msc":"Akron","id":"a6oil2u16v0j","geo_precision":"street","address":"5395 1/2 N ABBE RD (SR-301)","lat":"41 25 08","state":"OH"},"type":"Feature","geometry":{"type":"Point","coordinates":[-82.075486,41.497243]}},{"properties":{"city":"BEAVERCREEK","lon":"-84 04 49","zip":"45432","county":"GREENE","geo_score":0.805,"site name":"OH SOUTH BEAVERCREEK","msc":"Duff","id":"a6oil2prjsb4","geo_precision":"range","address":"3878 INDIAN RIPPLE RD","lat":"39 41 44","state":"OH"},"type":"Feature","geometry":{"type":"Point","coordinates":[-84.079716,39.694918]}},{"properties":{"city":"DAYTON","lon":"-84 09 33","zip":"45458","county":"MONTGOMERY","geo_score":1.0,"site name":"OH SOUTH CENTERVILLE","msc":"Duff","id":"a6oil2h1kyyp","geo_precision":"range","address":"60 SKEETER LN","lat":"39 36 34","state":"OH"},"type":"Feature","geometry":{"type":"Point","coordinates":[-84.159397,39.610401]}},{"properties":{"city":"FAIRBORN","lon":"-84 03 05","zip":"45324","county":"GREENE","geo_score":0.91,"site name":"OH SOUTH FAIRBORN","msc":"Duff","id":"a6oil2tjdm1u","geo_precision":"range","address":"2993 WARNER DR","lat":"39 46 33","state":"OH"},"type":"Feature","geometry":{"type":"Point","coordinates":[-84.047386,39.777059]}},{"properties":{"city":"KETTERING","lon":"-84 09 37","zip":"45429","county":"MONTGOMERY","geo_score":0.913,"site name":"OH SOUTH KETTERING","msc":"Duff","id":"a6oil2ld5j5z","geo_precision":"range","address":"624 EAST DAVID RD","lat":"39 40 46","state":"OH"},"type":"Feature","geometry":{"type":"Point","coordinates":[-84.161476,39.681211]}},{"properties":{"city":"MANSFIELD","lon":"-82 35 44.13","zip":"44903","county":"RICHLAND","geo_score":0.916,"site name":"OH SPRING MILL","msc":"Lewis Center","id":"a6oil2gklcyy","geo_precision":"range","address":"2243 STIVING RD","lat":"40 48 47.48","state":"OH"},"type":"Feature","geometry":{"type":"Point","coordinates":[-82.596381,40.814646]}},{"properties":{"city":"XENIA","lon":"-84 00 28","zip":"45385","county":"GREENE","geo_score":0.927,"site name":"OH SPRING VALLEY","msc":"Duff","id":"a6oil2k0xw00","geo_precision":"range","address":"1104 SPRING VALLEY-ALPHA RD","lat":"39 39 12","state":"OH"},"type":"Feature","geometry":{"type":"Point","coordinates":[-84.006077,39.657037]}},{"properties":{"city":"SPRINGBORO","lon":"-84 15 42","zip":"45066","county":"WARREN","geo_score":1.0,"site name":"OH SPRINGBORO","msc":"Duff","id":"a6oil2vfj5yh","geo_precision":"range","address":"96 GREENWOOD LN","lat":"39 34 06","state":"OH"},"type":"Feature","geometry":{"type":"Point","coordinates":[-84.264647,39.565661]}},{"properties":{"city":"SPRINGFIELD","lon":"-83 48 05","zip":"45504","county":"CLARK","geo_score":0.805,"site name":"OH SPRINGFIELD (DYTN)","msc":"Duff","id":"a6oil2kzxvzi","geo_precision":"range","address":"2122 NORTH LIMESTONE ST","lat":"39 57 02","state":"OH"},"type":"Feature","geometry":{"type":"Point","coordinates":[-83.80413,39.951077]}},{"properties":{"city":"DAYTON","lon":"-84 06 21","zip":"45459","county":"GREENE","geo_score":0.922,"site name":"OH SUGARCREEK","msc":"Duff","id":"a6oil2phttwy","geo_precision":"range","address":"4398 CLYO RD","lat":"39 39 05","state":"OH"},"type":"Feature","geometry":{"type":"Point","coordinates":[-84.107568,39.650157]}},{"properties":{"city":"TOLEDO","lon":"-83 37 37","zip":"43623","county":"LUCAS","geo_score":1.0,"site name":"OH TALMADGE","msc":"Cleveland","id":"a6oil2shmb4f","geo_precision":"range","address":"3705 SECOR RD","lat":"41 41 15","state":"OH"},"type":"Feature","geometry":{"type":"Point","coordinates":[-83.623032,41.68682]}},{"properties":{"city":"TIFFIN","lon":"-83 11 22","zip":"44883","county":"SENECA","geo_score":0.59,"site name":"OH TIFFIN","msc":"Cleveland","id":"a6oil2ja9rlg","geo_precision":"street","address":"3136 N COUNTY ROAD #135 (3136","lat":"41 09 20","state":"OH"},"type":"Feature","geometry":{"type":"Point","coordinates":[-83.073675,41.095138]}},{"properties":{"city":"TIFFIN","lon":"-83 10 47.5","zip":"44883","county":"SENECA","geo_score":0.578,"site name":"OH TIFFIN SOUTH","msc":"Cleveland","id":"a6oil2h440e0","geo_precision":"street","address":"260 W US ROUTE 224","lat":"41 05 16.9","state":"OH"},"type":"Feature","geometry":{"type":"Point","coordinates":[-83.159743,41.080466]}},{"properties":{"city":"TOLEDO","lon":"-83 35 15","zip":"43610","county":"LUCAS","geo_score":0.536,"site name":"OH TOLEDO","msc":"Cleveland","id":"a6oil2gupr2h","geo_precision":"street","address":"1920 FEARING ST. (N FEARING BL","lat":"41 38 35","state":"OH"},"type":"Feature","geometry":{"type":"Point","coordinates":[-83.590941,41.637329]}},{"properties":{"city":"TOLEDO","lon":"-83 32 31","zip":"43602","county":"LUCAS","geo_score":0.724,"site name":"OH TOLEDO DOWNTOWN","msc":"Cleveland","id":"a6oil2wjksgh","geo_precision":"street","address":"210 OLIVER ST","lat":"41 38 35","state":"OH"},"type":"Feature","geometry":{"type":"Point","coordinates":[-83.541238,41.64299]}},{"properties":{"city":"TOLEDO","lon":"-83 32 23","zip":"43620","county":"LUCAS","geo_score":1.0,"site name":"OH TOLEDO DOWNTOWN II","msc":"Cleveland","id":"a6oil2kgznce","geo_precision":"range","address":"612 SCOTT ST","lat":"41 39 51","state":"OH"},"type":"Feature","geometry":{"type":"Point","coordinates":[-83.537666,41.661688]}},{"properties":{"city":"TOLEDO","lon":"-83 30 05","zip":"43611","county":"LUCAS","geo_score":0.922,"site name":"OH TOLEDO EAST","msc":"Cleveland","id":"a6oil2i6dr8v","geo_precision":"range","address":"115 OHIO ST","lat":"41 40 19","state":"OH"},"type":"Feature","geometry":{"type":"Point","coordinates":[-83.502254,41.672918]}},{"properties":{"city":"TOLEDO","lon":"-83 34 15","zip":"43610","county":"LUCAS","geo_score":1.0,"site name":"OH TOLEDO NORTH","msc":"Cleveland","id":"a6oil2j5dgrd","geo_precision":"range","address":"1160 WEST CENTRAL AVE","lat":"41 40 43","state":"OH"},"type":"Feature","geometry":{"type":"Point","coordinates":[-83.571631,41.678067]}},{"properties":{"city":"TOLEDO","lon":"-83 37 10","zip":"43614","county":"LUCAS","geo_score":1.0,"site name":"OH TOLEDO SOUTH","msc":"Cleveland","id":"a6oil2wqxiy0","geo_precision":"range","address":"2215 TEDROW RD","lat":"41 35 54","state":"OH"},"type":"Feature","geometry":{"type":"Point","coordinates":[-83.619994,41.598953]}},{"properties":{"city":"TOLEDO","lon":"-83 37 23.6","zip":"43607","county":"LUCAS","geo_score":1.0,"site name":"OH TOLEDO SOUTHEAST","msc":"Cleveland","id":"a6oil2p5ev5w","geo_precision":"range","address":"367 ARCO DR","lat":"41 37 53.9","state":"OH"},"type":"Feature","geometry":{"type":"Point","coordinates":[-83.623416,41.632848]}},{"properties":{"city":"TOLEDO","lon":"-83 37 27","zip":"43607","county":"LUCAS","geo_score":1.0,"site name":"OH TOLEDO UNIVERSITY","msc":"Cleveland","id":"a6oil2o5ev1h","geo_precision":"range","address":"3412 DORR ST","lat":"41 39 18","state":"OH"},"type":"Feature","geometry":{"type":"Point","coordinates":[-83.623414,41.652844]}},{"properties":{"city":"TOLEDO","lon":"-83 35 45","zip":"43606","county":"WOOD","geo_score":0.911,"site name":"OH TOLEDO UNIVERSITY NORTH","msc":"Cleveland","id":"a6oil2omelpp","geo_precision":"range","address":"2828 DOUGLAS RD","lat":"41 39 45","state":"OH"},"type":"Feature","geometry":{"type":"Point","coordinates":[-83.607773,41.674236]}},{"properties":{"city":"MASSILLON","lon":"-81 34 16","zip":"44647","county":"STARK","geo_score":0.807,"site name":"OH TUSCARAWAS TOWNSHIP","msc":"Akron","id":"a6oil2ogqsdu","geo_precision":"street","address":"11510 FINEFROCK ROAD SW","lat":"40 46 16","state":"OH"},"type":"Feature","geometry":{"type":"Point","coordinates":[-81.574592,40.771221]}},{"properties":{"city":"UNIONTOWN (LAKE TOWNSHIP)","lon":"-81 24 29","zip":"44685","county":"STARK","geo_score":0.912,"site name":"OH UNIONTOWN","msc":"Akron","id":"a6oil2nrfwzb","geo_precision":"range","address":"12899 CLEVELAND AVENUE NW","lat":"40 58 27","state":"OH"},"type":"Feature","geometry":{"type":"Point","coordinates":[-81.408742,40.964178]}},{"properties":{"city":"MAUMEE","lon":"-83 41 30","zip":"43537","county":"LUCAS","geo_score":1.0,"site name":"OH US-23 &amp; I-80/90","msc":"Cleveland","id":"a6oil2pqx13c","geo_precision":"street","address":"6323 GARDEN ROAD (SPRINGFIELD","lat":"41 35 32","state":"OH"},"type":"Feature","geometry":{"type":"Point","coordinates":[-83.684989,41.594837]}},{"properties":{"city":"VAN WERT","lon":"-84 32 53.3","zip":"45891","county":"VAN WERT","geo_score":0.944,"site name":"OH VAN WERT II","msc":"Maumee","id":"a6oil2s5scsi","geo_precision":"range","address":"14235 STATE ROUTE 116","lat":"40 50 58.8","state":"OH"},"type":"Feature","geometry":{"type":"Point","coordinates":[-84.547932,40.848764]}},{"properties":{"city":"VANDALIA","lon":"-84 11 11","zip":"45377","county":"MONTGOMERY","geo_score":1.0,"site name":"OH VANDALIA","msc":"Duff","id":"a6oil2llzzz8","geo_precision":"range","address":"999 INDUSTRIAL PARK DR","lat":"39 52 45","state":"OH"},"type":"Feature","geometry":{"type":"Point","coordinates":[-84.18497,39.877358]}},{"properties":{"city":"WADSWORTH","lon":"-81.720922","zip":"44281","county":"MEDINA","geo_score":0.911,"site name":"OH WADSWORTH SOUTH [ALLTEL]","msc":"Akron","id":"a6oil2hbfl9w","geo_precision":"range","address":"320 CHESTNUT ST","lat":"41.02129","state":"OH"},"type":"Feature","geometry":{"type":"Point","coordinates":[-81.721212,41.019526]}},{"properties":{"city":"PERRYSBURG","lon":"-83 27 52","zip":"43551","county":"WOOD","geo_score":0.902,"site name":"OH WALBRIDGE","msc":"Cleveland","id":"a6oil2hc8v6f","geo_precision":"range","address":"3652 TRUMAN RD","lat":"41 30 34","state":"OH"},"type":"Feature","geometry":{"type":"Point","coordinates":[-83.466244,41.504853]}},{"properties":{"city":"WAPAKONETA","lon":"-80 10 56","zip":"45895","county":"AUGLAIZE","geo_score":0.802,"site name":"OH WAPAKONETA","msc":"Maumee","id":"a6oil2w9pcl2","geo_precision":"street","address":"900 N INDUSTRIAL DRIVE","lat":"40 33 34","state":"OH"},"type":"Feature","geometry":{"type":"Point","coordinates":[-84.182564,40.557427]}},{"properties":{"city":"OREGONIA","lon":"-84 05 05","zip":"45054","county":"WARREN","geo_score":1.0,"site name":"OH WASHINGTON TOWNSHIP (CNCN)","msc":"Duff","id":"a6oil2qadhwz","geo_precision":"range","address":"6371 WILMINGTON RD","lat":"39 25 41","state":"OH"},"type":"Feature","geometry":{"type":"Point","coordinates":[-84.076397,39.429505]}},{"properties":{"city":"DAYTON","lon":"-84 10 41","zip":"45459","county":"MONTGOMERY","geo_score":0.922,"site name":"OH WASHINGTON TOWNSHIP DAYTON","msc":"Duff","id":"a6oil2r4h8lt","geo_precision":"range","address":"750 CONGRESS PARK DRIVE","lat":"39 38 02","state":"OH"},"type":"Feature","geometry":{"type":"Point","coordinates":[-84.181684,39.634375]}},{"properties":{"city":"HUBER HEIGHTS","lon":"-84 07 05","zip":"45424","county":"MONTGOMERY","geo_score":0.732,"site name":"OH WAYNE SCHOOL","msc":"Duff","id":"a6oil2jujhzf","geo_precision":"street","address":"6522 EXECUTIVE BLVD","lat":"39 52 14","state":"OH"},"type":"Feature","geometry":{"type":"Point","coordinates":[-84.10833,39.870367]}},{"properties":{"city":"HUBER HEIGHTS","lon":"-84 08 36","zip":"45424","county":"MONTGOMERY","geo_score":0.919,"site name":"OH WAYNE TOWNSHIP","msc":"Duff","id":"a6oil2jndngo","geo_precision":"range","address":"5771 FISHER DR","lat":"39 50 20","state":"OH"},"type":"Feature","geometry":{"type":"Point","coordinates":[-84.145526,39.838048]}},{"properties":{"city":"WAYNESVILLE","lon":"-84 06 36","zip":"45068","county":"WARREN","geo_score":0.894,"site name":"OH WAYNESVILLE","msc":"Duff","id":"a6oil2m7ex04","geo_precision":"range","address":"4336 E STATE ROUTE 73","lat":"39 32 45","state":"OH"},"type":"Feature","geometry":{"type":"Point","coordinates":[-84.111857,39.542984]}},{"properties":{"city":"WEST CARROLLTON","lon":"-84 14 17","zip":"45449","county":"MONTGOMERY","geo_score":0.739,"site name":"OH WEST CARROLLTON","msc":"Duff","id":"a6oil2l89a8z","geo_precision":"street","address":"650 LIBERTY LN","lat":"39 39 56","state":"OH"},"type":"Feature","geometry":{"type":"Point","coordinates":[-84.241446,39.664905]}},{"properties":{"city":"DAYTON","lon":"-84 15 17","zip":"45417","county":"MONTGOMERY","geo_score":0.902,"site name":"OH WEST DAYTON","msc":"Duff","id":"a6oil2rrhkdi","geo_precision":"range","address":"4219 WEST 3RD ST","lat":"39 45 03","state":"OH"},"type":"Feature","geometry":{"type":"Point","coordinates":[-84.254616,39.749132]}},{"properties":{"city":"XENIA","lon":"-83 54 42","zip":"45385","county":"GREENE","geo_score":0.78,"site name":"OH WEST XENIA","msc":"Duff","id":"a6oil2q4q3wo","geo_precision":"range","address":"590 US  ROUTE 42 E","lat":"39 41 53","state":"OH"},"type":"Feature","geometry":{"type":"Point","coordinates":[-83.938659,39.677469]}},{"properties":{"city":"BATAVIA","lon":"-84 08 37","zip":"45103","county":"CLERMONT","geo_score":0.92,"site name":"OH WILLIAMS CORNER","msc":"Duff","id":"a6oil2vz1bpr","geo_precision":"range","address":"5751 BAAS RD","lat":"39 09 46","state":"OH"},"type":"Feature","geometry":{"type":"Point","coordinates":[-84.143155,39.163161]}},{"properties":{"city":"MANSFIELD","lon":"-82 28 45","zip":"44903","county":"RICHLAND","geo_score":0.916,"site name":"OH WOOSTER HEIGHTS","msc":"Lewis Center","id":"a6oil2p481tt","geo_precision":"range","address":"1674 MANSFIELD LUCAS RD","lat":"40 43 26","state":"OH"},"type":"Feature","geometry":{"type":"Point","coordinates":[-82.477666,40.725081]}},{"properties":{"city":"FAIRBORN","lon":"-84 02 31.37","zip":"45324","county":"GREENE","geo_score":0.75,"site name":"OH WPAFB","msc":"Duff","id":"a6oil2sdgyqe","geo_precision":"range","address":"3664 SR 444","lat":"39 47 50.25","state":"OH"},"type":"Feature","geometry":{"type":"Point","coordinates":[-84.043455,39.796337]}},{"properties":{"city":"DAYTON","lon":"-84 10 55.90","zip":"45410","county":"MONTGOMERY","geo_score":1.0,"site name":"OH WYOMING","msc":"Duff","id":"a6oil2s9u27j","geo_precision":"range","address":"222 PARK MANOR DR","lat":"39 45 16.43","state":"OH"},"type":"Feature","geometry":{"type":"Point","coordinates":[-84.182745,39.753788]}},{"properties":{"city":"DAYTON","lon":"-84 12 07","zip":"45459","county":"MONTGOMERY","geo_score":0.443,"site name":"OH YANKEE","msc":"Duff","id":"a6oil2n4qcm5","geo_precision":"street","address":"7916 LEONA LANE","lat":"39 38 01","state":"OH"},"type":"Feature","geometry":{"type":"Point","coordinates":[-84.231619,39.794243]}}],"is_temporal":false,"author":{"url":"","metadata":"","contact_name":"","contact_address":"","source":"","contact_phone":""},"source":"","pagination":{"sort":null,"start":0,"total":134,"limit":1000000},"state":"complete","tags":"","published":"2014-08-14T23:32:28-04:00","id":226928}