{"type":"FeatureCollection","data_type":"Dataset","url_type":null,"permissions":[{"permissions":{"download":true,"view":true},"group_id":"everyone"}],"classification":null,"title":"April 14, 2012 - Damaging hail reports","count":183,"stream_id":228147,"contributor":{"url":"http://geocommons.com/users/37944","name":"ExaminerWeather"},"data_attributes":null,"calculation_params":null,"icon_link":null,"link":"http://geocommons.com/overlays/228147.json","extent":[-101.88,32.25,-91.66,42.02],"geometry_types":["point"],"unique_name":null,"name":"April 14, 2012 - Damaging hail reports","feature_count":183,"description":"Damaging hail reports received by the Storm Prediction Center during the severe weather outbreak on April 14, 2012.","next_feature":null,"is_raster":false,"short_classification":"Y","stats":{"lon":{"max":-91.66,"mean":-98.2379234972677,"variance":5.99663082928001,"stdev":2.44880191711784,"min":-101.88,"median":-98.79},"size":{"max":4.5,"mean":1.44535519125683,"variance":0.372684351167957,"stdev":0.610478788466854,"min":1.0,"median":1.0},"time":{"max":2357,"mean":1072.95081967213,"variance":861526.398666906,"stdev":928.184463706922,"min":0,"median":615},"lat":{"max":42.02,"mean":39.3012021857923,"variance":5.42744579955563,"stdev":2.32968791891868,"min":32.25,"median":39.89}},"features":[{"properties":{"lon":-99.85,"size":1.0,"comments":"(LBF)","time":1504,"county":"CUSTER","id":"a62fnpng6wyx","lat":41.27,"state":"NE","location":"4 ESE CALLAWAY"},"type":"Feature","geometry":{"type":"Point","coordinates":[-99.85,41.27]}},{"properties":{"lon":-98.36,"size":1.75,"comments":"(GID)","time":1651,"county":"GREELEY","id":"a62fnpe7pysh","lat":41.73,"state":"NE","location":"3 N SPALDING"},"type":"Feature","geometry":{"type":"Point","coordinates":[-98.36,41.73]}},{"properties":{"lon":-98.52,"size":2.75,"comments":"(LBF)","time":1652,"county":"GREELEY","id":"a62fnpdidpl6","lat":41.73,"state":"NE","location":"9 ESE ERICSON"},"type":"Feature","geometry":{"type":"Point","coordinates":[-98.52,41.73]}},{"properties":{"lon":-98.18,"size":2.0,"comments":"HAILED FOR 7 MINUTES WITH WIND GUSTS ESTIMATED AT 50MPH. (OAX)","time":1652,"county":"BOONE","id":"a62fnpoeqxmg","lat":41.78,"state":"NE","location":"7 SW PETERSBURG"},"type":"Feature","geometry":{"type":"Point","coordinates":[-98.18,41.78]}},{"properties":{"lon":-98.53,"size":2.0,"comments":"DELAYED REPORT OF HEN EGG SIZE HAIL. DAMAGED LAW ENFORCEMENT VEHICLE. (GID)","time":1654,"county":"GREELEY","id":"a62fnpbc7q80","lat":41.59,"state":"NE","location":"3 N GREELEY"},"type":"Feature","geometry":{"type":"Point","coordinates":[-98.53,41.59]}},{"properties":{"lon":-98.36,"size":2.0,"comments":"DELAYED REPORT OF HEN EGG SIZE HAIL. DAMAGED LAW ENFORCEMENT VEHICLE. CORRECTED LOCATION FROM ORIGINAL LSR ISSUANCE. (GID)","time":1654,"county":"GREELEY","id":"a62fnpexnsid","lat":41.73,"state":"NE","location":"3 N SPALDING"},"type":"Feature","geometry":{"type":"Point","coordinates":[-98.36,41.73]}},{"properties":{"lon":-100.07,"size":1.75,"comments":"(DDC)","time":1708,"county":"NESS","id":"a62fnppql1c9","lat":38.51,"state":"KS","location":"8 S ARNOLD"},"type":"Feature","geometry":{"type":"Point","coordinates":[-100.07,38.51]}},{"properties":{"lon":-98.14,"size":2.75,"comments":"(OAX)","time":1713,"county":"BOONE","id":"a62fnpaf195h","lat":41.85,"state":"NE","location":"3 W PETERSBURG"},"type":"Feature","geometry":{"type":"Point","coordinates":[-98.14,41.85]}},{"properties":{"lon":-98.02,"size":2.5,"comments":"(OAX)","time":1714,"county":"BOONE","id":"a62fnpbm34he","lat":41.85,"state":"NE","location":"3 E PETERSBURG"},"type":"Feature","geometry":{"type":"Point","coordinates":[-98.02,41.85]}},{"properties":{"lon":-97.85,"size":2.5,"comments":"(OAX)","time":1723,"county":"ANTELOPE","id":"a62fnp9vdf6h","lat":41.93,"state":"NE","location":"13 ENE PETERSBURG"},"type":"Feature","geometry":{"type":"Point","coordinates":[-97.85,41.93]}},{"properties":{"lon":-97.9,"size":3.0,"comments":"(OAX)","time":1736,"county":"BOONE","id":"a62fnpcia6v9","lat":41.85,"state":"NE","location":"9 E PETERSBURG"},"type":"Feature","geometry":{"type":"Point","coordinates":[-97.9,41.85]}},{"properties":{"lon":-96.03,"size":1.0,"comments":"QUARTER SIZED HAIL. BROKE A WINDSHIELD WIPER. (OAX)","time":1750,"county":"OTOE","id":"a62fnpaug0ih","lat":40.67,"state":"NE","location":"DUNBAR"},"type":"Feature","geometry":{"type":"Point","coordinates":[-96.03,40.67]}},{"properties":{"lon":-97.6,"size":1.0,"comments":"HAIL COVERS THE GROUND. (OAX)","time":1754,"county":"MADISON","id":"a62fnpj8hflv","lat":42.0,"state":"NE","location":"BATTLE CREEK"},"type":"Feature","geometry":{"type":"Point","coordinates":[-97.6,42.0]}},{"properties":{"lon":-97.6,"size":1.0,"comments":"(OAX)","time":1803,"county":"MADISON","id":"a62fnpeevnap","lat":42.0,"state":"NE","location":"BATTLE CREEK"},"type":"Feature","geometry":{"type":"Point","coordinates":[-97.6,42.0]}},{"properties":{"lon":-97.51,"size":1.75,"comments":"(OAX)","time":1817,"county":"MADISON","id":"a62fnpkcvhjb","lat":41.96,"state":"NE","location":"7 SW NORFOLK"},"type":"Feature","geometry":{"type":"Point","coordinates":[-97.51,41.96]}},{"properties":{"lon":-97.38,"size":1.5,"comments":"(OAX)","time":1825,"county":"MADISON","id":"a62fnpb6m04i","lat":42.02,"state":"NE","location":"2 ESE NORFOLK"},"type":"Feature","geometry":{"type":"Point","coordinates":[-97.38,42.02]}},{"properties":{"lon":-100.18,"size":1.0,"comments":"(DDC)","time":1840,"county":"FORD","id":"a62fnpg65x2w","lat":37.78,"state":"KS","location":"HOWELL"},"type":"Feature","geometry":{"type":"Point","coordinates":[-100.18,37.78]}},{"properties":{"lon":-100.08,"size":2.0,"comments":"(DDC)","time":1845,"county":"CLARK","id":"a62fnpbmb27u","lat":37.14,"state":"KS","location":"9 NW ENGLEWOOD"},"type":"Feature","geometry":{"type":"Point","coordinates":[-100.08,37.14]}},{"properties":{"lon":-95.56,"size":1.0,"comments":"(OAX)","time":1850,"county":"FREMONT","id":"a62fnpniqkmi","lat":40.87,"state":"IA","location":"E RANDOLPH"},"type":"Feature","geometry":{"type":"Point","coordinates":[-95.56,40.87]}},{"properties":{"lon":-97.31,"size":1.0,"comments":"LASTED ABOUT ONE MINUTE. (OAX)","time":1914,"county":"JEFFERSON","id":"a62fnpnozyst","lat":40.14,"state":"NE","location":"7 W FAIRBURY"},"type":"Feature","geometry":{"type":"Point","coordinates":[-97.31,40.14]}},{"properties":{"lon":-99.9,"size":1.0,"comments":"(OUN)","time":1930,"county":"HARPER","id":"a62fnpigxl85","lat":36.62,"state":"OK","location":"6 S LAVERNE"},"type":"Feature","geometry":{"type":"Point","coordinates":[-99.9,36.62]}},{"properties":{"lon":-99.63,"size":1.75,"comments":"(DDC)","time":1930,"county":"FORD","id":"a62fnpnfuv6a","lat":37.55,"state":"KS","location":"BUCKLIN"},"type":"Feature","geometry":{"type":"Point","coordinates":[-99.63,37.55]}},{"properties":{"lon":-95.27,"size":1.75,"comments":"(OAX)","time":1932,"county":"MONTGOMERY","id":"a62fnph4x38q","lat":40.92,"state":"IA","location":"COBURG"},"type":"Feature","geometry":{"type":"Point","coordinates":[-95.27,40.92]}},{"properties":{"lon":-97.44,"size":1.0,"comments":"(TOP)","time":1946,"county":"CLOUD","id":"a62fnplezc50","lat":39.61,"state":"KS","location":"3 WNW CLYDE"},"type":"Feature","geometry":{"type":"Point","coordinates":[-97.44,39.61]}},{"properties":{"lon":-95.01,"size":1.0,"comments":"(OAX)","time":1950,"county":"MONTGOMERY","id":"a62fnpgek9pz","lat":41.12,"state":"IA","location":"2 SW GRANT"},"type":"Feature","geometry":{"type":"Point","coordinates":[-95.01,41.12]}},{"properties":{"lon":-96.87,"size":1.0,"comments":"(TOP)","time":2005,"county":"WASHINGTON","id":"a62fnpeadvgj","lat":39.71,"state":"KS","location":"SSE BARNES"},"type":"Feature","geometry":{"type":"Point","coordinates":[-96.87,39.71]}},{"properties":{"lon":-94.87,"size":1.0,"comments":"TRAINED SPOTTER REPORTS QUARTER SIZED HAIL HAS BEEN FALLING FOR ABOUT FIVE MINUTES. (DMX)","time":2005,"county":"ADAMS","id":"a62fnpn6vjst","lat":41.14,"state":"IA","location":"7 NNW CARBON"},"type":"Feature","geometry":{"type":"Point","coordinates":[-94.87,41.14]}},{"properties":{"lon":-99.4,"size":2.75,"comments":"(OUN)","time":2015,"county":"WOODS","id":"a62fnpdokv9m","lat":36.95,"state":"OK","location":"11 NNE SELMAN"},"type":"Feature","geometry":{"type":"Point","coordinates":[-99.4,36.95]}},{"properties":{"lon":-99.47,"size":2.0,"comments":"(DDC)","time":2020,"county":"KIOWA","id":"a62fnpescj7h","lat":37.59,"state":"KS","location":"ENE MULLINVILLE"},"type":"Feature","geometry":{"type":"Point","coordinates":[-99.47,37.59]}},{"properties":{"lon":-96.52,"size":1.0,"comments":"(TOP)","time":2021,"county":"MARSHALL","id":"a62fnpcdg83h","lat":39.84,"state":"KS","location":"6 WSW BEATTIE"},"type":"Feature","geometry":{"type":"Point","coordinates":[-96.52,39.84]}},{"properties":{"lon":-96.63,"size":1.0,"comments":"(TOP)","time":2023,"county":"MARSHALL","id":"a62fnpop5dtf","lat":39.85,"state":"KS","location":"1 ENE MARYSVILLE"},"type":"Feature","geometry":{"type":"Point","coordinates":[-96.63,39.85]}},{"properties":{"lon":-96.42,"size":1.0,"comments":"(TOP)","time":2030,"county":"MARSHALL","id":"a62fnp9vo6q1","lat":39.96,"state":"KS","location":"7 N BEATTIE"},"type":"Feature","geometry":{"type":"Point","coordinates":[-96.42,39.96]}},{"properties":{"lon":-96.35,"size":1.5,"comments":"(TOP)","time":2035,"county":"MARSHALL","id":"a62fnpgvysz6","lat":39.99,"state":"KS","location":"SUMMERFIELD"},"type":"Feature","geometry":{"type":"Point","coordinates":[-96.35,39.99]}},{"properties":{"lon":-96.35,"size":1.5,"comments":"ALONG HIGHWAY 99 ON THE NEBRASKA AND KANSAS STATE LINE. (OAX)","time":2035,"county":"PAWNEE","id":"a62fnpp22dpu","lat":40.02,"state":"NE","location":"9 S BURCHARD"},"type":"Feature","geometry":{"type":"Point","coordinates":[-96.35,40.02]}},{"properties":{"lon":-99.56,"size":1.75,"comments":"(OUN)","time":2047,"county":"WOODWARD","id":"a62fnpkdj3at","lat":36.57,"state":"OK","location":"1 E FORT SUPPLY"},"type":"Feature","geometry":{"type":"Point","coordinates":[-99.56,36.57]}},{"properties":{"lon":-99.4,"size":1.75,"comments":"(OUN)","time":2059,"county":"HARPER","id":"a62fnpf63ync","lat":36.64,"state":"OK","location":"12 SSE SELMAN"},"type":"Feature","geometry":{"type":"Point","coordinates":[-99.4,36.64]}},{"properties":{"lon":-99.39,"size":3.0,"comments":"(OUN)","time":2108,"county":"HARPER","id":"a62fnpa5w0gy","lat":36.65,"state":"OK","location":"15 N WOODWARD"},"type":"Feature","geometry":{"type":"Point","coordinates":[-99.39,36.65]}},{"properties":{"lon":-100.88,"size":1.0,"comments":"(LBF)","time":2112,"county":"MCPHERSON","id":"a62fnpbhnigg","lat":41.43,"state":"NE","location":"8 SW RINGGOLD"},"type":"Feature","geometry":{"type":"Point","coordinates":[-100.88,41.43]}},{"properties":{"lon":-96.03,"size":1.0,"comments":"(OAX)","time":2115,"county":"NEMAHA","id":"a62fnpk5vv55","lat":40.36,"state":"NE","location":"7 NE ELK CREEK"},"type":"Feature","geometry":{"type":"Point","coordinates":[-96.03,40.36]}},{"properties":{"lon":-100.77,"size":1.0,"comments":"(LBF)","time":2117,"county":"LINCOLN","id":"a62fnpc8l17z","lat":41.21,"state":"NE","location":"5 N NORTH PLATTE"},"type":"Feature","geometry":{"type":"Point","coordinates":[-100.77,41.21]}},{"properties":{"lon":-100.77,"size":1.0,"comments":"HAIL COVERING THE GROUND WITH THE LARGESTTHE SIZE OF QUARTERS. (LBF)","time":2123,"county":"MCPHERSON","id":"a62fnpna2iu5","lat":41.45,"state":"NE","location":"4 S RINGGOLD"},"type":"Feature","geometry":{"type":"Point","coordinates":[-100.77,41.45]}},{"properties":{"lon":-94.18,"size":1.0,"comments":"AT HIGHWAY 92 AND PITZER ROAD (DMX)","time":2124,"county":"MADISON","id":"a62fnpfag4fr","lat":41.33,"state":"IA","location":"8 W WINTERSET"},"type":"Feature","geometry":{"type":"Point","coordinates":[-94.18,41.33]}},{"properties":{"lon":-98.92,"size":1.75,"comments":"THE HAIL SMASHED THOUGH THE SKYLIGHT OF THE SPOTTERS HOME. (DDC)","time":2125,"county":"BARBER","id":"a62fnpojzzey","lat":37.38,"state":"KS","location":"SUN CITY"},"type":"Feature","geometry":{"type":"Point","coordinates":[-98.92,37.38]}},{"properties":{"lon":-100.87,"size":1.0,"comments":"(LBF)","time":2130,"county":"LINCOLN","id":"a62fnpklar8g","lat":41.2,"state":"NE","location":"7 NW NORTH PLATTE"},"type":"Feature","geometry":{"type":"Point","coordinates":[-100.87,41.2]}},{"properties":{"lon":-94.03,"size":1.0,"comments":"(DMX)","time":2130,"county":"MADISON","id":"a62fnphjnra3","lat":41.33,"state":"IA","location":"1 WSW WINTERSET"},"type":"Feature","geometry":{"type":"Point","coordinates":[-94.03,41.33]}},{"properties":{"lon":-94.08,"size":1.0,"comments":"(DMX)","time":2131,"county":"MADISON","id":"a62fnp9wpmio","lat":41.34,"state":"IA","location":"3 W WINTERSET"},"type":"Feature","geometry":{"type":"Point","coordinates":[-94.08,41.34]}},{"properties":{"lon":-98.68,"size":2.5,"comments":"(DDC)","time":2135,"county":"PRATT","id":"a62fnpcqma43","lat":37.5,"state":"KS","location":"SAWYER"},"type":"Feature","geometry":{"type":"Point","coordinates":[-98.68,37.5]}},{"properties":{"lon":-98.69,"size":1.25,"comments":"(DDC)","time":2140,"county":"PRATT","id":"a62fnpkrl5cm","lat":37.5,"state":"KS","location":"WNW SAWYER"},"type":"Feature","geometry":{"type":"Point","coordinates":[-98.69,37.5]}},{"properties":{"lon":-100.51,"size":1.0,"comments":"(LBF)","time":2145,"county":"LOGAN","id":"a62fnpmlfxqm","lat":41.48,"state":"NE","location":"STAPLETON"},"type":"Feature","geometry":{"type":"Point","coordinates":[-100.51,41.48]}},{"properties":{"lon":-100.51,"size":1.0,"comments":"(LBF)","time":2146,"county":"LOGAN","id":"a62fnpei3985","lat":41.48,"state":"NE","location":"STAPLETON"},"type":"Feature","geometry":{"type":"Point","coordinates":[-100.51,41.48]}},{"properties":{"lon":-98.55,"size":1.0,"comments":"QUARTER TO PEA SIZE HAIL. (ICT)","time":2151,"county":"BARTON","id":"a62fnphfzq4f","lat":38.36,"state":"KS","location":"2 E ELLINWOOD"},"type":"Feature","geometry":{"type":"Point","coordinates":[-98.55,38.36]}},{"properties":{"lon":-99.77,"size":1.75,"comments":"(OUN)","time":2152,"county":"ELLIS","id":"a62fnpbv0zop","lat":35.99,"state":"OK","location":"10 S ARNETT"},"type":"Feature","geometry":{"type":"Point","coordinates":[-99.77,35.99]}},{"properties":{"lon":-98.53,"size":1.25,"comments":"(ICT)","time":2154,"county":"BARTON","id":"a62fnpdy6nus","lat":38.36,"state":"KS","location":"3 E ELLINWOOD"},"type":"Feature","geometry":{"type":"Point","coordinates":[-98.53,38.36]}},{"properties":{"lon":-100.59,"size":1.0,"comments":"2 TO 3 INCHES OF HAIL COVERING THE GROUND. (LBF)","time":2155,"county":"LOGAN","id":"a62fnphxt5ha","lat":41.48,"state":"NE","location":"4 W STAPLETON"},"type":"Feature","geometry":{"type":"Point","coordinates":[-100.59,41.48]}},{"properties":{"lon":-98.58,"size":1.75,"comments":"(ICT)","time":2200,"county":"BARTON","id":"a62fnphm6xnc","lat":38.36,"state":"KS","location":"E ELLINWOOD"},"type":"Feature","geometry":{"type":"Point","coordinates":[-98.58,38.36]}},{"properties":{"lon":-98.46,"size":1.0,"comments":"QUARTER SIZE HAIL WEST OF CHASE ON HIGHWAY 56. (ICT)","time":2203,"county":"RICE","id":"a62fnp9yfjed","lat":38.36,"state":"KS","location":"6 W CHASE"},"type":"Feature","geometry":{"type":"Point","coordinates":[-98.46,38.36]}},{"properties":{"lon":-99.66,"size":3.0,"comments":"(OUN)","time":2205,"county":"ELLIS","id":"a62fnpdf3o5w","lat":36.14,"state":"OK","location":"6 E ARNETT"},"type":"Feature","geometry":{"type":"Point","coordinates":[-99.66,36.14]}},{"properties":{"lon":-100.77,"size":1.0,"comments":"(LBF)","time":2209,"county":"LINCOLN","id":"a62fnpjqqcmf","lat":41.23,"state":"NE","location":"7 N NORTH PLATTE"},"type":"Feature","geometry":{"type":"Point","coordinates":[-100.77,41.23]}},{"properties":{"lon":-99.52,"size":1.75,"comments":"(OUN)","time":2215,"county":"WOODWARD","id":"a62fnpbu2zhq","lat":36.28,"state":"OK","location":"10 W SHARON"},"type":"Feature","geometry":{"type":"Point","coordinates":[-99.52,36.28]}},{"properties":{"lon":-99.21,"size":1.75,"comments":"(OUN)","time":2218,"county":"WOODWARD","id":"a62fnpazu790","lat":36.44,"state":"OK","location":"MOORELAND"},"type":"Feature","geometry":{"type":"Point","coordinates":[-99.21,36.44]}},{"properties":{"lon":-93.62,"size":1.0,"comments":"REPORT FROM DES MOINES INTERNATIONAL AIRPORT. HAIL FELL FROM 519 PM UNTIL 537 PM. LARGEST HAIL WAS 1 INCH. (DMX)","time":2219,"county":"POLK","id":"a62fnp9lnh74","lat":41.55,"state":"IA","location":"2 S DES MOINES"},"type":"Feature","geometry":{"type":"Point","coordinates":[-93.62,41.55]}},{"properties":{"lon":-93.68,"size":1.0,"comments":"(DMX)","time":2221,"county":"WARREN","id":"a62fnpcm4k6c","lat":41.49,"state":"IA","location":"3 SSW DES MOINES INT AI"},"type":"Feature","geometry":{"type":"Point","coordinates":[-93.68,41.49]}},{"properties":{"lon":-93.62,"size":1.0,"comments":"(DMX)","time":2225,"county":"POLK","id":"a62fnpegd5r0","lat":41.58,"state":"IA","location":"S DES MOINES"},"type":"Feature","geometry":{"type":"Point","coordinates":[-93.62,41.58]}},{"properties":{"lon":-100.77,"size":1.75,"comments":"GOLF BALL SIZED HAIL IN NORTH PLATTE ON SOUTH CHESTNUT ST. (LBF)","time":2227,"county":"LINCOLN","id":"a62fnpplqmyk","lat":41.13,"state":"NE","location":"NORTH PLATTE"},"type":"Feature","geometry":{"type":"Point","coordinates":[-100.77,41.13]}},{"properties":{"lon":-93.65,"size":1.0,"comments":"LOCATED AT ARMY POST RD AND SE 5TH ST. (DMX)","time":2227,"county":"POLK","id":"a62fnphjp6sq","lat":41.52,"state":"IA","location":"1 SE DES MOINES INT AIR"},"type":"Feature","geometry":{"type":"Point","coordinates":[-93.65,41.52]}},{"properties":{"lon":-100.77,"size":1.75,"comments":"AT HWY 83 AND DODGE HILL ROAD. (LBF)","time":2239,"county":"LINCOLN","id":"a62fnpc1xwgd","lat":41.12,"state":"NE","location":"1 S NORTH PLATTE"},"type":"Feature","geometry":{"type":"Point","coordinates":[-100.77,41.12]}},{"properties":{"lon":-100.84,"size":1.0,"comments":"(LBF)","time":2246,"county":"LINCOLN","id":"a62fnpjt6vf4","lat":41.01,"state":"NE","location":"9 SSW NORTH PLATTE"},"type":"Feature","geometry":{"type":"Point","coordinates":[-100.84,41.01]}},{"properties":{"lon":-99.68,"size":1.25,"comments":"(GID)","time":2250,"county":"FURNAS","id":"a62fnpavpedm","lat":40.33,"state":"NE","location":"6 NNW OXFORD"},"type":"Feature","geometry":{"type":"Point","coordinates":[-99.68,40.33]}},{"properties":{"lon":-99.39,"size":1.75,"comments":"(OUN)","time":2304,"county":"ELLIS","id":"a62fnpl2tr7p","lat":36.15,"state":"OK","location":"5 W VICI"},"type":"Feature","geometry":{"type":"Point","coordinates":[-99.39,36.15]}},{"properties":{"lon":-99.3,"size":1.75,"comments":"(OUN)","time":2313,"county":"DEWEY","id":"a62fnpgnaae6","lat":36.15,"state":"OK","location":"VICI"},"type":"Feature","geometry":{"type":"Point","coordinates":[-99.3,36.15]}},{"properties":{"lon":-100.77,"size":2.5,"comments":"(LBF)","time":2314,"county":"LINCOLN","id":"a62fnpbjjv6z","lat":41.13,"state":"NE","location":"NORTH PLATTE"},"type":"Feature","geometry":{"type":"Point","coordinates":[-100.77,41.13]}},{"properties":{"lon":-99.97,"size":1.0,"comments":"(LBF)","time":2321,"county":"CUSTER","id":"a62fnpki4ab3","lat":41.54,"state":"NE","location":"8 SW ANSELMO"},"type":"Feature","geometry":{"type":"Point","coordinates":[-99.97,41.54]}},{"properties":{"lon":-98.15,"size":1.0,"comments":"HAIL LASTED BETWEEN 5 TO 10 MINUTES LONG. (ICT)","time":2335,"county":"KINGMAN","id":"a62fnpmskwgq","lat":37.65,"state":"KS","location":"2 W KINGMAN"},"type":"Feature","geometry":{"type":"Point","coordinates":[-98.15,37.65]}},{"properties":{"lon":-100.79,"size":1.75,"comments":"(LBF)","time":2340,"county":"LINCOLN","id":"a62fnpngbbf9","lat":41.12,"state":"NE","location":"1 SW NORTH PLATTE"},"type":"Feature","geometry":{"type":"Point","coordinates":[-100.79,41.12]}},{"properties":{"lon":-100.33,"size":1.0,"comments":"(LBF)","time":2341,"county":"LOGAN","id":"a62fnpasv3sj","lat":41.42,"state":"NE","location":"7 W ARNOLD"},"type":"Feature","geometry":{"type":"Point","coordinates":[-100.33,41.42]}},{"properties":{"lon":-100.77,"size":1.0,"comments":"(LBF)","time":2343,"county":"LINCOLN","id":"a62fnpa7s10b","lat":41.13,"state":"NE","location":"NORTH PLATTE"},"type":"Feature","geometry":{"type":"Point","coordinates":[-100.77,41.13]}},{"properties":{"lon":-98.04,"size":1.0,"comments":"(ICT)","time":2344,"county":"KINGMAN","id":"a62fnpjctjuo","lat":37.71,"state":"KS","location":"6 NE KINGMAN"},"type":"Feature","geometry":{"type":"Point","coordinates":[-98.04,37.71]}},{"properties":{"lon":-94.38,"size":1.0,"comments":"NICKEL TO QUARTER SIZE HAIL (DMX)","time":2347,"county":"UNION","id":"a62fnpe7rp14","lat":41.06,"state":"IA","location":"1 W CRESTON"},"type":"Feature","geometry":{"type":"Point","coordinates":[-94.38,41.06]}},{"properties":{"lon":-93.84,"size":1.0,"comments":"(DMX)","time":2347,"county":"CLARKE","id":"a62fnp9u3boq","lat":41.08,"state":"IA","location":"5 NW OSCEOLA"},"type":"Feature","geometry":{"type":"Point","coordinates":[-93.84,41.08]}},{"properties":{"lon":-100.71,"size":1.5,"comments":"PING PONG BALL SIZED HAIL AT THE LBF WEATHER OFFICE. (LBF)","time":2350,"county":"LINCOLN","id":"a62fnpm0s2wu","lat":41.13,"state":"NE","location":"3 E NORTH PLATTE"},"type":"Feature","geometry":{"type":"Point","coordinates":[-100.71,41.13]}},{"properties":{"lon":-93.8,"size":1.0,"comments":"(DMX)","time":2350,"county":"CLARKE","id":"a62fnpdz5rtx","lat":41.13,"state":"IA","location":"5 SW NEW VIRGINIA"},"type":"Feature","geometry":{"type":"Point","coordinates":[-93.8,41.13]}},{"properties":{"lon":-93.75,"size":1.25,"comments":"(DMX)","time":2354,"county":"WARREN","id":"a62fnpbzuqzp","lat":41.18,"state":"IA","location":"1 W NEW VIRGINIA"},"type":"Feature","geometry":{"type":"Point","coordinates":[-93.75,41.18]}},{"properties":{"lon":-94.43,"size":1.0,"comments":"(DMX)","time":2357,"county":"UNION","id":"a62fnplg94ai","lat":41.01,"state":"IA","location":"5 SW CRESTON"},"type":"Feature","geometry":{"type":"Point","coordinates":[-94.43,41.01]}},{"properties":{"lon":-93.73,"size":1.25,"comments":"MEASURED 1.2 INCHES AFTER MELTING FOR A FEW MINUTES. (DMX)","time":0,"county":"WARREN","id":"a62fnpn1l7fo","lat":41.18,"state":"IA","location":"NEW VIRGINIA"},"type":"Feature","geometry":{"type":"Point","coordinates":[-93.73,41.18]}},{"properties":{"lon":-100.15,"size":1.0,"comments":"(DDC)","time":10,"county":"MEADE","id":"a62fnplhy46a","lat":37.28,"state":"KS","location":"8 SSE FOWLER"},"type":"Feature","geometry":{"type":"Point","coordinates":[-100.15,37.28]}},{"properties":{"lon":-100.53,"size":1.5,"comments":"(LBF)","time":15,"county":"LINCOLN","id":"a62fnpiqbcuy","lat":41.05,"state":"NE","location":"2 S MAXWELL"},"type":"Feature","geometry":{"type":"Point","coordinates":[-100.53,41.05]}},{"properties":{"lon":-100.05,"size":1.75,"comments":"GOLFBALL-SIZED HAIL COVERED THE GROUND. (DDC)","time":19,"county":"CLARK","id":"a62fnpo9ecwx","lat":37.41,"state":"KS","location":"3 SW MINNEOLA"},"type":"Feature","geometry":{"type":"Point","coordinates":[-100.05,37.41]}},{"properties":{"lon":-94.12,"size":1.75,"comments":"(DMX)","time":20,"county":"UNION","id":"a62fnpj3kbtz","lat":41.08,"state":"IA","location":"5 SW LORIMOR"},"type":"Feature","geometry":{"type":"Point","coordinates":[-94.12,41.08]}},{"properties":{"lon":-100.47,"size":1.0,"comments":"HAIL COVERED THE GROUND. (LBF)","time":22,"county":"LINCOLN","id":"a62fnpket61i","lat":41.1,"state":"NE","location":"3 ENE MAXWELL"},"type":"Feature","geometry":{"type":"Point","coordinates":[-100.47,41.1]}},{"properties":{"lon":-100.5,"size":1.0,"comments":"HAIL WAS COVERING THE GROUND. (LBF)","time":22,"county":"LINCOLN","id":"a62fnpp6z41f","lat":41.1,"state":"NE","location":"2 NE MAXWELL"},"type":"Feature","geometry":{"type":"Point","coordinates":[-100.5,41.1]}},{"properties":{"lon":-100.08,"size":1.0,"comments":"(DDC)","time":27,"county":"CLARK","id":"a62fnpj8vz3e","lat":37.14,"state":"KS","location":"9 NW ENGLEWOOD"},"type":"Feature","geometry":{"type":"Point","coordinates":[-100.08,37.14]}},{"properties":{"lon":-93.95,"size":2.75,"comments":"(DMX)","time":29,"county":"CLARKE","id":"a62fnpkjxfwb","lat":41.04,"state":"IA","location":"MURRAY"},"type":"Feature","geometry":{"type":"Point","coordinates":[-93.95,41.04]}},{"properties":{"lon":-93.82,"size":1.0,"comments":"DIME TO QUARTER SIZE HAIL. 1.67 INCHES OF RAIN IN AN HOUR AND TWENTY MINUTES ALSO. (DMX)","time":30,"county":"CLARKE","id":"a62fnpgoakhi","lat":41.02,"state":"IA","location":"2 WSW OSCEOLA"},"type":"Feature","geometry":{"type":"Point","coordinates":[-93.82,41.02]}},{"properties":{"lon":-99.87,"size":2.75,"comments":"(DDC)","time":35,"county":"FORD","id":"a62fnpbsn2mk","lat":37.76,"state":"KS","location":"8 E DODGE CITY"},"type":"Feature","geometry":{"type":"Point","coordinates":[-99.87,37.76]}},{"properties":{"lon":-99.76,"size":1.0,"comments":"HAIL ALMOST COVERING THE GROUND. (LBF)","time":38,"county":"BLAINE","id":"a62fnpkeom89","lat":41.74,"state":"NE","location":"1 NW MILBURN"},"type":"Feature","geometry":{"type":"Point","coordinates":[-99.76,41.74]}},{"properties":{"lon":-99.94,"size":2.0,"comments":"(DDC)","time":40,"county":"FORD","id":"a62fnpkqydsh","lat":37.7,"state":"KS","location":"6 SE DODGE CITY"},"type":"Feature","geometry":{"type":"Point","coordinates":[-99.94,37.7]}},{"properties":{"lon":-100.33,"size":1.0,"comments":"(LBF)","time":41,"county":"LINCOLN","id":"a62fnpnluyci","lat":41.32,"state":"NE","location":"10 SW ARNOLD"},"type":"Feature","geometry":{"type":"Point","coordinates":[-100.33,41.32]}},{"properties":{"lon":-93.76,"size":1.0,"comments":"AND ... 50 TO 60 MPH FROM THE SOUTHWEST. (DMX)","time":46,"county":"CLARKE","id":"a62fnpdntm9m","lat":41.06,"state":"IA","location":"2 NNE OSCEOLA"},"type":"Feature","geometry":{"type":"Point","coordinates":[-93.76,41.06]}},{"properties":{"lon":-99.07,"size":1.0,"comments":"(DDC)","time":47,"county":"RUSH","id":"a62fnpcr91z6","lat":38.36,"state":"KS","location":"7 S SHAFFER"},"type":"Feature","geometry":{"type":"Point","coordinates":[-99.07,38.36]}},{"properties":{"lon":-99.75,"size":1.0,"comments":"WINDOWS WERE KNOCKED OUT BY HAIL IN KINGSDOWN. (DDC)","time":58,"county":"FORD","id":"a62fnpggpbbn","lat":37.49,"state":"KS","location":"1 SSE KINGSDOWN"},"type":"Feature","geometry":{"type":"Point","coordinates":[-99.75,37.49]}},{"properties":{"lon":-99.58,"size":1.5,"comments":"(DDC)","time":58,"county":"HODGEMAN","id":"a62fnpgq45gy","lat":38.04,"state":"KS","location":"8 SSE GRAY"},"type":"Feature","geometry":{"type":"Point","coordinates":[-99.58,38.04]}},{"properties":{"lon":-99.97,"size":1.0,"comments":"GROUND WHITE WITH HAIL. (GLD)","time":104,"county":"GRAHAM","id":"a62fnpckl33r","lat":39.35,"state":"KS","location":"PENOKEE"},"type":"Feature","geometry":{"type":"Point","coordinates":[-99.97,39.35]}},{"properties":{"lon":-99.01,"size":1.75,"comments":"(ICT)","time":105,"county":"BARTON","id":"a62fnp9lpa08","lat":38.45,"state":"KS","location":"ALBERT"},"type":"Feature","geometry":{"type":"Point","coordinates":[-99.01,38.45]}},{"properties":{"lon":-98.69,"size":1.0,"comments":"(GID)","time":108,"county":"OSBORNE","id":"a62fnpfcymp0","lat":39.16,"state":"KS","location":"3 N LURAY"},"type":"Feature","geometry":{"type":"Point","coordinates":[-98.69,39.16]}},{"properties":{"lon":-98.69,"size":1.5,"comments":"HALF DOLLAR TO PING PONG BALL SIZE HAIL. (GID)","time":110,"county":"OSBORNE","id":"a62fnplpsviw","lat":39.16,"state":"KS","location":"3 N LURAY"},"type":"Feature","geometry":{"type":"Point","coordinates":[-98.69,39.16]}},{"properties":{"lon":-98.77,"size":1.75,"comments":"(ICT)","time":113,"county":"RUSSELL","id":"a62fnpmcywqi","lat":38.73,"state":"KS","location":"6 N SUSANK"},"type":"Feature","geometry":{"type":"Point","coordinates":[-98.77,38.73]}},{"properties":{"lon":-99.82,"size":1.5,"comments":"(GLD)","time":115,"county":"NORTON","id":"a62fnppyd5ks","lat":39.63,"state":"KS","location":"EDMOND"},"type":"Feature","geometry":{"type":"Point","coordinates":[-99.82,39.63]}},{"properties":{"lon":-100.03,"size":1.5,"comments":"(LBF)","time":115,"county":"CUSTER","id":"a62fnpmlmsip","lat":41.21,"state":"NE","location":"8 SW CALLAWAY"},"type":"Feature","geometry":{"type":"Point","coordinates":[-100.03,41.21]}},{"properties":{"lon":-99.82,"size":1.0,"comments":"(GLD)","time":118,"county":"NORTON","id":"a62fnplabrih","lat":39.63,"state":"KS","location":"EDMOND"},"type":"Feature","geometry":{"type":"Point","coordinates":[-99.82,39.63]}},{"properties":{"lon":-98.7,"size":1.75,"comments":"(ICT)","time":121,"county":"RUSSELL","id":"a62fnph07b53","lat":38.87,"state":"KS","location":"BUNKER HILL"},"type":"Feature","geometry":{"type":"Point","coordinates":[-98.7,38.87]}},{"properties":{"lon":-93.46,"size":1.75,"comments":"(DMX)","time":121,"county":"LUCAS","id":"a62fnpeeadsw","lat":41.03,"state":"IA","location":"5 W CHARITON AIRPORT"},"type":"Feature","geometry":{"type":"Point","coordinates":[-93.46,41.03]}},{"properties":{"lon":-99.41,"size":1.5,"comments":"(DDC)","time":126,"county":"KIOWA","id":"a62fnpd9kcmg","lat":37.7,"state":"KS","location":"9 NNE MULLINVILLE"},"type":"Feature","geometry":{"type":"Point","coordinates":[-99.41,37.7]}},{"properties":{"lon":-99.96,"size":1.0,"comments":"(LBF)","time":128,"county":"CUSTER","id":"a62fnpc88d18","lat":41.32,"state":"NE","location":"3 NW CALLAWAY"},"type":"Feature","geometry":{"type":"Point","coordinates":[-99.96,41.32]}},{"properties":{"lon":-99.64,"size":1.0,"comments":"(LBF)","time":128,"county":"CUSTER","id":"a62fnpcfeftb","lat":41.6,"state":"NE","location":"4 S GATES"},"type":"Feature","geometry":{"type":"Point","coordinates":[-99.64,41.6]}},{"properties":{"lon":-93.32,"size":1.0,"comments":"QUARTER SIZED HAIL ALONG WITH ESTIMATED 60 MPH WIND GUSTS. (DMX)","time":129,"county":"LUCAS","id":"a62fnpn6981m","lat":41.02,"state":"IA","location":"2 E CHARITON AIRPORT"},"type":"Feature","geometry":{"type":"Point","coordinates":[-93.32,41.02]}},{"properties":{"lon":-99.01,"size":1.5,"comments":"(LBF)","time":132,"county":"GARFIELD","id":"a62fnpaweokc","lat":42.01,"state":"NE","location":"19 SW CHAMBERS"},"type":"Feature","geometry":{"type":"Point","coordinates":[-99.01,42.01]}},{"properties":{"lon":-99.32,"size":1.0,"comments":"(GID)","time":133,"county":"PHILLIPS","id":"a62fnpo5ae23","lat":39.65,"state":"KS","location":"7 S PHILLIPSBURG"},"type":"Feature","geometry":{"type":"Point","coordinates":[-99.32,39.65]}},{"properties":{"lon":-99.71,"size":1.75,"comments":"(GLD)","time":133,"county":"NORTON","id":"a62fnphdrw80","lat":39.89,"state":"KS","location":"ALMENA"},"type":"Feature","geometry":{"type":"Point","coordinates":[-99.71,39.89]}},{"properties":{"lon":-99.33,"size":2.5,"comments":"HAIL WAS GOLF BALL TO TENNIS BALL SIZED. (DDC)","time":135,"county":"KIOWA","id":"a62fnpdr2qae","lat":37.62,"state":"KS","location":"2 WNW GREENSBURG"},"type":"Feature","geometry":{"type":"Point","coordinates":[-99.33,37.62]}},{"properties":{"lon":-98.35,"size":1.5,"comments":"(ICT)","time":140,"county":"LINCOLN","id":"a62fnpbjn6xt","lat":39.17,"state":"KS","location":"ASH GROVE"},"type":"Feature","geometry":{"type":"Point","coordinates":[-98.35,39.17]}},{"properties":{"lon":-99.23,"size":1.0,"comments":"(GID)","time":141,"county":"PHILLIPS","id":"a62fnpgnyod7","lat":39.75,"state":"KS","location":"5 E PHILLIPSBURG"},"type":"Feature","geometry":{"type":"Point","coordinates":[-99.23,39.75]}},{"properties":{"lon":-99.64,"size":1.0,"comments":"(GLD)","time":141,"county":"NORTON","id":"a62fnpb0w78o","lat":39.94,"state":"KS","location":"5 NE ALMENA"},"type":"Feature","geometry":{"type":"Point","coordinates":[-99.64,39.94]}},{"properties":{"lon":-92.91,"size":1.0,"comments":"QUARTER SIZE HAIL... PARTIALLY COVERING THE GROUND (DMX)","time":145,"county":"MONROE","id":"a62fnpq3vxjd","lat":41.14,"state":"IA","location":"N LOVILIA"},"type":"Feature","geometry":{"type":"Point","coordinates":[-92.91,41.14]}},{"properties":{"lon":-99.03,"size":1.0,"comments":"(GID)","time":148,"county":"SMITH","id":"a62fnpbvoswz","lat":39.77,"state":"KS","location":"KENSINGTON"},"type":"Feature","geometry":{"type":"Point","coordinates":[-99.03,39.77]}},{"properties":{"lon":-101.36,"size":1.0,"comments":"(LBF)","time":148,"county":"KEITH","id":"a62fnpjeb7e6","lat":41.18,"state":"NE","location":"4 N PAXTON"},"type":"Feature","geometry":{"type":"Point","coordinates":[-101.36,41.18]}},{"properties":{"lon":-98.28,"size":1.0,"comments":"(GID)","time":149,"county":"MITCHELL","id":"a62fnpmskwwj","lat":39.33,"state":"KS","location":"9 NE HUNTER"},"type":"Feature","geometry":{"type":"Point","coordinates":[-98.28,39.33]}},{"properties":{"lon":-98.3,"size":1.0,"comments":"(GID)","time":155,"county":"JEWELL","id":"a62fnpdh4xw2","lat":39.87,"state":"KS","location":"BURR OAK"},"type":"Feature","geometry":{"type":"Point","coordinates":[-98.3,39.87]}},{"properties":{"lon":-99.42,"size":1.0,"comments":"NICKELS AND QUATER SIZED HAIL REPORTED (GID)","time":157,"county":"PHILLIPS","id":"a62fnpa9er1d","lat":39.75,"state":"KS","location":"5 W PHILLIPSBURG"},"type":"Feature","geometry":{"type":"Point","coordinates":[-99.42,39.75]}},{"properties":{"lon":-99.03,"size":1.0,"comments":"ALSO 50 MPH WINDS (GID)","time":200,"county":"SMITH","id":"a62fnpm0l4s7","lat":39.9,"state":"KS","location":"9 N KENSINGTON"},"type":"Feature","geometry":{"type":"Point","coordinates":[-99.03,39.9]}},{"properties":{"lon":-92.68,"size":2.5,"comments":"(DMX)","time":200,"county":"MONROE","id":"a62fnpba4auv","lat":41.12,"state":"IA","location":"4 SW EDDYVILLE"},"type":"Feature","geometry":{"type":"Point","coordinates":[-92.68,41.12]}},{"properties":{"lon":-92.87,"size":1.0,"comments":"QUARTER SIZE HAIL (DMX)","time":202,"county":"MONROE","id":"a62fnpgojtu4","lat":41.08,"state":"IA","location":"5 NW ALBIA"},"type":"Feature","geometry":{"type":"Point","coordinates":[-92.87,41.08]}},{"properties":{"lon":-98.79,"size":1.0,"comments":"(GID)","time":207,"county":"KEARNEY","id":"a62fnplpdwzf","lat":40.57,"state":"NE","location":"HEARTWELL"},"type":"Feature","geometry":{"type":"Point","coordinates":[-98.79,40.57]}},{"properties":{"lon":-92.64,"size":1.75,"comments":"GOLFBALL SIZE HAIL (DMX)","time":207,"county":"MAHASKA","id":"a62fnpdw398a","lat":41.16,"state":"IA","location":"1 NW EDDYVILLE"},"type":"Feature","geometry":{"type":"Point","coordinates":[-92.64,41.16]}},{"properties":{"lon":-92.67,"size":1.0,"comments":"QUARTER SIZE HAIL AND EST. 60 TO 70 MPH WIND GUSTS. (DMX)","time":207,"county":"MAHASKA","id":"a62fnpehstjn","lat":41.31,"state":"IA","location":"2 NW OSKALOOSA"},"type":"Feature","geometry":{"type":"Point","coordinates":[-92.67,41.31]}},{"properties":{"lon":-98.81,"size":1.75,"comments":"(GID)","time":210,"county":"KEARNEY","id":"a62fnpmqpqoh","lat":40.57,"state":"NE","location":"1 W HEARTWELL"},"type":"Feature","geometry":{"type":"Point","coordinates":[-98.81,40.57]}},{"properties":{"lon":-99.43,"size":1.0,"comments":"(GID)","time":217,"county":"PHILLIPS","id":"a62fnpnr32s8","lat":39.75,"state":"KS","location":"6 W PHILLIPSBURG"},"type":"Feature","geometry":{"type":"Point","coordinates":[-99.43,39.75]}},{"properties":{"lon":-98.77,"size":1.75,"comments":"(GID)","time":223,"county":"KEARNEY","id":"a62fnpkk0s49","lat":40.62,"state":"NE","location":"6 W KENESAW"},"type":"Feature","geometry":{"type":"Point","coordinates":[-98.77,40.62]}},{"properties":{"lon":-99.68,"size":1.0,"comments":"(LBF)","time":232,"county":"CUSTER","id":"a62fnpeeu9nh","lat":41.08,"state":"NE","location":"6 SE OCONTO"},"type":"Feature","geometry":{"type":"Point","coordinates":[-99.68,41.08]}},{"properties":{"lon":-98.81,"size":1.0,"comments":"(ICT)","time":242,"county":"BARTON","id":"a62fnpp0c153","lat":38.36,"state":"KS","location":"GREAT BEND"},"type":"Feature","geometry":{"type":"Point","coordinates":[-98.81,38.36]}},{"properties":{"lon":-98.41,"size":1.0,"comments":"(ICT)","time":247,"county":"RICE","id":"a62fnpacksgk","lat":38.28,"state":"KS","location":"RAYMOND"},"type":"Feature","geometry":{"type":"Point","coordinates":[-98.41,38.28]}},{"properties":{"lon":-98.2,"size":1.0,"comments":"(ICT)","time":255,"county":"RICE","id":"a62fnpam536t","lat":38.35,"state":"KS","location":"LYONS"},"type":"Feature","geometry":{"type":"Point","coordinates":[-98.2,38.35]}},{"properties":{"lon":-92.09,"size":1.25,"comments":"ALSO 50 TO 60 MPH WINDS ESTIMATED. (DVN)","time":256,"county":"KEOKUK","id":"a62fnpex5om9","lat":41.2,"state":"IA","location":"W OLLIE"},"type":"Feature","geometry":{"type":"Point","coordinates":[-92.09,41.2]}},{"properties":{"lon":-98.35,"size":1.0,"comments":"(GID)","time":302,"county":"ADAMS","id":"a62fnpaf7rza","lat":40.44,"state":"NE","location":"5 E AYR"},"type":"Feature","geometry":{"type":"Point","coordinates":[-98.35,40.44]}},{"properties":{"lon":-101.88,"size":1.25,"comments":"50TH STREET A FEW BLOCKS FROM THE SOUTH PLAINS MALL (LUB)","time":305,"county":"LUBBOCK","id":"a62fnpbt2ezu","lat":33.58,"state":"TX","location":"LUBBOCK"},"type":"Feature","geometry":{"type":"Point","coordinates":[-101.88,33.58]}},{"properties":{"lon":-101.88,"size":1.75,"comments":"TEXAS TECH CAMPUS (LUB)","time":307,"county":"LUBBOCK","id":"a62fnpn742gu","lat":33.58,"state":"TX","location":"LUBBOCK"},"type":"Feature","geometry":{"type":"Point","coordinates":[-101.88,33.58]}},{"properties":{"lon":-98.25,"size":2.75,"comments":"EM REPORTED THE HAIL (GID)","time":307,"county":"CLAY","id":"a62fnpok0imo","lat":40.47,"state":"NE","location":"2 S GLENVIL"},"type":"Feature","geometry":{"type":"Point","coordinates":[-98.25,40.47]}},{"properties":{"lon":-101.88,"size":1.5,"comments":"1.2 MILES EAST OF INTERSTATE 27 (LUB)","time":310,"county":"LUBBOCK","id":"a62fnpledf19","lat":33.58,"state":"TX","location":"LUBBOCK"},"type":"Feature","geometry":{"type":"Point","coordinates":[-101.88,33.58]}},{"properties":{"lon":-101.88,"size":1.0,"comments":"78TH AND AVE W (LUB)","time":311,"county":"LUBBOCK","id":"a62fnpnjxz1a","lat":33.58,"state":"TX","location":"LUBBOCK"},"type":"Feature","geometry":{"type":"Point","coordinates":[-101.88,33.58]}},{"properties":{"lon":-101.88,"size":1.0,"comments":"82ND AND FRANKFORD (LUB)","time":312,"county":"LUBBOCK","id":"a62fnplsizb2","lat":33.58,"state":"TX","location":"LUBBOCK"},"type":"Feature","geometry":{"type":"Point","coordinates":[-101.88,33.58]}},{"properties":{"lon":-91.66,"size":1.0,"comments":"PEA SIZED ALONG WITH QUARTER SIZED HAIL. (DVN)","time":320,"county":"HENRY","id":"a62fnpabm0eh","lat":41.15,"state":"IA","location":"WAYLAND"},"type":"Feature","geometry":{"type":"Point","coordinates":[-91.66,41.15]}},{"properties":{"lon":-101.3,"size":1.5,"comments":"(LUB)","time":330,"county":"BRISCOE","id":"a62fnphdnzkq","lat":34.47,"state":"TX","location":"SILVERTON"},"type":"Feature","geometry":{"type":"Point","coordinates":[-101.3,34.47]}},{"properties":{"lon":-101.44,"size":1.75,"comments":"ALONG HIGHWAY 378 (LUB)","time":336,"county":"FLOYD","id":"a62fnpknhwwi","lat":34.22,"state":"TX","location":"7 N LOCKNEY"},"type":"Feature","geometry":{"type":"Point","coordinates":[-101.44,34.22]}},{"properties":{"lon":-97.86,"size":1.0,"comments":"40 MPH WINDS ALSO (GID)","time":337,"county":"CLAY","id":"a62fnpntcrip","lat":40.61,"state":"NE","location":"SUTTON"},"type":"Feature","geometry":{"type":"Point","coordinates":[-97.86,40.61]}},{"properties":{"lon":-101.3,"size":1.75,"comments":"(LUB)","time":338,"county":"BRISCOE","id":"a62fnpg7mgal","lat":34.47,"state":"TX","location":"SILVERTON"},"type":"Feature","geometry":{"type":"Point","coordinates":[-101.3,34.47]}},{"properties":{"lon":-99.63,"size":1.75,"comments":"(OUN)","time":345,"county":"HARPER","id":"a62fnpih8qnx","lat":36.83,"state":"OK","location":"BUFFALO"},"type":"Feature","geometry":{"type":"Point","coordinates":[-99.63,36.83]}},{"properties":{"lon":-97.72,"size":1.0,"comments":"QUARTER SIZE HAIL IN TOWN WITH PENNY SIZE HAIL COVERING THE GROUND. (GID)","time":345,"county":"FILLMORE","id":"a62fnpbgl4rf","lat":40.63,"state":"NE","location":"GRAFTON"},"type":"Feature","geometry":{"type":"Point","coordinates":[-97.72,40.63]}},{"properties":{"lon":-101.3,"size":2.0,"comments":"TRAINED SPOTTER REPORTS 2 INCH HAIL (LUB)","time":347,"county":"BRISCOE","id":"a62fnpcqkx63","lat":34.47,"state":"TX","location":"SILVERTON"},"type":"Feature","geometry":{"type":"Point","coordinates":[-101.3,34.47]}},{"properties":{"lon":-100.8,"size":1.0,"comments":"(AMA)","time":350,"county":"DONLEY","id":"a62fnpge809r","lat":34.94,"state":"TX","location":"5 E CLARENDON"},"type":"Feature","geometry":{"type":"Point","coordinates":[-100.8,34.94]}},{"properties":{"lon":-100.89,"size":1.0,"comments":"(AMA)","time":351,"county":"DONLEY","id":"a62fnpjfwfm9","lat":34.93,"state":"TX","location":"CLARENDON"},"type":"Feature","geometry":{"type":"Point","coordinates":[-100.89,34.93]}},{"properties":{"lon":-97.63,"size":1.75,"comments":"(GID)","time":354,"county":"YORK","id":"a62fnpith795","lat":40.74,"state":"NE","location":"2 W MCCOOL JUNCTION"},"type":"Feature","geometry":{"type":"Point","coordinates":[-97.63,40.74]}},{"properties":{"lon":-96.86,"size":1.0,"comments":"(ICT)","time":357,"county":"BUTLER","id":"a62fnpnw9vxo","lat":37.82,"state":"KS","location":"EL DORADO"},"type":"Feature","geometry":{"type":"Point","coordinates":[-96.86,37.82]}},{"properties":{"lon":-97.62,"size":1.75,"comments":"(ICT)","time":357,"county":"SALINE","id":"a62fnpin1gp6","lat":38.82,"state":"KS","location":"SALINA"},"type":"Feature","geometry":{"type":"Point","coordinates":[-97.62,38.82]}},{"properties":{"lon":-96.88,"size":1.75,"comments":"JUST WEST ON HIGHWAY 254 (ICT)","time":359,"county":"BUTLER","id":"a62fnpm6v5ow","lat":37.82,"state":"KS","location":"1 W EL DORADO"},"type":"Feature","geometry":{"type":"Point","coordinates":[-96.88,37.82]}},{"properties":{"lon":-97.62,"size":1.75,"comments":"AT THE LAW ENFORCEMENT CENTER IN SALINA. (ICT)","time":401,"county":"SALINE","id":"a62fnpdfkc1v","lat":38.82,"state":"KS","location":"SALINA"},"type":"Feature","geometry":{"type":"Point","coordinates":[-97.62,38.82]}},{"properties":{"lon":-99.68,"size":1.75,"comments":"(GID)","time":401,"county":"FURNAS","id":"a62fnphk71y3","lat":40.28,"state":"NE","location":"5 E EDISON"},"type":"Feature","geometry":{"type":"Point","coordinates":[-99.68,40.28]}},{"properties":{"lon":-96.86,"size":1.75,"comments":"NEAR THE BEST WESTERN HOTEL (ICT)","time":406,"county":"BUTLER","id":"a62fnpjgtkm6","lat":37.82,"state":"KS","location":"EL DORADO"},"type":"Feature","geometry":{"type":"Point","coordinates":[-96.86,37.82]}},{"properties":{"lon":-99.88,"size":1.0,"comments":"(OUN)","time":407,"county":"ELLIS","id":"a62fnpa1kvt7","lat":36.28,"state":"OK","location":"SHATTUCK"},"type":"Feature","geometry":{"type":"Point","coordinates":[-99.88,36.28]}},{"properties":{"lon":-100.28,"size":2.0,"comments":"(AMA)","time":414,"county":"WHEELER","id":"a62fnpgxlz7c","lat":35.44,"state":"TX","location":"WHEELER"},"type":"Feature","geometry":{"type":"Point","coordinates":[-100.28,35.44]}},{"properties":{"lon":-100.28,"size":1.0,"comments":"(AMA)","time":416,"county":"WHEELER","id":"a62fnpa8x6nj","lat":35.44,"state":"TX","location":"WHEELER"},"type":"Feature","geometry":{"type":"Point","coordinates":[-100.28,35.44]}},{"properties":{"lon":-99.43,"size":1.0,"comments":"(GID)","time":416,"county":"PHELPS","id":"a62fnpem5vhk","lat":40.44,"state":"NE","location":"3 W HOLDREGE"},"type":"Feature","geometry":{"type":"Point","coordinates":[-99.43,40.44]}},{"properties":{"lon":-96.64,"size":1.75,"comments":"(ICT)","time":426,"county":"BUTLER","id":"a62fnpjgtz35","lat":37.98,"state":"KS","location":"4 S CASSODAY"},"type":"Feature","geometry":{"type":"Point","coordinates":[-96.64,37.98]}},{"properties":{"lon":-97.1,"size":1.5,"comments":"(TOP)","time":429,"county":"DICKINSON","id":"a62fnpkx0oyy","lat":39.0,"state":"KS","location":"WSW MOONLIGHT"},"type":"Feature","geometry":{"type":"Point","coordinates":[-97.1,39.0]}},{"properties":{"lon":-101.38,"size":1.0,"comments":"LOCAL TELEVISION STATION RELAYED REPORT OF QUARTER SIZED HAIL AND POWER OUT IN POST (LUB)","time":435,"county":"GARZA","id":"a62fnppnpu3d","lat":33.19,"state":"TX","location":"POST"},"type":"Feature","geometry":{"type":"Point","coordinates":[-101.38,33.19]}},{"properties":{"lon":-97.02,"size":2.0,"comments":"(TOP)","time":558,"county":"CLAY","id":"a62fnpiqr4wz","lat":39.22,"state":"KS","location":"WAKEFIELD"},"type":"Feature","geometry":{"type":"Point","coordinates":[-97.02,39.22]}},{"properties":{"lon":-96.76,"size":4.25,"comments":"(TOP)","time":615,"county":"RILEY","id":"a62fnpf29f25","lat":39.43,"state":"KS","location":"RANDOLPH"},"type":"Feature","geometry":{"type":"Point","coordinates":[-96.76,39.43]}},{"properties":{"lon":-96.76,"size":4.5,"comments":"(TOP)","time":617,"county":"RILEY","id":"a62fnpgnq1e9","lat":39.43,"state":"KS","location":"RANDOLPH"},"type":"Feature","geometry":{"type":"Point","coordinates":[-96.76,39.43]}},{"properties":{"lon":-96.63,"size":1.75,"comments":"(TOP)","time":620,"county":"POTTAWATOMIE","id":"a62fnpfgr8il","lat":39.43,"state":"KS","location":"1 W OLSBURG"},"type":"Feature","geometry":{"type":"Point","coordinates":[-96.63,39.43]}},{"properties":{"lon":-101.48,"size":1.0,"comments":"(MAF)","time":644,"county":"HOWARD","id":"a62fnpeycpji","lat":32.25,"state":"TX","location":"BIG SPRING"},"type":"Feature","geometry":{"type":"Point","coordinates":[-101.48,32.25]}},{"properties":{"lon":-96.4,"size":2.5,"comments":"(TOP)","time":645,"county":"POTTAWATOMIE","id":"a62fnp9pqb7o","lat":39.5,"state":"KS","location":"BLAINE"},"type":"Feature","geometry":{"type":"Point","coordinates":[-96.4,39.5]}},{"properties":{"lon":-96.42,"size":1.0,"comments":"(TOP)","time":646,"county":"MARSHALL","id":"a62fnppl9dqv","lat":39.63,"state":"KS","location":"5 S FRANKFORT"},"type":"Feature","geometry":{"type":"Point","coordinates":[-96.42,39.63]}},{"properties":{"lon":-96.27,"size":1.25,"comments":"(TOP)","time":653,"county":"MARSHALL","id":"a62fnpiblnv2","lat":39.72,"state":"KS","location":"VERMILLION"},"type":"Feature","geometry":{"type":"Point","coordinates":[-96.27,39.72]}},{"properties":{"lon":-101.01,"size":1.0,"comments":"LASTED 5 MINUTES. (MAF)","time":706,"county":"MITCHELL","id":"a62fnpozoivp","lat":32.36,"state":"TX","location":"WESTBROOK"},"type":"Feature","geometry":{"type":"Point","coordinates":[-101.01,32.36]}},{"properties":{"lon":-96.11,"size":1.0,"comments":"(TSA)","time":1056,"county":"TULSA","id":"a62fnpoawvlq","lat":36.14,"state":"OK","location":"SAND SPRINGS"},"type":"Feature","geometry":{"type":"Point","coordinates":[-96.11,36.14]}}],"is_temporal":false,"author":{"url":"","metadata":"","contact_name":"","contact_address":"","source":"","contact_phone":""},"source":"","pagination":{"sort":null,"start":0,"total":183,"limit":1000000},"state":"complete","tags":"national weather service,storm prediction center,storm reports","published":"2014-08-15T00:46:20-04:00","id":228147}