{"type":"FeatureCollection","data_type":"Dataset","url_type":null,"permissions":[{"permissions":{"download":true,"view":true},"group_id":"everyone"}],"classification":null,"title":"April 14, 2012 - Damaging wind reports","count":82,"stream_id":228146,"contributor":{"url":"http://geocommons.com/users/37944","name":"ExaminerWeather"},"data_attributes":null,"calculation_params":null,"icon_link":null,"link":"http://geocommons.com/overlays/228146.json","extent":[-100.85,34.97,-90.15,41.88],"geometry_types":["point"],"unique_name":null,"name":"April 14, 2012 - Damaging wind reports","feature_count":82,"description":"Damaging wind reports received by the Storm Prediction Center during the severe weather outbreak on April 14, 2012.","next_feature":null,"is_raster":false,"short_classification":"Y","stats":{"lon":{"max":-90.15,"mean":-95.704268292683,"variance":5.05332106293285,"stdev":2.2479593107823,"min":-100.85,"median":-95.86},"time":{"max":"2355/01/01 00:00:00 -0500","mean":"1299/07/19 17:52:04 -0456","variance":7.90125696981211e+20,"stdev":28109174605.1216,"min":"38/03/03 23:59:54 -0456","median":"1819/12/31 23:59:54 -0456"},"lat":{"max":41.88,"mean":40.1481707317073,"variance":2.63379043962662,"stdev":1.6228956958556,"min":34.97,"median":40.8}},"features":[{"properties":{"lon":-99.31,"comments":"TREE LIMBS WERE BLOWN ACROSS THE ROAD. A PIVOT IRRIGATION SYSTEM WAS BLOWN OVER AND A POWER POLE WAS SNAPPED OFF NEAR THE BASE. THIS COULD HAVE BEEN A TORNADO OR STRAIG (DDC)","time":{"end_time":"1717/01/01 00:00:00 -0456","original":"1716","granularity":"year","time":"1716/01/01 00:00:00 -0456"},"county":"RUSH","speed":"UNK","id":"a62fdfh53597","lat":38.45,"state":"KS","location":"1 S RUSH CENTER"},"type":"Feature","geometry":{"type":"Point","coordinates":[-99.31,38.45]}},{"properties":{"lon":-98.0,"comments":"16 INCH DIAMETER TREE BLOWN DOWN ON NW EDGE OF ALBION. (OAX)","time":{"end_time":"1717/01/01 00:00:00 -0456","original":"1716","granularity":"year","time":"1716/01/01 00:00:00 -0456"},"county":"BOONE","speed":"UNK","id":"a62fdfgtd60i","lat":41.69,"state":"NE","location":"NW ALBION"},"type":"Feature","geometry":{"type":"Point","coordinates":[-98.0,41.69]}},{"properties":{"lon":-99.31,"comments":"TREE LIMBS WERE BLOWN ACROSS THE ROAD. A POWER POLE WAS SNAPPED OFF NEAR THE BASE. AN ENTIRE IRRIGATION PIVOT SYSTEM WAS BLOWN OVER. THIS COULD HAVE BEEN EITHER STRAIGH (DDC)","time":{"end_time":"1718/01/01 00:00:00 -0456","original":"1717","granularity":"year","time":"1717/01/01 00:00:00 -0456"},"county":"RUSH","speed":"UNK","id":"a62fdfmxja1i","lat":38.45,"state":"KS","location":"1 S RUSH CENTER"},"type":"Feature","geometry":{"type":"Point","coordinates":[-99.31,38.45]}},{"properties":{"lon":-99.31,"comments":"TREE LIMBS WERE THROWN ACROSS THE ROAD. A POWER POLE WAS SNAPPED OFF NEAR THE BASE. AN ENTIRE IRRIGATION SYSTEM WAS BLOWN OVER. THIS COULD HAVE BEEN STRAIGHT LINE WINDS (DDC)","time":{"end_time":"1718/01/01 00:00:00 -0456","original":"1717","granularity":"year","time":"1717/01/01 00:00:00 -0456"},"county":"RUSH","speed":"UNK","id":"a62fdft5yhwz","lat":38.46,"state":"KS","location":"S RUSH CENTER"},"type":"Feature","geometry":{"type":"Point","coordinates":[-99.31,38.46]}},{"properties":{"lon":-99.14,"comments":"A 60X120 FOOT METAL BARN WAS DESTROYED","time":{"end_time":"1746/01/01 00:00:00 -0456","original":"1745","granularity":"year","time":"1745/01/01 00:00:00 -0456"},"county":"RUSH","speed":"UNK","id":"a62fdfohmnoa","lat":38.64,"state":"KS","location":"2 ESE LORETTA"},"type":"Feature","geometry":{"type":"Point","coordinates":[-99.14,38.64]}},{"properties":{"lon":-98.85,"comments":"ON HIGHWAY 70 AT MILE MARKER 188 A FEW ROADS SIGNS ARE BLOWN OVER OR SNAPPED. TRASH BLOWN AROUND AT REST AREA EAST OF RUSSELL. (ICT)","time":{"end_time":"1821/01/01 00:00:00 -0456","original":"1820","granularity":"year","time":"1820/01/01 00:00:00 -0456"},"county":"RUSSELL","speed":"UNK","id":"a62fdfgx1t9d","lat":38.89,"state":"KS","location":"RUSSELL"},"type":"Feature","geometry":{"type":"Point","coordinates":[-98.85,38.89]}},{"properties":{"lon":-98.82,"comments":"(ICT)","time":{"end_time":"1823/01/01 00:00:00 -0456","original":"1822","granularity":"year","time":"1822/01/01 00:00:00 -0456"},"county":"RUSSELL","speed":"74","id":"a62fdfqj9l1s","lat":38.87,"state":"KS","location":"RUSSELL AIRPORT"},"type":"Feature","geometry":{"type":"Point","coordinates":[-98.82,38.87]}},{"properties":{"lon":-98.85,"comments":"ELECTRIC LINES DOWN AND POWER POLE LINES SNAPPED. (ICT)","time":{"end_time":"1834/01/01 00:00:00 -0456","original":"1833","granularity":"year","time":"1833/01/01 00:00:00 -0456"},"county":"RUSSELL","speed":"UNK","id":"a62fdfm3p9i4","lat":38.86,"state":"KS","location":"2 S RUSSELL"},"type":"Feature","geometry":{"type":"Point","coordinates":[-98.85,38.86]}},{"properties":{"lon":-98.89,"comments":"OUT BUILDING DAMAGED WITH DEBRI SCATTERED 3/4 OF MILE NORTHEAST OF IMPACT. (ICT)","time":{"end_time":"1834/01/01 00:00:00 -0456","original":"1833","granularity":"year","time":"1833/01/01 00:00:00 -0456"},"county":"RUSSELL","speed":"UNK","id":"a62fdflklpsq","lat":38.86,"state":"KS","location":"3 SW RUSSELL"},"type":"Feature","geometry":{"type":"Point","coordinates":[-98.89,38.86]}},{"properties":{"lon":-98.54,"comments":"(ICT)","time":{"end_time":"1846/01/01 00:00:00 -0456","original":"1845","granularity":"year","time":"1845/01/01 00:00:00 -0456"},"county":"RUSSELL","speed":"65","id":"a62fdfujh24j","lat":39.12,"state":"KS","location":"4 N LUCAS"},"type":"Feature","geometry":{"type":"Point","coordinates":[-98.54,39.12]}},{"properties":{"lon":-98.54,"comments":"SOME OUTBUILDINGS DAMAGED OR DESTROYED ALONG WITH POWER POLE LINES DOWN. (ICT)","time":{"end_time":"1855/01/01 00:00:00 -0456","original":"1854","granularity":"year","time":"1854/01/01 00:00:00 -0456"},"county":"RUSSELL","speed":"UNK","id":"a62fdfuxq2y4","lat":39.06,"state":"KS","location":"LUCAS"},"type":"Feature","geometry":{"type":"Point","coordinates":[-98.54,39.06]}},{"properties":{"lon":-98.59,"comments":"POWER POLES DOWN AND POWER LINES DOWN ACROSS HIGHWAY 18 BETWEEN LUCAS AND LURAY. (ICT)","time":{"end_time":"1921/01/01 00:00:00 -0500","original":"1920","granularity":"year","time":"1920/01/01 00:00:00 -0500"},"county":"RUSSELL","speed":"UNK","id":"a62fdfth7yai","lat":39.06,"state":"KS","location":"3 W LUCAS"},"type":"Feature","geometry":{"type":"Point","coordinates":[-98.59,39.06]}},{"properties":{"lon":-98.31,"comments":"POWER LINES REPORTED DOWN IN THE GLEN ELDER RESERVIOR AREA. (GID)","time":{"end_time":"1931/01/01 00:00:00 -0500","original":"1930","granularity":"year","time":"1930/01/01 00:00:00 -0500"},"county":"MITCHELL","speed":"UNK","id":"a62fdfr08d3u","lat":39.5,"state":"KS","location":"GLEN ELDER"},"type":"Feature","geometry":{"type":"Point","coordinates":[-98.31,39.5]}},{"properties":{"lon":-98.11,"comments":"(GID)","time":{"end_time":"1946/01/01 00:00:00 -0500","original":"1945","granularity":"year","time":"1945/01/01 00:00:00 -0400"},"county":"MITCHELL","speed":"60","id":"a62fdfr89knt","lat":39.47,"state":"KS","location":"BELOIT"},"type":"Feature","geometry":{"type":"Point","coordinates":[-98.11,39.47]}},{"properties":{"lon":-94.74,"comments":"FARM OUTBUILDING DESTROYED BY EITHER WIND OR TORANDO. THE EVENT WAS NOT OBSERVED. (DMX)","time":{"end_time":"2001/01/01 00:00:00 -0500","original":"2000","granularity":"year","time":"2000/01/01 00:00:00 -0500"},"county":"ADAMS","speed":"UNK","id":"a62fdfhzz35k","lat":41.07,"state":"IA","location":"5 N CORNING"},"type":"Feature","geometry":{"type":"Point","coordinates":[-94.74,41.07]}},{"properties":{"lon":-97.3,"comments":"SEVERAL IRRIGATION PIVOTS OVERTURNED AND ONE FOOT TREES DOWNED. (OAX)","time":{"end_time":"2011/01/01 00:00:00 -0500","original":"2010","granularity":"year","time":"2010/01/01 00:00:00 -0500"},"county":"JEFFERSON","speed":"UNK","id":"a62fdfovwx5l","lat":40.28,"state":"NE","location":"3 S DAYKIN"},"type":"Feature","geometry":{"type":"Point","coordinates":[-97.3,40.28]}},{"properties":{"lon":-97.3,"comments":"24 INCH DIAMETER TREES BLOWN DOWN...SOME ONTO HOMES. (OAX)","time":{"end_time":"2022/01/01 00:00:00 -0500","original":"2021","granularity":"year","time":"2021/01/01 00:00:00 -0500"},"county":"JEFFERSON","speed":"UNK","id":"a62fdfk40e24","lat":40.32,"state":"NE","location":"DAYKIN"},"type":"Feature","geometry":{"type":"Point","coordinates":[-97.3,40.32]}},{"properties":{"lon":-97.39,"comments":"DAMAGE REPORTED AT FARMSTEAD NORTH OF ALEXANDRIA. GRAIN BIN LOST...TIN FROM A SHED BLOWN OFF...SOME SIDING AND WINDOW DAMAGE TO THE HOME AT THE FARMSTEAD. IN THE SAME A (GID)","time":{"end_time":"2035/01/01 00:00:00 -0500","original":"2034","granularity":"year","time":"2034/01/01 00:00:00 -0500"},"county":"THAYER","speed":"UNK","id":"a62fdfkgh4wy","lat":40.26,"state":"NE","location":"1 N ALEXANDRIA"},"type":"Feature","geometry":{"type":"Point","coordinates":[-97.39,40.26]}},{"properties":{"lon":-97.46,"comments":"(TOP)","time":{"end_time":"2044/01/01 00:00:00 -0500","original":"2043","granularity":"year","time":"2043/01/01 00:00:00 -0500"},"county":"REPUBLIC","speed":"60","id":"a62fdfswkyn9","lat":39.85,"state":"KS","location":"3 N CUBA"},"type":"Feature","geometry":{"type":"Point","coordinates":[-97.46,39.85]}},{"properties":{"lon":-94.76,"comments":"LARGE BRANCHES DOWN (DMX)","time":{"end_time":"2056/01/01 00:00:00 -0500","original":"2055","granularity":"year","time":"2055/01/01 00:00:00 -0500"},"county":"ADAMS","speed":"UNK","id":"a62fdfvhfz0h","lat":41.12,"state":"IA","location":"9 N CORNING"},"type":"Feature","geometry":{"type":"Point","coordinates":[-94.76,41.12]}},{"properties":{"lon":-96.75,"comments":"TREE BRANCHES DOWN. BARN DAMAGED. WINDOWS BLOWN IN. TIME ESTIMATED. (OAX)","time":{"end_time":"2101/01/01 00:00:00 -0500","original":"2100","granularity":"year","time":"2100/01/01 00:00:00 -0500"},"county":"GAGE","speed":"UNK","id":"a62fdfujp8nq","lat":40.27,"state":"NE","location":"BEATRICE"},"type":"Feature","geometry":{"type":"Point","coordinates":[-96.75,40.27]}},{"properties":{"lon":-94.02,"comments":"WIND BLOWING OVER ROAD SIGNS. (DMX)","time":{"end_time":"2142/01/01 00:00:00 -0500","original":"2141","granularity":"year","time":"2141/01/01 00:00:00 -0500"},"county":"MADISON","speed":"UNK","id":"a62fdfvdxg4o","lat":41.34,"state":"IA","location":"WINTERSET"},"type":"Feature","geometry":{"type":"Point","coordinates":[-94.02,41.34]}},{"properties":{"lon":-96.38,"comments":"4 INCH DIAMETER TREE LIMB BLOWN DOWN. 4 BY 8 FOOT SHEET OF ALUMINUM ROOFING TORN OFF SHED. (OAX)","time":{"end_time":"2153/01/01 00:00:00 -0500","original":"2152","granularity":"year","time":"2152/01/01 00:00:00 -0500"},"county":"JOHNSON","speed":"UNK","id":"a62fdfq527mo","lat":40.46,"state":"NE","location":"STERLING"},"type":"Feature","geometry":{"type":"Point","coordinates":[-96.38,40.46]}},{"properties":{"lon":-96.38,"comments":"6 TO 10 INCH TREE LIMBS DOWN IN TOWN EVERYWHERE (OAX)","time":{"end_time":"2201/01/01 00:00:00 -0500","original":"2200","granularity":"year","time":"2200/01/01 00:00:00 -0500"},"county":"JOHNSON","speed":"UNK","id":"a62fdfujnyng","lat":40.46,"state":"NE","location":"STERLING"},"type":"Feature","geometry":{"type":"Point","coordinates":[-96.38,40.46]}},{"properties":{"lon":-96.05,"comments":"IRRIGATION PIVOT DESTROYED. TREES TWISTED. MACHINE SHED DESTROYED. NEAR INTERSECTION OF 736 AND 629 ROAD. (OAX)","time":{"end_time":"2211/01/01 00:00:00 -0500","original":"2210","granularity":"year","time":"2210/01/01 00:00:00 -0500"},"county":"NEMAHA","speed":"UNK","id":"a62fdfi6qh6p","lat":40.51,"state":"NE","location":"2 SW TALMAGE"},"type":"Feature","geometry":{"type":"Point","coordinates":[-96.05,40.51]}},{"properties":{"lon":-96.16,"comments":"SIGNIFICANT DAMAGE TO A HOME. (OAX)","time":{"end_time":"2211/01/01 00:00:00 -0500","original":"2210","granularity":"year","time":"2210/01/01 00:00:00 -0500"},"county":"OTOE","speed":"UNK","id":"a62fdfowjzl0","lat":40.52,"state":"NE","location":"1 N COOK"},"type":"Feature","geometry":{"type":"Point","coordinates":[-96.16,40.52]}},{"properties":{"lon":-95.86,"comments":"(OAX)","time":{"end_time":"2229/01/01 00:00:00 -0500","original":"2228","granularity":"year","time":"2228/01/01 00:00:00 -0500"},"county":"OTOE","speed":"61","id":"a62fdfj5gyks","lat":40.68,"state":"NE","location":"NEBRASKA CITY"},"type":"Feature","geometry":{"type":"Point","coordinates":[-95.86,40.68]}},{"properties":{"lon":-95.89,"comments":"6 HOMES DAMAGED...2 OF WHICH MAY NOT BE LIVABLE. 50 TO 100 TREES IN AN ORCHARD LAYED FLAT A LITTLE BIT SOUTH. TIME ESTIMATED. (OAX)","time":{"end_time":"2231/01/01 00:00:00 -0500","original":"2230","granularity":"year","time":"2230/01/01 00:00:00 -0500"},"county":"OTOE","speed":"UNK","id":"a62fdfpt3jg5","lat":40.74,"state":"NE","location":"5 NNW NEBRASKA CITY"},"type":"Feature","geometry":{"type":"Point","coordinates":[-95.89,40.74]}},{"properties":{"lon":-95.92,"comments":"ON HIGHWAY 75","time":{"end_time":"2239/01/01 00:00:00 -0500","original":"2238","granularity":"year","time":"2238/01/01 00:00:00 -0500"},"county":"CASS","speed":"78","id":"a62fdfig9n7h","lat":40.8,"state":"NE","location":"1 S UNION"},"type":"Feature","geometry":{"type":"Point","coordinates":[-95.92,40.8]}},{"properties":{"lon":-95.79,"comments":"5 SEMI TRUCKS BLOWN OFF INTERSTATE 29 BETWEEN MILE MARKER 16 AND 18. (OAX)","time":{"end_time":"2241/01/01 00:00:00 -0500","original":"2240","granularity":"year","time":"2240/01/01 00:00:00 -0500"},"county":"FREMONT","speed":"UNK","id":"a62fdflaadlb","lat":40.79,"state":"IA","location":"3 SW THURMAN"},"type":"Feature","geometry":{"type":"Point","coordinates":[-95.79,40.79]}},{"properties":{"lon":-95.5,"comments":"MEASURED ON A HOME WEATHER STATION. TREE SNAPPED OFF JUST ABOVE GRADE AND MANY LIMBS SNAPPED AND THROWN. (OAX)","time":{"end_time":"2255/01/01 00:00:00 -0500","original":"2254","granularity":"year","time":"2254/01/01 00:00:00 -0500"},"county":"MILLS","speed":"65","id":"a62fdfjb7xv6","lat":41.01,"state":"IA","location":"1 S HASTINGS"},"type":"Feature","geometry":{"type":"Point","coordinates":[-95.5,41.01]}},{"properties":{"lon":-95.4,"comments":"2 FOOT DIAMETER TREES BLOWN DOWN. (OAX)","time":{"end_time":"2259/01/01 00:00:00 -0500","original":"2258","granularity":"year","time":"2258/01/01 00:00:00 -0500"},"county":"MILLS","speed":"UNK","id":"a62fdfw4t254","lat":41.02,"state":"IA","location":"EMERSON"},"type":"Feature","geometry":{"type":"Point","coordinates":[-95.4,41.02]}},{"properties":{"lon":-95.28,"comments":"GUST MEASURED BY WEATHER STATION AT 4 FT HEIGHT. DAMAGE TO TREES AND POWER POLES AND SOME STRUCTURAL DAMAGE. (OAX)","time":{"end_time":"2311/01/01 00:00:00 -0500","original":"2310","granularity":"year","time":"2310/01/01 00:00:00 -0500"},"county":"MONTGOMERY","speed":"78","id":"a62fdfi7097c","lat":41.05,"state":"IA","location":"4 NW RED OAK"},"type":"Feature","geometry":{"type":"Point","coordinates":[-95.28,41.05]}},{"properties":{"lon":-95.89,"comments":"LARGE TREES DOWN IN THE BEAVER LAKE AREA (OAX)","time":{"end_time":"2312/01/01 00:00:00 -0500","original":"2311","granularity":"year","time":"2311/01/01 00:00:00 -0500"},"county":"CASS","speed":"UNK","id":"a62fdfvdk56x","lat":40.94,"state":"NE","location":"5 S PLATTSMOUTH"},"type":"Feature","geometry":{"type":"Point","coordinates":[-95.89,40.94]}},{"properties":{"lon":-95.09,"comments":"WINDS ESTIMATED AT 60 MPH. SEVERAL TREE LIMBS BROKEN","time":{"end_time":"2326/01/01 00:00:00 -0500","original":"2325","granularity":"year","time":"2325/01/01 00:00:00 -0500"},"county":"PAGE","speed":"UNK","id":"a62fdfhp72vj","lat":40.7,"state":"IA","location":"4 SW CLARINDA"},"type":"Feature","geometry":{"type":"Point","coordinates":[-95.09,40.7]}},{"properties":{"lon":-95.01,"comments":"SHINGLES BLOWN OFF HOME. SMALL BRANCHES BROKEN OFF. (DMX)","time":{"end_time":"2345/01/01 00:00:00 -0500","original":"2344","granularity":"year","time":"2344/01/01 00:00:00 -0500"},"county":"CASS","speed":"UNK","id":"a62fdfp3po01","lat":41.4,"state":"IA","location":"ATLANTIC"},"type":"Feature","geometry":{"type":"Point","coordinates":[-95.01,41.4]}},{"properties":{"lon":-94.56,"comments":"LARGE TREE KNOCKED DOWN OVER THE ROAD NEAR THE INTERSECTION OF HIGHWAY 49 AND HIGHWAY 34. (DMX)","time":{"end_time":"2356/01/01 00:00:00 -0500","original":"2355","granularity":"year","time":"2355/01/01 00:00:00 -0500"},"county":"TAYLOR","speed":"UNK","id":"a62fdfhawjvi","lat":40.9,"state":"IA","location":"1 N LENOX"},"type":"Feature","geometry":{"type":"Point","coordinates":[-94.56,40.9]}},{"properties":{"lon":-94.36,"comments":"LARGE TREE KNOCKED DOWN OVER THE ROAD NEAR THE INTERSECTION OF HIGHWAY 49 AND HIGHWAY 34. (DMX)","time":{"end_time":"2356/01/01 00:00:00 -0500","original":"2355","granularity":"year","time":"2355/01/01 00:00:00 -0500"},"county":"UNION","speed":"UNK","id":"a62fdfgucjij","lat":41.07,"state":"IA","location":"1 N CRESTON"},"type":"Feature","geometry":{"type":"Point","coordinates":[-94.36,41.07]}},{"properties":{"lon":-94.36,"comments":"20 INCH TREES DOWN. STRUCTURAL AND ROOF DAMAGE TO HOSPITAL. LARGE TREES UPROOTED. (DMX)","time":{"end_time":"2025/01/01 00:00:00 -0500","original":"0024","granularity":"year","time":"2024/01/01 00:00:00 -0500"},"county":"UNION","speed":"UNK","id":"a62fdfi7ccb3","lat":41.06,"state":"IA","location":"CRESTON"},"type":"Feature","geometry":{"type":"Point","coordinates":[-94.36,41.06]}},{"properties":{"lon":-94.02,"comments":"ESTIMATED 60 MPH GUST AT INTERSECTION OF HIGHWAYS 169 AND 92 ON WEST SIDE OF WINTERSET. (DMX)","time":{"end_time":"2031/01/01 00:00:00 -0500","original":"0030","granularity":"year","time":"2030/01/01 00:00:00 -0500"},"county":"MADISON","speed":"60","id":"a62fdfqatufq","lat":41.34,"state":"IA","location":"WINTERSET"},"type":"Feature","geometry":{"type":"Point","coordinates":[-94.02,41.34]}},{"properties":{"lon":-93.8,"comments":"(DMX)","time":{"end_time":"40/01/01 00:00:00 -0456","original":"0039","granularity":"year","time":"39/01/01 00:00:00 -0456"},"county":"CLARKE","speed":"60","id":"a62fdfuidaqc","lat":41.09,"state":"IA","location":"4 NNW OSCEOLA"},"type":"Feature","geometry":{"type":"Point","coordinates":[-93.8,41.09]}},{"properties":{"lon":-93.98,"comments":"(DMX)","time":{"end_time":"40/01/01 00:00:00 -0456","original":"0039","granularity":"year","time":"39/01/01 00:00:00 -0456"},"county":"DALLAS","speed":"70","id":"a62fdfpg7uot","lat":41.63,"state":"IA","location":"4 S DALLAS CENTER"},"type":"Feature","geometry":{"type":"Point","coordinates":[-93.98,41.63]}},{"properties":{"lon":-93.79,"comments":"REPORTED NORTH OF THE JORDAN CREEK MALL. (DMX)","time":{"end_time":"45/01/01 00:00:00 -0456","original":"0044","granularity":"year","time":"44/01/01 00:00:00 -0456"},"county":"DALLAS","speed":"60","id":"a62fdfjvm2yy","lat":41.57,"state":"IA","location":"2 W WEST DES MOINES"},"type":"Feature","geometry":{"type":"Point","coordinates":[-93.79,41.57]}},{"properties":{"lon":-93.98,"comments":"12-13 TREE SNAPPED AT BASE. (DMX)","time":{"end_time":"46/01/01 00:00:00 -0456","original":"0045","granularity":"year","time":"45/01/01 00:00:00 -0456"},"county":"DALLAS","speed":"UNK","id":"a62fdfhv9b9q","lat":41.63,"state":"IA","location":"4 S DALLAS CENTER"},"type":"Feature","geometry":{"type":"Point","coordinates":[-93.98,41.63]}},{"properties":{"lon":-93.62,"comments":"POWER LINES DOWN...POWER OUTAGES...4-5 INCHES RUNNING WATER IN STREETS DUE TO HEAVY RAINFALL. (DMX)","time":{"end_time":"51/01/01 00:00:00 -0456","original":"0050","granularity":"year","time":"50/01/01 00:00:00 -0456"},"county":"POLK","speed":"UNK","id":"a62fdfvq66i1","lat":41.58,"state":"IA","location":"DES MOINES"},"type":"Feature","geometry":{"type":"Point","coordinates":[-93.62,41.58]}},{"properties":{"lon":-93.79,"comments":"(DMX)","time":{"end_time":"52/01/01 00:00:00 -0456","original":"0051","granularity":"year","time":"51/01/01 00:00:00 -0456"},"county":"CLARKE","speed":"60","id":"a62fdfrjpaib","lat":41.03,"state":"IA","location":"1 W OSCEOLA"},"type":"Feature","geometry":{"type":"Point","coordinates":[-93.79,41.03]}},{"properties":{"lon":-93.62,"comments":"SOUTH WIND AT 65 MPH AT BLANK PARK ZOO IN SOUTH DES MOINES. (DMX)","time":{"end_time":"52/01/01 00:00:00 -0456","original":"0051","granularity":"year","time":"51/01/01 00:00:00 -0456"},"county":"POLK","speed":"65","id":"a62fdfphb77h","lat":41.58,"state":"IA","location":"DES MOINES"},"type":"Feature","geometry":{"type":"Point","coordinates":[-93.62,41.58]}},{"properties":{"lon":-93.61,"comments":"10 INCH DIAMETER LIMBS DOWN ALONG EAST 18TH STREET. (DMX)","time":{"end_time":"54/01/01 00:00:00 -0456","original":"0053","granularity":"year","time":"53/01/01 00:00:00 -0456"},"county":"POLK","speed":"UNK","id":"a62fdfk4w15f","lat":41.62,"state":"IA","location":"3 N DES MOINES"},"type":"Feature","geometry":{"type":"Point","coordinates":[-93.61,41.62]}},{"properties":{"lon":-93.58,"comments":"60 TO 65 MPH WINDS...NO DAMAGE REPORTS YET. WIND LASTED ABOUT 10 MPH. (DMX)","time":{"end_time":"56/01/01 00:00:00 -0456","original":"0055","granularity":"year","time":"55/01/01 00:00:00 -0456"},"county":"POLK","speed":"65","id":"a62fdfkrfwiq","lat":41.72,"state":"IA","location":"2 NNW ANKENY AIRPORT"},"type":"Feature","geometry":{"type":"Point","coordinates":[-93.58,41.72]}},{"properties":{"lon":-93.62,"comments":"TREE LIMBS DOWN. (DMX)","time":{"end_time":"59/01/01 00:00:00 -0456","original":"0058","granularity":"year","time":"58/01/01 00:00:00 -0456"},"county":"POLK","speed":"UNK","id":"a62fdfpoadt3","lat":41.58,"state":"IA","location":"DES MOINES"},"type":"Feature","geometry":{"type":"Point","coordinates":[-93.62,41.58]}},{"properties":{"lon":-93.69,"comments":"SMALL BRANCHES BROKEN OFF. MINOR STREET FLOODING. (DMX)","time":{"end_time":"60/01/01 00:00:00 -0456","original":"0059","granularity":"year","time":"59/01/01 00:00:00 -0456"},"county":"POLK","speed":"UNK","id":"a62fdflx5ppc","lat":41.68,"state":"IA","location":"1 ESE JOHNSTON"},"type":"Feature","geometry":{"type":"Point","coordinates":[-93.69,41.68]}},{"properties":{"lon":-93.71,"comments":"MOST OF ROOF TORN AWAY FROM A COMMERCIAL BUILDING. TIME ESTIMATED FROM RADAR. (DMX)","time":{"end_time":"2001/01/01 00:00:00 -0500","original":"0100","granularity":"year","time":"2000/01/01 00:00:00 -0500"},"county":"POLK","speed":"UNK","id":"a62fdfvq1x77","lat":41.57,"state":"IA","location":"5 W DES MOINES"},"type":"Feature","geometry":{"type":"Point","coordinates":[-93.71,41.57]}},{"properties":{"lon":-93.62,"comments":"LARGE TREES DOWN NEAR 18TH AND WOODLAWN AND NEAR SHERMAN HOYT AREA. SIGNIFICANT TREE DAMAGE REPORTED. MEDIA REPORT RELAYED BY WOI TV. (DMX)","time":{"end_time":"2003/01/01 00:00:00 -0500","original":"0102","granularity":"year","time":"2002/01/01 00:00:00 -0500"},"county":"POLK","speed":"UNK","id":"a62fdfslqe73","lat":41.58,"state":"IA","location":"DES MOINES"},"type":"Feature","geometry":{"type":"Point","coordinates":[-93.62,41.58]}},{"properties":{"lon":-93.71,"comments":"(DMX)","time":{"end_time":"2003/01/01 00:00:00 -0500","original":"0102","granularity":"year","time":"2002/01/01 00:00:00 -0500"},"county":"POLK","speed":"60","id":"a62fdfvmier6","lat":41.65,"state":"IA","location":"2 ENE URBANDALE"},"type":"Feature","geometry":{"type":"Point","coordinates":[-93.71,41.65]}},{"properties":{"lon":-93.02,"comments":"STEEL SHED BLOWN AWAY (DMX)","time":{"end_time":"2024/01/01 00:00:00 -0500","original":"0123","granularity":"year","time":"2023/01/01 00:00:00 -0500"},"county":"JASPER","speed":"UNK","id":"a62fdfo25f80","lat":41.58,"state":"IA","location":"NE REASNOR"},"type":"Feature","geometry":{"type":"Point","coordinates":[-93.02,41.58]}},{"properties":{"lon":-92.94,"comments":"SIDING RIPPED OFF HOUSE. SMALL HAIL ALSO REPORTED (DMX)","time":{"end_time":"2029/01/01 00:00:00 -0500","original":"0128","granularity":"year","time":"2028/01/01 00:00:00 -0500"},"county":"JASPER","speed":"UNK","id":"a62fdfsyk6jr","lat":41.63,"state":"IA","location":"5 SE NEWTON AIRPORT"},"type":"Feature","geometry":{"type":"Point","coordinates":[-92.94,41.63]}},{"properties":{"lon":-93.1,"comments":"TREES DOWN AND DIME SIZE HAIL REPORTED. (DMX)","time":{"end_time":"2030/01/01 00:00:00 -0500","original":"0129","granularity":"year","time":"2029/01/01 00:00:00 -0500"},"county":"MARION","speed":"UNK","id":"a62fdfsgz0th","lat":41.32,"state":"IA","location":"KNOXVILLE"},"type":"Feature","geometry":{"type":"Point","coordinates":[-93.1,41.32]}},{"properties":{"lon":-93.75,"comments":"3 TO 8 INCH TREE LIMBS DOWN AT VALLEY JUNCTION. (DMX)","time":{"end_time":"144/01/01 00:00:00 -0456","original":"0143","granularity":"year","time":"143/01/01 00:00:00 -0456"},"county":"POLK","speed":"UNK","id":"a62fdfizja8s","lat":41.57,"state":"IA","location":"WEST DES MOINES"},"type":"Feature","geometry":{"type":"Point","coordinates":[-93.75,41.57]}},{"properties":{"lon":-93.1,"comments":"ROOF BLOWN OFF HOUSE. GARAGE BLOWN DOWN. (DMX)","time":{"end_time":"150/01/01 00:00:00 -0456","original":"0149","granularity":"year","time":"149/01/01 00:00:00 -0456"},"county":"MARION","speed":"UNK","id":"a62fdfozz7at","lat":41.25,"state":"IA","location":"5 S KNOXVILLE"},"type":"Feature","geometry":{"type":"Point","coordinates":[-93.1,41.25]}},{"properties":{"lon":-92.72,"comments":"(DMX)","time":{"end_time":"151/01/01 00:00:00 -0456","original":"0150","granularity":"year","time":"150/01/01 00:00:00 -0456"},"county":"POWESHIEK","speed":"60","id":"a62fdfva9uuu","lat":41.58,"state":"IA","location":"1 WSW SEARSBORO"},"type":"Feature","geometry":{"type":"Point","coordinates":[-92.72,41.58]}},{"properties":{"lon":-92.64,"comments":"EST. WIND GUST TO 60 MPH. PEA SIZE HAIL ALSO REPORTED. (DMX)","time":{"end_time":"216/01/01 00:00:00 -0456","original":"0215","granularity":"year","time":"215/01/01 00:00:00 -0456"},"county":"MAHASKA","speed":"60","id":"a62fdfrkij1l","lat":41.29,"state":"IA","location":"SW OSKALOOSA"},"type":"Feature","geometry":{"type":"Point","coordinates":[-92.64,41.29]}},{"properties":{"lon":-92.49,"comments":"MEASURED BY AWOS SITE AT THE AIRPORT. TIME ESTIMATED FROM RADAR. (DMX)","time":{"end_time":"223/01/01 00:00:00 -0456","original":"0222","granularity":"year","time":"222/01/01 00:00:00 -0456"},"county":"MAHASKA","speed":"97","id":"a62fdfvo9jig","lat":41.23,"state":"IA","location":"SE OSKALOOSA AIRPORT"},"type":"Feature","geometry":{"type":"Point","coordinates":[-92.49,41.23]}},{"properties":{"lon":-92.38,"comments":"FROM APPROXIMATELY 930 PM TO 945 PM SOME POWER LINES WERE BLOWN DOWN AND SOME WIND DAMAGE OCCURRED FROM 4 MILES WEST OF HEDRICK EASTWARD ALONG HIGHWAY 78 TO OLLIE. THE (DVN)","time":{"end_time":"231/01/01 00:00:00 -0456","original":"0230","granularity":"year","time":"230/01/01 00:00:00 -0456"},"county":"KEOKUK","speed":"UNK","id":"a62fdfpy8vj8","lat":41.17,"state":"IA","location":"4 W HEDRICK"},"type":"Feature","geometry":{"type":"Point","coordinates":[-92.38,41.17]}},{"properties":{"lon":-98.67,"comments":"PIVOT ROLLED OVER. (GID)","time":{"end_time":"238/01/01 00:00:00 -0456","original":"0237","granularity":"year","time":"237/01/01 00:00:00 -0456"},"county":"WEBSTER","speed":"UNK","id":"a62fdfmeq0su","lat":40.3,"state":"NE","location":"3 E CAMPBELL"},"type":"Feature","geometry":{"type":"Point","coordinates":[-98.67,40.3]}},{"properties":{"lon":-97.22,"comments":"(ICT)","time":{"end_time":"256/01/01 00:00:00 -0456","original":"0255","granularity":"year","time":"255/01/01 00:00:00 -0456"},"county":"SEDGWICK","speed":"58","id":"a62fdfkpg93k","lat":37.75,"state":"KS","location":"JABARA AIRPORT"},"type":"Feature","geometry":{"type":"Point","coordinates":[-97.22,37.75]}},{"properties":{"lon":-92.09,"comments":"ESTIMATED 50 TO 60 MPH. HAIL UP TO SIZE OF HALF DOLLARS. (DVN)","time":{"end_time":"257/01/01 00:00:00 -0456","original":"0256","granularity":"year","time":"256/01/01 00:00:00 -0456"},"county":"KEOKUK","speed":"60","id":"a62fdfvufdzn","lat":41.2,"state":"IA","location":"W OLLIE"},"type":"Feature","geometry":{"type":"Point","coordinates":[-92.09,41.2]}},{"properties":{"lon":-98.31,"comments":"NICKEL HAIL ALSO (GID)","time":{"end_time":"304/01/01 00:00:00 -0456","original":"0303","granularity":"year","time":"303/01/01 00:00:00 -0456"},"county":"ADAMS","speed":"60","id":"a62fdfs1mtxu","lat":40.44,"state":"NE","location":"7 E AYR"},"type":"Feature","geometry":{"type":"Point","coordinates":[-98.31,40.44]}},{"properties":{"lon":-91.59,"comments":"TREES DOWN. (DVN)","time":{"end_time":"305/01/01 00:00:00 -0456","original":"0304","granularity":"year","time":"304/01/01 00:00:00 -0456"},"county":"LINN","speed":"UNK","id":"a62fdfquxq0y","lat":41.88,"state":"IA","location":"ELY"},"type":"Feature","geometry":{"type":"Point","coordinates":[-91.59,41.88]}},{"properties":{"lon":-97.5,"comments":"(ICT)","time":{"end_time":"307/01/01 00:00:00 -0456","original":"0306","granularity":"year","time":"306/01/01 00:00:00 -0456"},"county":"SEDGWICK","speed":"70","id":"a62fdfqkzzmd","lat":37.51,"state":"KS","location":"CLEARWATER"},"type":"Feature","geometry":{"type":"Point","coordinates":[-97.5,37.51]}},{"properties":{"lon":-97.97,"comments":"TREES DOWN IN EDGAR. ALSO POWER OUTAGE IN FAIRFIELD. (GID)","time":{"end_time":"325/01/01 00:00:00 -0456","original":"0324","granularity":"year","time":"324/01/01 00:00:00 -0456"},"county":"CLAY","speed":"UNK","id":"a62fdfwu1467","lat":40.37,"state":"NE","location":"EDGAR"},"type":"Feature","geometry":{"type":"Point","coordinates":[-97.97,40.37]}},{"properties":{"lon":-97.44,"comments":"(ICT)","time":{"end_time":"330/01/01 00:00:00 -0456","original":"0329","granularity":"year","time":"329/01/01 00:00:00 -0456"},"county":"SEDGWICK","speed":"84","id":"a62fdfrhaex7","lat":37.66,"state":"KS","location":"WICHITA MID CONTINENT A"},"type":"Feature","geometry":{"type":"Point","coordinates":[-97.44,37.66]}},{"properties":{"lon":-97.27,"comments":"(ICT)","time":{"end_time":"333/01/01 00:00:00 -0456","original":"0332","granularity":"year","time":"332/01/01 00:00:00 -0456"},"county":"SEDGWICK","speed":"76","id":"a62fdfnbotr7","lat":37.62,"state":"KS","location":"MCCONNELL AIR FORCE BAS"},"type":"Feature","geometry":{"type":"Point","coordinates":[-97.27,37.62]}},{"properties":{"lon":-100.85,"comments":"SMALL TREE LIMBS DOWN (AMA)","time":{"end_time":"401/01/01 00:00:00 -0456","original":"0400","granularity":"year","time":"400/01/01 00:00:00 -0456"},"county":"DONLEY","speed":"60","id":"a62fdfrsmo4i","lat":34.97,"state":"TX","location":"3 NE CLARENDON"},"type":"Feature","geometry":{"type":"Point","coordinates":[-100.85,34.97]}},{"properties":{"lon":-96.64,"comments":"60 TO 70 MPH. (ICT)","time":{"end_time":"439/01/01 00:00:00 -0456","original":"0438","granularity":"year","time":"438/01/01 00:00:00 -0456"},"county":"BUTLER","speed":"70","id":"a62fdfi80vse","lat":37.95,"state":"KS","location":"6 S CASSODAY"},"type":"Feature","geometry":{"type":"Point","coordinates":[-96.64,37.95]}},{"properties":{"lon":-96.25,"comments":"(OAX)","time":{"end_time":"526/01/01 00:00:00 -0456","original":"0525","granularity":"year","time":"525/01/01 00:00:00 -0456"},"county":"CASS","speed":"70","id":"a62fdfrox9r3","lat":41.0,"state":"NE","location":"S SOUTH BEND"},"type":"Feature","geometry":{"type":"Point","coordinates":[-96.25,41.0]}},{"properties":{"lon":-90.15,"comments":"60 MPH WINDS WITH HEAVY RAIN","time":{"end_time":"616/01/01 00:00:00 -0456","original":"0615","granularity":"year","time":"615/01/01 00:00:00 -0456"},"county":"HENRY","speed":"60","id":"a62fdfulhsn3","lat":41.45,"state":"IL","location":"GENESEO"},"type":"Feature","geometry":{"type":"Point","coordinates":[-90.15,41.45]}},{"properties":{"lon":-96.75,"comments":"OKLAHOMA MESONET (TSA)","time":{"end_time":"955/01/01 00:00:00 -0456","original":"0954","granularity":"year","time":"954/01/01 00:00:00 -0456"},"county":"PAWNEE","speed":"58","id":"a62fdfhjuwqy","lat":36.35,"state":"OK","location":"3 ENE PAWNEE"},"type":"Feature","geometry":{"type":"Point","coordinates":[-96.75,36.35]}},{"properties":{"lon":-96.12,"comments":"ALONG HIGHWAY 400. (ICT)","time":{"end_time":"959/01/01 00:00:00 -0456","original":"0958","granularity":"year","time":"958/01/01 00:00:00 -0456"},"county":"GREENWOOD","speed":"65","id":"a62fdfr8yg6n","lat":37.62,"state":"KS","location":"6 E SEVERY"},"type":"Feature","geometry":{"type":"Point","coordinates":[-96.12,37.62]}},{"properties":{"lon":-96.41,"comments":"NEAR THE AIRPORT. (TSA)","time":{"end_time":"1019/01/01 00:00:00 -0456","original":"1018","granularity":"year","time":"1018/01/01 00:00:00 -0456"},"county":"OSAGE","speed":"65","id":"a62fdfo1zzf7","lat":36.67,"state":"OK","location":"4 W PAWHUSKA"},"type":"Feature","geometry":{"type":"Point","coordinates":[-96.41,36.67]}},{"properties":{"lon":-96.34,"comments":"(TSA)","time":{"end_time":"1026/01/01 00:00:00 -0456","original":"1025","granularity":"year","time":"1025/01/01 00:00:00 -0456"},"county":"OSAGE","speed":"60","id":"a62fdfk4s05b","lat":36.67,"state":"OK","location":"PAWHUSKA"},"type":"Feature","geometry":{"type":"Point","coordinates":[-96.34,36.67]}},{"properties":{"lon":-95.89,"comments":"OKLAHOMA MESONET (TSA)","time":{"end_time":"1055/01/01 00:00:00 -0456","original":"1054","granularity":"year","time":"1054/01/01 00:00:00 -0456"},"county":"WASHINGTON","speed":"65","id":"a62fdfnjq976","lat":36.91,"state":"OK","location":"2 ENE COPAN"},"type":"Feature","geometry":{"type":"Point","coordinates":[-95.89,36.91]}},{"properties":{"lon":-95.84,"comments":"(TSA)","time":{"end_time":"1103/01/01 00:00:00 -0456","original":"1102","granularity":"year","time":"1102/01/01 00:00:00 -0456"},"county":"TULSA","speed":"65","id":"a62fdfj9btm5","lat":36.36,"state":"OK","location":"COLLINSVILLE"},"type":"Feature","geometry":{"type":"Point","coordinates":[-95.84,36.36]}}],"is_temporal":true,"author":{"url":"","metadata":"","contact_name":"","contact_address":"","source":"","contact_phone":""},"source":"","pagination":{"sort":null,"start":0,"total":82,"limit":1000000},"state":"complete","tags":"national weather service,storm prediction center,storm report,storm reports,weather,wind","published":"2014-08-15T00:46:19-04:00","id":228146}