{"type":"FeatureCollection","url":"http://www.spc.noaa.gov/climo/reports/yesterday_filtered_torn.csv","data_type":"Data Feed","url_type":"csv","permissions":[{"permissions":{"download":true,"view":true},"group_id":"everyone"}],"classification":null,"title":"yesterday_filtered_torn.csv","count":98,"stream_id":228251,"contributor":{"url":"http://geocommons.com/users/28467","name":"bheberto"},"data_attributes":null,"calculation_params":null,"icon_link":null,"link":"http://geocommons.com/overlays/228251.json","extent":[-100.87,36.26,-93.67,41.65],"geometry_types":["point"],"unique_name":null,"name":"yesterday_filtered_torn.csv","feature_count":98,"description":"","next_feature":null,"is_raster":false,"short_classification":"Y","stats":{"lon":{"max":-93.67,"mean":-98.0940816326531,"variance":1.68789863244267,"stdev":1.29919153031517,"min":-100.87,"median":-97.87},"time":{"max":"2355/01/01 00:00:00 -0500","mean":"1384/11/12 17:10:48 -0456","variance":8.14325534832942e+20,"stdev":28536389660.0979,"min":"38/12/31 23:59:58 -0456","median":"2001/01/01 00:00:00 -0500"},"lat":{"max":41.65,"mean":38.365918367347,"variance":1.47951100357669,"stdev":1.21635151316414,"min":36.26,"median":38.21}},"features":[{"properties":{"lon":-99.71,"comments":"DAMAGE TO AN OLD SCHOOL HOUSE WAS REPORTED AT THIS LOCATION. DAMAGE TO OUTBUILDINGS WERE ALSO REPORTED ALONG 232 RD. (DDC)","time":{"end_time":"1834/01/01 00:00:00 -0456","original":"1833","granularity":"year","time":"1833/01/01 00:00:00 -0456"},"county":"HODGEMAN","f-scale":"UNK","id":"a636izuta0o4","lat":38.02,"state":"KS","location":"7 S HANSTON"},"type":"Feature","geometry":{"type":"Point","coordinates":[-99.71,38.02]}},{"properties":{"lon":-99.89,"comments":"PUBLIC REPORTED A TORNADO CROSSING HIGHWAY 283 ON THE HODGEMAN AND FORD COUNTY LINE. (DDC)","time":{"end_time":"1841/01/01 00:00:00 -0456","original":"1840","granularity":"year","time":"1840/01/01 00:00:00 -0456"},"county":"HODGEMAN","f-scale":"UNK","id":"a636izwt9c2n","lat":37.92,"state":"KS","location":"10 N WRIGHT"},"type":"Feature","geometry":{"type":"Point","coordinates":[-99.89,37.92]}},{"properties":{"lon":-99.77,"comments":"THE TORNADO WAS REPORTED AS A CONE TORNADO","time":{"end_time":"1859/01/01 00:00:00 -0456","original":"1858","granularity":"year","time":"1858/01/01 00:00:00 -0456"},"county":"CLARK","f-scale":"UNK","id":"a636j04wju6f","lat":37.26,"state":"KS","location":"5 N ASHLAND"},"type":"Feature","geometry":{"type":"Point","coordinates":[-99.77,37.26]}},{"properties":{"lon":-99.89,"comments":"PUBLIC REPORTED A TORNADO CROSSING HIGHWAY 283 ON THE HODGEMAN AND FORD COUNTY LINE. (DDC)","time":{"end_time":"1910/01/01 00:00:00 -0500","original":"1909","granularity":"year","time":"1909/01/01 00:00:00 -0500"},"county":"HODGEMAN","f-scale":"UNK","id":"a636izxl0k8p","lat":37.92,"state":"KS","location":"10 N WRIGHT"},"type":"Feature","geometry":{"type":"Point","coordinates":[-99.89,37.92]}},{"properties":{"lon":-98.47,"comments":"STORM CHASER REPORTED A WRAPPED TORNADO 1.5 MILES SOUTH OF TIPTON. EMERGENCY MANAGEMENT HAD A REPORT OF SOME TIN TAKEN FROM A BUILDING IN THE SAME GENERAL AREA. (GID)","time":{"end_time":"1915/01/01 00:00:00 -0500","original":"1914","granularity":"year","time":"1914/01/01 00:00:00 -0500"},"county":"MITCHELL","f-scale":"UNK","id":"a636j06ljzyl","lat":39.32,"state":"KS","location":"1 S TIPTON"},"type":"Feature","geometry":{"type":"Point","coordinates":[-98.47,39.32]}},{"properties":{"lon":-97.86,"comments":"BRIEF TORNADO REPORTED ON GROUND 5 MILES WEST OF BYRON. (GID)","time":{"end_time":"1916/01/01 00:00:00 -0500","original":"1915","granularity":"year","time":"1915/01/01 00:00:00 -0500"},"county":"NUCKOLLS","f-scale":"UNK","id":"a636izthmdiv","lat":40.01,"state":"NE","location":"5 W BYRON"},"type":"Feature","geometry":{"type":"Point","coordinates":[-97.86,40.01]}},{"properties":{"lon":-97.69,"comments":"CHASER REPORTED A BRIEF TOUCH DOWN OF A RAIN WRAPPED TORNADO. DERIS WAS ALSO KICKING UP IN THE FIELD","time":{"end_time":"1931/01/01 00:00:00 -0500","original":"1930","granularity":"year","time":"1930/01/01 00:00:00 -0500"},"county":"THAYER","f-scale":"UNK","id":"a636izsc98s2","lat":40.14,"state":"NE","location":"2 E DESHLER"},"type":"Feature","geometry":{"type":"Point","coordinates":[-97.69,40.14]}},{"properties":{"lon":-99.59,"comments":"(DDC)","time":{"end_time":"1951/01/01 00:00:00 -0500","original":"1950","granularity":"year","time":"1950/01/01 00:00:00 -0500"},"county":"HODGEMAN","f-scale":"UNK","id":"a636izrnr5nk","lat":38.15,"state":"KS","location":"2 E GRAY"},"type":"Feature","geometry":{"type":"Point","coordinates":[-99.59,38.15]}},{"properties":{"lon":-99.44,"comments":"(DDC)","time":{"end_time":"1955/01/01 00:00:00 -0500","original":"1954","granularity":"year","time":"1954/01/01 00:00:00 -0500"},"county":"PAWNEE","f-scale":"UNK","id":"a636izrr5c4w","lat":38.2,"state":"KS","location":"2 W ROZEL"},"type":"Feature","geometry":{"type":"Point","coordinates":[-99.44,38.2]}},{"properties":{"lon":-99.56,"comments":"SHERIFF REPORTED TORNADO 2 TO 3 MILES WEST OF BURDETTE. (DDC)","time":{"end_time":"1959/01/01 00:00:00 -0500","original":"1958","granularity":"year","time":"1958/01/01 00:00:00 -0500"},"county":"PAWNEE","f-scale":"UNK","id":"a636j01gm5t2","lat":38.19,"state":"KS","location":"2 W BURDETT"},"type":"Feature","geometry":{"type":"Point","coordinates":[-99.56,38.19]}},{"properties":{"lon":-99.31,"comments":"(DDC)","time":{"end_time":"2026/01/01 00:00:00 -0500","original":"2025","granularity":"year","time":"2025/01/01 00:00:00 -0500"},"county":"PAWNEE","f-scale":"UNK","id":"a636izwvccfm","lat":38.3,"state":"KS","location":"5 W ASH VALLEY"},"type":"Feature","geometry":{"type":"Point","coordinates":[-99.31,38.3]}},{"properties":{"lon":-99.4,"comments":"(DDC)","time":{"end_time":"2035/01/01 00:00:00 -0500","original":"2034","granularity":"year","time":"2034/01/01 00:00:00 -0500"},"county":"PAWNEE","f-scale":"UNK","id":"a636izw942i6","lat":38.34,"state":"KS","location":"10 N ROZEL"},"type":"Feature","geometry":{"type":"Point","coordinates":[-99.4,38.34]}},{"properties":{"lon":-99.3,"comments":"(DDC)","time":{"end_time":"2044/01/01 00:00:00 -0500","original":"2043","granularity":"year","time":"2043/01/01 00:00:00 -0500"},"county":"PAWNEE","f-scale":"UNK","id":"a636izrx37zj","lat":38.29,"state":"KS","location":"5 W ASH VALLEY"},"type":"Feature","geometry":{"type":"Point","coordinates":[-99.3,38.29]}},{"properties":{"lon":-99.31,"comments":"BRIEF TORNADO TOUCHDOWN JUST SOUTH OF THE TOWN OF RUSH CENTER. (DDC)","time":{"end_time":"2047/01/01 00:00:00 -0500","original":"2046","granularity":"year","time":"2046/01/01 00:00:00 -0500"},"county":"RUSH","f-scale":"UNK","id":"a636j06n6z8x","lat":38.45,"state":"KS","location":"1 S RUSH CENTER"},"type":"Feature","geometry":{"type":"Point","coordinates":[-99.31,38.45]}},{"properties":{"lon":-94.49,"comments":"RAIN-WRAPPED TORNADO. RETRANSMISSION OF REPORT FROM 352PM. (DMX)","time":{"end_time":"2052/01/01 00:00:00 -0500","original":"2051","granularity":"year","time":"2051/01/01 00:00:00 -0500"},"county":"ADAMS","f-scale":"UNK","id":"a636j020shv7","lat":41.15,"state":"IA","location":"9 NW CRESTON"},"type":"Feature","geometry":{"type":"Point","coordinates":[-94.49,41.15]}},{"properties":{"lon":-99.39,"comments":"BRIEF TOUCHDOWN (OUN)","time":{"end_time":"2060/01/01 00:00:00 -0500","original":"2059","granularity":"year","time":"2059/01/01 00:00:00 -0500"},"county":"WOODWARD","f-scale":"UNK","id":"a636j04cjpzv","lat":36.53,"state":"OK","location":"7 N WOODWARD"},"type":"Feature","geometry":{"type":"Point","coordinates":[-99.39,36.53]}},{"properties":{"lon":-99.14,"comments":"(DDC)","time":{"end_time":"2106/01/01 00:00:00 -0500","original":"2105","granularity":"year","time":"2105/01/01 00:00:00 -0500"},"county":"RUSH","f-scale":"UNK","id":"a636j05wlzl4","lat":38.47,"state":"KS","location":"2 E TIMKEN"},"type":"Feature","geometry":{"type":"Point","coordinates":[-99.14,38.47]}},{"properties":{"lon":-98.75,"comments":"(DDC)","time":{"end_time":"2126/01/01 00:00:00 -0500","original":"2125","granularity":"year","time":"2125/01/01 00:00:00 -0500"},"county":"STAFFORD","f-scale":"UNK","id":"a636j03q7vca","lat":38.1,"state":"KS","location":"5 W HUDSON"},"type":"Feature","geometry":{"type":"Point","coordinates":[-98.75,38.1]}},{"properties":{"lon":-98.78,"comments":"(DDC)","time":{"end_time":"2126/01/01 00:00:00 -0500","original":"2125","granularity":"year","time":"2125/01/01 00:00:00 -0500"},"county":"STAFFORD","f-scale":"UNK","id":"a636j07rm0u3","lat":38.17,"state":"KS","location":"1 SE SEWARD"},"type":"Feature","geometry":{"type":"Point","coordinates":[-98.78,38.17]}},{"properties":{"lon":-99.16,"comments":"BRIEF TOUCHDOWN REPORTED BY KWTV (OUN)","time":{"end_time":"2131/01/01 00:00:00 -0500","original":"2130","granularity":"year","time":"2130/01/01 00:00:00 -0500"},"county":"WOODS","f-scale":"UNK","id":"a636izy45uf7","lat":36.81,"state":"OK","location":"4 NW FREEDOM"},"type":"Feature","geometry":{"type":"Point","coordinates":[-99.16,36.81]}},{"properties":{"lon":-98.7,"comments":"(DDC)","time":{"end_time":"2149/01/01 00:00:00 -0500","original":"2148","granularity":"year","time":"2148/01/01 00:00:00 -0500"},"county":"PRATT","f-scale":"UNK","id":"a636j06v2jtx","lat":37.5,"state":"KS","location":"1 W SAWYER"},"type":"Feature","geometry":{"type":"Point","coordinates":[-98.7,37.5]}},{"properties":{"lon":-98.54,"comments":"(ICT)","time":{"end_time":"2151/01/01 00:00:00 -0500","original":"2150","granularity":"year","time":"2150/01/01 00:00:00 -0500"},"county":"BARTON","f-scale":"UNK","id":"a636j033urqs","lat":38.28,"state":"KS","location":"6 SSE ELLINWOOD"},"type":"Feature","geometry":{"type":"Point","coordinates":[-98.54,38.28]}},{"properties":{"lon":-98.39,"comments":"BRIEF TORNADO TOUCHDOWN (ICT)","time":{"end_time":"2203/01/01 00:00:00 -0500","original":"2202","granularity":"year","time":"2202/01/01 00:00:00 -0500"},"county":"KINGMAN","f-scale":"UNK","id":"a636j06iexk8","lat":37.72,"state":"KS","location":"4 W PENALOSA"},"type":"Feature","geometry":{"type":"Point","coordinates":[-98.39,37.72]}},{"properties":{"lon":-96.12,"comments":"(OAX)","time":{"end_time":"2214/01/01 00:00:00 -0500","original":"2213","granularity":"year","time":"2213/01/01 00:00:00 -0500"},"county":"JOHNSON","f-scale":"UNK","id":"a636j05k1a2b","lat":40.48,"state":"NE","location":"3 SE COOK"},"type":"Feature","geometry":{"type":"Point","coordinates":[-96.12,40.48]}},{"properties":{"lon":-99.53,"comments":"BRIEF TOUCHDOWN (OUN)","time":{"end_time":"2217/01/01 00:00:00 -0500","original":"2216","granularity":"year","time":"2216/01/01 00:00:00 -0500"},"county":"WOODWARD","f-scale":"UNK","id":"a636izy8qjsd","lat":36.26,"state":"OK","location":"11 S TANGIER"},"type":"Feature","geometry":{"type":"Point","coordinates":[-99.53,36.26]}},{"properties":{"lon":-100.87,"comments":"THIN ROPE TORNADO ON THE GROUND. (LBF)","time":{"end_time":"2226/01/01 00:00:00 -0500","original":"2225","granularity":"year","time":"2225/01/01 00:00:00 -0500"},"county":"LINCOLN","f-scale":"UNK","id":"a636j052ou3k","lat":40.95,"state":"NE","location":"14 SSW NORTH PLATTE"},"type":"Feature","geometry":{"type":"Point","coordinates":[-100.87,40.95]}},{"properties":{"lon":-100.79,"comments":"TROOPER WATCHING TORNADO APPROXIMATELY 3 MILES SSW OF NORTH PLATTE. TORNADO APPROACHING STATE FARM ROAD. (LBF)","time":{"end_time":"2233/01/01 00:00:00 -0500","original":"2232","granularity":"year","time":"2232/01/01 00:00:00 -0500"},"county":"LINCOLN","f-scale":"UNK","id":"a636izy7jxdc","lat":41.09,"state":"NE","location":"3 SSW NORTH PLATTE"},"type":"Feature","geometry":{"type":"Point","coordinates":[-100.79,41.09]}},{"properties":{"lon":-98.08,"comments":"TORNADO ON GROUND (ICT)","time":{"end_time":"2236/01/01 00:00:00 -0500","original":"2235","granularity":"year","time":"2235/01/01 00:00:00 -0500"},"county":"RICE","f-scale":"UNK","id":"a636izwmk3zb","lat":38.46,"state":"KS","location":"6 SE GENESEO"},"type":"Feature","geometry":{"type":"Point","coordinates":[-98.08,38.46]}},{"properties":{"lon":-95.75,"comments":"75 PERCENT OF THE TOWN OF THURMAN WAS DESTROYED. THE TOWN HAS BEEN EVACUATED WITH AN EMERGENCY SHELTER IN A NEARBY TOWN. NO POWER IN THE TOWN. NO MAJOR INJURIES. (OAX)","time":{"end_time":"2236/01/01 00:00:00 -0500","original":"2235","granularity":"year","time":"2235/01/01 00:00:00 -0500"},"county":"FREMONT","f-scale":"UNK","id":"a636j05ttamh","lat":40.82,"state":"IA","location":"THURMAN"},"type":"Feature","geometry":{"type":"Point","coordinates":[-95.75,40.82]}},{"properties":{"lon":-98.12,"comments":"WEDGE TORNADO STILL ON GROUND. (ICT)","time":{"end_time":"2246/01/01 00:00:00 -0500","original":"2245","granularity":"year","time":"2245/01/01 00:00:00 -0500"},"county":"RICE","f-scale":"UNK","id":"a636j06ik5yu","lat":38.48,"state":"KS","location":"8 NW LITTLE RIVER"},"type":"Feature","geometry":{"type":"Point","coordinates":[-98.12,38.48]}},{"properties":{"lon":-100.77,"comments":"SPOTTER REPORTS TORNADO JUST SOUTH OF FLYING J TRUCK STOP IN NORTH PLATTE (LBF)","time":{"end_time":"2248/01/01 00:00:00 -0500","original":"2247","granularity":"year","time":"2247/01/01 00:00:00 -0500"},"county":"LINCOLN","f-scale":"UNK","id":"a636j0393kwr","lat":41.13,"state":"NE","location":"NORTH PLATTE"},"type":"Feature","geometry":{"type":"Point","coordinates":[-100.77,41.13]}},{"properties":{"lon":-97.94,"comments":"LARGE WEDGE TORNADO ON GROUND. (ICT)","time":{"end_time":"2302/01/01 00:00:00 -0500","original":"2301","granularity":"year","time":"2301/01/01 00:00:00 -0500"},"county":"ELLSWORTH","f-scale":"UNK","id":"a636izvhqxmz","lat":38.55,"state":"KS","location":"6 W MARQUETTE"},"type":"Feature","geometry":{"type":"Point","coordinates":[-97.94,38.55]}},{"properties":{"lon":-97.87,"comments":"A LARGE TORNADO ABOUT ONE QUARTER MILE WIDE WAS NEAR K4 AND HIGHWAY 141. TORNADO WAS NOW ENTERING INTO SALINE COUNTY. (ICT)","time":{"end_time":"2310/01/01 00:00:00 -0500","original":"2309","granularity":"year","time":"2309/01/01 00:00:00 -0500"},"county":"MCPHERSON","f-scale":"UNK","id":"a636j02l1odx","lat":38.58,"state":"KS","location":"3 NW MARQUETTE"},"type":"Feature","geometry":{"type":"Point","coordinates":[-97.87,38.58]}},{"properties":{"lon":-97.74,"comments":"A TORNADO ON THE GROUND JUST SOUTHWEST OF THE TOWN OF FALUN. ALSO SEEING DEBRI. (ICT)","time":{"end_time":"2310/01/01 00:00:00 -0500","original":"2309","granularity":"year","time":"2309/01/01 00:00:00 -0500"},"county":"SALINE","f-scale":"UNK","id":"a636j02njsw3","lat":38.64,"state":"KS","location":"8 WSW ASSARIA"},"type":"Feature","geometry":{"type":"Point","coordinates":[-97.74,38.64]}},{"properties":{"lon":-99.62,"comments":"BRIEF TOUCHDOWN. (GID)","time":{"end_time":"2311/01/01 00:00:00 -0500","original":"2310","granularity":"year","time":"2310/01/01 00:00:00 -0500"},"county":"HARLAN","f-scale":"UNK","id":"a636j013kxy3","lat":40.26,"state":"NE","location":"1 NE OXFORD"},"type":"Feature","geometry":{"type":"Point","coordinates":[-99.62,40.26]}},{"properties":{"lon":-99.6,"comments":"ROPE TORNADO. SEVERAL REPORTS. EARLY REPORTS OF A GRAIN BIN HAVING BEEN DESTROYED. (GID)","time":{"end_time":"2317/01/01 00:00:00 -0500","original":"2316","granularity":"year","time":"2316/01/01 00:00:00 -0500"},"county":"HARLAN","f-scale":"UNK","id":"a636j00k0pv8","lat":40.31,"state":"NE","location":"4 NNE OXFORD"},"type":"Feature","geometry":{"type":"Point","coordinates":[-99.6,40.31]}},{"properties":{"lon":-97.71,"comments":"(ICT)","time":{"end_time":"2320/01/01 00:00:00 -0500","original":"2319","granularity":"year","time":"2319/01/01 00:00:00 -0500"},"county":"SALINE","f-scale":"UNK","id":"a636iztbjaud","lat":38.68,"state":"KS","location":"6 W ASSARIA"},"type":"Feature","geometry":{"type":"Point","coordinates":[-97.71,38.68]}},{"properties":{"lon":-97.71,"comments":"A TORNADO 1.5 MILES NORTHWEST OF FALUN AND MUIR ROAD. LARGE VISIBLE DEBRI DETECTED. (ICT)","time":{"end_time":"2326/01/01 00:00:00 -0500","original":"2325","granularity":"year","time":"2325/01/01 00:00:00 -0500"},"county":"SALINE","f-scale":"UNK","id":"a636j06xsgmf","lat":38.71,"state":"KS","location":"6 WNW ASSARIA"},"type":"Feature","geometry":{"type":"Point","coordinates":[-97.71,38.71]}},{"properties":{"lon":-100.73,"comments":"LAW ENFORCEMENT REPORTED TORNADO NEAR JUNCTION OF HWY 23 AND HWY 83 6 MILES NORTH OF WELLFLEET. (LBF)","time":{"end_time":"2338/01/01 00:00:00 -0500","original":"2337","granularity":"year","time":"2337/01/01 00:00:00 -0500"},"county":"LINCOLN","f-scale":"UNK","id":"a636j033fn04","lat":40.84,"state":"NE","location":"6 N WELLFLEET"},"type":"Feature","geometry":{"type":"Point","coordinates":[-100.73,40.84]}},{"properties":{"lon":-97.67,"comments":"STRUCTURE DAMAGE TO FARMHOUSE. (ICT)","time":{"end_time":"2339/01/01 00:00:00 -0500","original":"2338","granularity":"year","time":"2338/01/01 00:00:00 -0500"},"county":"SALINE","f-scale":"UNK","id":"a636izs3ls2n","lat":38.75,"state":"KS","location":"1 NE SMOLAN"},"type":"Feature","geometry":{"type":"Point","coordinates":[-97.67,38.75]}},{"properties":{"lon":-99.05,"comments":"RELAYED BY WOODWARD COUNTY EM (OUN)","time":{"end_time":"2351/01/01 00:00:00 -0500","original":"2350","granularity":"year","time":"2350/01/01 00:00:00 -0500"},"county":"WOODWARD","f-scale":"UNK","id":"a636j00cjpp5","lat":36.38,"state":"OK","location":"5 S QUINLAN"},"type":"Feature","geometry":{"type":"Point","coordinates":[-99.05,36.38]}},{"properties":{"lon":-98.11,"comments":"TORNADO TOUCHED DOWN BRIEFLY WEST OF VARNER. (ICT)","time":{"end_time":"2356/01/01 00:00:00 -0500","original":"2355","granularity":"year","time":"2355/01/01 00:00:00 -0500"},"county":"KINGMAN","f-scale":"UNK","id":"a636j069wtl0","lat":37.69,"state":"KS","location":"3 N KINGMAN"},"type":"Feature","geometry":{"type":"Point","coordinates":[-98.11,37.69]}},{"properties":{"lon":-97.51,"comments":"TORNADO ON THE GROUND AT NEW CAMBRIA (ICT)","time":{"end_time":"2356/01/01 00:00:00 -0500","original":"2355","granularity":"year","time":"2355/01/01 00:00:00 -0500"},"county":"SALINE","f-scale":"UNK","id":"a636j0650cvu","lat":38.88,"state":"KS","location":"NEW CAMBRIA"},"type":"Feature","geometry":{"type":"Point","coordinates":[-97.51,38.88]}},{"properties":{"lon":-97.51,"comments":"(ICT)","time":{"end_time":"2002/01/01 00:00:00 -0500","original":"0001","granularity":"year","time":"2001/01/01 00:00:00 -0500"},"county":"SALINE","f-scale":"UNK","id":"a636izy47mm8","lat":38.94,"state":"KS","location":"4 N NEW CAMBRIA"},"type":"Feature","geometry":{"type":"Point","coordinates":[-97.51,38.94]}},{"properties":{"lon":-98.88,"comments":"(OUN)","time":{"end_time":"2009/01/01 00:00:00 -0500","original":"0008","granularity":"year","time":"2008/01/01 00:00:00 -0500"},"county":"MAJOR","f-scale":"UNK","id":"a636j02yszny","lat":36.43,"state":"OK","location":"11 S WAYNOKA"},"type":"Feature","geometry":{"type":"Point","coordinates":[-98.88,36.43]}},{"properties":{"lon":-97.41,"comments":"LARGE BOWL FUNNEL WITH SWIRLS ON THE GROUND REPORTED BY CHASER. (TOP)","time":{"end_time":"2009/01/01 00:00:00 -0500","original":"0008","granularity":"year","time":"2008/01/01 00:00:00 -0500"},"county":"OTTAWA","f-scale":"UNK","id":"a636iztt1q08","lat":38.96,"state":"KS","location":"4 NW SOLOMON"},"type":"Feature","geometry":{"type":"Point","coordinates":[-97.41,38.96]}},{"properties":{"lon":-98.02,"comments":"BRIEF TORNADO TOUCHDOWN (ICT)","time":{"end_time":"2011/01/01 00:00:00 -0500","original":"0010","granularity":"year","time":"2010/01/01 00:00:00 -0500"},"county":"RENO","f-scale":"UNK","id":"a636j05twptk","lat":37.81,"state":"KS","location":"2 N PRETTY PRAIRIE"},"type":"Feature","geometry":{"type":"Point","coordinates":[-98.02,37.81]}},{"properties":{"lon":-98.83,"comments":"RELAYED BY WFO AMA (OUN)","time":{"end_time":"2013/01/01 00:00:00 -0500","original":"0012","granularity":"year","time":"2012/01/01 00:00:00 -0500"},"county":"WOODS","f-scale":"UNK","id":"a636j03q1ksb","lat":36.49,"state":"OK","location":"7 SSE WAYNOKA"},"type":"Feature","geometry":{"type":"Point","coordinates":[-98.83,36.49]}},{"properties":{"lon":-97.32,"comments":"REPORT RELAYED VIA WFO PLEASANT HILL (TOP)","time":{"end_time":"2016/01/01 00:00:00 -0500","original":"0015","granularity":"year","time":"2015/01/01 00:00:00 -0500"},"county":"DICKINSON","f-scale":"UNK","id":"a636izxh2oe7","lat":39.01,"state":"KS","location":"6 S MANCHESTER"},"type":"Feature","geometry":{"type":"Point","coordinates":[-97.32,39.01]}},{"properties":{"lon":-97.43,"comments":"EMERGENCY MANAGER REPORTS DAMAGE TO OUTBUILDINGS AND TANKS TO GAS TRANSFER STATION","time":{"end_time":"2017/01/01 00:00:00 -0500","original":"0016","granularity":"year","time":"2016/01/01 00:00:00 -0500"},"county":"OTTAWA","f-scale":"UNK","id":"a636j04v7n3y","lat":39.02,"state":"KS","location":"9 W TALMAGE"},"type":"Feature","geometry":{"type":"Point","coordinates":[-97.43,39.02]}},{"properties":{"lon":-97.26,"comments":"VIA KSN-TV SALINA (TOP)","time":{"end_time":"2032/01/01 00:00:00 -0500","original":"0031","granularity":"year","time":"2031/01/01 00:00:00 -0500"},"county":"DICKINSON","f-scale":"UNK","id":"a636izza9a1v","lat":39.12,"state":"KS","location":"4 ENE MANCHESTER"},"type":"Feature","geometry":{"type":"Point","coordinates":[-97.26,39.12]}},{"properties":{"lon":-97.17,"comments":"REPORT RELAYED VIA WFO PLEASANT HILL (TOP)","time":{"end_time":"2037/01/01 00:00:00 -0500","original":"0036","granularity":"year","time":"2036/01/01 00:00:00 -0500"},"county":"CLAY","f-scale":"UNK","id":"a636izwe7gna","lat":39.14,"state":"KS","location":"9 ENE MANCHESTER"},"type":"Feature","geometry":{"type":"Point","coordinates":[-97.17,39.14]}},{"properties":{"lon":-93.8,"comments":"TORNADO ON THE GROUND. LOOKING NORTHWEST FROM LAKESIDE CASINO NEAR OSCEOLA. (DMX)","time":{"end_time":"2038/01/01 00:00:00 -0500","original":"0037","granularity":"year","time":"2037/01/01 00:00:00 -0500"},"county":"CLARKE","f-scale":"UNK","id":"a636izs2v007","lat":41.05,"state":"IA","location":"2 NW OSCEOLA"},"type":"Feature","geometry":{"type":"Point","coordinates":[-93.8,41.05]}},{"properties":{"lon":-99.82,"comments":"(LBF)","time":{"end_time":"2039/01/01 00:00:00 -0500","original":"0038","granularity":"year","time":"2038/01/01 00:00:00 -0500"},"county":"CUSTER","f-scale":"UNK","id":"a636izu5dgf1","lat":41.65,"state":"NE","location":"3 NE ANSELMO"},"type":"Feature","geometry":{"type":"Point","coordinates":[-99.82,41.65]}},{"properties":{"lon":-98.67,"comments":"(OUN)","time":{"end_time":"40/01/01 00:00:00 -0456","original":"0039","granularity":"year","time":"39/01/01 00:00:00 -0456"},"county":"WOODS","f-scale":"UNK","id":"a636izsvnm5q","lat":36.61,"state":"OK","location":"5 S HOPETON"},"type":"Feature","geometry":{"type":"Point","coordinates":[-98.67,36.61]}},{"properties":{"lon":-93.67,"comments":"POSSIBLE TORNADO DAMAGE EAST OF NEW VIRGINA. CAMPERS AND FARM OUTBUILDINGS DAMAGED. SHEET METAL LYING AROUND. TIME ESTIMATED FROM RADAR. (DMX)","time":{"end_time":"56/01/01 00:00:00 -0456","original":"0055","granularity":"year","time":"55/01/01 00:00:00 -0456"},"county":"WARREN","f-scale":"UNK","id":"a636j023f1ut","lat":41.19,"state":"IA","location":"3 ENE NEW VIRGINIA"},"type":"Feature","geometry":{"type":"Point","coordinates":[-93.67,41.19]}},{"properties":{"lon":-97.46,"comments":"(ICT)","time":{"end_time":"2006/01/01 00:00:00 -0500","original":"0105","granularity":"year","time":"2005/01/01 00:00:00 -0500"},"county":"MCPHERSON","f-scale":"UNK","id":"a636izwn4m2b","lat":38.21,"state":"KS","location":"5 NNW HESSTON"},"type":"Feature","geometry":{"type":"Point","coordinates":[-97.46,38.21]}},{"properties":{"lon":-98.36,"comments":"(OUN)","time":{"end_time":"2012/01/01 00:00:00 -0500","original":"0111","granularity":"year","time":"2011/01/01 00:00:00 -0500"},"county":"ALFALFA","f-scale":"UNK","id":"a636izyenaq4","lat":36.78,"state":"OK","location":"7 S DRIFTWOOD"},"type":"Feature","geometry":{"type":"Point","coordinates":[-98.36,36.78]}},{"properties":{"lon":-97.37,"comments":"STOVEPIPE TORNADO ON THE GROUND","time":{"end_time":"2019/01/01 00:00:00 -0500","original":"0118","granularity":"year","time":"2018/01/01 00:00:00 -0500"},"county":"MCPHERSON","f-scale":"UNK","id":"a636izxwt6w5","lat":38.27,"state":"KS","location":"2 NW GOESSEL"},"type":"Feature","geometry":{"type":"Point","coordinates":[-97.37,38.27]}},{"properties":{"lon":-97.43,"comments":"DAMAGE TO A GARAGE 1 NORTH AND 1/4 MILE NORTHWEST OF 27TH AND ARROWHEAD. (ICT)","time":{"end_time":"2022/01/01 00:00:00 -0500","original":"0121","granularity":"year","time":"2021/01/01 00:00:00 -0500"},"county":"MCPHERSON","f-scale":"UNK","id":"a636j07p3zxh","lat":38.21,"state":"KS","location":"5 N HESSTON"},"type":"Feature","geometry":{"type":"Point","coordinates":[-97.43,38.21]}},{"properties":{"lon":-99.33,"comments":"(DDC)","time":{"end_time":"2036/01/01 00:00:00 -0500","original":"0135","granularity":"year","time":"2035/01/01 00:00:00 -0500"},"county":"KIOWA","f-scale":"UNK","id":"a636izvgyeya","lat":37.62,"state":"KS","location":"2 WNW GREENSBURG"},"type":"Feature","geometry":{"type":"Point","coordinates":[-99.33,37.62]}},{"properties":{"lon":-97.11,"comments":"LARGE TORNADO ON THE GROUND. (ICT)","time":{"end_time":"142/01/01 00:00:00 -0456","original":"0141","granularity":"year","time":"141/01/01 00:00:00 -0456"},"county":"MARION","f-scale":"UNK","id":"a636izv45g3a","lat":38.4,"state":"KS","location":"1 N MARION LAKE"},"type":"Feature","geometry":{"type":"Point","coordinates":[-97.11,38.4]}},{"properties":{"lon":-98.03,"comments":"WEDGE TORNADO CROSSING THE KANSAS OKLAHOMA BORDER","time":{"end_time":"150/01/01 00:00:00 -0456","original":"0149","granularity":"year","time":"149/01/01 00:00:00 -0456"},"county":"HARPER","f-scale":"UNK","id":"a636izrlgg0e","lat":37.05,"state":"KS","location":"7 S ANTHONY"},"type":"Feature","geometry":{"type":"Point","coordinates":[-98.03,37.05]}},{"properties":{"lon":-99.14,"comments":"DAMAGE ALONG A TORNADO PATH WAS REPORTED. THE DAMAGE BEGAN AT ABOUT 180TH AVE AND PERSISTED NORTHEASTWARD TO NEAR P AND M ROADS LEADING TO THE STAFFORD COUNTY LINE. DAM (DDC)","time":{"end_time":"151/01/01 00:00:00 -0456","original":"0150","granularity":"year","time":"150/01/01 00:00:00 -0456"},"county":"EDWARDS","f-scale":"UNK","id":"a636j01tmnwk","lat":37.8,"state":"KS","location":"2 E FELLSBURG"},"type":"Feature","geometry":{"type":"Point","coordinates":[-99.14,37.8]}},{"properties":{"lon":-97.9,"comments":"LARGE WEDGE TORNADO. APPROXIMATELY A 1/2 MILE WIDE. (ICT)","time":{"end_time":"201/01/01 00:00:00 -0456","original":"0200","granularity":"year","time":"200/01/01 00:00:00 -0456"},"county":"HARPER","f-scale":"UNK","id":"a636izvillbh","lat":37.1,"state":"KS","location":"2 NW BLUFF CITY"},"type":"Feature","geometry":{"type":"Point","coordinates":[-97.9,37.1]}},{"properties":{"lon":-96.9,"comments":"SPOTTERS WERE 3 MILES SOUTH OF ANTELOPE AND VIEWED THE TORNADO 5 TO 8 MILES TO THE NORTH. (ICT)","time":{"end_time":"201/01/01 00:00:00 -0456","original":"0200","granularity":"year","time":"200/01/01 00:00:00 -0456"},"county":"MARION","f-scale":"UNK","id":"a636j04s0pqf","lat":38.39,"state":"KS","location":"7 ENE MARION"},"type":"Feature","geometry":{"type":"Point","coordinates":[-96.9,38.39]}},{"properties":{"lon":-96.96,"comments":"ON THE GROUND. ILLUMINATED BY LIGHTNING. (ICT)","time":{"end_time":"201/01/01 00:00:00 -0456","original":"0200","granularity":"year","time":"200/01/01 00:00:00 -0456"},"county":"MARION","f-scale":"UNK","id":"a636izzqqhwy","lat":38.51,"state":"KS","location":"1 N LINCOLNVILLE"},"type":"Feature","geometry":{"type":"Point","coordinates":[-96.96,38.51]}},{"properties":{"lon":-97.85,"comments":"WEDGE TORNADO. (ICT)","time":{"end_time":"211/01/01 00:00:00 -0456","original":"0210","granularity":"year","time":"210/01/01 00:00:00 -0456"},"county":"HARPER","f-scale":"UNK","id":"a636izugj6n8","lat":37.18,"state":"KS","location":"1 S FREEPORT"},"type":"Feature","geometry":{"type":"Point","coordinates":[-97.85,37.18]}},{"properties":{"lon":-97.76,"comments":"STOVE PIPE TORNADO ON THE GROUND. (ICT)","time":{"end_time":"215/01/01 00:00:00 -0456","original":"0214","granularity":"year","time":"214/01/01 00:00:00 -0456"},"county":"SUMNER","f-scale":"UNK","id":"a636izxgn8c1","lat":37.24,"state":"KS","location":"2 S ARGONIA"},"type":"Feature","geometry":{"type":"Point","coordinates":[-97.76,37.24]}},{"properties":{"lon":-97.76,"comments":"SPOTTER REPORTED SEEING POWER FLASHES (ICT)","time":{"end_time":"222/01/01 00:00:00 -0456","original":"0221","granularity":"year","time":"221/01/01 00:00:00 -0456"},"county":"SUMNER","f-scale":"UNK","id":"a636j06ipqt5","lat":37.25,"state":"KS","location":"1 S ARGONIA"},"type":"Feature","geometry":{"type":"Point","coordinates":[-97.76,37.25]}},{"properties":{"lon":-98.76,"comments":"SHERIFFS DEPUTY REPORTED A LARGE TORNADO JUST NORTH OF ST. JOHN. (DDC)","time":{"end_time":"222/01/01 00:00:00 -0456","original":"0221","granularity":"year","time":"221/01/01 00:00:00 -0456"},"county":"STAFFORD","f-scale":"UNK","id":"a636izrwugm3","lat":38.02,"state":"KS","location":"1 N ST. JOHN"},"type":"Feature","geometry":{"type":"Point","coordinates":[-98.76,38.02]}},{"properties":{"lon":-97.74,"comments":"TRAINED SPOTTERS REPORTED VERY LARGE TORNADO (ICT)","time":{"end_time":"230/01/01 00:00:00 -0456","original":"0229","granularity":"year","time":"229/01/01 00:00:00 -0456"},"county":"SUMNER","f-scale":"UNK","id":"a636j06tplto","lat":37.29,"state":"KS","location":"2 NE ARGONIA"},"type":"Feature","geometry":{"type":"Point","coordinates":[-97.74,37.29]}},{"properties":{"lon":-97.66,"comments":"HOUSE DESTROYED WEST OF CONWAY SPRINGS. (ICT)","time":{"end_time":"232/01/01 00:00:00 -0456","original":"0231","granularity":"year","time":"231/01/01 00:00:00 -0456"},"county":"SUMNER","f-scale":"UNK","id":"a636j00u4e7o","lat":37.39,"state":"KS","location":"1 W CONWAY SPRINGS"},"type":"Feature","geometry":{"type":"Point","coordinates":[-97.66,37.39]}},{"properties":{"lon":-98.57,"comments":"STORM CHASER REPORTED A LARGE WEDGE TORNADO TO THE EAST OF HIS POSITION. (DDC)","time":{"end_time":"236/01/01 00:00:00 -0456","original":"0235","granularity":"year","time":"235/01/01 00:00:00 -0456"},"county":"STAFFORD","f-scale":"UNK","id":"a636j053pc6v","lat":38.16,"state":"KS","location":"6 NE HUDSON"},"type":"Feature","geometry":{"type":"Point","coordinates":[-98.57,38.16]}},{"properties":{"lon":-97.64,"comments":"MULTI VORTEX TORNADO SOUTH OF CONWAY SPRINGS. (ICT)","time":{"end_time":"239/01/01 00:00:00 -0456","original":"0238","granularity":"year","time":"238/01/01 00:00:00 -0456"},"county":"SUMNER","f-scale":"UNK","id":"a636j040wd7z","lat":37.36,"state":"KS","location":"2 S CONWAY SPRINGS"},"type":"Feature","geometry":{"type":"Point","coordinates":[-97.64,37.36]}},{"properties":{"lon":-97.55,"comments":"STOVE PIPE TORNADO. (ICT)","time":{"end_time":"243/01/01 00:00:00 -0456","original":"0242","granularity":"year","time":"242/01/01 00:00:00 -0456"},"county":"SUMNER","f-scale":"UNK","id":"a636izyamnoe","lat":37.29,"state":"KS","location":"2 N MAYFIELD"},"type":"Feature","geometry":{"type":"Point","coordinates":[-97.55,37.29]}},{"properties":{"lon":-97.53,"comments":"1/4 TO 1/2 MILE WIDE TORNADO. (ICT)","time":{"end_time":"249/01/01 00:00:00 -0456","original":"0248","granularity":"year","time":"248/01/01 00:00:00 -0456"},"county":"SUMNER","f-scale":"UNK","id":"a636j01ymwrj","lat":37.39,"state":"KS","location":"6 E CONWAY SPRINGS"},"type":"Feature","geometry":{"type":"Point","coordinates":[-97.53,37.39]}},{"properties":{"lon":-98.38,"comments":"(ICT)","time":{"end_time":"253/01/01 00:00:00 -0456","original":"0252","granularity":"year","time":"252/01/01 00:00:00 -0456"},"county":"RICE","f-scale":"UNK","id":"a636izzfrxtg","lat":38.25,"state":"KS","location":"3 SE RAYMOND"},"type":"Feature","geometry":{"type":"Point","coordinates":[-98.38,38.25]}},{"properties":{"lon":-98.26,"comments":"(ICT)","time":{"end_time":"303/01/01 00:00:00 -0456","original":"0302","granularity":"year","time":"302/01/01 00:00:00 -0456"},"county":"RICE","f-scale":"UNK","id":"a636izvyo9wi","lat":38.35,"state":"KS","location":"3 W LYONS"},"type":"Feature","geometry":{"type":"Point","coordinates":[-98.26,38.35]}},{"properties":{"lon":-97.35,"comments":"DELAYED REPORT OF POWER LINES DOWN NEAR SOUTH BROOK AND BROADWAY (ICT)","time":{"end_time":"322/01/01 00:00:00 -0456","original":"0321","granularity":"year","time":"321/01/01 00:00:00 -0456"},"county":"SEDGWICK","f-scale":"UNK","id":"a636j04bd2r2","lat":37.57,"state":"KS","location":"HAYSVILLE"},"type":"Feature","geometry":{"type":"Point","coordinates":[-97.35,37.57]}},{"properties":{"lon":-97.31,"comments":"POWER FLASHES CROSSING INTERSTATE 35","time":{"end_time":"327/01/01 00:00:00 -0456","original":"0326","granularity":"year","time":"326/01/01 00:00:00 -0456"},"county":"SEDGWICK","f-scale":"UNK","id":"a636izt7dvc8","lat":37.6,"state":"KS","location":"SOUTH WICHITA"},"type":"Feature","geometry":{"type":"Point","coordinates":[-97.31,37.6]}},{"properties":{"lon":-97.35,"comments":"DAMAGE AT 63RD AND HYDRALIC. (ICT)","time":{"end_time":"336/01/01 00:00:00 -0456","original":"0335","granularity":"year","time":"335/01/01 00:00:00 -0456"},"county":"SEDGWICK","f-scale":"UNK","id":"a636iztz8qgo","lat":37.57,"state":"KS","location":"HAYSVILLE"},"type":"Feature","geometry":{"type":"Point","coordinates":[-97.35,37.57]}},{"properties":{"lon":-97.26,"comments":"ON THE GROUND. 71ST STREET SOUTH AND 134 EAST. (ICT)","time":{"end_time":"338/01/01 00:00:00 -0456","original":"0337","granularity":"year","time":"337/01/01 00:00:00 -0456"},"county":"SEDGWICK","f-scale":"UNK","id":"a636izssihk4","lat":37.55,"state":"KS","location":"DERBY"},"type":"Feature","geometry":{"type":"Point","coordinates":[-97.26,37.55]}},{"properties":{"lon":-97.26,"comments":"ON THE GROUND NEAR","time":{"end_time":"342/01/01 00:00:00 -0456","original":"0341","granularity":"year","time":"341/01/01 00:00:00 -0456"},"county":"SEDGWICK","f-scale":"UNK","id":"a636j018cfts","lat":37.68,"state":"KS","location":"EAST WICHITA"},"type":"Feature","geometry":{"type":"Point","coordinates":[-97.26,37.68]}},{"properties":{"lon":-97.7,"comments":"POWER FLASHES NOTED. (ICT)","time":{"end_time":"345/01/01 00:00:00 -0456","original":"0344","granularity":"year","time":"344/01/01 00:00:00 -0456"},"county":"MCPHERSON","f-scale":"UNK","id":"a636j027q0gi","lat":38.59,"state":"KS","location":"2 NW LINDSBORG"},"type":"Feature","geometry":{"type":"Point","coordinates":[-97.7,38.59]}},{"properties":{"lon":-97.0,"comments":"TORNADO CROSSED SANTA FE ROAD. (ICT)","time":{"end_time":"350/01/01 00:00:00 -0456","original":"0349","granularity":"year","time":"349/01/01 00:00:00 -0456"},"county":"BUTLER","f-scale":"UNK","id":"a636j04nc3wl","lat":37.71,"state":"KS","location":"2 NW AUGUSTA"},"type":"Feature","geometry":{"type":"Point","coordinates":[-97.0,37.71]}},{"properties":{"lon":-97.61,"comments":"ILLUMINATED BY LIGHTNING. (ICT)","time":{"end_time":"356/01/01 00:00:00 -0456","original":"0355","granularity":"year","time":"355/01/01 00:00:00 -0456"},"county":"SALINE","f-scale":"UNK","id":"a636izsdvozm","lat":38.63,"state":"KS","location":"5 NE LINDSBORG"},"type":"Feature","geometry":{"type":"Point","coordinates":[-97.61,38.63]}},{"properties":{"lon":-97.62,"comments":"POWER FLASHES PARSONS ROAD AND I-135. (ICT)","time":{"end_time":"360/01/01 00:00:00 -0456","original":"0359","granularity":"year","time":"359/01/01 00:00:00 -0456"},"county":"SALINE","f-scale":"UNK","id":"a636j00d2jxd","lat":38.8,"state":"KS","location":"1 S SALINA"},"type":"Feature","geometry":{"type":"Point","coordinates":[-97.62,38.8]}},{"properties":{"lon":-97.02,"comments":"ROPE TORNADO. (ICT)","time":{"end_time":"402/01/01 00:00:00 -0456","original":"0401","granularity":"year","time":"401/01/01 00:00:00 -0456"},"county":"BUTLER","f-scale":"UNK","id":"a636j06x3fmv","lat":37.79,"state":"KS","location":"5 E BENTON"},"type":"Feature","geometry":{"type":"Point","coordinates":[-97.02,37.79]}},{"properties":{"lon":-96.86,"comments":"POWER OUTAGES ON THE WEST SIDE OF EL DORADO (ICT)","time":{"end_time":"407/01/01 00:00:00 -0456","original":"0406","granularity":"year","time":"406/01/01 00:00:00 -0456"},"county":"BUTLER","f-scale":"UNK","id":"a636izv6wx93","lat":37.82,"state":"KS","location":"EL DORADO"},"type":"Feature","geometry":{"type":"Point","coordinates":[-96.86,37.82]}},{"properties":{"lon":-96.82,"comments":"POWER FLASHES NORTHEAST OF EL DORADO. (ICT)","time":{"end_time":"415/01/01 00:00:00 -0456","original":"0414","granularity":"year","time":"414/01/01 00:00:00 -0456"},"county":"BUTLER","f-scale":"UNK","id":"a636izv4ggwn","lat":37.85,"state":"KS","location":"3 NE EL DORADO"},"type":"Feature","geometry":{"type":"Point","coordinates":[-96.82,37.85]}},{"properties":{"lon":-96.79,"comments":"LARGE WEDGE TORNADO ROUGHLY 9 MILES NNE OF EL DORADO (ICT)","time":{"end_time":"419/01/01 00:00:00 -0456","original":"0418","granularity":"year","time":"418/01/01 00:00:00 -0456"},"county":"BUTLER","f-scale":"UNK","id":"a636j06vva4s","lat":37.94,"state":"KS","location":"9 NNE EL DORADO"},"type":"Feature","geometry":{"type":"Point","coordinates":[-96.79,37.94]}},{"properties":{"lon":-98.13,"comments":"DAMAGE TO A HOUSE NEAR KANOPOLIS...TIME ESTIMATED (ICT)","time":{"end_time":"419/01/01 00:00:00 -0456","original":"0418","granularity":"year","time":"418/01/01 00:00:00 -0456"},"county":"ELLSWORTH","f-scale":"UNK","id":"a636izxcu0sh","lat":38.65,"state":"KS","location":"5 W KANOPOLIS STATE PAR"},"type":"Feature","geometry":{"type":"Point","coordinates":[-98.13,38.65]}},{"properties":{"lon":-97.49,"comments":"(ICT)","time":{"end_time":"423/01/01 00:00:00 -0456","original":"0422","granularity":"year","time":"422/01/01 00:00:00 -0456"},"county":"SALINE","f-scale":"UNK","id":"a636j024he8m","lat":38.89,"state":"KS","location":"1 ENE NEW CAMBRIA"},"type":"Feature","geometry":{"type":"Point","coordinates":[-97.49,38.89]}},{"properties":{"lon":-98.12,"comments":"TORNADO ILLUMINATED BY LIGHTNING. (ICT)","time":{"end_time":"426/01/01 00:00:00 -0456","original":"0425","granularity":"year","time":"425/01/01 00:00:00 -0456"},"county":"ELLSWORTH","f-scale":"UNK","id":"a636izybh1cv","lat":38.65,"state":"KS","location":"8 SE ELLSWORTH"},"type":"Feature","geometry":{"type":"Point","coordinates":[-98.12,38.65]}},{"properties":{"lon":-96.53,"comments":"ON THE GROUND. (ICT)","time":{"end_time":"435/01/01 00:00:00 -0456","original":"0434","granularity":"year","time":"434/01/01 00:00:00 -0456"},"county":"BUTLER","f-scale":"UNK","id":"a636izuidgr2","lat":37.96,"state":"KS","location":"8 SE CASSODAY"},"type":"Feature","geometry":{"type":"Point","coordinates":[-96.53,37.96]}},{"properties":{"lon":-96.55,"comments":"LARGE WEDGE TORNADO (ICT)","time":{"end_time":"440/01/01 00:00:00 -0456","original":"0439","granularity":"year","time":"439/01/01 00:00:00 -0456"},"county":"BUTLER","f-scale":"UNK","id":"a636izvchrx4","lat":38.07,"state":"KS","location":"5 ENE CASSODAY"},"type":"Feature","geometry":{"type":"Point","coordinates":[-96.55,38.07]}},{"properties":{"lon":-99.39,"comments":"*** 2 FATAL *** NUMEROUS REPORTS OF MAJOR STRUCTURAL DAMAGE ON WESTERN AND NORTHERN PART OF WOODWARD. SEVERAL INJURIES WITH AT LEAST TWO DEATHS. (OUN)","time":{"end_time":"519/01/01 00:00:00 -0456","original":"0518","granularity":"year","time":"518/01/01 00:00:00 -0456"},"county":"WOODWARD","f-scale":"UNK","id":"a636j01k2smf","lat":36.43,"state":"OK","location":"WOODWARD"},"type":"Feature","geometry":{"type":"Point","coordinates":[-99.39,36.43]}}],"is_temporal":true,"author":{"url":"","metadata":null,"contact_name":null,"contact_address":null,"source":null,"contact_phone":null},"source":"","pagination":{"sort":null,"start":0,"total":98,"limit":1000000},"state":"complete","tags":"","published":"2014-08-15T00:50:30-04:00","id":228251}