{"type":"FeatureCollection","data_type":"Dataset Analysis","url_type":null,"permissions":[{"permissions":{"download":true,"view":true},"group_id":"everyone"}],"classification":null,"title":"Filtered Features of 'VanWertCAIcsv' based on ''Blue' into ''Orange' into 'IFN Core Network 2012'''","count":84,"stream_id":229522,"contributor":{"url":"http://geocommons.com/users/12008","name":"pantheon"},"data_attributes":null,"calculation_params":{"calculation":"buffer_intersect","input":{"min_distance":"0","unit":"miles","near_id":"190806","distance":"50","include_distance":true,"id":"229497"}},"icon_link":null,"link":"http://geocommons.com/overlays/229522.json","extent":[-84.8031,40.0275,-82.4941,40.9899],"geometry_types":["point"],"unique_name":null,"name":"Filtered Features of 'VanWertCAIcsv' based on ''Blue' into ''Orange' into 'IFN Core Network 2012'''","feature_count":84,"description":"Dataset created by filtering features of 'VanWertCAIcsv' that are within a buffer of 0 to 50 miles around the features in ''Blue' into ''Orange' into 'IFN Core Network 2012'''","next_feature":null,"is_raster":false,"short_classification":"Y","stats":{"geo_score":{"max":0.902,"mean":0.784559523809524,"variance":0.0179123458118187,"stdev":0.133837012114806,"min":0.421,"median":0.805},"distance":{"max":48.4710597494585,"mean":30.0546890506747,"variance":229.189388254743,"stdev":15.1390022212411,"min":0.5658169149687,"median":36.5589093257291}},"features":[{"properties":{"city":"Middle Point","geo_score":0.522,"biz name":"Waste Water","id":"133","address":"10299 County Highway 185","geo_precision":"street","state":"Ohio","distance":43.2073432040042},"type":"Feature","geometry":{"type":"Point","coordinates":[-83.566629,40.027495]}},{"properties":{"city":"Middle Point","geo_score":0.727,"biz name":"Middle Point United Mthdst Chr","id":"30","address":"Mill St","geo_precision":"street","state":"Ohio","distance":40.3757009867795},"type":"Feature","geometry":{"type":"Point","coordinates":[-83.551206,40.070147]}},{"properties":{"city":"Middle Point","geo_score":0.421,"biz name":"Brumback Library Middle Point Branch","id":"170","address":"102 E Railroad St","geo_precision":"street","state":"Ohio","distance":40.2464711374144},"type":"Feature","geometry":{"type":"Point","coordinates":[-83.55008,40.072119]}},{"properties":{"city":"Middle Point","geo_score":0.545,"biz name":"Grace Evangelistic Ministries","id":"31","address":"19357 Church Rd","geo_precision":"street","state":"Ohio","distance":40.1258502281141},"type":"Feature","geometry":{"type":"Point","coordinates":[-83.561214,40.072901]}},{"properties":{"city":"Middle Point","geo_score":0.776,"biz name":"US Post Office","id":"228","address":"206 East Jackson Street","geo_precision":"range","state":"Ohio","distance":38.9839865997562},"type":"Feature","geometry":{"type":"Point","coordinates":[-83.264002,40.105525]}},{"properties":{"city":"Middle Point","geo_score":0.776,"biz name":"Middle Point Fire Dept","id":"126","address":"104 E Jackson St,","geo_precision":"range","state":"Ohio","distance":38.9632257664453},"type":"Feature","geometry":{"type":"Point","coordinates":[-83.265908,40.105661]}},{"properties":{"city":"Middle Point","geo_score":0.427,"biz name":"Traveling &amp; Recycle Wood Products","id":"179","address":"19590 Bellis Road","geo_precision":"street","state":"Ohio","distance":41.7863801226289},"type":"Feature","geometry":{"type":"Point","coordinates":[-83.118775,40.112947]}},{"properties":{"city":"Middle Point","geo_score":0.522,"biz name":"Van Wert County Home","id":"142","address":"17872 Lincoln Hwy","geo_precision":"street","state":"Ohio","distance":32.7692805495252},"type":"Feature","geometry":{"type":"Point","coordinates":[-83.497915,40.183347]}},{"properties":{"city":"Middle Point","geo_score":0.611,"biz name":"Buffalo Pub","id":"180","address":"101 South Adams Street","geo_precision":"street","state":"Ohio","distance":36.5589093257291},"type":"Feature","geometry":{"type":"Point","coordinates":[-82.494709,40.389734]}},{"properties":{"city":"Middle Point","geo_score":0.612,"biz name":"Amvets Post 698","id":"272","address":"102 South Adams Street","geo_precision":"street","state":"Ohio","distance":36.5589093257291},"type":"Feature","geometry":{"type":"Point","coordinates":[-82.494709,40.389734]}},{"properties":{"city":"Middle Point","geo_score":0.768,"biz name":"Trinity Lutheran Church","id":"32","address":"303 Adams St","geo_precision":"range","state":"Ohio","distance":36.5601213265346},"type":"Feature","geometry":{"type":"Point","coordinates":[-82.494696,40.389746]}},{"properties":{"city":"Middle Point","geo_score":0.574,"biz name":"Middle Point Ball Park","id":"202","address":"406 Adams St","geo_precision":"street","state":"Ohio","distance":36.6019418601016},"type":"Feature","geometry":{"type":"Point","coordinates":[-82.494481,40.390481]}},{"properties":{"city":"Middle Point","geo_score":0.805,"biz name":"Middle Point Village Clerk","id":"132","address":"103 North Adams Street","geo_precision":"range","state":"Ohio","distance":36.8236275613833},"type":"Feature","geometry":{"type":"Point","coordinates":[-82.494103,40.395471]}},{"properties":{"city":"Middle Point","geo_score":0.768,"biz name":"Middle Point Police","id":"222","address":"107 Adams St","geo_precision":"range","state":"Ohio","distance":36.8439276068128},"type":"Feature","geometry":{"type":"Point","coordinates":[-82.494075,40.395944]}},{"properties":{"city":"Venedocia","geo_score":0.637,"biz name":"Masser Glenn","id":"95","address":"15195 Van Wert Mercer Co Line","geo_precision":"street","state":"Ohio","distance":30.2325625248771},"type":"Feature","geometry":{"type":"Point","coordinates":[-84.47523,40.728227]}},{"properties":{"city":"Willshire","geo_score":0.588,"biz name":"Wilishire Water Treatment","id":"86","address":"601 Green Street","geo_precision":"street","state":"Ohio","distance":2.01466356175883},"type":"Feature","geometry":{"type":"Point","coordinates":[-84.796489,40.743584]}},{"properties":{"city":"Willshire","geo_score":0.588,"biz name":"Willshire Water Treatment Plant","id":"85","address":"601 Green Street","geo_precision":"street","state":"Ohio","distance":2.01466356175883},"type":"Feature","geometry":{"type":"Point","coordinates":[-84.796489,40.743584]}},{"properties":{"city":"Willshire","geo_score":0.709,"biz name":"Willshire Fire Dept","id":"128","address":"309 State St,","geo_precision":"street","state":"Ohio","distance":1.66942155639468},"type":"Feature","geometry":{"type":"Point","coordinates":[-84.790169,40.747572]}},{"properties":{"city":"Willshire","geo_score":0.71,"biz name":"Willshire Village Treasurer","id":"81","address":"315 State Street,","geo_precision":"street","state":"Ohio","distance":1.66942155639468},"type":"Feature","geometry":{"type":"Point","coordinates":[-84.790169,40.747572]}},{"properties":{"city":"Willshire","geo_score":0.71,"biz name":"Willshire Library","id":"175","address":"323 State Street","geo_precision":"street","state":"Ohio","distance":1.66942155639468},"type":"Feature","geometry":{"type":"Point","coordinates":[-84.790169,40.747572]}},{"properties":{"city":"Willshire","geo_score":0.673,"biz name":"US Post Office","id":"233","address":"US 33","geo_precision":"street","state":"Ohio","distance":1.95767889005984},"type":"Feature","geometry":{"type":"Point","coordinates":[-84.794394,40.747976]}},{"properties":{"city":"Willshire","geo_score":0.78,"biz name":"Praise Point United Brethren","id":"72","address":"555 Decatur Rd","geo_precision":"range","state":"Ohio","distance":2.10357552040004},"type":"Feature","geometry":{"type":"Point","coordinates":[-84.796271,40.749123]}},{"properties":{"city":"Willshire","geo_score":0.857,"biz name":"Willshire United Methodist Church","id":"73","address":"Hogan St.","geo_precision":"street","state":"Ohio","distance":1.93759833463154},"type":"Feature","geometry":{"type":"Point","coordinates":[-84.793611,40.749716]}},{"properties":{"city":"Willshire","geo_score":0.819,"biz name":"Willshire Sewage Treatment Plant","id":"140","address":"100 Hogan","geo_precision":"range","state":"Ohio","distance":2.06918348625313},"type":"Feature","geometry":{"type":"Point","coordinates":[-84.795291,40.750803]}},{"properties":{"city":"Ohio City","geo_score":0.902,"biz name":"US Post Office","id":"229","address":"118 South Main Street","geo_precision":"range","state":"Ohio","distance":40.297678680275},"type":"Feature","geometry":{"type":"Point","coordinates":[-84.615433,40.771283]}},{"properties":{"city":"Ohio City","geo_score":0.902,"biz name":"US Post Office","id":"234","address":"118 South Main Street","geo_precision":"range","state":"Ohio","distance":40.297678680275},"type":"Feature","geometry":{"type":"Point","coordinates":[-84.615433,40.771283]}},{"properties":{"city":"Ohio City","geo_score":0.902,"biz name":"Ohio City United Methodist Church","id":"35","address":"110 S Main St","geo_precision":"range","state":"Ohio","distance":40.2990229837939},"type":"Feature","geometry":{"type":"Point","coordinates":[-84.615435,40.771376]}},{"properties":{"city":"Ohio City","geo_score":0.902,"biz name":"Ohio City Hall","id":"78","address":"105 South Main Street,","geo_precision":"range","state":"Ohio","distance":40.3000678951503},"type":"Feature","geometry":{"type":"Point","coordinates":[-84.615437,40.771446]}},{"properties":{"city":"Ohio City","geo_score":0.902,"biz name":"Ohio City Village Hall","id":"135","address":"103 South Main Street","geo_precision":"range","state":"Ohio","distance":40.3003666280684},"type":"Feature","geometry":{"type":"Point","coordinates":[-84.615437,40.771469]}},{"properties":{"city":"Ohio City","geo_score":0.902,"biz name":"Ohio City Fire Department","id":"129","address":"103 S Main St,","geo_precision":"range","state":"Ohio","distance":40.3003666280684},"type":"Feature","geometry":{"type":"Point","coordinates":[-84.615437,40.771469]}},{"properties":{"city":"Ohio City","geo_score":0.902,"biz name":"Ohio City Library","id":"173","address":"101 West Carmean Street","geo_precision":"range","state":"Ohio","distance":40.3007330590546},"type":"Feature","geometry":{"type":"Point","coordinates":[-84.615438,40.771492]}},{"properties":{"city":"Ohio City","geo_score":0.709,"biz name":"American Legion","id":"4","address":"118 1/2 S Main St","geo_precision":"street","state":"Ohio","distance":40.3007330590546},"type":"Feature","geometry":{"type":"Point","coordinates":[-84.615438,40.771492]}},{"properties":{"city":"Ohio City","geo_score":0.902,"biz name":"Ohio City Church of God","id":"34","address":"204 E Carmean St","geo_precision":"range","state":"Ohio","distance":40.0674714906967},"type":"Feature","geometry":{"type":"Point","coordinates":[-84.61198,40.771569]}},{"properties":{"city":"Ohio City","geo_score":0.902,"biz name":"Ohio City Church of God","id":"75","address":"204 East Carmean Street","geo_precision":"range","state":"Ohio","distance":40.0674714906967},"type":"Feature","geometry":{"type":"Point","coordinates":[-84.61198,40.771569]}},{"properties":{"city":"Ohio City","geo_score":0.771,"biz name":"Liberty Township Trustees","id":"134","address":"Woodlawn Rd","geo_precision":"street","state":"Ohio","distance":40.9881228287797},"type":"Feature","geometry":{"type":"Point","coordinates":[-84.62525,40.773243]}},{"properties":{"city":"Willshire","geo_score":0.902,"biz name":"Countryside Church of The Nazarene","id":"71","address":"15465 State Route 49","geo_precision":"range","state":"Ohio","distance":1.6270875373751},"type":"Feature","geometry":{"type":"Point","coordinates":[-84.782462,40.775343]}},{"properties":{"city":"Willshire","geo_score":0.902,"biz name":"Willshire Twp Office","id":"141","address":"15484 Clayton Road","geo_precision":"range","state":"Ohio","distance":0.5658169149687},"type":"Feature","geometry":{"type":"Point","coordinates":[-84.765806,40.779197]}},{"properties":{"city":"Venedocia","geo_score":0.902,"biz name":"Salem United Presbyterian Church","id":"70","address":"15240 Main St,","geo_precision":"range","state":"Ohio","distance":29.6293753278733},"type":"Feature","geometry":{"type":"Point","coordinates":[-84.456409,40.783895]}},{"properties":{"city":"Venedocia","geo_score":0.902,"biz name":"Salem United Presbyterian Church","id":"33","address":"15240 Main St,","geo_precision":"range","state":"Ohio","distance":29.6293753278733},"type":"Feature","geometry":{"type":"Point","coordinates":[-84.456409,40.783895]}},{"properties":{"city":"Venedocia","geo_score":0.902,"biz name":"US Post Office","id":"232","address":"15155 Main Street","geo_precision":"range","state":"Ohio","distance":29.6366134083302},"type":"Feature","geometry":{"type":"Point","coordinates":[-84.456406,40.784628]}},{"properties":{"city":"Delphos","geo_score":0.585,"biz name":"Jefferson High School","id":"245","address":"901 Wildcat Ln","geo_precision":"city","state":"Ohio","distance":19.8280082401362},"type":"Feature","geometry":{"type":"Point","coordinates":[-84.311596,40.794444]}},{"properties":{"city":"Ohio City","geo_score":0.668,"biz name":"Pleasant View Baptist Church","id":"36","address":"14048 Ohio 49","geo_precision":"range","state":"Ohio","distance":1.50353611146423},"type":"Feature","geometry":{"type":"Point","coordinates":[-84.775277,40.80042]}},{"properties":{"city":"Willshire","geo_score":0.707,"biz name":"Zion Lutheran Church","id":"74","address":"Schumm Road #1734","geo_precision":"street","state":"Ohio","distance":48.4710597494585},"type":"Feature","geometry":{"type":"Point","coordinates":[-84.726874,40.822361]}},{"properties":{"city":"Ohio City","geo_score":0.902,"biz name":"St Thomas Lutheran Church","id":"38","address":"6299 German Church Rd","geo_precision":"range","state":"Ohio","distance":46.7464310002188},"type":"Feature","geometry":{"type":"Point","coordinates":[-84.701592,40.822364]}},{"properties":{"city":"Ohio City","geo_score":0.715,"biz name":"St Paul's Reformed Chr In Amer","id":"37","address":"6077 German Church Rd","geo_precision":"street","state":"Ohio","distance":46.9258636074701},"type":"Feature","geometry":{"type":"Point","coordinates":[-84.70422,40.822374]}},{"properties":{"city":"Delphos","geo_score":0.902,"biz name":"Delphos Wesleyan Church","id":"27","address":"935 S Bredeick St","geo_precision":"range","state":"Ohio","distance":22.7746125110988},"type":"Feature","geometry":{"type":"Point","coordinates":[-84.350272,40.835094]}},{"properties":{"city":"Delphos","geo_score":0.902,"biz name":"St John's Preschool","id":"238","address":"722 South Jefferson Street","geo_precision":"range","state":"Ohio","distance":22.2373346551666},"type":"Feature","geometry":{"type":"Point","coordinates":[-84.342303,40.836788]}},{"properties":{"city":"Delphos","geo_score":0.902,"biz name":"Lumm Ronald","id":"89","address":"333 South Clay Street","geo_precision":"range","state":"Ohio","distance":22.3460052783672},"type":"Feature","geometry":{"type":"Point","coordinates":[-84.34357,40.84047]}},{"properties":{"city":"Delphos","geo_score":0.429,"biz name":"Boratko Randy","id":"88","address":"9277 State Route 66 # B","geo_precision":"street","state":"Ohio","distance":22.7455711382083},"type":"Feature","geometry":{"type":"Point","coordinates":[-84.349235,40.842251]}},{"properties":{"city":"Delphos","geo_score":0.805,"biz name":"Jeffrey Blanford DDS","id":"111","address":"150 W 2nd St,","geo_precision":"range","state":"Ohio","distance":22.1457318891536},"type":"Feature","geometry":{"type":"Point","coordinates":[-84.34039,40.843712]}},{"properties":{"city":"Delphos","geo_score":0.805,"biz name":"Schmit Nicholas A DDS","id":"109","address":"152 W 2nd St","geo_precision":"range","state":"Ohio","distance":22.1471068685165},"type":"Feature","geometry":{"type":"Point","coordinates":[-84.34041,40.843712]}},{"properties":{"city":"Delphos","geo_score":0.805,"biz name":"Sarah Jane Living Center","id":"197","address":"328 West 2nd Street","geo_precision":"range","state":"Ohio","distance":22.2988161187076},"type":"Feature","geometry":{"type":"Point","coordinates":[-84.342616,40.843721]}},{"properties":{"city":"Delphos","geo_score":0.805,"biz name":"First United Presbyterian Church","id":"29","address":"310 W 2nd St,","geo_precision":"range","state":"Ohio","distance":22.2863782539596},"type":"Feature","geometry":{"type":"Point","coordinates":[-84.342435,40.843722]}},{"properties":{"city":"Delphos","geo_score":0.805,"biz name":"Delphos Public Library","id":"172","address":"309 W 2nd St,","geo_precision":"range","state":"Ohio","distance":22.2850088436298},"type":"Feature","geometry":{"type":"Point","coordinates":[-84.342415,40.843723]}},{"properties":{"city":"Delphos","geo_score":0.78,"biz name":"Delphos Middle School","id":"243","address":"227 N Jefferson St","geo_precision":"range","state":"Ohio","distance":22.2848153311526},"type":"Feature","geometry":{"type":"Point","coordinates":[-84.342342,40.844596]}},{"properties":{"city":"Delphos","geo_score":0.78,"biz name":"Delphos City Schools Superintendent","id":"244","address":"227 N Jefferson St","geo_precision":"range","state":"Ohio","distance":22.2848153311526},"type":"Feature","geometry":{"type":"Point","coordinates":[-84.342342,40.844596]}},{"properties":{"city":"Delphos","geo_score":0.805,"biz name":"Wishing Well Pediatrics","id":"207","address":"154 W 3rd St,","geo_precision":"range","state":"Ohio","distance":22.155417625418},"type":"Feature","geometry":{"type":"Point","coordinates":[-84.340424,40.845047]}},{"properties":{"city":"Delphos","geo_score":0.805,"biz name":"Morgan David O DDS","id":"110","address":"158 W 3rd St","geo_precision":"range","state":"Ohio","distance":22.1584647203021},"type":"Feature","geometry":{"type":"Point","coordinates":[-84.340468,40.845051]}},{"properties":{"city":"Delphos","geo_score":0.735,"biz name":"Veterans of Foreign Wars","id":"271","address":"213 West 4th Stree","geo_precision":"range","state":"Ohio","distance":22.2134426312754},"type":"Feature","geometry":{"type":"Point","coordinates":[-84.341202,40.84588]}},{"properties":{"city":"Delphos","geo_score":0.902,"biz name":"American Legion","id":"3","address":"415 North State Street","geo_precision":"range","state":"Ohio","distance":22.7741746236871},"type":"Feature","geometry":{"type":"Point","coordinates":[-84.349348,40.845996]}},{"properties":{"city":"Delphos","geo_score":0.902,"biz name":"Delphos City Water Treatment","id":"82","address":"608 North Canal Street","geo_precision":"range","state":"Ohio","distance":22.2227729364251},"type":"Feature","geometry":{"type":"Point","coordinates":[-84.341084,40.849161]}},{"properties":{"city":"Delphos","geo_score":0.902,"biz name":"Delphos Public Services Director","id":"130","address":"608 North Canal Street","geo_precision":"range","state":"Ohio","distance":22.2227729364251},"type":"Feature","geometry":{"type":"Point","coordinates":[-84.341084,40.849161]}},{"properties":{"city":"Delphos","geo_score":0.902,"biz name":"First Assembly of God","id":"28","address":"808 Metbliss Ave","geo_precision":"range","state":"Ohio","distance":22.4932779301026},"type":"Feature","geometry":{"type":"Point","coordinates":[-84.344927,40.850355]}},{"properties":{"city":"Delphos","geo_score":0.902,"biz name":"Washington Township Office","id":"131","address":"22693 Lincoln Hwy","geo_precision":"range","state":"Ohio","distance":25.2550216016391},"type":"Feature","geometry":{"type":"Point","coordinates":[-84.384989,40.8516]}},{"properties":{"city":"Delphos","geo_score":0.541,"biz name":"Northwest Physical Therapy","id":"205","address":"333 North St # 102","geo_precision":"street","state":"Ohio","distance":22.3563507534031},"type":"Feature","geometry":{"type":"Point","coordinates":[-84.342779,40.85248]}},{"properties":{"city":"Delphos","geo_score":0.902,"biz name":"Delphos Waste Water Treatment","id":"83","address":"24793 Pohlman Road","geo_precision":"range","state":"Ohio","distance":22.5301497870407},"type":"Feature","geometry":{"type":"Point","coordinates":[-84.344798,40.859739]}},{"properties":{"city":"Convoy","geo_score":0.902,"biz name":"Redeemer Lutheran Church","id":"24","address":"6727 State Route 49","geo_precision":"range","state":"Ohio","distance":47.6714311803143},"type":"Feature","geometry":{"type":"Point","coordinates":[-84.707348,40.906247]}},{"properties":{"city":"Convoy","geo_score":0.708,"biz name":"Convoy Mayor's Office","id":"77","address":"123 S Main St","geo_precision":"street","state":"Ohio","distance":47.6896588734277},"type":"Feature","geometry":{"type":"Point","coordinates":[-84.707327,40.915405]}},{"properties":{"city":"Convoy","geo_score":0.902,"biz name":"Crestview Elementary","id":"240","address":"531 E Tully St","geo_precision":"range","state":"Ohio","distance":47.3461915163383},"type":"Feature","geometry":{"type":"Point","coordinates":[-84.70231,40.916891]}},{"properties":{"city":"Convoy","geo_score":0.902,"biz name":"Crestview Middle School","id":"241","address":"531 E Tully St","geo_precision":"range","state":"Ohio","distance":47.3461915163383},"type":"Feature","geometry":{"type":"Point","coordinates":[-84.70231,40.916891]}},{"properties":{"city":"Convoy","geo_score":0.902,"biz name":"Crestview High School","id":"242","address":"531 E Tully St","geo_precision":"range","state":"Ohio","distance":47.3461915163383},"type":"Feature","geometry":{"type":"Point","coordinates":[-84.70231,40.916891]}},{"properties":{"city":"Convoy","geo_score":0.902,"biz name":"US Post Office","id":"227","address":"116 West Tully Street","geo_precision":"range","state":"Ohio","distance":47.7092186944769},"type":"Feature","geometry":{"type":"Point","coordinates":[-84.707574,40.916925]}},{"properties":{"city":"Convoy","geo_score":0.902,"biz name":"Convoy Branch Brumbach Library","id":"171","address":"116 W Tully St","geo_precision":"range","state":"Ohio","distance":47.7092186944769},"type":"Feature","geometry":{"type":"Point","coordinates":[-84.707574,40.916925]}},{"properties":{"city":"Convoy","geo_score":0.866,"biz name":"Trinity Evangelical Lutheran Church","id":"26","address":"117 E Tully S","geo_precision":"range","state":"Ohio","distance":47.6818456405852},"type":"Feature","geometry":{"type":"Point","coordinates":[-84.707177,40.916926]}},{"properties":{"city":"Convoy","geo_score":0.902,"biz name":"Convoy Fire Dept","id":"125","address":"116 Franklin St,","geo_precision":"range","state":"Ohio","distance":47.6877323957422},"type":"Feature","geometry":{"type":"Point","coordinates":[-84.707254,40.917292]}},{"properties":{"city":"Convoy","geo_score":0.902,"biz name":"Leigh Gregory","id":"87","address":"108 Hall Dr","geo_precision":"range","state":"Ohio","distance":47.6097446122836},"type":"Feature","geometry":{"type":"Point","coordinates":[-84.706094,40.918627]}},{"properties":{"city":"Convoy","geo_score":0.902,"biz name":"Convoy Care Center","id":"196","address":"127 Mentzer Street","geo_precision":"range","state":"Ohio","distance":47.2679856728231},"type":"Feature","geometry":{"type":"Point","coordinates":[-84.701135,40.918768]}},{"properties":{"city":"Convoy","geo_score":0.74,"biz name":"Taylor Chiropractic","id":"14","address":"612 N Main St","geo_precision":"street","state":"Ohio","distance":47.7006501346901},"type":"Feature","geometry":{"type":"Point","coordinates":[-84.707323,40.923725]}},{"properties":{"city":"Convoy","geo_score":0.902,"biz name":"Sugar Ridge Church of God","id":"25","address":"6432 Pollock Rd","geo_precision":"range","state":"Ohio","distance":47.0054795985333},"type":"Feature","geometry":{"type":"Point","coordinates":[-84.69718,40.938733]}},{"properties":{"city":"Convoy","geo_score":0.714,"biz name":"Convoy United Methodist Church","id":"23","address":"Sycamore &amp; Main","geo_precision":"street","state":"Ohio","distance":4.29840037103573},"type":"Feature","geometry":{"type":"Point","coordinates":[-84.803107,40.950807]}},{"properties":{"city":"Grover Hill","geo_score":0.715,"biz name":"Zion Christian Union Parsonage","id":"90","address":"3025 Converse Roselm Road","geo_precision":"street","state":"Ohio","distance":27.7427766800411},"type":"Feature","geometry":{"type":"Point","coordinates":[-84.418225,40.961105]}},{"properties":{"city":"Convoy","geo_score":0.902,"biz name":"Stoneco Inc","id":"178","address":"2364 Richey Road","geo_precision":"range","state":"Ohio","distance":43.615478625036},"type":"Feature","geometry":{"type":"Point","coordinates":[-84.648771,40.969538]}},{"properties":{"city":"Scott","geo_score":0.708,"biz name":"US Post Office","id":"230","address":"12436 Van Wert Paulding County Line Road","geo_precision":"street","state":"Ohio","distance":39.6323421878178},"type":"Feature","geometry":{"type":"Point","coordinates":[-84.592019,40.989791]}},{"properties":{"city":"Scott","geo_score":0.902,"biz name":"Little Harvest Day Care","id":"10","address":"13625 Road 12","geo_precision":"range","state":"Ohio","distance":37.4885537825819},"type":"Feature","geometry":{"type":"Point","coordinates":[-84.560885,40.989923]}}],"is_temporal":false,"author":{"url":"","metadata":"","contact_name":"","contact_address":"","source":"","contact_phone":""},"source":"","pagination":{"sort":null,"start":0,"total":84,"limit":1000000},"state":"complete","tags":"","published":"2014-08-15T02:18:25-04:00","id":229522}