{"type":"FeatureCollection","data_type":"Dataset Analysis","url_type":null,"permissions":[{"permissions":{"download":true,"view":true},"group_id":"everyone"}],"classification":null,"title":"Filtered Features of 'VanWertCAIcsvCLEAN' based on ''Blue' into ''Orange' into 'IFN Core Network 2012'''","count":276,"stream_id":229731,"contributor":{"url":"http://geocommons.com/users/12008","name":"pantheon"},"data_attributes":null,"calculation_params":[{"calculation":"buffer_intersect","input":{"ds1":"229702","min_distance":"0","ds2":"190806","unit":"miles","include_distance":"1","distance":"40"}}],"icon_link":null,"link":"http://geocommons.com/overlays/229731.json","extent":[-84.8031,40.6777,-84.34,40.9899],"geometry_types":["point"],"unique_name":null,"name":"Filtered Features of 'VanWertCAIcsvCLEAN' based on ''Blue' into ''Orange' into 'IFN Core Network 2012'''","feature_count":276,"description":"Dataset created by filtering features of 'VanWertCAIcsvCLEAN' that are within a buffer of 0 to 40 miles around the features in ''Blue' into ''Orange' into 'IFN Core Network 2012'''","next_feature":null,"is_raster":false,"short_classification":"Y","stats":{"geo_score":{"max":1.0,"mean":0.903659420289852,"variance":0.00703420358366266,"stdev":0.0838701590773659,"min":0.457,"median":0.944},"distance":{"max":37.8429974053802,"mean":26.2366918375065,"variance":65.9465315961009,"stdev":8.12074698510555,"min":0.680929729761871,"median":29.1184509401988}},"features":[{"properties":{"city":"Spencerville","zip":"45887","geo_score":0.748,"biz name":"Mt Union United Brethren Chr","id":"68","geo_precision":"street","address":"04011 Deep Cut Rd","state":"Ohio","distance":13.019716991969},"type":"Feature","geometry":{"type":"Point","coordinates":[-84.377799,40.677704]}},{"properties":{"city":"Venedocia","zip":"45894","geo_score":0.659,"biz name":"Masser Glenn","id":"261","geo_precision":"street","address":"15195 Van Wert Mercer Co Line","state":"Ohio","distance":20.3678366976519},"type":"Feature","geometry":{"type":"Point","coordinates":[-84.47523,40.728227]}},{"properties":{"city":"Willshire","zip":"45898","geo_score":0.598,"biz name":"Wilishire Water Treatment","id":"269","geo_precision":"street","address":"601 Green Street","state":"Ohio","distance":2.02624119040492},"type":"Feature","geometry":{"type":"Point","coordinates":[-84.796489,40.743584]}},{"properties":{"city":"Willshire","zip":"45898","geo_score":0.598,"biz name":"Willshire Water Treatment Plant","id":"268","geo_precision":"street","address":"601 Green Street","state":"Ohio","distance":2.02624119040492},"type":"Feature","geometry":{"type":"Point","coordinates":[-84.796489,40.743584]}},{"properties":{"city":"Willshire","zip":"45898","geo_score":0.913,"biz name":"Willshire United Methodist Church","id":"265","geo_precision":"range","address":"405 Hogan St.","state":"Ohio","distance":1.86702961603397},"type":"Feature","geometry":{"type":"Point","coordinates":[-84.79291,40.747077]}},{"properties":{"city":"Willshire","zip":"45898","geo_score":0.721,"biz name":"Willshire Library","id":"273","geo_precision":"street","address":"323 State Street","state":"Ohio","distance":1.69763718506756},"type":"Feature","geometry":{"type":"Point","coordinates":[-84.790169,40.747572]}},{"properties":{"city":"Willshire","zip":"45898","geo_score":0.72,"biz name":"Willshire Fire Dept","id":"270","geo_precision":"street","address":"309 State St","state":"Ohio","distance":1.69763718506756},"type":"Feature","geometry":{"type":"Point","coordinates":[-84.790169,40.747572]}},{"properties":{"city":"Willshire","zip":"45898","geo_score":0.72,"biz name":"Willshire Village Treasurer","id":"267","geo_precision":"street","address":"315 State Street","state":"Ohio","distance":1.69763718506756},"type":"Feature","geometry":{"type":"Point","coordinates":[-84.790169,40.747572]}},{"properties":{"city":"Willshire","zip":"45898","geo_score":0.913,"biz name":"US Post Office","id":"274","geo_precision":"range","address":"110 Walcott St","state":"Ohio","distance":1.78350333322238},"type":"Feature","geometry":{"type":"Point","coordinates":[-84.79119,40.748464]}},{"properties":{"city":"Willshire","zip":"45898","geo_score":0.791,"biz name":"Praise Point United Brethren","id":"264","geo_precision":"range","address":"555 Decatur Rd","state":"Ohio","distance":2.13103087822553},"type":"Feature","geometry":{"type":"Point","coordinates":[-84.796271,40.749123]}},{"properties":{"city":"Willshire","zip":"45898","geo_score":0.913,"biz name":"Zion Lutheran Church","id":"266","geo_precision":"range","address":"17434 Schumm Road","state":"Ohio","distance":37.616230665705},"type":"Feature","geometry":{"type":"Point","coordinates":[-84.727393,40.750793]}},{"properties":{"city":"Willshire","zip":"45898","geo_score":0.913,"biz name":"Willshire Sewage Treatment Plant","id":"271","geo_precision":"range","address":"100 Hogan St.","state":"Ohio","distance":2.10205914655258},"type":"Feature","geometry":{"type":"Point","coordinates":[-84.795291,40.750803]}},{"properties":{"city":"Delphos","zip":"45833","geo_score":0.605,"biz name":"Jefferson High School","id":"35","geo_precision":"zip","address":"901 Wildcat Ln","state":"Ohio","distance":11.6592842265635},"type":"Feature","geometry":{"type":"Point","coordinates":[-84.339953,40.763939]}},{"properties":{"city":"Ohio City","zip":"45874","geo_score":0.902,"biz name":"US Post Office","id":"65","geo_precision":"range","address":"118 South Main Street","state":"Ohio","distance":30.447591545792},"type":"Feature","geometry":{"type":"Point","coordinates":[-84.615433,40.771283]}},{"properties":{"city":"Ohio City","zip":"45874","geo_score":0.902,"biz name":"US Post Office","id":"64","geo_precision":"range","address":"118 South Main Street","state":"Ohio","distance":30.447591545792},"type":"Feature","geometry":{"type":"Point","coordinates":[-84.615433,40.771283]}},{"properties":{"city":"Ohio City","zip":"45874","geo_score":0.902,"biz name":"Ohio City United Methodist Church","id":"54","geo_precision":"range","address":"110 S Main St","state":"Ohio","distance":30.4490336410403},"type":"Feature","geometry":{"type":"Point","coordinates":[-84.615435,40.771376]}},{"properties":{"city":"Ohio City","zip":"45874","geo_score":0.902,"biz name":"Ohio City Hall","id":"59","geo_precision":"range","address":"105 South Main Street","state":"Ohio","distance":30.4501519694069},"type":"Feature","geometry":{"type":"Point","coordinates":[-84.615437,40.771446]}},{"properties":{"city":"Ohio City","zip":"45874","geo_score":0.902,"biz name":"Ohio City Village Hall","id":"62","geo_precision":"range","address":"103 South Main Street","state":"Ohio","distance":30.4504749474991},"type":"Feature","geometry":{"type":"Point","coordinates":[-84.615437,40.771469]}},{"properties":{"city":"Ohio City","zip":"45874","geo_score":0.902,"biz name":"Ohio City Fire Department","id":"60","geo_precision":"range","address":"103 S Main St","state":"Ohio","distance":30.4504749474991},"type":"Feature","geometry":{"type":"Point","coordinates":[-84.615437,40.771469]}},{"properties":{"city":"Ohio City","zip":"45874","geo_score":0.902,"biz name":"Ohio City Library","id":"63","geo_precision":"range","address":"101 West Carmean Street","state":"Ohio","distance":30.4508654051317},"type":"Feature","geometry":{"type":"Point","coordinates":[-84.615438,40.771492]}},{"properties":{"city":"Ohio City","zip":"45874","geo_score":0.709,"biz name":"American Legion","id":"52","geo_precision":"street","address":"118 1/2 S Main St","state":"Ohio","distance":30.4508654051317},"type":"Feature","geometry":{"type":"Point","coordinates":[-84.615438,40.771492]}},{"properties":{"city":"Ohio City","zip":"45874","geo_score":0.902,"biz name":"Ohio City Church of God","id":"58","geo_precision":"range","address":"204 East Carmean Street","state":"Ohio","distance":30.2184048294595},"type":"Feature","geometry":{"type":"Point","coordinates":[-84.61198,40.771569]}},{"properties":{"city":"Ohio City","zip":"45874","geo_score":0.902,"biz name":"Ohio City Church of God","id":"53","geo_precision":"range","address":"204 E Carmean St","state":"Ohio","distance":30.2184048294595},"type":"Feature","geometry":{"type":"Point","coordinates":[-84.61198,40.771569]}},{"properties":{"city":"Ohio City","zip":"45874","geo_score":0.771,"biz name":"Liberty Township Trustees","id":"61","geo_precision":"street","address":"Woodlawn Rd","state":"Ohio","distance":31.1380313612917},"type":"Feature","geometry":{"type":"Point","coordinates":[-84.62525,40.773243]}},{"properties":{"city":"Willshire","zip":"45898","geo_score":0.913,"biz name":"Countryside Church of The Nazarene","id":"263","geo_precision":"range","address":"15465 State Route 49","state":"Ohio","distance":1.72693797297394},"type":"Feature","geometry":{"type":"Point","coordinates":[-84.782462,40.775343]}},{"properties":{"city":"Willshire","zip":"45898","geo_score":0.913,"biz name":"Willshire Twp Office","id":"272","geo_precision":"range","address":"15484 Clayton Road","state":"Ohio","distance":0.680929729761871},"type":"Feature","geometry":{"type":"Point","coordinates":[-84.765806,40.779197]}},{"properties":{"city":"Venedocia","zip":"45894","geo_score":0.924,"biz name":"Salem United Presbyterian Church","id":"260","geo_precision":"range","address":"15240 Main St","state":"Ohio","distance":19.8076979704335},"type":"Feature","geometry":{"type":"Point","coordinates":[-84.456409,40.783895]}},{"properties":{"city":"Venedocia","zip":"45894","geo_score":0.924,"biz name":"Salem United Presbyterian Church","id":"259","geo_precision":"range","address":"15240 Main St","state":"Ohio","distance":19.8076979704335},"type":"Feature","geometry":{"type":"Point","coordinates":[-84.456409,40.783895]}},{"properties":{"city":"Venedocia","zip":"45894","geo_score":0.924,"biz name":"US Post Office","id":"262","geo_precision":"range","address":"15155 Main Street","state":"Ohio","distance":19.8152254559004},"type":"Feature","geometry":{"type":"Point","coordinates":[-84.456406,40.784628]}},{"properties":{"city":"Wren","zip":"45899","geo_score":1.0,"biz name":"Wren Library","id":"275","geo_precision":"range","address":"101 Washington Street","state":"Ohio","distance":1.70968763362657},"type":"Feature","geometry":{"type":"Point","coordinates":[-84.776341,40.799628]}},{"properties":{"city":"Ohio City","zip":"45874","geo_score":0.668,"biz name":"Pleasant View Baptist Church","id":"55","geo_precision":"range","address":"14048 Ohio 49","state":"Ohio","distance":1.64953890243341},"type":"Feature","geometry":{"type":"Point","coordinates":[-84.775277,40.80042]}},{"properties":{"city":"Van Wert","zip":"45891","geo_score":0.537,"biz name":"Staas Dillon Rev","id":"124","geo_precision":"street","address":"1 Leslie Ln","state":"Ohio","distance":3.47082546710507},"type":"Feature","geometry":{"type":"Point","coordinates":[-84.802247,40.800753]}},{"properties":{"city":"Ohio City","zip":"45874","geo_score":0.902,"biz name":"St Thomas Lutheran Church","id":"57","geo_precision":"range","address":"6299 German Church Rd","state":"Ohio","distance":36.9253599494396},"type":"Feature","geometry":{"type":"Point","coordinates":[-84.701592,40.822364]}},{"properties":{"city":"Ohio City","zip":"45874","geo_score":0.715,"biz name":"St Paul's Reformed Chr In Amer","id":"56","geo_precision":"street","address":"6077 German Church Rd","state":"Ohio","distance":37.10459032281},"type":"Feature","geometry":{"type":"Point","coordinates":[-84.70422,40.822374]}},{"properties":{"city":"Van Wert","zip":"45891","geo_score":0.944,"biz name":"Bethel United Methodist Church","id":"90","geo_precision":"range","address":"12493 Mendon Rd","state":"Ohio","distance":26.7390564355966},"type":"Feature","geometry":{"type":"Point","coordinates":[-84.552427,40.82289]}},{"properties":{"city":"Van Wert","zip":"45891","geo_score":0.944,"biz name":"Antioch Chapel Friends","id":"88","geo_precision":"range","address":"9010 Van Wert Willshire Rd","state":"Ohio","distance":33.3379230982589},"type":"Feature","geometry":{"type":"Point","coordinates":[-84.648037,40.82947]}},{"properties":{"city":"Delphos","zip":"45833","geo_score":0.922,"biz name":"Delphos Wesleyan Church","id":"16","geo_precision":"range","address":"935 S Bredeick St","state":"Ohio","distance":12.9564669472537},"type":"Feature","geometry":{"type":"Point","coordinates":[-84.350272,40.835094]}},{"properties":{"city":"Delphos","zip":"45833","geo_score":0.922,"biz name":"St John's Preschool","id":"32","geo_precision":"range","address":"722 South Jefferson Street","state":"Ohio","distance":12.4185518055186},"type":"Feature","geometry":{"type":"Point","coordinates":[-84.342303,40.836788]}},{"properties":{"city":"Delphos","zip":"45833","geo_score":0.922,"biz name":"Lumm Ronald","id":"22","geo_precision":"range","address":"333 South Clay Street","state":"Ohio","distance":12.5261695347404},"type":"Feature","geometry":{"type":"Point","coordinates":[-84.34357,40.84047]}},{"properties":{"city":"Delphos","zip":"45833","geo_score":0.457,"biz name":"Boratko Randy","id":"21","geo_precision":"street","address":"9277 State Route 66 # B","state":"Ohio","distance":12.9253146430795},"type":"Feature","geometry":{"type":"Point","coordinates":[-84.349235,40.842251]}},{"properties":{"city":"Delphos","zip":"45833","geo_score":0.824,"biz name":"Jeffrey Blanford DDS","id":"25","geo_precision":"range","address":"150 W 2nd St,","state":"Ohio","distance":12.3247541616085},"type":"Feature","geometry":{"type":"Point","coordinates":[-84.34039,40.843712]}},{"properties":{"city":"Delphos","zip":"45833","geo_score":0.824,"biz name":"Schmit Nicholas A DDS","id":"23","geo_precision":"range","address":"152 W 2nd St","state":"Ohio","distance":12.3261296758824},"type":"Feature","geometry":{"type":"Point","coordinates":[-84.34041,40.843712]}},{"properties":{"city":"Delphos","zip":"45833","geo_score":0.824,"biz name":"Sarah Jane Living Center","id":"29","geo_precision":"range","address":"328 West 2nd Street","state":"Ohio","distance":12.4778948413077},"type":"Feature","geometry":{"type":"Point","coordinates":[-84.342616,40.843721]}},{"properties":{"city":"Delphos","zip":"45833","geo_score":0.824,"biz name":"First United Presbyterian Church","id":"18","geo_precision":"range","address":"310 W 2nd St,","state":"Ohio","distance":12.4654517954532},"type":"Feature","geometry":{"type":"Point","coordinates":[-84.342435,40.843722]}},{"properties":{"city":"Delphos","zip":"45833","geo_score":0.824,"biz name":"Delphos Public Library","id":"28","geo_precision":"range","address":"309 W 2nd St,","state":"Ohio","distance":12.4640815087961},"type":"Feature","geometry":{"type":"Point","coordinates":[-84.342415,40.843723]}},{"properties":{"city":"Delphos","zip":"45833","geo_score":0.8,"biz name":"Delphos City Schools Superintendent","id":"34","geo_precision":"range","address":"227 N Jefferson St","state":"Ohio","distance":12.463584329355},"type":"Feature","geometry":{"type":"Point","coordinates":[-84.342342,40.844596]}},{"properties":{"city":"Delphos","zip":"45833","geo_score":0.8,"biz name":"Delphos Middle School","id":"33","geo_precision":"range","address":"227 N Jefferson St","state":"Ohio","distance":12.463584329355},"type":"Feature","geometry":{"type":"Point","coordinates":[-84.342342,40.844596]}},{"properties":{"city":"Delphos","zip":"45833","geo_score":0.824,"biz name":"Wishing Well Pediatrics","id":"31","geo_precision":"range","address":"154 W 3rd St","state":"Ohio","distance":12.3339757369753},"type":"Feature","geometry":{"type":"Point","coordinates":[-84.340424,40.845047]}},{"properties":{"city":"Delphos","zip":"45833","geo_score":0.824,"biz name":"Morgan David O DDS","id":"24","geo_precision":"range","address":"158 W 3rd St","state":"Ohio","distance":12.3370226129256},"type":"Feature","geometry":{"type":"Point","coordinates":[-84.340468,40.845051]}},{"properties":{"city":"Van Wert","zip":"45891","geo_score":0.944,"biz name":"Van Wert High School","id":"240","geo_precision":"range","address":"10708 State Route 118","state":"Ohio","distance":30.4617036225981},"type":"Feature","geometry":{"type":"Point","coordinates":[-84.604211,40.845346]}},{"properties":{"city":"Van Wert","zip":"45891","geo_score":0.944,"biz name":"Van Wert Middle School","id":"239","geo_precision":"range","address":"10694 State Route 118","state":"Ohio","distance":30.4589562365365},"type":"Feature","geometry":{"type":"Point","coordinates":[-84.604157,40.845484]}},{"properties":{"city":"Delphos","zip":"45833","geo_score":0.755,"biz name":"Veterans of Foreign Wars","id":"36","geo_precision":"range","address":"213 West 4th Stree","state":"Ohio","distance":12.3917236902575},"type":"Feature","geometry":{"type":"Point","coordinates":[-84.341202,40.84588]}},{"properties":{"city":"Delphos","zip":"45833","geo_score":0.922,"biz name":"American Legion","id":"15","geo_precision":"range","address":"415 North State Street","state":"Ohio","distance":12.9526383817414},"type":"Feature","geometry":{"type":"Point","coordinates":[-84.349348,40.845996]}},{"properties":{"city":"Van Wert","zip":"45891","geo_score":0.944,"biz name":"Van Wert Water Treatment Plant","id":"121","geo_precision":"range","address":"1260 South Washington Street","state":"Ohio","distance":28.9188815127526},"type":"Feature","geometry":{"type":"Point","coordinates":[-84.581403,40.848771]}},{"properties":{"city":"Delphos","zip":"45833","geo_score":0.922,"biz name":"Delphos Public Services Director","id":"26","geo_precision":"range","address":"608 North Canal Street","state":"Ohio","distance":12.3998137138861},"type":"Feature","geometry":{"type":"Point","coordinates":[-84.341084,40.849161]}},{"properties":{"city":"Delphos","zip":"45833","geo_score":0.922,"biz name":"Delphos City Water Treatment","id":"19","geo_precision":"range","address":"608 North Canal Street","state":"Ohio","distance":12.3998137138861},"type":"Feature","geometry":{"type":"Point","coordinates":[-84.341084,40.849161]}},{"properties":{"city":"Delphos","zip":"45833","geo_score":0.922,"biz name":"First Assembly of God","id":"17","geo_precision":"range","address":"808 Metbliss Ave","state":"Ohio","distance":12.6699552928706},"type":"Feature","geometry":{"type":"Point","coordinates":[-84.344927,40.850355]}},{"properties":{"city":"Van Wert","zip":"45891","geo_score":0.944,"biz name":"Miller Chiropractic Office","id":"83","geo_precision":"range","address":"10192 State Route 118","state":"Ohio","distance":30.316019139969},"type":"Feature","geometry":{"type":"Point","coordinates":[-84.601599,40.850364]}},{"properties":{"city":"Van Wert","zip":"45891","geo_score":0.944,"biz name":"Van Wert County Hospital","id":"179","geo_precision":"range","address":"1250 S Washington St","state":"Ohio","distance":28.9291187083942},"type":"Feature","geometry":{"type":"Point","coordinates":[-84.581404,40.850373]}},{"properties":{"city":"Van Wert","zip":"45891","geo_score":0.944,"biz name":"Canavati Isa S MD","id":"211","geo_precision":"range","address":"1250 S Washington St","state":"Ohio","distance":28.9291187083942},"type":"Feature","geometry":{"type":"Point","coordinates":[-84.581404,40.850373]}},{"properties":{"city":"Van Wert","zip":"45891","geo_score":0.944,"biz name":"Van Wert License Bureau","id":"146","geo_precision":"range","address":"777 Fox Road","state":"Ohio","distance":30.0199158518242},"type":"Feature","geometry":{"type":"Point","coordinates":[-84.597173,40.851598]}},{"properties":{"city":"Delphos","zip":"45833","geo_score":0.922,"biz name":"Washington Township Office","id":"27","geo_precision":"range","address":"22693 Lincoln Hwy","state":"Ohio","distance":15.432372727161},"type":"Feature","geometry":{"type":"Point","coordinates":[-84.384989,40.8516]}},{"properties":{"city":"Van Wert","zip":"45891","geo_score":0.944,"biz name":"Flip-Tuck Gymnastic Center","id":"186","geo_precision":"range","address":"730 Fox Road","state":"Ohio","distance":29.9785304260506},"type":"Feature","geometry":{"type":"Point","coordinates":[-84.59657,40.851603]}},{"properties":{"city":"Van Wert","zip":"45891","geo_score":0.944,"biz name":"Comfort Keepers","id":"172","geo_precision":"range","address":"736 Fox Rd,","state":"Ohio","distance":29.9839565362352},"type":"Feature","geometry":{"type":"Point","coordinates":[-84.596649,40.851603]}},{"properties":{"city":"Van Wert","zip":"45891","geo_score":0.944,"biz name":"Roger J Okuley Inc","id":"145","geo_precision":"range","address":"707 Fox Rd","state":"Ohio","distance":29.9569821620241},"type":"Feature","geometry":{"type":"Point","coordinates":[-84.596256,40.851606]}},{"properties":{"city":"Van Wert","zip":"45891","geo_score":0.944,"biz name":"Jeffery Carl DDS","id":"140","geo_precision":"range","address":"685 Fox Rd","state":"Ohio","distance":29.9372133439285},"type":"Feature","geometry":{"type":"Point","coordinates":[-84.595968,40.851608]}},{"properties":{"city":"Van Wert","zip":"45891","geo_score":0.944,"biz name":"Van Wert Chamber of Commerce","id":"76","geo_precision":"range","address":"1199 Professional Drive","state":"Ohio","distance":29.6726623125824},"type":"Feature","geometry":{"type":"Point","coordinates":[-84.592115,40.851624]}},{"properties":{"city":"Van Wert","zip":"45891","geo_score":0.944,"biz name":"Van Wert County Council-Aging","id":"258","geo_precision":"range","address":"220 Fox Road","state":"Ohio","distance":29.5094181737776},"type":"Feature","geometry":{"type":"Point","coordinates":[-84.589737,40.85164]}},{"properties":{"city":"Van Wert","zip":"45891","geo_score":0.944,"biz name":"Van Wert Manor","id":"200","geo_precision":"range","address":"160 Fox Road","state":"Ohio","distance":29.3500344217724},"type":"Feature","geometry":{"type":"Point","coordinates":[-84.587415,40.851659]}},{"properties":{"city":"Van Wert","zip":"45891","geo_score":0.944,"biz name":"Van Wert Family Dentistry","id":"139","geo_precision":"range","address":"1196 Professional Dr","state":"Ohio","distance":29.6729621012391},"type":"Feature","geometry":{"type":"Point","coordinates":[-84.592115,40.851672]}},{"properties":{"city":"Van Wert","zip":"45891","geo_score":0.785,"biz name":"Conte Thomas E MD","id":"226","geo_precision":"range","address":"140 Fox Rd Ste 404","state":"Ohio","distance":29.1901278316856},"type":"Feature","geometry":{"type":"Point","coordinates":[-84.585086,40.851672]}},{"properties":{"city":"Van Wert","zip":"45891","geo_score":0.944,"biz name":"Grand Lake Podiatry Inc","id":"219","geo_precision":"range","address":"140 Fox Rd","state":"Ohio","distance":29.1901278316856},"type":"Feature","geometry":{"type":"Point","coordinates":[-84.585086,40.851672]}},{"properties":{"city":"Van Wert","zip":"45891","geo_score":0.944,"biz name":"Khalil Abbas MD Facp","id":"218","geo_precision":"range","address":"140 Fox Rd","state":"Ohio","distance":29.1901278316856},"type":"Feature","geometry":{"type":"Point","coordinates":[-84.585086,40.851672]}},{"properties":{"city":"Van Wert","zip":"45891","geo_score":0.944,"biz name":"Lima Cancer Center","id":"74","geo_precision":"range","address":"140 Fox Rd","state":"Ohio","distance":29.1901278316856},"type":"Feature","geometry":{"type":"Point","coordinates":[-84.585086,40.851672]}},{"properties":{"city":"Van Wert","zip":"45891","geo_score":0.944,"biz name":"Herr Brian D MD","id":"217","geo_precision":"range","address":"140 Fox Rd","state":"Ohio","distance":29.1901278316856},"type":"Feature","geometry":{"type":"Point","coordinates":[-84.585086,40.851672]}},{"properties":{"city":"Van Wert","zip":"45891","geo_score":0.944,"biz name":"Van Wert County Health Department","id":"133","geo_precision":"range","address":"140 Fox Road","state":"Ohio","distance":29.1901278316856},"type":"Feature","geometry":{"type":"Point","coordinates":[-84.585086,40.851672]}},{"properties":{"city":"Van Wert","zip":"45891","geo_score":0.944,"biz name":"Ludwig Jerome J MD","id":"215","geo_precision":"range","address":"140 Fox Rd","state":"Ohio","distance":29.1901278316856},"type":"Feature","geometry":{"type":"Point","coordinates":[-84.585086,40.851672]}},{"properties":{"city":"Van Wert","zip":"45891","geo_score":0.944,"biz name":"Northeast Indiana Urology","id":"212","geo_precision":"range","address":"140 Fox Rd","state":"Ohio","distance":29.1901278316856},"type":"Feature","geometry":{"type":"Point","coordinates":[-84.585086,40.851672]}},{"properties":{"city":"Van Wert","zip":"45891","geo_score":0.944,"biz name":"Fresenis Medical Care","id":"126","geo_precision":"range","address":"140 Fox Rd","state":"Ohio","distance":29.1901278316856},"type":"Feature","geometry":{"type":"Point","coordinates":[-84.585086,40.851672]}},{"properties":{"city":"Van Wert","zip":"45891","geo_score":0.944,"biz name":"Stoller Carrie A","id":"199","geo_precision":"range","address":"140 Fox Rd","state":"Ohio","distance":29.1901278316856},"type":"Feature","geometry":{"type":"Point","coordinates":[-84.585086,40.851672]}},{"properties":{"city":"Van Wert","zip":"45891","geo_score":0.944,"biz name":"Conte Thomas MD","id":"209","geo_precision":"range","address":"140 Fox Rd","state":"Ohio","distance":29.1901278316856},"type":"Feature","geometry":{"type":"Point","coordinates":[-84.585086,40.851672]}},{"properties":{"city":"Van Wert","zip":"45891","geo_score":0.944,"biz name":"Physical Medicine Ctr","id":"208","geo_precision":"range","address":"140 Fox Rd","state":"Ohio","distance":29.1901278316856},"type":"Feature","geometry":{"type":"Point","coordinates":[-84.585086,40.851672]}},{"properties":{"city":"Van Wert","zip":"45891","geo_score":0.785,"biz name":"Family Caring Clinic","id":"178","geo_precision":"range","address":"140 Fox Rd Ste 304","state":"Ohio","distance":29.1901278316856},"type":"Feature","geometry":{"type":"Point","coordinates":[-84.585086,40.851672]}},{"properties":{"city":"Van Wert","zip":"45891","geo_score":0.944,"biz name":"Van Wert Medical Svc","id":"207","geo_precision":"range","address":"140 Fox Rd","state":"Ohio","distance":29.1901278316856},"type":"Feature","geometry":{"type":"Point","coordinates":[-84.585086,40.851672]}},{"properties":{"city":"Van Wert","zip":"45891","geo_score":0.944,"biz name":"Reed Chiropractic of Van Wert","id":"85","geo_precision":"range","address":"707 Fox Rd # 100","state":"Ohio","distance":28.952756529659},"type":"Feature","geometry":{"type":"Point","coordinates":[-84.581628,40.851701]}},{"properties":{"city":"Van Wert","zip":"45891","geo_score":0.944,"biz name":"US Consolidated Farm Svc Agcy","id":"251","geo_precision":"range","address":"1189 Professional Dr","state":"Ohio","distance":29.6741028556207},"type":"Feature","geometry":{"type":"Point","coordinates":[-84.592114,40.851866]}},{"properties":{"city":"Van Wert","zip":"45891","geo_score":0.944,"biz name":"US Department of Agriculture","id":"149","geo_precision":"range","address":"1189 Professional Dr","state":"Ohio","distance":29.6741028556207},"type":"Feature","geometry":{"type":"Point","coordinates":[-84.592114,40.851866]}},{"properties":{"city":"Van Wert","zip":"45891","geo_score":0.944,"biz name":"Lincolnview Junior High School","id":"233","geo_precision":"range","address":"15945 County Highway 124","state":"Ohio","distance":24.3845426082532},"type":"Feature","geometry":{"type":"Point","coordinates":[-84.515138,40.851873]}},{"properties":{"city":"Van Wert","zip":"45891","geo_score":0.944,"biz name":"Lincolnview Senior High School","id":"234","geo_precision":"range","address":"15945 County Highway 124","state":"Ohio","distance":24.3845426082532},"type":"Feature","geometry":{"type":"Point","coordinates":[-84.515138,40.851873]}},{"properties":{"city":"Van Wert","zip":"45891","geo_score":0.877,"biz name":"Van Wert Schools","id":"235","geo_precision":"range","address":"15945 Middle Point Rd","state":"Ohio","distance":24.3845426082532},"type":"Feature","geometry":{"type":"Point","coordinates":[-84.515138,40.851873]}},{"properties":{"city":"Middle Point","zip":"45863","geo_score":0.911,"biz name":"Traveling &amp; Recycle Wood Products","id":"46","geo_precision":"range","address":"19590 Bellis Road","state":"Ohio","distance":19.5835994585408},"type":"Feature","geometry":{"type":"Point","coordinates":[-84.445311,40.851945]}},{"properties":{"city":"Van Wert","zip":"45891","geo_score":0.944,"biz name":"Van Wert Family Physicians","id":"210","geo_precision":"range","address":"1178 Professional Dr","state":"Ohio","distance":29.6753025634001},"type":"Feature","geometry":{"type":"Point","coordinates":[-84.592114,40.852059]}},{"properties":{"city":"Van Wert","zip":"45891","geo_score":0.944,"biz name":"Briggs Lloyd C Jr MD","id":"214","geo_precision":"range","address":"1180 Professional Dr","state":"Ohio","distance":29.6753025634001},"type":"Feature","geometry":{"type":"Point","coordinates":[-84.592114,40.852059]}},{"properties":{"city":"Van Wert","zip":"45891","geo_score":0.944,"biz name":"Nieman James M MD","id":"216","geo_precision":"range","address":"1180 Professional Dr","state":"Ohio","distance":29.6753025634001},"type":"Feature","geometry":{"type":"Point","coordinates":[-84.592114,40.852059]}},{"properties":{"city":"Van Wert","zip":"45891","geo_score":0.944,"biz name":"Salvation Army","id":"114","geo_precision":"range","address":"1180 S Washington St","state":"Ohio","distance":28.9770281794001},"type":"Feature","geometry":{"type":"Point","coordinates":[-84.581943,40.85213]}},{"properties":{"city":"Delphos","zip":"45833","geo_score":0.561,"biz name":"Northwest Physical Therapy","id":"30","geo_precision":"street","address":"333 North St # 102","state":"Ohio","distance":12.5320893007618},"type":"Feature","geometry":{"type":"Point","coordinates":[-84.342779,40.85248]}},{"properties":{"city":"Van Wert","zip":"45891","geo_score":0.944,"biz name":"Medi-Lab Inc","id":"182","geo_precision":"range","address":"1187 Westwood Dr","state":"Ohio","distance":29.8600002485439},"type":"Feature","geometry":{"type":"Point","coordinates":[-84.594749,40.852655]}},{"properties":{"city":"Van Wert","zip":"45891","geo_score":0.847,"biz name":"Van Wert Vision, Ltd.","id":"203","geo_precision":"street","address":"1183 Westwood Drive","state":"Ohio","distance":29.8610606763062},"type":"Feature","geometry":{"type":"Point","coordinates":[-84.594749,40.852827]}},{"properties":{"city":"Van Wert","zip":"45891","geo_score":0.944,"biz name":"Taylor Chiropractic","id":"86","geo_precision":"range","address":"1185 Westwood Dr","state":"Ohio","distance":29.8610606763062},"type":"Feature","geometry":{"type":"Point","coordinates":[-84.594749,40.852827]}},{"properties":{"city":"Van Wert","zip":"45891","geo_score":0.944,"biz name":"Lifehouse","id":"104","geo_precision":"range","address":"1179 Westwood Dr","state":"Ohio","distance":29.8610606763062},"type":"Feature","geometry":{"type":"Point","coordinates":[-84.594749,40.852827]}},{"properties":{"city":"Van Wert","zip":"45891","geo_score":0.944,"biz name":"Neuschwanger Samuel Dpm","id":"220","geo_precision":"range","address":"1175 Westwood Dr","state":"Ohio","distance":29.86357575175},"type":"Feature","geometry":{"type":"Point","coordinates":[-84.594757,40.853147]}},{"properties":{"city":"Middle Point","zip":"45863","geo_score":0.875,"biz name":"Trinity Lutheran Church","id":"40","geo_precision":"range","address":"303 Adams St","state":"Ohio","distance":19.6413416521564},"type":"Feature","geometry":{"type":"Point","coordinates":[-84.446034,40.85351]}},{"properties":{"city":"Van Wert","zip":"45891","geo_score":0.944,"biz name":"Gabrek Daniel F DDS MSD","id":"144","geo_precision":"range","address":"1167 Westwood Dr","state":"Ohio","distance":29.8675465387546},"type":"Feature","geometry":{"type":"Point","coordinates":[-84.594758,40.853787]}},{"properties":{"city":"Van Wert","zip":"45891","geo_score":0.944,"biz name":"First Baptist Church","id":"102","geo_precision":"range","address":"13887 Jennings Rd","state":"Ohio","distance":27.1403571835894},"type":"Feature","geometry":{"type":"Point","coordinates":[-84.555036,40.854215]}},{"properties":{"city":"Van Wert","zip":"45891","geo_score":0.847,"biz name":"Van Wert Area Visiting Nurses &amp; Hospice","id":"173","geo_precision":"street","address":"1159 Westwood Dr","state":"Ohio","distance":29.8596268478576},"type":"Feature","geometry":{"type":"Point","coordinates":[-84.594602,40.85425]}},{"properties":{"city":"Van Wert","zip":"45891","geo_score":0.847,"biz name":"Community Health Professionals","id":"175","geo_precision":"street","address":"1159 Westwood Drive","state":"Ohio","distance":29.8596268478576},"type":"Feature","geometry":{"type":"Point","coordinates":[-84.594602,40.85425]}},{"properties":{"city":"Middle Point","zip":"45863","geo_score":0.559,"biz name":"Brumback Library Middle Point Branch","id":"45","geo_precision":"street","address":"102 E Railroad St","state":"Ohio","distance":19.5743944480552},"type":"Feature","geometry":{"type":"Point","coordinates":[-84.445005,40.854273]}},{"properties":{"city":"Middle Point","zip":"45863","geo_score":0.875,"biz name":"Middle Point Police","id":"49","geo_precision":"range","address":"107 Adams St","state":"Ohio","distance":19.6460216608904},"type":"Feature","geometry":{"type":"Point","coordinates":[-84.446041,40.854345]}},{"properties":{"city":"Middle Point","zip":"45863","geo_score":0.911,"biz name":"Amvets Post 698","id":"51","geo_precision":"range","address":"102 South Adams Street","state":"Ohio","distance":19.6465404087556},"type":"Feature","geometry":{"type":"Point","coordinates":[-84.446046,40.85438]}},{"properties":{"city":"Middle Point","zip":"45863","geo_score":0.911,"biz name":"Buffalo Pub","id":"47","geo_precision":"range","address":"101 South Adams Street","state":"Ohio","distance":19.6468316474101},"type":"Feature","geometry":{"type":"Point","coordinates":[-84.446049,40.854397]}},{"properties":{"city":"Van Wert","zip":"45891","geo_score":0.944,"biz name":"Van Wert Inpatient Hospice Center","id":"177","geo_precision":"range","address":"1155 Westwood Dr","state":"Ohio","distance":29.8328194269918},"type":"Feature","geometry":{"type":"Point","coordinates":[-84.594177,40.854649]}},{"properties":{"city":"Middle Point","zip":"45863","geo_score":0.869,"biz name":"Middle Point United Mthdst Chr","id":"38","geo_precision":"range","address":"109 N Mill St","state":"Ohio","distance":19.3821778399787},"type":"Feature","geometry":{"type":"Point","coordinates":[-84.442178,40.854728]}},{"properties":{"city":"Middle Point","zip":"45863","geo_score":0.911,"biz name":"US Post Office","id":"50","geo_precision":"range","address":"206 East Jackson Street","state":"Ohio","distance":19.4870445947714},"type":"Feature","geometry":{"type":"Point","coordinates":[-84.443671,40.855165]}},{"properties":{"city":"Van Wert","zip":"45891","geo_score":0.944,"biz name":"Van Wert County Fair Board","id":"157","geo_precision":"range","address":"1055 S Washington St","state":"Ohio","distance":29.1840544260758},"type":"Feature","geometry":{"type":"Point","coordinates":[-84.584681,40.855289]}},{"properties":{"city":"Van Wert","zip":"45891","geo_score":0.944,"biz name":"Ohio State University Ext Van Wert","id":"163","geo_precision":"range","address":"1055 South Washington Street","state":"Ohio","distance":29.1840544260758},"type":"Feature","geometry":{"type":"Point","coordinates":[-84.584681,40.855289]}},{"properties":{"city":"Middle Point","zip":"45863","geo_score":0.911,"biz name":"Middle Point Fire Dept","id":"41","geo_precision":"range","address":"104 E Jackson St","state":"Ohio","distance":19.6485158039056},"type":"Feature","geometry":{"type":"Point","coordinates":[-84.445998,40.855446]}},{"properties":{"city":"Middle Point","zip":"45863","geo_score":0.718,"biz name":"Middle Point Village Clerk","id":"42","geo_precision":"street","address":"103 North Adams Street","state":"Ohio","distance":19.6510907564572},"type":"Feature","geometry":{"type":"Point","coordinates":[-84.446035,40.855452]}},{"properties":{"city":"Van Wert","zip":"45891","geo_score":0.944,"biz name":"Frey Lori K DDS","id":"138","geo_precision":"range","address":"1142 Westwood Dr","state":"Ohio","distance":29.7883732199358},"type":"Feature","geometry":{"type":"Point","coordinates":[-84.59346,40.855461]}},{"properties":{"city":"Middle Point","zip":"45863","geo_score":0.911,"biz name":"Waste Water","id":"43","geo_precision":"range","address":"10299 County Highway 185","state":"Ohio","distance":18.990581649259},"type":"Feature","geometry":{"type":"Point","coordinates":[-84.436417,40.8557]}},{"properties":{"city":"Van Wert","zip":"45891","geo_score":0.944,"biz name":"Kelly J. Miller, PT","id":"206","geo_precision":"range","address":"1119 Westwood Drive","state":"Ohio","distance":29.7276440292914},"type":"Feature","geometry":{"type":"Point","coordinates":[-84.592452,40.856928]}},{"properties":{"city":"Van Wert","zip":"45891","geo_score":0.944,"biz name":"Early Headstart","id":"79","geo_precision":"range","address":"1119 Westwood Dr","state":"Ohio","distance":29.7276440292914},"type":"Feature","geometry":{"type":"Point","coordinates":[-84.592452,40.856928]}},{"properties":{"city":"Van Wert","zip":"45891","geo_score":0.944,"biz name":"Van Wert County WIC Program","id":"250","geo_precision":"range","address":"1119 Westwood Dr","state":"Ohio","distance":29.7276440292914},"type":"Feature","geometry":{"type":"Point","coordinates":[-84.592452,40.856928]}},{"properties":{"city":"Van Wert","zip":"45891","geo_score":0.944,"biz name":"Highway Patrol","id":"252","geo_precision":"range","address":"10234 County Highway 434","state":"Ohio","distance":31.9298790486145},"type":"Feature","geometry":{"type":"Point","coordinates":[-84.624496,40.856952]}},{"properties":{"city":"Van Wert","zip":"45891","geo_score":0.944,"biz name":"Transportation Department","id":"254","geo_precision":"range","address":"10238 County Highway 434","state":"Ohio","distance":31.9259334121499},"type":"Feature","geometry":{"type":"Point","coordinates":[-84.624437,40.85697]}},{"properties":{"city":"Middle Point","zip":"45863","geo_score":0.875,"biz name":"Middle Point Ball Park","id":"48","geo_precision":"range","address":"406 Adams St","state":"Ohio","distance":19.6601309031378},"type":"Feature","geometry":{"type":"Point","coordinates":[-84.446041,40.857235]}},{"properties":{"city":"Van Wert","zip":"45891","geo_score":0.944,"biz name":"Vancrest Health Care Center","id":"201","geo_precision":"range","address":"10357 County Highway 434","state":"Ohio","distance":31.8093978212944},"type":"Feature","geometry":{"type":"Point","coordinates":[-84.622686,40.857603]}},{"properties":{"city":"Van Wert","zip":"45891","geo_score":0.944,"biz name":"Jefferson Elementary School","id":"232","geo_precision":"range","address":"1120 Buckeye Dr","state":"Ohio","distance":28.092999317168},"type":"Feature","geometry":{"type":"Point","coordinates":[-84.568584,40.85802]}},{"properties":{"city":"Van Wert","zip":"45891","geo_score":0.944,"biz name":"Calvary Preschool","id":"78","geo_precision":"range","address":"10686 Van Wert Decatur Rd","state":"Ohio","distance":31.3258946265274},"type":"Feature","geometry":{"type":"Point","coordinates":[-84.615552,40.858761]}},{"properties":{"city":"Van Wert","zip":"45891","geo_score":0.944,"biz name":"Calvary Evangelical Church","id":"91","geo_precision":"range","address":"10686 Van Wert Decatur Rd","state":"Ohio","distance":31.3258946265274},"type":"Feature","geometry":{"type":"Point","coordinates":[-84.615552,40.858761]}},{"properties":{"city":"Van Wert","zip":"45891","geo_score":0.944,"biz name":"Foster Family Chiropractic","id":"80","geo_precision":"range","address":"10963 Van Wert Decatur Rd","state":"Ohio","distance":30.9397927476365},"type":"Feature","geometry":{"type":"Point","coordinates":[-84.609933,40.85878]}},{"properties":{"city":"Van Wert","zip":"45891","geo_score":0.944,"biz name":"Jehovah's Witnesses","id":"101","geo_precision":"range","address":"11239 Van Wert Decatur Rd","state":"Ohio","distance":30.5884208415988},"type":"Feature","geometry":{"type":"Point","coordinates":[-84.604819,40.858806]}},{"properties":{"city":"Van Wert","zip":"45891","geo_score":0.944,"biz name":"Staffmark","id":"148","geo_precision":"range","address":"641 W Ervin Rd","state":"Ohio","distance":29.6369537259866},"type":"Feature","geometry":{"type":"Point","coordinates":[-84.590972,40.858881]}},{"properties":{"city":"Van Wert","zip":"45891","geo_score":0.822,"biz name":"Jennings Road Church of Christ","id":"111","geo_precision":"range","address":"1124 Jennings Rd","state":"Ohio","distance":27.5502852814951},"type":"Feature","geometry":{"type":"Point","coordinates":[-84.560611,40.859042]}},{"properties":{"city":"Van Wert","zip":"45891","geo_score":0.944,"biz name":"US Consolidated Farm Services Agency","id":"150","geo_precision":"range","address":"1362 East Ervin Road","state":"Ohio","distance":27.6303586909176},"type":"Feature","geometry":{"type":"Point","coordinates":[-84.561769,40.859125]}},{"properties":{"city":"Delphos","zip":"45833","geo_score":0.922,"biz name":"Delphos Waste Water Treatment","id":"20","geo_precision":"range","address":"24793 Pohlman Road","state":"Ohio","distance":12.7026410590042},"type":"Feature","geometry":{"type":"Point","coordinates":[-84.344798,40.859739]}},{"properties":{"city":"Van Wert","zip":"45891","geo_score":0.944,"biz name":"Apostolic Church","id":"89","geo_precision":"range","address":"1017 S Shannon St","state":"Ohio","distance":29.9893557734926},"type":"Feature","geometry":{"type":"Point","coordinates":[-84.596015,40.859911]}},{"properties":{"city":"Van Wert","zip":"45891","geo_score":0.944,"biz name":"Bethel United Methodist Church","id":"122","geo_precision":"range","address":"1148 Rosalie Drive","state":"Ohio","distance":28.0234471116446},"type":"Feature","geometry":{"type":"Point","coordinates":[-84.56741,40.8601]}},{"properties":{"city":"Van Wert","zip":"45891","geo_score":0.944,"biz name":"Bethel United Methodist Church","id":"92","geo_precision":"range","address":"1148 Rosalie Drive","state":"Ohio","distance":28.0234471116446},"type":"Feature","geometry":{"type":"Point","coordinates":[-84.56741,40.8601]}},{"properties":{"city":"Van Wert","zip":"45891","geo_score":0.944,"biz name":"Tomlinson Harold E DC","id":"87","geo_precision":"range","address":"821 Allen Dr","state":"Ohio","distance":28.4397543179831},"type":"Feature","geometry":{"type":"Point","coordinates":[-84.573452,40.860252]}},{"properties":{"city":"Van Wert","zip":"45891","geo_score":0.944,"biz name":"Westside Baptist Chapel","id":"117","geo_precision":"range","address":"603 Airport Ave","state":"Ohio","distance":29.9570555902545},"type":"Feature","geometry":{"type":"Point","coordinates":[-84.595502,40.860454]}},{"properties":{"city":"Van Wert","zip":"45891","geo_score":0.944,"biz name":"Uswa Local 13029-30","id":"181","geo_precision":"range","address":"975 Glenn St","state":"Ohio","distance":29.5719986540809},"type":"Feature","geometry":{"type":"Point","coordinates":[-84.589839,40.86126]}},{"properties":{"city":"Van Wert","zip":"45891","geo_score":0.922,"biz name":"Emmanuel Lutheran Church","id":"93","geo_precision":"range","address":"705 S Washington S","state":"Ohio","distance":29.1051874347578},"type":"Feature","geometry":{"type":"Point","coordinates":[-84.582957,40.862496]}},{"properties":{"city":"Van Wert","zip":"45891","geo_score":0.944,"biz name":"St Mary's of the Assumption","id":"229","geo_precision":"range","address":"611 Jennings Rd","state":"Ohio","distance":27.9169571885516},"type":"Feature","geometry":{"type":"Point","coordinates":[-84.565646,40.862989]}},{"properties":{"city":"Van Wert","zip":"45891","geo_score":0.944,"biz name":"St Mary of The Assumption","id":"94","geo_precision":"range","address":"601 Jennings Rd","state":"Ohio","distance":27.9555135929253},"type":"Feature","geometry":{"type":"Point","coordinates":[-84.566177,40.863396]}},{"properties":{"city":"Van Wert","zip":"45891","geo_score":0.944,"biz name":"Wassenberg Art Center","id":"197","geo_precision":"range","address":"643 South Washington Street","state":"Ohio","distance":29.1132972903195},"type":"Feature","geometry":{"type":"Point","coordinates":[-84.582964,40.863994]}},{"properties":{"city":"Van Wert","zip":"45891","geo_score":0.856,"biz name":"Watson Bill","id":"125","geo_precision":"range","address":"526 South Race Stree","state":"Ohio","distance":28.5313822294584},"type":"Feature","geometry":{"type":"Point","coordinates":[-84.574455,40.864689]}},{"properties":{"city":"Van Wert","zip":"45891","geo_score":0.944,"biz name":"Drive-Way Driving School","id":"147","geo_precision":"range","address":"215 Keplar St","state":"Ohio","distance":28.9022623487803},"type":"Feature","geometry":{"type":"Point","coordinates":[-84.579829,40.864926]}},{"properties":{"city":"Van Wert","zip":"45891","geo_score":0.944,"biz name":"Franklin Elementary School","id":"230","geo_precision":"range","address":"305 Frothingham St","state":"Ohio","distance":28.8108639459311},"type":"Feature","geometry":{"type":"Point","coordinates":[-84.578471,40.865341]}},{"properties":{"city":"Van Wert","zip":"45891","geo_score":0.944,"biz name":"First United Brethren-In Christ","id":"98","geo_precision":"range","address":"501 S Race St","state":"Ohio","distance":28.5351971930546},"type":"Feature","geometry":{"type":"Point","coordinates":[-84.574464,40.865345]}},{"properties":{"city":"Van Wert","zip":"45891","geo_score":0.944,"biz name":"Pleasant Township Trustee Office","id":"152","geo_precision":"range","address":"10507 Factory Road","state":"Ohio","distance":31.6472599350182},"type":"Feature","geometry":{"type":"Point","coordinates":[-84.619653,40.866021]}},{"properties":{"city":"Van Wert","zip":"45891","geo_score":0.944,"biz name":"Van Wert Municipal Airport","id":"70","geo_precision":"range","address":"1400 Leeson Avenue","state":"Ohio","distance":30.4037721916257},"type":"Feature","geometry":{"type":"Point","coordinates":[-84.601571,40.866093]}},{"properties":{"city":"Van Wert","zip":"45891","geo_score":0.944,"biz name":"Pentecostal Way Church","id":"108","geo_precision":"range","address":"1213 Leeson Ave","state":"Ohio","distance":30.3233959332923},"type":"Feature","geometry":{"type":"Point","coordinates":[-84.600402,40.866102]}},{"properties":{"city":"Van Wert","zip":"45891","geo_score":0.944,"biz name":"United Steelworkers of America","id":"180","geo_precision":"range","address":"351 Pleasant St","state":"Ohio","distance":29.5888245960451},"type":"Feature","geometry":{"type":"Point","coordinates":[-84.589671,40.866866]}},{"properties":{"city":"Van Wert","zip":"45891","geo_score":0.944,"biz name":"Washington Elementary School","id":"243","geo_precision":"range","address":"839 Prospect Ave","state":"Ohio","distance":29.901116962424},"type":"Feature","geometry":{"type":"Point","coordinates":[-84.594196,40.867064]}},{"properties":{"city":"Van Wert","zip":"45891","geo_score":0.944,"biz name":"Washington School","id":"236","geo_precision":"range","address":"839 Prospect Ave","state":"Ohio","distance":29.901116962424},"type":"Feature","geometry":{"type":"Point","coordinates":[-84.594196,40.867064]}},{"properties":{"city":"Van Wert","zip":"45891","geo_score":0.944,"biz name":"Van Wert Middle School","id":"231","geo_precision":"range","address":"305 W Crawford St","state":"Ohio","distance":29.324933501571},"type":"Feature","geometry":{"type":"Point","coordinates":[-84.585804,40.867325]}},{"properties":{"city":"Van Wert","zip":"45891","geo_score":0.944,"biz name":"Van Wert Superintendent Office","id":"196","geo_precision":"range","address":"205 West Crawford Street","state":"Ohio","distance":29.2222850208932},"type":"Feature","geometry":{"type":"Point","coordinates":[-84.584311,40.867343]}},{"properties":{"city":"Van Wert","zip":"45891","geo_score":0.944,"biz name":"Van Wert Superintendent Office","id":"241","geo_precision":"range","address":"205 W Crawford St","state":"Ohio","distance":29.2222850208932},"type":"Feature","geometry":{"type":"Point","coordinates":[-84.584311,40.867343]}},{"properties":{"city":"Van Wert","zip":"45891","geo_score":0.944,"biz name":"First Church of God","id":"95","geo_precision":"range","address":"314 S Harrison St","state":"Ohio","distance":28.710201673422},"type":"Feature","geometry":{"type":"Point","coordinates":[-84.576863,40.867435]}},{"properties":{"city":"Van Wert","zip":"45891","geo_score":0.944,"biz name":"Trinity United Methodist Church","id":"97","geo_precision":"range","address":"403 E Crawford St","state":"Ohio","distance":28.7987397235003},"type":"Feature","geometry":{"type":"Point","coordinates":[-84.57814,40.867577]}},{"properties":{"city":"Van Wert","zip":"45891","geo_score":0.944,"biz name":"Colvin Gale","id":"123","geo_precision":"range","address":"403 East Crawford Street","state":"Ohio","distance":28.7987397235003},"type":"Feature","geometry":{"type":"Point","coordinates":[-84.57814,40.867577]}},{"properties":{"city":"Van Wert","zip":"45891","geo_score":0.944,"biz name":"Van Wert Engineer's Office","id":"170","geo_precision":"range","address":"220 South Market Street","state":"Ohio","distance":28.9764904026622},"type":"Feature","geometry":{"type":"Point","coordinates":[-84.580667,40.868409]}},{"properties":{"city":"Van Wert","zip":"45891","geo_score":0.944,"biz name":"Trinity United Methodist Church","id":"113","geo_precision":"range","address":"220 S Walnut St","state":"Ohio","distance":28.8948572891121},"type":"Feature","geometry":{"type":"Point","coordinates":[-84.579479,40.868436]}},{"properties":{"city":"Van Wert","zip":"45891","geo_score":0.944,"biz name":"First Friends Church","id":"96","geo_precision":"range","address":"210 S Franklin St","state":"Ohio","distance":28.3785814832942},"type":"Feature","geometry":{"type":"Point","coordinates":[-84.571967,40.868592]}},{"properties":{"city":"Van Wert","zip":"45891","geo_score":0.944,"biz name":"First Baptist Church","id":"99","geo_precision":"range","address":"113 W Central Ave","state":"Ohio","distance":29.22538272521},"type":"Feature","geometry":{"type":"Point","coordinates":[-84.584268,40.868643]}},{"properties":{"city":"Van Wert","zip":"45891","geo_score":0.944,"biz name":"First United Methodist Church","id":"100","geo_precision":"range","address":"113 W Central Ave","state":"Ohio","distance":29.22538272521},"type":"Feature","geometry":{"type":"Point","coordinates":[-84.584268,40.868643]}},{"properties":{"city":"Van Wert","zip":"45891","geo_score":0.944,"biz name":"Van Wert County Municipal Court","id":"247","geo_precision":"range","address":"124 South Market Street","state":"Ohio","distance":28.9793839073697},"type":"Feature","geometry":{"type":"Point","coordinates":[-84.580677,40.868891]}},{"properties":{"city":"Van Wert","zip":"45891","geo_score":0.944,"biz name":"Van Wert County Municipal Court","id":"127","geo_precision":"range","address":"124 South Market Street","state":"Ohio","distance":28.9793839073697},"type":"Feature","geometry":{"type":"Point","coordinates":[-84.580677,40.868891]}},{"properties":{"city":"Van Wert","zip":"45891","geo_score":0.944,"biz name":"Peking Chinese Restaurant","id":"191","geo_precision":"range","address":"115 South Washington Street","state":"Ohio","distance":29.1476082916961},"type":"Feature","geometry":{"type":"Point","coordinates":[-84.583081,40.869503]}},{"properties":{"city":"Van Wert","zip":"45891","geo_score":0.944,"biz name":"Laing Kevin M DDS","id":"143","geo_precision":"range","address":"101 S Shannon St","state":"Ohio","distance":29.3892695234271},"type":"Feature","geometry":{"type":"Point","coordinates":[-84.586585,40.869614]}},{"properties":{"city":"Van Wert","zip":"45891","geo_score":0.944,"biz name":"YMCA","id":"256","geo_precision":"range","address":"241 West Main Street","state":"Ohio","distance":29.2857749521008},"type":"Feature","geometry":{"type":"Point","coordinates":[-84.58508,40.869633]}},{"properties":{"city":"Van Wert","zip":"45891","geo_score":0.944,"biz name":"YMCA","id":"198","geo_precision":"range","address":"241 W Main St","state":"Ohio","distance":29.2857749521008},"type":"Feature","geometry":{"type":"Point","coordinates":[-84.58508,40.869633]}},{"properties":{"city":"Van Wert","zip":"45891","geo_score":0.944,"biz name":"Brumback Library","id":"183","geo_precision":"range","address":"215 W Main St","state":"Ohio","distance":29.2542577808989},"type":"Feature","geometry":{"type":"Point","coordinates":[-84.584622,40.869634]}},{"properties":{"city":"Van Wert","zip":"45891","geo_score":0.944,"biz name":"Fountain Park","id":"205","geo_precision":"range","address":"215 W Main St","state":"Ohio","distance":29.2542577808989},"type":"Feature","geometry":{"type":"Point","coordinates":[-84.584622,40.869634]}},{"properties":{"city":"Van Wert","zip":"45891","geo_score":0.944,"biz name":"Fountain Park Home Care","id":"174","geo_precision":"range","address":"120 W Main St","state":"Ohio","distance":29.1619171377619},"type":"Feature","geometry":{"type":"Point","coordinates":[-84.58328,40.869639]}},{"properties":{"city":"Van Wert","zip":"45891","geo_score":0.944,"biz name":"John K Eversman Inc","id":"142","geo_precision":"range","address":"120 W Main St","state":"Ohio","distance":29.1619171377619},"type":"Feature","geometry":{"type":"Point","coordinates":[-84.58328,40.869639]}},{"properties":{"city":"Van Wert","zip":"45891","geo_score":0.944,"biz name":"Wren Fire and Ems","id":"151","geo_precision":"range","address":"106 W Main St","state":"Ohio","distance":29.1525060623256},"type":"Feature","geometry":{"type":"Point","coordinates":[-84.583143,40.869643]}},{"properties":{"city":"Van Wert","zip":"45891","geo_score":0.944,"biz name":"US Army Recruiting Office","id":"227","geo_precision":"range","address":"105 W Main St","state":"Ohio","distance":29.151202878175},"type":"Feature","geometry":{"type":"Point","coordinates":[-84.583124,40.869644]}},{"properties":{"city":"Van Wert","zip":"45891","geo_score":0.944,"biz name":"Van Wert County Job &amp; Family","id":"169","geo_precision":"range","address":"114 E Main St","state":"Ohio","distance":29.1184509401988},"type":"Feature","geometry":{"type":"Point","coordinates":[-84.582648,40.869646]}},{"properties":{"city":"Van Wert","zip":"45891","geo_score":0.944,"biz name":"Van Wert County Job &amp; Family","id":"253","geo_precision":"range","address":"114 E Main St","state":"Ohio","distance":29.1184509401988},"type":"Feature","geometry":{"type":"Point","coordinates":[-84.582648,40.869646]}},{"properties":{"city":"Van Wert","zip":"45891","geo_score":0.944,"biz name":"Van Wert County Probate Court","id":"128","geo_precision":"range","address":"108 East Main Street","state":"Ohio","distance":29.128568296954},"type":"Feature","geometry":{"type":"Point","coordinates":[-84.582795,40.869646]}},{"properties":{"city":"Van Wert","zip":"45891","geo_score":0.944,"biz name":"Van Wert County Regional Plan","id":"165","geo_precision":"range","address":"114 E Main St","state":"Ohio","distance":29.1184509401988},"type":"Feature","geometry":{"type":"Point","coordinates":[-84.582648,40.869646]}},{"properties":{"city":"Van Wert","zip":"45891","geo_score":0.944,"biz name":"Van Wert County Juvenile Court","id":"129","geo_precision":"range","address":"108 East Main Street","state":"Ohio","distance":29.128568296954},"type":"Feature","geometry":{"type":"Point","coordinates":[-84.582795,40.869646]}},{"properties":{"city":"Van Wert","zip":"45891","geo_score":0.944,"biz name":"Van Wert Engineer's Tax Map","id":"131","geo_precision":"range","address":"121 E Main St # 106","state":"Ohio","distance":29.1319407472974},"type":"Feature","geometry":{"type":"Point","coordinates":[-84.582844,40.869646]}},{"properties":{"city":"Van Wert","zip":"45891","geo_score":0.944,"biz name":"Work Force Investment Act","id":"249","geo_precision":"range","address":"114 E Main St","state":"Ohio","distance":29.1184509401988},"type":"Feature","geometry":{"type":"Point","coordinates":[-84.582648,40.869646]}},{"properties":{"city":"Van Wert","zip":"45891","geo_score":0.944,"biz name":"Child Support Enforcement Agency","id":"135","geo_precision":"range","address":"114 E Main St","state":"Ohio","distance":29.1184509401988},"type":"Feature","geometry":{"type":"Point","coordinates":[-84.582648,40.869646]}},{"properties":{"city":"Van Wert","zip":"45891","geo_score":0.944,"biz name":"Van Wert County Job &amp; Family","id":"136","geo_precision":"range","address":"114 E Main St","state":"Ohio","distance":29.1184509401988},"type":"Feature","geometry":{"type":"Point","coordinates":[-84.582648,40.869646]}},{"properties":{"city":"Van Wert","zip":"45891","geo_score":0.944,"biz name":"Van Wert County Commissioners","id":"160","geo_precision":"range","address":"114 E Main St","state":"Ohio","distance":29.1184509401988},"type":"Feature","geometry":{"type":"Point","coordinates":[-84.582648,40.869646]}},{"properties":{"city":"Van Wert","zip":"45891","geo_score":0.944,"biz name":"Van Wert County Election Board","id":"168","geo_precision":"range","address":"120 East Main Street","state":"Ohio","distance":29.0974636111349},"type":"Feature","geometry":{"type":"Point","coordinates":[-84.582343,40.869647]}},{"properties":{"city":"Van Wert","zip":"45891","geo_score":0.944,"biz name":"Van Wert Engineer's Office","id":"155","geo_precision":"range","address":"515 East Main Street","state":"Ohio","distance":28.7140982871028},"type":"Feature","geometry":{"type":"Point","coordinates":[-84.576773,40.869647]}},{"properties":{"city":"Van Wert","zip":"45891","geo_score":0.944,"biz name":"Van Wert Safety Services Director","id":"154","geo_precision":"range","address":"515 East Main Street","state":"Ohio","distance":28.7140982871028},"type":"Feature","geometry":{"type":"Point","coordinates":[-84.576773,40.869647]}},{"properties":{"city":"Van Wert","zip":"45891","geo_score":0.944,"biz name":"Van Wert Auditor's Office","id":"153","geo_precision":"range","address":"515 East Main Street","state":"Ohio","distance":28.7140982871028},"type":"Feature","geometry":{"type":"Point","coordinates":[-84.576773,40.869647]}},{"properties":{"city":"Van Wert","zip":"45891","geo_score":0.944,"biz name":"Van Wert Mayor's Office","id":"130","geo_precision":"range","address":"515 East Main Street","state":"Ohio","distance":28.7140982871028},"type":"Feature","geometry":{"type":"Point","coordinates":[-84.576773,40.869647]}},{"properties":{"city":"Van Wert","zip":"45891","geo_score":0.944,"biz name":"Van Wert City Income Tax Department","id":"120","geo_precision":"range","address":"515 E Main St","state":"Ohio","distance":28.7140982871028},"type":"Feature","geometry":{"type":"Point","coordinates":[-84.576773,40.869647]}},{"properties":{"city":"Van Wert","zip":"45891","geo_score":0.944,"biz name":"Van Wert Mayor's Office","id":"119","geo_precision":"range","address":"515 East Main Street","state":"Ohio","distance":28.7140982871028},"type":"Feature","geometry":{"type":"Point","coordinates":[-84.576773,40.869647]}},{"properties":{"city":"Van Wert","zip":"45891","geo_score":0.944,"biz name":"Van Wert Economic Development","id":"118","geo_precision":"range","address":"515 East Main St","state":"Ohio","distance":28.7140982871028},"type":"Feature","geometry":{"type":"Point","coordinates":[-84.576773,40.869647]}},{"properties":{"city":"Van Wert","zip":"45891","geo_score":0.944,"biz name":"Chief of Police","id":"221","geo_precision":"range","address":"515 E Main St","state":"Ohio","distance":28.7140982871028},"type":"Feature","geometry":{"type":"Point","coordinates":[-84.576773,40.869647]}},{"properties":{"city":"Van Wert","zip":"45891","geo_score":0.944,"biz name":"Van Wert Police Records Bureau","id":"222","geo_precision":"range","address":"515 E Main St","state":"Ohio","distance":28.7140982871028},"type":"Feature","geometry":{"type":"Point","coordinates":[-84.576773,40.869647]}},{"properties":{"city":"Van Wert","zip":"45891","geo_score":0.944,"biz name":"City of Van Wert Police Dept","id":"223","geo_precision":"range","address":"515 E Main St","state":"Ohio","distance":28.7140982871028},"type":"Feature","geometry":{"type":"Point","coordinates":[-84.576773,40.869647]}},{"properties":{"city":"Van Wert","zip":"45891","geo_score":0.944,"biz name":"Van Wert Police Detective Bureau","id":"224","geo_precision":"range","address":"515 East Main Street","state":"Ohio","distance":28.7140982871028},"type":"Feature","geometry":{"type":"Point","coordinates":[-84.576773,40.869647]}},{"properties":{"city":"Van Wert","zip":"45891","geo_score":0.822,"biz name":"Woodland Cemetery","id":"75","geo_precision":"range","address":"10968 Woodland Avenue","state":"Ohio","distance":31.1882901528185},"type":"Feature","geometry":{"type":"Point","coordinates":[-84.612724,40.869652]}},{"properties":{"city":"Van Wert","zip":"45891","geo_score":0.944,"biz name":"Associated Charities Inc Court House","id":"195","geo_precision":"range","address":"121 E Main St","state":"Ohio","distance":29.0678311218392},"type":"Feature","geometry":{"type":"Point","coordinates":[-84.581912,40.869654]}},{"properties":{"city":"Van Wert","zip":"45891","geo_score":0.944,"biz name":"Van Wert County Common Pleas","id":"158","geo_precision":"range","address":"121 E Main St","state":"Ohio","distance":29.0678311218392},"type":"Feature","geometry":{"type":"Point","coordinates":[-84.581912,40.869654]}},{"properties":{"city":"Van Wert","zip":"45891","geo_score":0.944,"biz name":"Van Wert County Veterans Services","id":"159","geo_precision":"range","address":"121 E Main St","state":"Ohio","distance":29.0678311218392},"type":"Feature","geometry":{"type":"Point","coordinates":[-84.581912,40.869654]}},{"properties":{"city":"Van Wert","zip":"45891","geo_score":0.944,"biz name":"Associated Charities Inc","id":"72","geo_precision":"range","address":"121 E Main St","state":"Ohio","distance":29.0678311218392},"type":"Feature","geometry":{"type":"Point","coordinates":[-84.581912,40.869654]}},{"properties":{"city":"Van Wert","zip":"45891","geo_score":0.944,"biz name":"Van Wert County Recorder's Office","id":"162","geo_precision":"range","address":"121 E Main St","state":"Ohio","distance":29.0678311218392},"type":"Feature","geometry":{"type":"Point","coordinates":[-84.581912,40.869654]}},{"properties":{"city":"Van Wert","zip":"45891","geo_score":0.944,"biz name":"Van Wert County Title Department","id":"171","geo_precision":"range","address":"121 E Main St","state":"Ohio","distance":29.0678311218392},"type":"Feature","geometry":{"type":"Point","coordinates":[-84.581912,40.869654]}},{"properties":{"city":"Van Wert","zip":"45891","geo_score":0.944,"biz name":"Van Wert County Micrographics","id":"167","geo_precision":"range","address":"121 E Main St","state":"Ohio","distance":29.0678311218392},"type":"Feature","geometry":{"type":"Point","coordinates":[-84.581912,40.869654]}},{"properties":{"city":"Van Wert","zip":"45891","geo_score":0.944,"biz name":"Van Wert County Treasurer's","id":"166","geo_precision":"range","address":"121 E Main St","state":"Ohio","distance":29.0678311218392},"type":"Feature","geometry":{"type":"Point","coordinates":[-84.581912,40.869654]}},{"properties":{"city":"Van Wert","zip":"45891","geo_score":0.944,"biz name":"Van Wert County Auditor's Office","id":"164","geo_precision":"range","address":"121 E Main St","state":"Ohio","distance":29.0678311218392},"type":"Feature","geometry":{"type":"Point","coordinates":[-84.581912,40.869654]}},{"properties":{"city":"Van Wert","zip":"45891","geo_score":0.944,"biz name":"Hotel Marsh","id":"192","geo_precision":"range","address":"128 East Main Street","state":"Ohio","distance":29.0174863167612},"type":"Feature","geometry":{"type":"Point","coordinates":[-84.58118,40.869662]}},{"properties":{"city":"Van Wert","zip":"45891","geo_score":0.944,"biz name":"Mengerink's Tuxedo Source","id":"190","geo_precision":"range","address":"148 East Main Street","state":"Ohio","distance":29.01191587203},"type":"Feature","geometry":{"type":"Point","coordinates":[-84.581099,40.869663]}},{"properties":{"city":"Van Wert","zip":"45891","geo_score":0.944,"biz name":"Barnhart's Furniture Outlet","id":"188","geo_precision":"range","address":"200 East Main Street","state":"Ohio","distance":28.9837015366622},"type":"Feature","geometry":{"type":"Point","coordinates":[-84.580689,40.869664]}},{"properties":{"city":"Van Wert","zip":"45891","geo_score":0.944,"biz name":"American Red Cross","id":"248","geo_precision":"range","address":"208 E Main St","state":"Ohio","distance":28.978746029876},"type":"Feature","geometry":{"type":"Point","coordinates":[-84.580617,40.869664]}},{"properties":{"city":"Van Wert","zip":"45891","geo_score":0.751,"biz name":"Nygren Family Chiropractic","id":"84","geo_precision":"street","address":"118 1/2 N Walnut St","state":"Ohio","distance":28.8978880451572},"type":"Feature","geometry":{"type":"Point","coordinates":[-84.579442,40.869667]}},{"properties":{"city":"Van Wert","zip":"45891","geo_score":0.944,"biz name":"US Post Office","id":"225","geo_precision":"range","address":"314 East Main Street","state":"Ohio","distance":28.8883899186475},"type":"Feature","geometry":{"type":"Point","coordinates":[-84.579304,40.869667]}},{"properties":{"city":"Van Wert","zip":"45891","geo_score":0.944,"biz name":"Miller Dennis J OD","id":"202","geo_precision":"range","address":"321 W Main St","state":"Ohio","distance":29.4024097140758},"type":"Feature","geometry":{"type":"Point","coordinates":[-84.586767,40.86975]}},{"properties":{"city":"Van Wert","zip":"45891","geo_score":0.944,"biz name":"O'Donnell Philip MD","id":"213","geo_precision":"range","address":"321 W Main St","state":"Ohio","distance":29.4024097140758},"type":"Feature","geometry":{"type":"Point","coordinates":[-84.586767,40.86975]}},{"properties":{"city":"Van Wert","zip":"45891","geo_score":0.944,"biz name":"Veterans of Foreign Wars","id":"255","geo_precision":"range","address":"111 North Shannon Street","state":"Ohio","distance":29.3839815359438},"type":"Feature","geometry":{"type":"Point","coordinates":[-84.586498,40.869769]}},{"properties":{"city":"Van Wert","zip":"45891","geo_score":0.944,"biz name":"Crime Stoppers-Van Wert County","id":"193","geo_precision":"range","address":"113 North Market Street","state":"Ohio","distance":28.9913009941984},"type":"Feature","geometry":{"type":"Point","coordinates":[-84.580792,40.869778]}},{"properties":{"city":"Van Wert","zip":"45891","geo_score":0.944,"biz name":"Crime Stoppers","id":"245","geo_precision":"range","address":"113 N Market St","state":"Ohio","distance":28.9913009941984},"type":"Feature","geometry":{"type":"Point","coordinates":[-84.580792,40.869778]}},{"properties":{"city":"Van Wert","zip":"45891","geo_score":0.944,"biz name":"Van Wert Prosecuting Attorney","id":"132","geo_precision":"range","address":"119 North Washington Street","state":"Ohio","distance":29.1488465776727},"type":"Feature","geometry":{"type":"Point","coordinates":[-84.583079,40.869809]}},{"properties":{"city":"Van Wert","zip":"45891","geo_score":0.944,"biz name":"Vineyard Christian Fellowship of Van Wert","id":"115","geo_precision":"range","address":"120 N Cherry St","state":"Ohio","distance":28.8136956172979},"type":"Feature","geometry":{"type":"Point","coordinates":[-84.578206,40.869864]}},{"properties":{"city":"Van Wert","zip":"45891","geo_score":0.944,"biz name":"Junior Achievement","id":"257","geo_precision":"range","address":"1420 Krendl Dr","state":"Ohio","distance":30.8834142339461},"type":"Feature","geometry":{"type":"Point","coordinates":[-84.608265,40.870076]}},{"properties":{"city":"Van Wert","zip":"45891","geo_score":0.944,"biz name":"Van Wert County Jail","id":"137","geo_precision":"range","address":"204 North Washington Street","state":"Ohio","distance":29.1509259569477},"type":"Feature","geometry":{"type":"Point","coordinates":[-84.583047,40.870774]}},{"properties":{"city":"Van Wert","zip":"45891","geo_score":0.944,"biz name":"American Legion","id":"73","geo_precision":"range","address":"631 West Main Street","state":"Ohio","distance":29.6662008293799},"type":"Feature","geometry":{"type":"Point","coordinates":[-84.590518,40.871009]}},{"properties":{"city":"Van Wert","zip":"45891","geo_score":0.912,"biz name":"Pregnancy Life Center","id":"69","geo_precision":"range","address":"215 Market St","state":"Ohio","distance":28.9937260122631},"type":"Feature","geometry":{"type":"Point","coordinates":[-84.580745,40.871061]}},{"properties":{"city":"Van Wert","zip":"45891","geo_score":0.944,"biz name":"Fortman's Crescent Linen Services","id":"187","geo_precision":"range","address":"223 North Market Street","state":"Ohio","distance":28.9941520490959},"type":"Feature","geometry":{"type":"Point","coordinates":[-84.580745,40.871159]}},{"properties":{"city":"Van Wert","zip":"45891","geo_score":0.944,"biz name":"Marsh Foundation School","id":"194","geo_precision":"range","address":"1229 Lincoln Highway","state":"Ohio","distance":27.8187932979051},"type":"Feature","geometry":{"type":"Point","coordinates":[-84.563637,40.871711]}},{"properties":{"city":"Van Wert","zip":"45891","geo_score":0.944,"biz name":"The Marsh Foundation","id":"246","geo_precision":"range","address":"1229 Lincoln Hwy","state":"Ohio","distance":27.8187932979051},"type":"Feature","geometry":{"type":"Point","coordinates":[-84.563637,40.871711]}},{"properties":{"city":"Van Wert","zip":"45891","geo_score":0.944,"biz name":"Marsh Foundation School","id":"244","geo_precision":"range","address":"1229 Lincoln Highway","state":"Ohio","distance":27.8187932979051},"type":"Feature","geometry":{"type":"Point","coordinates":[-84.563637,40.871711]}},{"properties":{"city":"Van Wert","zip":"45891","geo_score":0.944,"biz name":"John C Cook Family Dentistry","id":"141","geo_precision":"range","address":"723 W Main St","state":"Ohio","distance":29.8700753878572},"type":"Feature","geometry":{"type":"Point","coordinates":[-84.593412,40.872077]}},{"properties":{"city":"Van Wert","zip":"45891","geo_score":0.944,"biz name":"St Mark's Lutheran Church","id":"110","geo_precision":"range","address":"160 W Sycamore St","state":"Ohio","distance":29.2029977493798},"type":"Feature","geometry":{"type":"Point","coordinates":[-84.583721,40.872084]}},{"properties":{"city":"Van Wert","zip":"45891","geo_score":0.944,"biz name":"Johnson Todd D DC","id":"82","geo_precision":"range","address":"834 W Main St","state":"Ohio","distance":29.9044244158664},"type":"Feature","geometry":{"type":"Point","coordinates":[-84.5939,40.872252]}},{"properties":{"city":"Van Wert","zip":"45891","geo_score":0.944,"biz name":"Wesley United Methodist Church","id":"116","geo_precision":"range","address":"551 Center St","state":"Ohio","distance":29.6425622089826},"type":"Feature","geometry":{"type":"Point","coordinates":[-84.589984,40.874083]}},{"properties":{"city":"Van Wert","zip":"45891","geo_score":0.777,"biz name":"US Marine Corps Recruiting","id":"228","geo_precision":"range","address":"341 Town Center Blvd","state":"Ohio","distance":29.4174304191642},"type":"Feature","geometry":{"type":"Point","coordinates":[-84.586712,40.874118]}},{"properties":{"city":"Van Wert","zip":"45891","geo_score":0.944,"biz name":"Van Wert County Historical Society","id":"184","geo_precision":"range","address":"602 North Washington Street","state":"Ohio","distance":29.1742275532942},"type":"Feature","geometry":{"type":"Point","coordinates":[-84.583097,40.875536]}},{"properties":{"city":"Van Wert","zip":"45891","geo_score":0.847,"biz name":"Liberty Baptist Church","id":"103","geo_precision":"range","address":"501 E 3rd St","state":"Ohio","distance":28.7664817692899},"type":"Feature","geometry":{"type":"Point","coordinates":[-84.577175,40.875547]}},{"properties":{"city":"Van Wert","zip":"45891","geo_score":0.944,"biz name":"Van Wert County Emergency Management","id":"134","geo_precision":"range","address":"1220 Lincoln Highway,","state":"Ohio","distance":30.7930633129138},"type":"Feature","geometry":{"type":"Point","coordinates":[-84.606604,40.875598]}},{"properties":{"city":"Van Wert","zip":"45891","geo_score":0.944,"biz name":"Holman Chiropractic Inc","id":"81","geo_precision":"range","address":"10916 Lincoln Hwy","state":"Ohio","distance":31.1712631597177},"type":"Feature","geometry":{"type":"Point","coordinates":[-84.61209,40.875716]}},{"properties":{"city":"Van Wert","zip":"45891","geo_score":0.944,"biz name":"Student Learning Center","id":"237","geo_precision":"range","address":"620 N Cherry St","state":"Ohio","distance":28.8436445881657},"type":"Feature","geometry":{"type":"Point","coordinates":[-84.578269,40.876016]}},{"properties":{"city":"Van Wert","zip":"45891","geo_score":0.944,"biz name":"Trinity Friends Church","id":"112","geo_precision":"range","address":"605 N Franklin St","state":"Ohio","distance":28.4011825368299},"type":"Feature","geometry":{"type":"Point","coordinates":[-84.571823,40.876391]}},{"properties":{"city":"Van Wert","zip":"45891","geo_score":0.944,"biz name":"New Life Fellowship","id":"106","geo_precision":"range","address":"634 N Washington St","state":"Ohio","distance":29.1765778992709},"type":"Feature","geometry":{"type":"Point","coordinates":[-84.583078,40.876473]}},{"properties":{"city":"Van Wert","zip":"45891","geo_score":0.944,"biz name":"Starr Commonwealth","id":"176","geo_precision":"range","address":"15145 Lincoln Hwy","state":"Ohio","distance":25.5034451148813},"type":"Feature","geometry":{"type":"Point","coordinates":[-84.529672,40.877889]}},{"properties":{"city":"Middle Point","zip":"45863","geo_score":0.911,"biz name":"Van Wert County Home","id":"44","geo_precision":"range","address":"17872 Lincoln Hwy","state":"Ohio","distance":22.0477081068854},"type":"Feature","geometry":{"type":"Point","coordinates":[-84.479478,40.878541]}},{"properties":{"city":"Van Wert","zip":"45891","geo_score":0.944,"biz name":"Van Wert Park Dept","id":"204","geo_precision":"range","address":"137 Gleason Ave","state":"Ohio","distance":29.0582651359412},"type":"Feature","geometry":{"type":"Point","coordinates":[-84.581245,40.878582]}},{"properties":{"city":"Van Wert","zip":"45891","geo_score":0.944,"biz name":"Thomas Edison Center","id":"238","geo_precision":"range","address":"813 N Franklin St","state":"Ohio","distance":28.4160713683383},"type":"Feature","geometry":{"type":"Point","coordinates":[-84.571843,40.880103]}},{"properties":{"city":"Van Wert","zip":"45891","geo_score":0.944,"biz name":"Kids Learning Place","id":"77","geo_precision":"range","address":"813 N Franklin St","state":"Ohio","distance":28.4160713683383},"type":"Feature","geometry":{"type":"Point","coordinates":[-84.571843,40.880103]}},{"properties":{"city":"Van Wert","zip":"45891","geo_score":0.944,"biz name":"Kids Learning Place","id":"189","geo_precision":"range","address":"813 North Franklin Street","state":"Ohio","distance":28.4160713683383},"type":"Feature","geometry":{"type":"Point","coordinates":[-84.571843,40.880103]}},{"properties":{"city":"Van Wert","zip":"45891","geo_score":0.944,"biz name":"Vantage Career Center","id":"242","geo_precision":"range","address":"818 North Franklin Street","state":"Ohio","distance":28.416880284653},"type":"Feature","geometry":{"type":"Point","coordinates":[-84.571846,40.880277]}},{"properties":{"city":"Van Wert","zip":"45891","geo_score":0.944,"biz name":"Engineer's Garage","id":"156","geo_precision":"range","address":"1196 Grill Road","state":"Ohio","distance":30.7485051667967},"type":"Feature","geometry":{"type":"Point","coordinates":[-84.605676,40.880655]}},{"properties":{"city":"Van Wert","zip":"45891","geo_score":0.944,"biz name":"Fastenal Co","id":"185","geo_precision":"range","address":"529 Bonnewitz Avenue","state":"Ohio","distance":29.6624777741312},"type":"Feature","geometry":{"type":"Point","coordinates":[-84.589904,40.88076]}},{"properties":{"city":"Van Wert","zip":"45891","geo_score":0.944,"biz name":"Van Wert County Humane Society","id":"161","geo_precision":"range","address":"309 Bonnewitz Avenue","state":"Ohio","distance":29.4258753964074},"type":"Feature","geometry":{"type":"Point","coordinates":[-84.586468,40.880784]}},{"properties":{"city":"Van Wert","zip":"45891","geo_score":0.944,"biz name":"Pleasant Chapel United Methodist Church","id":"109","geo_precision":"range","address":"8164 Richey Rd","state":"Ohio","distance":33.7108144874359},"type":"Feature","geometry":{"type":"Point","coordinates":[-84.648457,40.885078]}},{"properties":{"city":"Middle Point","zip":"45863","geo_score":0.911,"biz name":"Grace Evangelistic Ministries","id":"39","geo_precision":"range","address":"19357 Church Rd","state":"Ohio","distance":20.0214882888353},"type":"Feature","geometry":{"type":"Point","coordinates":[-84.44931,40.903075]}},{"properties":{"city":"Convoy","zip":"45832","geo_score":0.912,"biz name":"Redeemer Lutheran Church","id":"2","geo_precision":"range","address":"6727 State Route 49","state":"Ohio","distance":37.8200199154395},"type":"Feature","geometry":{"type":"Point","coordinates":[-84.707348,40.906247]}},{"properties":{"city":"Convoy","zip":"45832","geo_score":0.718,"biz name":"Convoy Mayor's Office","id":"5","geo_precision":"street","address":"123 S Main St","state":"Ohio","distance":37.8256943899218},"type":"Feature","geometry":{"type":"Point","coordinates":[-84.707327,40.915405]}},{"properties":{"city":"Convoy","zip":"45832","geo_score":0.912,"biz name":"Crestview High School","id":"14","geo_precision":"range","address":"531 E Tully St","state":"Ohio","distance":37.4799249430975},"type":"Feature","geometry":{"type":"Point","coordinates":[-84.70231,40.916891]}},{"properties":{"city":"Convoy","zip":"45832","geo_score":0.912,"biz name":"Crestview Middle School","id":"13","geo_precision":"range","address":"531 E Tully St","state":"Ohio","distance":37.4799249430975},"type":"Feature","geometry":{"type":"Point","coordinates":[-84.70231,40.916891]}},{"properties":{"city":"Convoy","zip":"45832","geo_score":0.912,"biz name":"Crestview Elementary","id":"12","geo_precision":"range","address":"531 E Tully St","state":"Ohio","distance":37.4799249430975},"type":"Feature","geometry":{"type":"Point","coordinates":[-84.70231,40.916891]}},{"properties":{"city":"Convoy","zip":"45832","geo_score":0.912,"biz name":"US Post Office","id":"11","geo_precision":"range","address":"116 West Tully Street","state":"Ohio","distance":37.8429974053802},"type":"Feature","geometry":{"type":"Point","coordinates":[-84.707574,40.916925]}},{"properties":{"city":"Convoy","zip":"45832","geo_score":0.912,"biz name":"Convoy Branch Brumbach Library","id":"8","geo_precision":"range","address":"116 W Tully St","state":"Ohio","distance":37.8429974053802},"type":"Feature","geometry":{"type":"Point","coordinates":[-84.707574,40.916925]}},{"properties":{"city":"Convoy","zip":"45832","geo_score":0.876,"biz name":"Trinity Evangelical Lutheran Church","id":"4","geo_precision":"range","address":"117 E Tully S","state":"Ohio","distance":37.8156155540968},"type":"Feature","geometry":{"type":"Point","coordinates":[-84.707177,40.916926]}},{"properties":{"city":"Convoy","zip":"45832","geo_score":0.912,"biz name":"Convoy Fire Dept","id":"7","geo_precision":"range","address":"116 Franklin St,","state":"Ohio","distance":37.8209516998048},"type":"Feature","geometry":{"type":"Point","coordinates":[-84.707254,40.917292]}},{"properties":{"city":"Convoy","zip":"45832","geo_score":0.912,"biz name":"Leigh Gregory","id":"6","geo_precision":"range","address":"108 Hall Dr","state":"Ohio","distance":37.7409082231962},"type":"Feature","geometry":{"type":"Point","coordinates":[-84.706094,40.918627]}},{"properties":{"city":"Convoy","zip":"45832","geo_score":0.912,"biz name":"Convoy Care Center","id":"10","geo_precision":"range","address":"127 Mentzer Street","state":"Ohio","distance":37.398860077826},"type":"Feature","geometry":{"type":"Point","coordinates":[-84.701135,40.918768]}},{"properties":{"city":"Convoy","zip":"45832","geo_score":0.75,"biz name":"Taylor Chiropractic","id":"0","geo_precision":"street","address":"612 N Main St","state":"Ohio","distance":37.823688628097},"type":"Feature","geometry":{"type":"Point","coordinates":[-84.707323,40.923725]}},{"properties":{"city":"Convoy","zip":"45832","geo_score":0.912,"biz name":"Sugar Ridge Church of God","id":"3","geo_precision":"range","address":"6432 Pollock Rd","state":"Ohio","distance":37.1016506647639},"type":"Feature","geometry":{"type":"Point","coordinates":[-84.69718,40.938733]}},{"properties":{"city":"Van Wert","zip":"45891","geo_score":0.944,"biz name":"North Union United Methodist Church","id":"107","geo_precision":"range","address":"4486 US Route 127","state":"Ohio","distance":28.4842744745573},"type":"Feature","geometry":{"type":"Point","coordinates":[-84.572193,40.939164]}},{"properties":{"city":"Van Wert","zip":"45891","geo_score":0.627,"biz name":"Life Star Rescue","id":"71","geo_precision":"zip","address":"1171 Production Drive","state":"Ohio","distance":29.0981236866119},"type":"Feature","geometry":{"type":"Point","coordinates":[-84.581344,40.946438]}},{"properties":{"city":"Convoy","zip":"45832","geo_score":0.729,"biz name":"Convoy United Methodist Church","id":"1","geo_precision":"street","address":"Sycamore &amp; Main","state":"Ohio","distance":4.35902634387766},"type":"Feature","geometry":{"type":"Point","coordinates":[-84.803107,40.950807]}},{"properties":{"city":"Van Wert","zip":"45891","geo_score":0.944,"biz name":"Mt Pleasant Church","id":"105","geo_precision":"range","address":"3606 Slane Rd","state":"Ohio","distance":23.1382701742413},"type":"Feature","geometry":{"type":"Point","coordinates":[-84.495087,40.951963]}},{"properties":{"city":"Grover Hill","zip":"45849","geo_score":0.744,"biz name":"Zion Christian Union Parsonage","id":"37","geo_precision":"street","address":"3025 Converse Roselm Road","state":"Ohio","distance":17.8139639175018},"type":"Feature","geometry":{"type":"Point","coordinates":[-84.418225,40.961105]}},{"properties":{"city":"Convoy","zip":"45832","geo_score":0.912,"biz name":"Stoneco Inc","id":"9","geo_precision":"range","address":"2364 Richey Road","state":"Ohio","distance":33.6492726315684},"type":"Feature","geometry":{"type":"Point","coordinates":[-84.648771,40.969538]}},{"properties":{"city":"Scott","zip":"45886","geo_score":0.729,"biz name":"US Post Office","id":"67","geo_precision":"street","address":"12436 Van Wert Paulding County Line Road","state":"Ohio","distance":29.6270929861107},"type":"Feature","geometry":{"type":"Point","coordinates":[-84.592019,40.989791]}},{"properties":{"city":"Scott","zip":"45886","geo_score":0.924,"biz name":"Little Harvest Day Care","id":"66","geo_precision":"range","address":"13625 Road 12","state":"Ohio","distance":27.4889030699504},"type":"Feature","geometry":{"type":"Point","coordinates":[-84.560885,40.989923]}}],"is_temporal":false,"author":{"url":"","metadata":"","contact_name":"","contact_address":"","source":"","contact_phone":""},"source":"","pagination":{"sort":null,"start":0,"total":276,"limit":1000000},"state":"complete","tags":"","published":"2014-08-15T02:36:24-04:00","id":229731}