{"type":"FeatureCollection","data_type":"Dataset","url_type":null,"permissions":[{"permissions":{"download":true,"view":true},"group_id":"everyone"},{"permissions":{"download":true,"view":true},"group_id":44903}],"classification":null,"title":"Forbes.City.State","count":63,"stream_id":229865,"contributor":{"url":"http://geocommons.com/users/43954","name":"cbrey"},"data_attributes":null,"calculation_params":null,"icon_link":null,"link":"http://geocommons.com/overlays/229865.json","extent":[-122.402,29.4059,-73.2824,47.6934],"geometry_types":["point"],"unique_name":null,"name":"Forbes.City.State","feature_count":63,"description":"Forbes top companies plus some private ones (Potential Partners??)","next_feature":null,"is_raster":false,"short_classification":"Y","stats":{},"features":[{"properties":{"city":"Fairfield","company":"General Electric","geo_score":0.857,"zip code":"06828","id":"a62gsaumeqnc","geo_precision":"city","state":"CT"},"type":"Feature","geometry":{"type":"Point","coordinates":[-73.282408,41.175173]}},{"properties":{"city":"Redmond","company":"Microsoft","geo_score":0.905,"zip code":"98052","id":"a62gsayzcbba","geo_precision":"zip","state":"WA"},"type":"Feature","geometry":{"type":"Point","coordinates":[-122.150402,47.693432]}},{"properties":{"city":"San Ramon","company":"Chevron","geo_score":1.0,"zip code":"94583","id":"a62gsasyd0tp","geo_precision":"zip","state":"CA"},"type":"Feature","geometry":{"type":"Point","coordinates":[-121.975531,37.768556]}},{"properties":{"city":"Armonk","company":"IBM","geo_score":0.726,"zip code":"10504","id":"a62gsawef52l","geo_precision":"zip","state":"NY"},"type":"Feature","geometry":{"type":"Point","coordinates":[-73.680963,41.147596]}},{"properties":{"city":"Bentonville","company":"Wal-Mart","geo_score":1.0,"zip code":"72716","id":"a62gsaxfkbgu","geo_precision":"zip","state":"AR"},"type":"Feature","geometry":{"type":"Point","coordinates":[-93.956801,36.299507]}},{"properties":{"city":"Mountain View","company":"Google","geo_score":1.0,"zip code":"94043","id":"a62gsamxnqki","geo_precision":"zip","state":"CA"},"type":"Feature","geometry":{"type":"Point","coordinates":[-121.705327,37.189396]}},{"properties":{"city":"New York","company":"JPMorgan Chase","geo_score":0.857,"zip code":"10017","id":"a62gsb1uip7c","geo_precision":"zip","state":"NY"},"type":"Feature","geometry":{"type":"Point","coordinates":[-73.973196,40.752955]}},{"properties":{"city":"Cincinnati","company":"Procter &amp; Gamble","geo_score":1.0,"zip code":"45202","id":"a62gsb0wg692","geo_precision":"zip","state":"OH"},"type":"Feature","geometry":{"type":"Point","coordinates":[-84.486142,39.11026]}},{"properties":{"city":"San Francisco","company":"Wells Fargo","geo_score":1.0,"zip code":"94104","id":"a62gsaxraxlr","geo_precision":"zip","state":"CA"},"type":"Feature","geometry":{"type":"Point","coordinates":[-122.401732,37.790728]}},{"properties":{"city":"New Brunswick","company":"Johnson &amp; Johnson","geo_score":1.0,"zip code":"08933","id":"a62gsam546cm","geo_precision":"zip","state":"NJ"},"type":"Feature","geometry":{"type":"Point","coordinates":[-74.417344,40.430006]}},{"properties":{"city":"New York","company":"Pfizer","geo_score":0.857,"zip code":"10017","id":"a62gsav67z3f","geo_precision":"zip","state":"NY"},"type":"Feature","geometry":{"type":"Point","coordinates":[-73.973196,40.752955]}},{"properties":{"city":"New York","company":"Citigroup","geo_score":0.857,"zip code":"10022","id":"a62gsazdw66l","geo_precision":"zip","state":"NY"},"type":"Feature","geometry":{"type":"Point","coordinates":[-73.967842,40.758775]}},{"properties":{"city":"New York","company":"Philip Morris International","geo_score":0.857,"zip code":"10017","id":"a62gsaywg5qz","geo_precision":"zip","state":"NY"},"type":"Feature","geometry":{"type":"Point","coordinates":[-73.973196,40.752955]}},{"properties":{"city":"Santa Clara","company":"Intel","geo_score":1.0,"zip code":"95052","id":"a62gsavdnl5x","geo_precision":"zip","state":"CA"},"type":"Feature","geometry":{"type":"Point","coordinates":[-121.705327,37.189396]}},{"properties":{"city":"Wayzata","company":"Cargill","geo_score":0.893,"zip code":"55391","id":"a62gsankd73j","geo_precision":"zip","state":"MN"},"type":"Feature","geometry":{"type":"Point","coordinates":[-93.504121,44.946908]}},{"properties":{"city":"Houston","company":"ConocoPhillips","geo_score":0.857,"zip code":"77079","id":"a62gsav4z7wc","geo_precision":"zip","state":"TX"},"type":"Feature","geometry":{"type":"Point","coordinates":[-95.642446,29.782451]}},{"properties":{"city":"New York","company":"Verizon","geo_score":0.857,"zip code":"10007","id":"a62gsao5kwfy","geo_precision":"zip","state":"NY"},"type":"Feature","geometry":{"type":"Point","coordinates":[-74.007401,40.713941]}},{"properties":{"city":"Rahway","company":"Merck &amp; Co.","geo_score":1.0,"zip code":"07065","id":"a62gsays3so9","geo_precision":"zip","state":"NJ"},"type":"Feature","geometry":{"type":"Point","coordinates":[-74.280641,40.609553]}},{"properties":{"city":"Wichita","company":"Koch Industries","geo_score":0.875,"zip code":"67220","id":"a62gsaybvn57","geo_precision":"zip","state":"KS"},"type":"Feature","geometry":{"type":"Point","coordinates":[-97.266988,37.762513]}},{"properties":{"city":"Washington, DC","company":"Cisco Systems","geo_score":0.976,"zip code":"20004","id":"a62gsanx7rhz","geo_precision":"zip","state":"DC"},"type":"Feature","geometry":{"type":"Point","coordinates":[-77.019477,38.892247]}},{"properties":{"city":"New York","company":"Goldman Sachs Group","geo_score":0.714,"zip code":"10004","id":"a62gsb1ym6ul","geo_precision":"zip","state":"NY"},"type":"Feature","geometry":{"type":"Point","coordinates":[-74.016389,40.691111]}},{"properties":{"city":"San Diego","company":"Qualcomm","geo_score":1.0,"zip code":"92121","id":"a62gsb0svcgm","geo_precision":"zip","state":"CA"},"type":"Feature","geometry":{"type":"Point","coordinates":[-117.207828,32.90391]}},{"properties":{"city":"Burbank","company":"Walt Disney","geo_score":1.0,"zip code":"91521","id":"a62gsaorqaj2","geo_precision":"zip","state":"CA"},"type":"Feature","geometry":{"type":"Point","coordinates":[-118.298662,33.786594]}},{"properties":{"city":"Seattle","company":"Amazon.com","geo_score":0.9,"zip code":"98144","id":"a62gsarwwaov","geo_precision":"zip","state":"WA"},"type":"Feature","geometry":{"type":"Point","coordinates":[-122.309848,47.577599]}},{"properties":{"city":"Santa Clara","company":"Abbott Laboratories","geo_score":0.871,"zip code":"95054","id":"a62gsattpncc","geo_precision":"zip","state":"CA"},"type":"Feature","geometry":{"type":"Point","coordinates":[-121.959125,37.394663]}},{"properties":{"city":"Latham","company":"United Parcel Service","geo_score":0.714,"zip code":"12110","id":"a62gsb0ke6a8","geo_precision":"zip","state":"NY"},"type":"Feature","geometry":{"type":"Point","coordinates":[-73.80401,42.764522]}},{"properties":{"city":"Peoria","company":"Caterpillar","geo_score":1.0,"zip code":"61629","id":"a62gsaw3nffr","geo_precision":"zip","state":"IL"},"type":"Feature","geometry":{"type":"Point","coordinates":[-89.588747,40.692037]}},{"properties":{"city":"Atlanta","company":"Home Depot","geo_score":1.0,"zip code":"30339","id":"a62gsat55xxa","geo_precision":"zip","state":"GA"},"type":"Feature","geometry":{"type":"Point","coordinates":[-84.433678,33.906202]}},{"properties":{"city":"New York","company":"American Express","geo_score":0.857,"zip code":"10285","id":"a62gsamx2zpy","geo_precision":"zip","state":"NY"},"type":"Feature","geometry":{"type":"Point","coordinates":[-74.016306,40.71533]}},{"properties":{"city":"Chicago","company":"Boeing","geo_score":1.0,"zip code":"60606","id":"a62gsasrarze","geo_precision":"zip","state":"IL"},"type":"Feature","geometry":{"type":"Point","coordinates":[-87.68732,41.811929]}},{"properties":{"city":"Newbury Park","company":"Amgen","geo_score":1.0,"zip code":"91320","id":"a62gsargxhjc","geo_precision":"zip","state":"CA"},"type":"Feature","geometry":{"type":"Point","coordinates":[-118.905874,34.175921]}},{"properties":{"city":"Detroit","company":"General Motors","geo_score":1.0,"zip code":"48265","id":"a62gsaooccxo","geo_precision":"zip","state":"MI"},"type":"Feature","geometry":{"type":"Point","coordinates":[-83.150823,42.239933]}},{"properties":{"city":"Phoenix","company":"Freeport Copper","geo_score":1.0,"zip code":"85004","id":"a62gsapd7qc6","geo_precision":"zip","state":"AZ"},"type":"Feature","geometry":{"type":"Point","coordinates":[-112.18717,33.276539]}},{"properties":{"city":"Los Angeles","company":"News Corp","geo_score":1.0,"zip code":"90035","id":"a62gsaqk45qo","geo_precision":"zip","state":"CA"},"type":"Feature","geometry":{"type":"Point","coordinates":[-118.298662,33.786594]}},{"properties":{"city":"New York","company":"Bristol Myers Squibb","geo_score":0.857,"zip code":"10154","id":"a62gsaxejecc","geo_precision":"zip","state":"NY"},"type":"Feature","geometry":{"type":"Point","coordinates":[-73.973468,40.758304]}},{"properties":{"city":"Morristown","company":"Honeywell International","geo_score":0.884,"zip code":"07960","id":"a62gsapze22s","geo_precision":"zip","state":"NJ"},"type":"Feature","geometry":{"type":"Point","coordinates":[-74.527101,40.805656]}},{"properties":{"city":"New York","company":"Morgan Stanley","geo_score":0.857,"zip code":"10019","id":"a62gsar88f89","geo_precision":"zip","state":"NY"},"type":"Feature","geometry":{"type":"Point","coordinates":[-73.985443,40.765926]}},{"properties":{"city":"Minneapolis","company":"Medtronic","geo_score":1.0,"zip code":"55432","id":"a62gsaqlq3zc","geo_precision":"zip","state":"MN"},"type":"Feature","geometry":{"type":"Point","coordinates":[-93.263836,44.979965]}},{"properties":{"city":"Moline","company":"Deere &amp; Co.","geo_score":0.889,"zip code":"61265","id":"a62gsarg39uh","geo_precision":"zip","state":"IL"},"type":"Feature","geometry":{"type":"Point","coordinates":[-90.516801,41.471423]}},{"properties":{"city":"Mooresville","company":"Lowe's Cos","geo_score":1.0,"zip code":"28117","id":"a62gsavp98n5","geo_precision":"zip","state":"NC"},"type":"Feature","geometry":{"type":"Point","coordinates":[-80.868463,35.583962]}},{"properties":{"city":"Houston","company":"Marathon Oil","geo_score":1.0,"zip code":"77056","id":"a62gsayg3yoh","geo_precision":"zip","state":"TX"},"type":"Feature","geometry":{"type":"Point","coordinates":[-95.207161,29.698579]}},{"properties":{"city":"Issaquah","company":"Costco Wholesale","geo_score":0.857,"zip code":"98027","id":"a62gsay3yfdl","geo_precision":"zip","state":"WA"},"type":"Feature","geometry":{"type":"Point","coordinates":[-121.907615,47.505102]}},{"properties":{"city":"Newark","company":"Prudential Financial","geo_score":1.0,"zip code":"07102","id":"a62gsanoktv8","geo_precision":"zip","state":"NJ"},"type":"Feature","geometry":{"type":"Point","coordinates":[-74.173988,40.735642]}},{"properties":{"city":"McLean","company":"Mars","geo_score":1.0,"zip code":"22101","id":"a62gsazkl3rm","geo_precision":"zip","state":"VA"},"type":"Feature","geometry":{"type":"Point","coordinates":[-77.18672,38.935202]}},{"properties":{"city":"New York","company":"Pricewaterhouse Coopers","geo_score":0.857,"zip code":"10017","id":"a62gsas03drz","geo_precision":"zip","state":"NY"},"type":"Feature","geometry":{"type":"Point","coordinates":[-73.973196,40.752955]}},{"properties":{"city":"Bethesda","company":"Lockheed Martin","geo_score":0.868,"zip code":"20817","id":"a62gsb1dbay9","geo_precision":"zip","state":"MD"},"type":"Feature","geometry":{"type":"Point","coordinates":[-77.149702,39.019276]}},{"properties":{"city":"San Francisco","company":"Bechtel","geo_score":1.0,"zip code":"94105","id":"a62gsasuqq4e","geo_precision":"zip","state":"CA"},"type":"Feature","geometry":{"type":"Point","coordinates":[-122.395631,37.789595]}},{"properties":{"city":"Milwaukee","company":"Johnson Controls","geo_score":0.889,"zip code":"53209","id":"a62gsaywxixk","geo_precision":"zip","state":"WI"},"type":"Feature","geometry":{"type":"Point","coordinates":[-87.935642,43.135288]}},{"properties":{"city":"New York","company":"Hess","geo_score":0.857,"zip code":"10036","id":"a62gsasn9mi9","geo_precision":"zip","state":"NY"},"type":"Feature","geometry":{"type":"Point","coordinates":[-73.989847,40.75953]}},{"properties":{"city":"New York","company":"Travelers Cos","geo_score":0.857,"zip code":"10017","id":"a62gsb1yysyg","geo_precision":"zip","state":"NY"},"type":"Feature","geometry":{"type":"Point","coordinates":[-73.973196,40.752955]}},{"properties":{"city":"New York","company":"BlackRock","geo_score":0.857,"zip code":"10055","id":"a62gsan8ewvu","geo_precision":"zip","state":"NY"},"type":"Feature","geometry":{"type":"Point","coordinates":[-73.977182,40.780751]}},{"properties":{"city":"Decatur","company":"Archer Daniels","geo_score":0.873,"zip code":"62526","id":"a62gsayyh5y7","geo_precision":"zip","state":"IL"},"type":"Feature","geometry":{"type":"Point","coordinates":[-89.011192,39.896982]}},{"properties":{"city":"New York","company":"Ernst &amp; Young","geo_score":0.857,"zip code":"10036","id":"a62gsamljcv7","geo_precision":"zip","state":"NY"},"type":"Feature","geometry":{"type":"Point","coordinates":[-73.989847,40.75953]}},{"properties":{"city":"McLean","company":"Capital One Financial","geo_score":1.0,"zip code":"22102","id":"a62gsavuptb9","geo_precision":"zip","state":"VA"},"type":"Feature","geometry":{"type":"Point","coordinates":[-77.229496,38.953033]}},{"properties":{"city":"San Francisco","company":"McKesson","geo_score":1.0,"zip code":"94104","id":"a62gsaxjjph6","geo_precision":"zip","state":"CA"},"type":"Feature","geometry":{"type":"Point","coordinates":[-122.401732,37.790728]}},{"properties":{"city":"Falls Church","company":"Northrop Grumman","geo_score":0.87,"zip code":"22042","id":"a62gsaye8fu2","geo_precision":"zip","state":"VA"},"type":"Feature","geometry":{"type":"Point","coordinates":[-77.180258,38.865668]}},{"properties":{"city":"Knoxville","company":"Pilot Flying J","geo_score":1.0,"zip code":"37909","id":"a62gsariozui","geo_precision":"zip","state":"TN"},"type":"Feature","geometry":{"type":"Point","coordinates":[-84.010109,35.944822]}},{"properties":{"city":"Warren","company":"Chubb","geo_score":1.0,"zip code":"07059","id":"a62gsazwv5lk","geo_precision":"zip","state":"NJ"},"type":"Feature","geometry":{"type":"Point","coordinates":[-74.532449,40.629101]}},{"properties":{"city":"Northbrook","company":"Allstate","geo_score":1.0,"zip code":"60062","id":"a62gsapi8cmy","geo_precision":"zip","state":"IL"},"type":"Feature","geometry":{"type":"Point","coordinates":[-87.838815,42.120176]}},{"properties":{"city":"San Antonio","company":"HE Butt Grocery","geo_score":1.0,"zip code":"78204","id":"a62gsaljpn4i","geo_precision":"zip","state":"TX"},"type":"Feature","geometry":{"type":"Point","coordinates":[-98.507844,29.405931]}},{"properties":{"city":"Atlanta","company":"Cox Enterprises","geo_score":0.881,"zip code":"30328","id":"a62gsaoftwlm","geo_precision":"zip","state":"GA"},"type":"Feature","geometry":{"type":"Point","coordinates":[-84.378538,33.924269]}},{"properties":{"city":"Wayne","company":"Toys 'R' Us","geo_score":0.873,"zip code":"07470","id":"a62gsaw3fl8r","geo_precision":"zip","state":"NJ"},"type":"Feature","geometry":{"type":"Point","coordinates":[-74.262092,40.991764]}},{"properties":{"city":"Omaha","company":"Gavilon Group","geo_score":1.0,"zip code":"68102","id":"a62gsau22htk","geo_precision":"zip","state":"NE"},"type":"Feature","geometry":{"type":"Point","coordinates":[-95.933564,41.262003]}}],"is_temporal":false,"author":{"url":"","metadata":"","contact_name":"","contact_address":"","source":"","contact_phone":""},"source":"","pagination":{"sort":null,"start":0,"total":63,"limit":1000000},"state":"complete","tags":"","published":"2014-08-15T02:43:17-04:00","id":229865}