{"type":"FeatureCollection","data_type":"Dataset","url_type":null,"permissions":[{"permissions":{"download":true,"view":true},"group_id":"everyone"}],"classification":null,"title":"sha city heat hot","count":58,"stream_id":231412,"contributor":{"url":"http://geocommons.com/users/44227","name":"larrysu1115"},"data_attributes":null,"calculation_params":null,"icon_link":null,"link":"http://geocommons.com/overlays/231412.json","extent":[87.5833,22.2769,126.748,45.75],"geometry_types":["point"],"unique_name":null,"name":"sha city heat hot","feature_count":58,"description":"","next_feature":null,"is_raster":false,"short_classification":"Y","stats":{"count_n":{"max":489,"mean":24.8275862068966,"variance":5285.65396249243,"stdev":72.7025031377355,"min":1,"median":3}},"features":[{"properties":{"city":"Baoding","count_n":1,"geo_score":1.0,"id":"a688imcbsejq","geo_precision":"zip"},"type":"Feature","geometry":{"type":"Point","coordinates":[115.4902778,38.8511111]}},{"properties":{"city":"Baotou","count_n":3,"geo_score":1.0,"id":"a688im0bon8l","geo_precision":"zip"},"type":"Feature","geometry":{"type":"Point","coordinates":[109.8222222,40.6522222]}},{"properties":{"city":"Beijing","count_n":95,"geo_score":1.0,"id":"a688im86h1rk","geo_precision":"zip"},"type":"Feature","geometry":{"type":"Point","coordinates":[116.397228240967,39.9074977414405]}},{"properties":{"city":"Changchun","count_n":22,"geo_score":1.0,"id":"a688imb4x99y","geo_precision":"zip"},"type":"Feature","geometry":{"type":"Point","coordinates":[125.3227778,43.88]}},{"properties":{"city":"Changping","count_n":1,"geo_score":1.0,"id":"a688im3ji4wa","geo_precision":"zip"},"type":"Feature","geometry":{"type":"Point","coordinates":[116.2197222,40.2186111]}},{"properties":{"city":"Changsha","count_n":205,"geo_score":1.0,"id":"a688im514blm","geo_precision":"zip"},"type":"Feature","geometry":{"type":"Point","coordinates":[112.9666667,28.2]}},{"properties":{"city":"Chengdu","count_n":64,"geo_score":1.0,"id":"a688im9pv5b3","geo_precision":"zip"},"type":"Feature","geometry":{"type":"Point","coordinates":[104.0666667,30.6666667]}},{"properties":{"city":"Chongqing","count_n":62,"geo_score":1.0,"id":"a688im0jpiko","geo_precision":"zip"},"type":"Feature","geometry":{"type":"Point","coordinates":[106.5527778,29.5627778]}},{"properties":{"city":"Dalian","count_n":16,"geo_score":1.0,"id":"a688im4pfw3c","geo_precision":"zip"},"type":"Feature","geometry":{"type":"Point","coordinates":[121.6022222,38.9122222]}},{"properties":{"city":"Daxing","count_n":4,"geo_score":1.0,"id":"a688im6n6u47","geo_precision":"zip"},"type":"Feature","geometry":{"type":"Point","coordinates":[116.3291667,39.7213889]}},{"properties":{"city":"Dongguan","count_n":9,"geo_score":1.0,"id":"a688im4yy6k0","geo_precision":"zip"},"type":"Feature","geometry":{"type":"Point","coordinates":[113.7447222,23.0488889]}},{"properties":{"city":"Dongying","count_n":1,"geo_score":1.0,"id":"a688im1o8uah","geo_precision":"zip"},"type":"Feature","geometry":{"type":"Point","coordinates":[118.4855556,37.4563889]}},{"properties":{"city":"Fengtai","count_n":1,"geo_score":1.0,"id":"a688im872rx4","geo_precision":"zip"},"type":"Feature","geometry":{"type":"Point","coordinates":[117.7491667,39.5580556]}},{"properties":{"city":"Foshan","count_n":1,"geo_score":0.952,"id":"a688im6mavce","geo_precision":"zip"},"type":"Feature","geometry":{"type":"Point","coordinates":[123.9233333,41.8558333]}},{"properties":{"city":"Guangzhou","count_n":10,"geo_score":1.0,"id":"a688imcaips1","geo_precision":"zip"},"type":"Feature","geometry":{"type":"Point","coordinates":[113.25,23.1166667]}},{"properties":{"city":"Guiyang","count_n":2,"geo_score":1.0,"id":"a688im4whg7x","geo_precision":"zip"},"type":"Feature","geometry":{"type":"Point","coordinates":[106.7166667,26.5833333]}},{"properties":{"city":"Haidian","count_n":3,"geo_score":0.959,"id":"a688im3a53wm","geo_precision":"zip"},"type":"Feature","geometry":{"type":"Point","coordinates":[126.7477778,42.9633333]}},{"properties":{"city":"Hangzhou","count_n":17,"geo_score":1.0,"id":"a688im5xlz51","geo_precision":"zip"},"type":"Feature","geometry":{"type":"Point","coordinates":[120.1688889,30.2552778]}},{"properties":{"city":"Harbin","count_n":88,"geo_score":1.0,"id":"a688imelfevz","geo_precision":"zip"},"type":"Feature","geometry":{"type":"Point","coordinates":[126.65,45.75]}},{"properties":{"city":"Hebei","count_n":2,"geo_score":0.939,"id":"a688imb554zn","geo_precision":"zip"},"type":"Feature","geometry":{"type":"Point","coordinates":[116.7916667,33.9744444]}},{"properties":{"city":"Hefei","count_n":2,"geo_score":1.0,"id":"a688imcigoke","geo_precision":"zip"},"type":"Feature","geometry":{"type":"Point","coordinates":[117.2808333,31.8638889]}},{"properties":{"city":"Heze","count_n":1,"geo_score":1.0,"id":"a688imf5tyub","geo_precision":"zip"},"type":"Feature","geometry":{"type":"Point","coordinates":[115.4411111,35.2430556]}},{"properties":{"city":"Hohhot","count_n":1,"geo_score":1.0,"id":"a688im3z33jk","geo_precision":"zip"},"type":"Feature","geometry":{"type":"Point","coordinates":[111.6522222,40.8105556]}},{"properties":{"city":"Jiaozuo","count_n":2,"geo_score":1.0,"id":"a688im7fok8y","geo_precision":"zip"},"type":"Feature","geometry":{"type":"Point","coordinates":[113.2330556,35.2397222]}},{"properties":{"city":"Jinan","count_n":11,"geo_score":1.0,"id":"a688im0xp4oz","geo_precision":"zip"},"type":"Feature","geometry":{"type":"Point","coordinates":[116.9972222,36.6683333]}},{"properties":{"city":"Jining","count_n":2,"geo_score":1.0,"id":"a688im18uhit","geo_precision":"zip"},"type":"Feature","geometry":{"type":"Point","coordinates":[116.5813889,35.405]}},{"properties":{"city":"Kunming","count_n":21,"geo_score":1.0,"id":"a688ime98vgx","geo_precision":"zip"},"type":"Feature","geometry":{"type":"Point","coordinates":[102.7183333,25.0388889]}},{"properties":{"city":"Lanzhou","count_n":1,"geo_score":1.0,"id":"a688imenxlwl","geo_precision":"zip"},"type":"Feature","geometry":{"type":"Point","coordinates":[103.7922222,36.0563889]}},{"properties":{"city":"Luoyang","count_n":5,"geo_score":1.0,"id":"a688im44f4ae","geo_precision":"zip"},"type":"Feature","geometry":{"type":"Point","coordinates":[112.4536111,34.6836111]}},{"properties":{"city":"Nanchang","count_n":1,"geo_score":0.982,"id":"a688im7nkau1","geo_precision":"zip"},"type":"Feature","geometry":{"type":"Point","coordinates":[106.0666667,30.8]}},{"properties":{"city":"Nanning","count_n":2,"geo_score":1.0,"id":"a688ilzmx9ej","geo_precision":"zip"},"type":"Feature","geometry":{"type":"Point","coordinates":[108.3166667,22.8166667]}},{"properties":{"city":"Ningbo","count_n":3,"geo_score":1.0,"id":"a688im0mmujl","geo_precision":"zip"},"type":"Feature","geometry":{"type":"Point","coordinates":[121.5419444,29.875]}},{"properties":{"city":"Qingdao","count_n":11,"geo_score":1.0,"id":"a688im9y6g9k","geo_precision":"zip"},"type":"Feature","geometry":{"type":"Point","coordinates":[120.3719444,36.0986111]}},{"properties":{"city":"Shanghai","count_n":489,"geo_score":1.0,"id":"a688im1b1qvo","geo_precision":"zip"},"type":"Feature","geometry":{"type":"Point","coordinates":[121.4580556,31.2222222]}},{"properties":{"city":"Shantou","count_n":1,"geo_score":1.0,"id":"a688im5yusfu","geo_precision":"zip"},"type":"Feature","geometry":{"type":"Point","coordinates":[116.6783333,23.36]}},{"properties":{"city":"Shenyang","count_n":4,"geo_score":1.0,"id":"a688imayi1ql","geo_precision":"zip"},"type":"Feature","geometry":{"type":"Point","coordinates":[123.4327778,41.7922222]}},{"properties":{"city":"Shenzhen","count_n":12,"geo_score":1.0,"id":"a688imb1ftkm","geo_precision":"zip"},"type":"Feature","geometry":{"type":"Point","coordinates":[114.068298339844,22.5455376639819]}},{"properties":{"city":"Shijiazhuang","count_n":4,"geo_score":1.0,"id":"a688im2fp564","geo_precision":"zip"},"type":"Feature","geometry":{"type":"Point","coordinates":[114.4786111,38.0413889]}},{"properties":{"city":"Shunyi","count_n":1,"geo_score":1.0,"id":"a688im4720oa","geo_precision":"zip"},"type":"Feature","geometry":{"type":"Point","coordinates":[116.6452778,40.125]}},{"properties":{"city":"Sichuan","count_n":2,"geo_score":0.911,"id":"a688ilziesn0","geo_precision":"zip"},"type":"Feature","geometry":{"type":"Point","coordinates":[120.2588889,30.1675]}},{"properties":{"city":"Suzhou","count_n":3,"geo_score":1.0,"id":"a688imdlqk5g","geo_precision":"zip"},"type":"Feature","geometry":{"type":"Point","coordinates":[120.6180556,31.3113889]}},{"properties":{"city":"Taiyuan","count_n":7,"geo_score":1.0,"id":"a688im9khtur","geo_precision":"zip"},"type":"Feature","geometry":{"type":"Point","coordinates":[112.5602778,37.8694444]}},{"properties":{"city":"Tangshan","count_n":9,"geo_score":1.0,"id":"a688im4yv180","geo_precision":"zip"},"type":"Feature","geometry":{"type":"Point","coordinates":[118.1833333,39.6333333]}},{"properties":{"city":"Tianjin","count_n":168,"geo_score":1.0,"id":"a688im1signx","geo_precision":"zip"},"type":"Feature","geometry":{"type":"Point","coordinates":[117.1766667,39.1422222]}},{"properties":{"city":"Tongliao","count_n":1,"geo_score":1.0,"id":"a688im0dme40","geo_precision":"zip"},"type":"Feature","geometry":{"type":"Point","coordinates":[122.2652778,43.6125]}},{"properties":{"city":"Tongzhou","count_n":1,"geo_score":1.0,"id":"a688im3ekuim","geo_precision":"zip"},"type":"Feature","geometry":{"type":"Point","coordinates":[116.5994444,39.9052778]}},{"properties":{"city":"Urumqi","count_n":8,"geo_score":1.0,"id":"a688im3guh9c","geo_precision":"zip"},"type":"Feature","geometry":{"type":"Point","coordinates":[87.5833333,43.8]}},{"properties":{"city":"Wenzhou","count_n":1,"geo_score":1.0,"id":"a688im5xnxfs","geo_precision":"zip"},"type":"Feature","geometry":{"type":"Point","coordinates":[120.6544444,28.0191667]}},{"properties":{"city":"Wuhan","count_n":10,"geo_score":1.0,"id":"a688im4sozv5","geo_precision":"zip"},"type":"Feature","geometry":{"type":"Point","coordinates":[114.2666667,30.5833333]}},{"properties":{"city":"Wuxi","count_n":2,"geo_score":1.0,"id":"a688im1etyxi","geo_precision":"zip"},"type":"Feature","geometry":{"type":"Point","coordinates":[120.2938889,31.5772222]}},{"properties":{"city":"Xian","count_n":14,"geo_score":1.0,"id":"a688imal7lcf","geo_precision":"zip"},"type":"Feature","geometry":{"type":"Point","coordinates":[108.9286111,34.2583333]}},{"properties":{"city":"Yangquan","count_n":1,"geo_score":1.0,"id":"a688im4ey3cb","geo_precision":"zip"},"type":"Feature","geometry":{"type":"Point","coordinates":[113.5633333,37.8575]}},{"properties":{"city":"Yulin","count_n":9,"geo_score":1.0,"id":"a688imfed4wg","geo_precision":"zip"},"type":"Feature","geometry":{"type":"Point","coordinates":[110.15,22.6333333]}},{"properties":{"city":"Zhejiang","count_n":1,"geo_score":0.982,"id":"a688im5idc6q","geo_precision":"zip"},"type":"Feature","geometry":{"type":"Point","coordinates":[111.7533333,30.4213889]}},{"properties":{"city":"Zhengzhou","count_n":11,"geo_score":1.0,"id":"a688im7rstss","geo_precision":"zip"},"type":"Feature","geometry":{"type":"Point","coordinates":[113.6486111,34.7577778]}},{"properties":{"city":"Zhongshan","count_n":1,"geo_score":0.957,"id":"a688im93n4my","geo_precision":"zip"},"type":"Feature","geometry":{"type":"Point","coordinates":[112.5830556,31.1661111]}},{"properties":{"city":"Zhuhai","count_n":2,"geo_score":1.0,"id":"a688imc0rd4n","geo_precision":"zip"},"type":"Feature","geometry":{"type":"Point","coordinates":[113.5677778,22.2769444]}},{"properties":{"city":"Zibo","count_n":8,"geo_score":1.0,"id":"a688im0h5p5m","geo_precision":"zip"},"type":"Feature","geometry":{"type":"Point","coordinates":[118.0633333,36.7905556]}}],"is_temporal":false,"author":{"url":"","metadata":"","contact_name":"","contact_address":"","source":"","contact_phone":""},"source":"","pagination":{"sort":null,"start":0,"total":58,"limit":1000000},"state":"complete","tags":"","published":"2014-08-14T16:47:01-04:00","id":231412}