{"type":"FeatureCollection","data_type":"Dataset","url_type":null,"permissions":[{"permissions":{"download":true,"view":true},"group_id":"everyone"}],"classification":null,"title":"sha city heat warm","count":69,"stream_id":231413,"contributor":{"url":"http://geocommons.com/users/44227","name":"larrysu1115"},"data_attributes":null,"calculation_params":null,"icon_link":null,"link":"http://geocommons.com/overlays/231413.json","extent":[87.5833,20.0458,126.748,45.75],"geometry_types":["point"],"unique_name":null,"name":"sha city heat warm","feature_count":69,"description":"","next_feature":null,"is_raster":false,"short_classification":"Y","stats":{"count_n":{"max":508,"mean":28.9420289855072,"variance":5921.8495311168,"stdev":76.9535543761092,"min":1,"median":3}},"features":[{"properties":{"city":"Anyang","count_n":1,"geo_score":1.0,"id":"a63y6rmkqhsc","geo_precision":"zip"},"type":"Feature","geometry":{"type":"Point","coordinates":[114.3288889,36.0994444]}},{"properties":{"city":"Baotou","count_n":1,"geo_score":1.0,"id":"a63y6r8h7cba","geo_precision":"zip"},"type":"Feature","geometry":{"type":"Point","coordinates":[109.8222222,40.6522222]}},{"properties":{"city":"Beijing","count_n":120,"geo_score":1.0,"id":"a63y6r8vi9gp","geo_precision":"zip"},"type":"Feature","geometry":{"type":"Point","coordinates":[116.397228240967,39.9074977414405]}},{"properties":{"city":"Changchun","count_n":49,"geo_score":1.0,"id":"a63y6rm4678i","geo_precision":"zip"},"type":"Feature","geometry":{"type":"Point","coordinates":[125.3227778,43.88]}},{"properties":{"city":"Changping","count_n":2,"geo_score":1.0,"id":"a63y6rmbktlm","geo_precision":"zip"},"type":"Feature","geometry":{"type":"Point","coordinates":[116.2197222,40.2186111]}},{"properties":{"city":"Changsha","count_n":228,"geo_score":1.0,"id":"a63y6rjom8em","geo_precision":"zip"},"type":"Feature","geometry":{"type":"Point","coordinates":[112.9666667,28.2]}},{"properties":{"city":"Changzhi","count_n":1,"geo_score":0.968,"id":"a63y6r7gv15r","geo_precision":"zip"},"type":"Feature","geometry":{"type":"Point","coordinates":[119.9666667,31.7833333]}},{"properties":{"city":"Changzhou","count_n":1,"geo_score":1.0,"id":"a63y6rghtsss","geo_precision":"zip"},"type":"Feature","geometry":{"type":"Point","coordinates":[119.9666667,31.7833333]}},{"properties":{"city":"Chengde","count_n":2,"geo_score":0.98,"id":"a63y6rcq413q","geo_precision":"zip"},"type":"Feature","geometry":{"type":"Point","coordinates":[104.0666667,30.6666667]}},{"properties":{"city":"Chengdu","count_n":93,"geo_score":1.0,"id":"a63y6r7ezl7z","geo_precision":"zip"},"type":"Feature","geometry":{"type":"Point","coordinates":[104.0666667,30.6666667]}},{"properties":{"city":"Chongqing","count_n":77,"geo_score":1.0,"id":"a63y6rkvmvi6","geo_precision":"zip"},"type":"Feature","geometry":{"type":"Point","coordinates":[106.5527778,29.5627778]}},{"properties":{"city":"Dalian","count_n":32,"geo_score":1.0,"id":"a63y6rbd6iij","geo_precision":"zip"},"type":"Feature","geometry":{"type":"Point","coordinates":[121.6022222,38.9122222]}},{"properties":{"city":"Daxing","count_n":3,"geo_score":1.0,"id":"a63y6rjgf1vr","geo_precision":"zip"},"type":"Feature","geometry":{"type":"Point","coordinates":[116.3291667,39.7213889]}},{"properties":{"city":"Dongguan","count_n":33,"geo_score":1.0,"id":"a63y6rltim7z","geo_precision":"zip"},"type":"Feature","geometry":{"type":"Point","coordinates":[113.7447222,23.0488889]}},{"properties":{"city":"Fengtai","count_n":3,"geo_score":1.0,"id":"a63y6rgrzcuz","geo_precision":"zip"},"type":"Feature","geometry":{"type":"Point","coordinates":[117.7491667,39.5580556]}},{"properties":{"city":"Foshan","count_n":6,"geo_score":0.952,"id":"a63y6rkic1xk","geo_precision":"zip"},"type":"Feature","geometry":{"type":"Point","coordinates":[123.9233333,41.8558333]}},{"properties":{"city":"Guangzhou","count_n":5,"geo_score":1.0,"id":"a63y6recyw5i","geo_precision":"zip"},"type":"Feature","geometry":{"type":"Point","coordinates":[113.25,23.1166667]}},{"properties":{"city":"Guiyang","count_n":3,"geo_score":1.0,"id":"a63y6rhx3n5n","geo_precision":"zip"},"type":"Feature","geometry":{"type":"Point","coordinates":[106.7166667,26.5833333]}},{"properties":{"city":"Haidian","count_n":2,"geo_score":0.959,"id":"a63y6rf2zy3v","geo_precision":"zip"},"type":"Feature","geometry":{"type":"Point","coordinates":[126.7477778,42.9633333]}},{"properties":{"city":"Haikou","count_n":3,"geo_score":1.0,"id":"a63y6ra4l3yz","geo_precision":"zip"},"type":"Feature","geometry":{"type":"Point","coordinates":[110.3416667,20.0458333]}},{"properties":{"city":"Hangzhou","count_n":41,"geo_score":1.0,"id":"a63y6ra6uxpg","geo_precision":"zip"},"type":"Feature","geometry":{"type":"Point","coordinates":[120.1688889,30.2552778]}},{"properties":{"city":"Harbin","count_n":69,"geo_score":1.0,"id":"a63y6rm4klgm","geo_precision":"zip"},"type":"Feature","geometry":{"type":"Point","coordinates":[126.65,45.75]}},{"properties":{"city":"Hefei","count_n":5,"geo_score":1.0,"id":"a63y6rjrxsuv","geo_precision":"zip"},"type":"Feature","geometry":{"type":"Point","coordinates":[117.2808333,31.8638889]}},{"properties":{"city":"Huizhou","count_n":2,"geo_score":1.0,"id":"a63y6rfmvbtw","geo_precision":"zip"},"type":"Feature","geometry":{"type":"Point","coordinates":[114.4,23.0833333]}},{"properties":{"city":"Jiangmen","count_n":1,"geo_score":1.0,"id":"a63y6rjobxas","geo_precision":"zip"},"type":"Feature","geometry":{"type":"Point","coordinates":[113.0833333,22.5833333]}},{"properties":{"city":"Jiaxing","count_n":2,"geo_score":1.0,"id":"a63y6rjiv0pf","geo_precision":"zip"},"type":"Feature","geometry":{"type":"Point","coordinates":[120.7483333,30.7655556]}},{"properties":{"city":"Jinan","count_n":67,"geo_score":1.0,"id":"a63y6rgmpl8m","geo_precision":"zip"},"type":"Feature","geometry":{"type":"Point","coordinates":[116.9972222,36.6683333]}},{"properties":{"city":"Jining","count_n":4,"geo_score":1.0,"id":"a63y6rjrdfxs","geo_precision":"zip"},"type":"Feature","geometry":{"type":"Point","coordinates":[116.5813889,35.405]}},{"properties":{"city":"Kunming","count_n":54,"geo_score":1.0,"id":"a63y6rfukrpj","geo_precision":"zip"},"type":"Feature","geometry":{"type":"Point","coordinates":[102.7183333,25.0388889]}},{"properties":{"city":"Langfang","count_n":2,"geo_score":1.0,"id":"a63y6r6jg6cp","geo_precision":"zip"},"type":"Feature","geometry":{"type":"Point","coordinates":[116.6947222,39.5097222]}},{"properties":{"city":"Lanzhou","count_n":1,"geo_score":1.0,"id":"a63y6rgvjcnz","geo_precision":"zip"},"type":"Feature","geometry":{"type":"Point","coordinates":[103.7922222,36.0563889]}},{"properties":{"city":"Liaoning","count_n":1,"geo_score":0.929,"id":"a63y6ri6ca6q","geo_precision":"zip"},"type":"Feature","geometry":{"type":"Point","coordinates":[94.7,29.8166667]}},{"properties":{"city":"Luoyang","count_n":15,"geo_score":1.0,"id":"a63y6rkyf5j5","geo_precision":"zip"},"type":"Feature","geometry":{"type":"Point","coordinates":[112.4536111,34.6836111]}},{"properties":{"city":"Nanjing","count_n":1,"geo_score":1.0,"id":"a63y6riytsjy","geo_precision":"zip"},"type":"Feature","geometry":{"type":"Point","coordinates":[118.7777778,32.0616667]}},{"properties":{"city":"Ningbo","count_n":2,"geo_score":1.0,"id":"a63y6refz3q6","geo_precision":"zip"},"type":"Feature","geometry":{"type":"Point","coordinates":[121.5419444,29.875]}},{"properties":{"city":"Putian","count_n":1,"geo_score":1.0,"id":"a63y6rl4nf58","geo_precision":"zip"},"type":"Feature","geometry":{"type":"Point","coordinates":[119.0102778,25.4394444]}},{"properties":{"city":"Qingdao","count_n":32,"geo_score":1.0,"id":"a63y6rg07io0","geo_precision":"zip"},"type":"Feature","geometry":{"type":"Point","coordinates":[120.3719444,36.0986111]}},{"properties":{"city":"Shandong","count_n":2,"geo_score":0.964,"id":"a63y6ramti5l","geo_precision":"zip"},"type":"Feature","geometry":{"type":"Point","coordinates":[117.4577778,35.0752778]}},{"properties":{"city":"Shanghai","count_n":508,"geo_score":1.0,"id":"a63y6rlen1v8","geo_precision":"zip"},"type":"Feature","geometry":{"type":"Point","coordinates":[121.4580556,31.2222222]}},{"properties":{"city":"Shantou","count_n":3,"geo_score":1.0,"id":"a63y6rje6i3k","geo_precision":"zip"},"type":"Feature","geometry":{"type":"Point","coordinates":[116.6783333,23.36]}},{"properties":{"city":"Shaoxing","count_n":1,"geo_score":1.0,"id":"a63y6r6q3j5u","geo_precision":"zip"},"type":"Feature","geometry":{"type":"Point","coordinates":[120.5811111,30.0016667]}},{"properties":{"city":"Shenyang","count_n":11,"geo_score":1.0,"id":"a63y6rdj5xep","geo_precision":"zip"},"type":"Feature","geometry":{"type":"Point","coordinates":[123.4327778,41.7922222]}},{"properties":{"city":"Shenzhen","count_n":26,"geo_score":1.0,"id":"a63y6rlymnvt","geo_precision":"zip"},"type":"Feature","geometry":{"type":"Point","coordinates":[114.068298339844,22.5455376639819]}},{"properties":{"city":"Shijiazhuang","count_n":10,"geo_score":1.0,"id":"a63y6r8xc3js","geo_precision":"zip"},"type":"Feature","geometry":{"type":"Point","coordinates":[114.4786111,38.0413889]}},{"properties":{"city":"Sichuan","count_n":1,"geo_score":0.911,"id":"a63y6reo96wk","geo_precision":"zip"},"type":"Feature","geometry":{"type":"Point","coordinates":[120.2588889,30.1675]}},{"properties":{"city":"Suzhou","count_n":1,"geo_score":1.0,"id":"a63y6r91zkzm","geo_precision":"zip"},"type":"Feature","geometry":{"type":"Point","coordinates":[120.6180556,31.3113889]}},{"properties":{"city":"Taian","count_n":1,"geo_score":1.0,"id":"a63y6re1f7cw","geo_precision":"zip"},"type":"Feature","geometry":{"type":"Point","coordinates":[117.12,36.1852778]}},{"properties":{"city":"Taiyuan","count_n":7,"geo_score":1.0,"id":"a63y6rc4zmxj","geo_precision":"zip"},"type":"Feature","geometry":{"type":"Point","coordinates":[112.5602778,37.8694444]}},{"properties":{"city":"Taizhou","count_n":4,"geo_score":1.0,"id":"a63y6rbbfq2o","geo_precision":"zip"},"type":"Feature","geometry":{"type":"Point","coordinates":[119.9080556,32.4933333]}},{"properties":{"city":"Tangshan","count_n":20,"geo_score":1.0,"id":"a63y6rgchf5z","geo_precision":"zip"},"type":"Feature","geometry":{"type":"Point","coordinates":[118.1833333,39.6333333]}},{"properties":{"city":"Tianjin","count_n":313,"geo_score":1.0,"id":"a63y6rh9k4gq","geo_precision":"zip"},"type":"Feature","geometry":{"type":"Point","coordinates":[117.1766667,39.1422222]}},{"properties":{"city":"Tongzhou","count_n":3,"geo_score":1.0,"id":"a63y6rezxq1t","geo_precision":"zip"},"type":"Feature","geometry":{"type":"Point","coordinates":[116.5994444,39.9052778]}},{"properties":{"city":"Urumqi","count_n":19,"geo_score":1.0,"id":"a63y6rd2tuxq","geo_precision":"zip"},"type":"Feature","geometry":{"type":"Point","coordinates":[87.5833333,43.8]}},{"properties":{"city":"Weifang","count_n":2,"geo_score":1.0,"id":"a63y6r8jkcju","geo_precision":"zip"},"type":"Feature","geometry":{"type":"Point","coordinates":[119.1019444,36.71]}},{"properties":{"city":"Wenzhou","count_n":1,"geo_score":1.0,"id":"a63y6rm6mgxa","geo_precision":"zip"},"type":"Feature","geometry":{"type":"Point","coordinates":[120.6544444,28.0191667]}},{"properties":{"city":"Wuhai","count_n":1,"geo_score":0.943,"id":"a63y6reda7m7","geo_precision":"zip"},"type":"Feature","geometry":{"type":"Point","coordinates":[118.3666667,31.35]}},{"properties":{"city":"Wuhan","count_n":8,"geo_score":1.0,"id":"a63y6r6kdvbk","geo_precision":"zip"},"type":"Feature","geometry":{"type":"Point","coordinates":[114.2666667,30.5833333]}},{"properties":{"city":"Xiamen","count_n":1,"geo_score":1.0,"id":"a63y6rbua27k","geo_precision":"zip"},"type":"Feature","geometry":{"type":"Point","coordinates":[118.0930556,24.4675]}},{"properties":{"city":"Xian","count_n":35,"geo_score":1.0,"id":"a63y6rb7m0m3","geo_precision":"zip"},"type":"Feature","geometry":{"type":"Point","coordinates":[108.9286111,34.2583333]}},{"properties":{"city":"Yangzhou","count_n":1,"geo_score":1.0,"id":"a63y6rgx8e6y","geo_precision":"zip"},"type":"Feature","geometry":{"type":"Point","coordinates":[119.4358333,32.3972222]}},{"properties":{"city":"Yantai","count_n":4,"geo_score":1.0,"id":"a63y6r9f3079","geo_precision":"zip"},"type":"Feature","geometry":{"type":"Point","coordinates":[121.4,37.5333333]}},{"properties":{"city":"Yinchuan","count_n":1,"geo_score":1.0,"id":"a63y6ra38fx3","geo_precision":"zip"},"type":"Feature","geometry":{"type":"Point","coordinates":[106.2730556,38.4680556]}},{"properties":{"city":"Yulin","count_n":5,"geo_score":1.0,"id":"a63y6rf43ipx","geo_precision":"zip"},"type":"Feature","geometry":{"type":"Point","coordinates":[110.15,22.6333333]}},{"properties":{"city":"Yuxi","count_n":1,"geo_score":0.914,"id":"a63y6rkzia5w","geo_precision":"zip"},"type":"Feature","geometry":{"type":"Point","coordinates":[126.5333333,44.8]}},{"properties":{"city":"Zhejiang","count_n":3,"geo_score":0.982,"id":"a63y6riv1hcn","geo_precision":"zip"},"type":"Feature","geometry":{"type":"Point","coordinates":[111.7533333,30.4213889]}},{"properties":{"city":"Zhengzhou","count_n":9,"geo_score":1.0,"id":"a63y6rdmyor2","geo_precision":"zip"},"type":"Feature","geometry":{"type":"Point","coordinates":[113.6486111,34.7577778]}},{"properties":{"city":"Zhongshan","count_n":6,"geo_score":0.957,"id":"a63y6ritaxep","geo_precision":"zip"},"type":"Feature","geometry":{"type":"Point","coordinates":[112.5830556,31.1661111]}},{"properties":{"city":"Zhuhai","count_n":2,"geo_score":1.0,"id":"a63y6rlue4dc","geo_precision":"zip"},"type":"Feature","geometry":{"type":"Point","coordinates":[113.5677778,22.2769444]}},{"properties":{"city":"Zibo","count_n":22,"geo_score":1.0,"id":"a63y6r6cimpv","geo_precision":"zip"},"type":"Feature","geometry":{"type":"Point","coordinates":[118.0633333,36.7905556]}}],"is_temporal":false,"author":{"url":"","metadata":"","contact_name":"","contact_address":"","source":"","contact_phone":""},"source":"","pagination":{"sort":null,"start":0,"total":69,"limit":1000000},"state":"complete","tags":"","published":"2014-08-14T16:47:01-04:00","id":231413}