{"type":"FeatureCollection","data_type":"Dataset","url_type":null,"permissions":[{"permissions":{"download":true,"view":true},"group_id":"everyone"}],"classification":null,"title":"L-H 2011","count":48,"stream_id":232561,"contributor":{"url":"http://geocommons.com/users/38281","name":"briantalbot"},"data_attributes":null,"calculation_params":null,"icon_link":null,"link":"http://geocommons.com/overlays/232561.json","extent":[-122.436,37.3168,-121.977,37.6215],"geometry_types":["point"],"unique_name":null,"name":"L-H 2011","feature_count":48,"description":"","next_feature":null,"is_raster":false,"short_classification":"Y","stats":{"latitude":{"max":37.6215,"variance":0.00511819796755974,"mean":37.4416361875,"stdev":0.0715415820873409,"min":37.316822,"median":37.404272},"longitude":{"max":-121.976692,"variance":0.0117701033557286,"mean":-122.120371875,"stdev":0.108490107179082,"min":-122.436478,"median":-122.073253},"transaction sf":{"max":715000,"variance":18490256523.2762,"mean":156538.145833333,"stdev":135978.882637254,"min":50159,"median":99800},"street #":{"max":39745,"variance":36057071.8464385,"mean":2734.74468085106,"stdev":6004.75410374467,"min":101,"median":1000}},"features":[{"properties":{"name":"803 11th Ave, Sunnyvale, CA","city":"Sunnyvale","latitude":37.403652,"tenant/buyer":"Google","longitude":-122.031578,"street name":"11th Ave","id":"a63zpy5rlbth","transaction date":"8/10/2011","office class or r&d":"Class A","transaction sf":715000,"state":"CA","street #":803},"type":"Feature","geometry":{"type":"Point","coordinates":[-122.031578,37.403652]}},{"properties":{"name":"2215 Bridgepointe Pky, San Mateo, CA","city":"Mountain View","latitude":37.399055,"tenant/buyer":"Google","longitude":-122.057495,"street name":"Whisman Rd","id":"a63zpyddcabu","transaction date":"5/2/2011","office class or r&d":"R&amp;D/Flex","transaction sf":447553,"state":"CA","street #":369},"type":"Feature","geometry":{"type":"Point","coordinates":[-122.057495,37.399055]}},{"properties":{"name":"160 Rio Robles St, San Jose, CA","city":"Sunnyvale","latitude":37.409697,"tenant/buyer":"Hewlett Packard","longitude":-122.036994,"street name":"Enterprise Way","id":"a63zpy34t7zm","transaction date":"3/1/2011","office class or r&d":"Class A","transaction sf":393776,"state":"CA","street #":1140},"type":"Feature","geometry":{"type":"Point","coordinates":[-122.036994,37.409697]}},{"properties":{"name":"1140 Enterprise Way, Sunnyvale, CA","city":"Cupertino","latitude":37.316822,"tenant/buyer":"Apple Inc.","longitude":-122.051125,"street name":"Results Wy","id":"a63zpy52i7s8","transaction date":"7/1/2011","office class or r&d":"R&amp;D/Flex","transaction sf":377927,"state":"CA","street #":null},"type":"Feature","geometry":{"type":"Point","coordinates":[-122.051125,37.316822]}},{"properties":{"name":"Results Wy, Cupertino, CA","city":"Mountain View","latitude":37.400807,"tenant/buyer":"Synopsys, Inc.","longitude":-122.073405,"street name":"Middlefield Rd","id":"a63zpy5m95mi","transaction date":"11/1/2011","office class or r&d":"Class A","transaction sf":340000,"state":"CA","street #":690},"type":"Feature","geometry":{"type":"Point","coordinates":[-122.073405,37.400807]}},{"properties":{"name":"690 Middlefield Rd, Mountain View, CA","city":"Mountain View","latitude":37.423413,"tenant/buyer":"LinkedIn","longitude":-122.073253,"street name":"Stierlin Ct","id":"a63zpy8hd1av","transaction date":"10/25/2011","office class or r&d":"R&amp;D/Flex","transaction sf":303195,"state":"CA","street #":2061},"type":"Feature","geometry":{"type":"Point","coordinates":[-122.073253,37.423413]}},{"properties":{"name":"6331 San Ignacio Ave, San Jose, CA","city":"Santa Clara","latitude":37.39872,"tenant/buyer":"Avaya","longitude":-121.976692,"street name":"Great America Pkwy","id":"a63zpyefna6f","transaction date":"9/1/2011","office class or r&d":"Class A","transaction sf":257155,"state":"CA","street #":4655},"type":"Feature","geometry":{"type":"Point","coordinates":[-121.976692,37.39872]}},{"properties":{"name":"900 Sumac Dr., Milpitas, CA","city":"Sunnyvale","latitude":37.403088,"tenant/buyer":"Microsoft","longitude":-122.036768,"street name":"Enterprise Way","id":"a63zpyaghtaz","transaction date":"5/2/2011","office class or r&d":"Class A","transaction sf":237121,"state":"CA","street #":1020},"type":"Feature","geometry":{"type":"Point","coordinates":[-122.036768,37.403088]}},{"properties":{"name":"2811 Mission College Blvd, Santa Clara, CA","city":"Sunnyvale","latitude":37.401934,"tenant/buyer":"Motorola","longitude":-122.036545,"street name":"Enterprise Way","id":"a63zpycdl2dr","transaction date":"3/1/2011","office class or r&d":"Class A","transaction sf":236444,"state":"CA","street #":1000},"type":"Feature","geometry":{"type":"Point","coordinates":[-122.036545,37.401934]}},{"properties":{"name":"395 Page Mill Rd, Palo Alto, CA","city":"Sunnyvale","latitude":37.37912,"tenant/buyer":"Apple Inc.","longitude":-122.000893,"street name":"Arques Ave","id":"a63zpy7vqldp","transaction date":"12/15/2011","office class or r&d":"R&amp;D/Flex","transaction sf":215481,"state":"CA","street #":1050},"type":"Feature","geometry":{"type":"Point","coordinates":[-122.000893,37.37912]}},{"properties":{"name":"1310 Ridder Park Dr, San Jose, CA","city":"San Jose","latitude":37.38369,"tenant/buyer":"Polycom","longitude":-122.018867,"street name":"America Center Dr","id":"a63zpyagjbge","transaction date":"9/15/2011","office class or r&d":"Class A","transaction sf":212863,"state":"CA","street #":6001},"type":"Feature","geometry":{"type":"Point","coordinates":[-122.018867,37.38369]}},{"properties":{"name":"3400 Hillview Ave, Palo Alto, CA","city":"Palo Alto","latitude":37.421524,"tenant/buyer":"Wilson, Sonsini, Goodrich &amp; Rosati LLP","longitude":-122.144768,"street name":"Page Mill Rd","id":"a63zpyduhpo8","transaction date":"6/1/2011","office class or r&d":"Class A","transaction sf":184000,"state":"CA","street #":650},"type":"Feature","geometry":{"type":"Point","coordinates":[-122.144768,37.421524]}},{"properties":{"name":"2025 Stierlin Ct, Mountain View, CA","city":"Mountain View","latitude":37.400497,"tenant/buyer":"Symantec","longitude":-122.071915,"street name":"Middlefield Rd","id":"a63zpy7hncno","transaction date":"7/1/2011","office class or r&d":"Class A","transaction sf":136000,"state":"CA","street #":500},"type":"Feature","geometry":{"type":"Point","coordinates":[-122.071915,37.400497]}},{"properties":{"name":"10200 De Anza Blvd, Cupertino, CA","city":"Mountain View","latitude":37.404064,"tenant/buyer":"Google","longitude":-122.055756,"street name":"Fairchild Dr","id":"a63zpyeld45r","transaction date":"6/8/2011","office class or r&d":"R&amp;D/Flex","transaction sf":135656,"state":"CA","street #":313},"type":"Feature","geometry":{"type":"Point","coordinates":[-122.055756,37.404064]}},{"properties":{"name":"313 Fairchild Dr, Mountain View, CA","city":"Fremont","latitude":37.552837,"tenant/buyer":"Amgen Fremont Inc","longitude":-122.061546,"street name":"Kaiser Dr","id":"a63zpy414bty","transaction date":"3/22/2011","office class or r&d":"R&amp;D/Flex","transaction sf":127887,"state":"CA","street #":6401},"type":"Feature","geometry":{"type":"Point","coordinates":[-122.061546,37.552837]}},{"properties":{"name":"645 Almanor Ave, Sunnyvale, CA","city":"Mountain View","latitude":37.423317,"tenant/buyer":"Google","longitude":-122.076611,"street name":"Stierlin Ct","id":"a63zpy8d4bi2","transaction date":"1/1/2011","office class or r&d":"R&amp;D/Flex","transaction sf":124032,"state":"CA","street #":2011},"type":"Feature","geometry":{"type":"Point","coordinates":[-122.076611,37.423317]}},{"properties":{"name":"6401 Kaiser Dr, Fremont, CA","city":"Mountain View","latitude":37.400682,"tenant/buyer":"Siemens Medical","longitude":-122.073563,"street name":"Middlefield Rd","id":"a63zpye5n6vr","transaction date":"6/15/2011","office class or r&d":"R&amp;D/Flex","transaction sf":114744,"state":"CA","street #":675},"type":"Feature","geometry":{"type":"Point","coordinates":[-122.073563,37.400682]}},{"properties":{"name":"1800 Seaport Blvd, Redwood City, CA","city":"Sunnyvale","latitude":37.395565,"tenant/buyer":"Apple Inc.","longitude":-122.039787,"street name":"Benecia Ave","id":"a63zpy49ngae","transaction date":"10/1/2011","office class or r&d":"R&amp;D/Flex","transaction sf":108712,"state":"CA","street #":975},"type":"Feature","geometry":{"type":"Point","coordinates":[-122.039787,37.395565]}},{"properties":{"name":"675 Middlefield Rd, Mountain View, CA","city":"Sunnyvale","latitude":37.397881,"tenant/buyer":"Riverbed Technologies","longitude":-122.029877,"street name":"Almanor Ave","id":"a63zpy2zqps4","transaction date":"3/15/2011","office class or r&d":"Class A","transaction sf":103985,"state":"CA","street #":525},"type":"Feature","geometry":{"type":"Point","coordinates":[-122.029877,37.397881]}},{"properties":{"name":"3300 Olcott St, Santa Clara, CA","city":"Mountain View","latitude":37.400249,"tenant/buyer":"Omnicell, Inc.","longitude":-122.07263,"street name":"Middlefield Rd","id":"a63zpyb8a1kp","transaction date":"10/17/2011","office class or r&d":"Class A","transaction sf":99800,"state":"CA","street #":590},"type":"Feature","geometry":{"type":"Point","coordinates":[-122.07263,37.400249]}},{"properties":{"name":"40 Airport Pkwy, San Jose, CA","city":"Los Altos","latitude":37.40269,"tenant/buyer":"Box.net","longitude":-122.116128,"street name":"El Camino Real","id":"a63zpyfggz9o","transaction date":"6/22/2011","office class or r&d":"Class A","transaction sf":96562,"state":"CA","street #":4440},"type":"Feature","geometry":{"type":"Point","coordinates":[-122.116128,37.40269]}},{"properties":{"name":"39201 Cherry St, Newark, CA","city":"Palo Alto","latitude":37.395638,"tenant/buyer":"SAP","longitude":-122.148277,"street name":"Deer Creek Rd","id":"a63zpy6vp68o","transaction date":"8/30/2011","office class or r&d":"R&amp;D/Flex","transaction sf":92740,"state":"CA","street #":3475},"type":"Feature","geometry":{"type":"Point","coordinates":[-122.148277,37.395638]}},{"properties":{"name":"350 Java Dr, Sunnyvale, CA","city":"Palo Alto","latitude":37.424931,"tenant/buyer":"Disney Interactive","longitude":-122.139061,"street name":"Page Mill Rd","id":"a63zpy355q5g","transaction date":"3/22/2011","office class or r&d":"Class A","transaction sf":82645,"state":"CA","street #":395},"type":"Feature","geometry":{"type":"Point","coordinates":[-122.139061,37.424931]}},{"properties":{"name":"4949 Hellyer Ave, San Jose, CA","city":"Sunnyvale","latitude":37.404272,"tenant/buyer":"Financial Engines, Inc.","longitude":-122.036878,"street name":"Enterprise Way","id":"a63zpy7pa2cs","transaction date":"10/19/2011","office class or r&d":"Class A","transaction sf":80995,"state":"CA","street #":1040},"type":"Feature","geometry":{"type":"Point","coordinates":[-122.036878,37.404272]}},{"properties":{"name":"305 Walnut St, Redwood City, CA","city":"Sunnyvale","latitude":37.401934,"tenant/buyer":"Motorola","longitude":-122.036545,"street name":"Enterprise Way","id":"a63zpygro98l","transaction date":"11/15/2011","office class or r&d":"Class A","transaction sf":80669,"state":"CA","street #":1000},"type":"Feature","geometry":{"type":"Point","coordinates":[-122.036545,37.401934]}},{"properties":{"name":"5450 Great America Pkwy, Santa Clara, CA","city":"Sunnyvale","latitude":37.390696,"tenant/buyer":"Good Technology, Inc.","longitude":-122.040143,"street name":"Mary Ave","id":"a63zpy1weo6c","transaction date":"6/1/2011","office class or r&d":"Class B","transaction sf":80302,"state":"CA","street #":430},"type":"Feature","geometry":{"type":"Point","coordinates":[-122.040143,37.390696]}},{"properties":{"name":"4425 Fortran Dr, San Jose, CA","city":"Sunnyvale","latitude":37.388401,"tenant/buyer":"Juniper Networks","longitude":-122.041733,"street name":"Mary Ave","id":"a63zpy28fezf","transaction date":"7/1/2011","office class or r&d":"R&amp;D/Flex","transaction sf":68000,"state":"CA","street #":324},"type":"Feature","geometry":{"type":"Point","coordinates":[-122.041733,37.388401]}},{"properties":{"name":"2190 Fortune Dr, San Jose, CA","city":"Cupertino","latitude":37.323177,"tenant/buyer":"Apple Inc.","longitude":-122.006433,"street name":"Tantau Ave","id":"a63zpy4p8q2n","transaction date":"4/1/2011","office class or r&d":"R&amp;D/Flex","transaction sf":58979,"state":"CA","street #":10100},"type":"Feature","geometry":{"type":"Point","coordinates":[-122.006433,37.323177]}},{"properties":{"name":"935 Stewart Dr, Sunnyvale, CA","city":"Mountain View","latitude":37.400682,"tenant/buyer":"Zynga","longitude":-122.073563,"street name":"Middlefield Rd","id":"a63zpy3pvcep","transaction date":"10/5/2011","office class or r&d":"R&amp;D/Flex","transaction sf":58584,"state":"CA","street #":675},"type":"Feature","geometry":{"type":"Point","coordinates":[-122.073563,37.400682]}},{"properties":{"name":"217 Humboldt Ct, Sunnyvale, CA","city":"Newark","latitude":37.50975,"tenant/buyer":"Apple Inc.","longitude":-121.999313,"street name":"Eureka Dr","id":"a63zpygejp0z","transaction date":"9/12/2011","office class or r&d":"R&amp;D/Flex","transaction sf":52661,"state":"CA","street #":39745},"type":"Feature","geometry":{"type":"Point","coordinates":[-121.999313,37.50975]}},{"properties":{"name":"1308 Moffett Park Dr, Sunnyvale, CA","city":"Palo Alto","latitude":37.448906,"tenant/buyer":"Skadden Arps, LLP","longitude":-122.15937,"street name":"University Ave","id":"a63zpy1usgv1","transaction date":"5/25/2011","office class or r&d":"Class A","transaction sf":51635,"state":"CA","street #":525},"type":"Feature","geometry":{"type":"Point","coordinates":[-122.15937,37.448906]}},{"properties":{"name":"1025 Mission Ct, Fremont, CA","city":"Mountain View","latitude":37.388626,"tenant/buyer":"Research in Motion","longitude":-122.061962,"street name":"Evelyn Ave","id":"a63zpy7dl209","transaction date":"7/18/2011","office class or r&d":"R&amp;D/Flex","transaction sf":50478,"state":"CA","street #":321},"type":"Feature","geometry":{"type":"Point","coordinates":[-122.061962,37.388626]}},{"properties":{"name":"580 Maude Ct, Sunnyvale, CA","city":"Cupertino","latitude":37.334972,"tenant/buyer":"Apple Inc.","longitude":-122.004517,"street name":"Tantau Ave","id":"a63zpy65g9y3","transaction date":"8/2/2011","office class or r&d":"Class B","transaction sf":50159,"state":"CA","street #":10900},"type":"Feature","geometry":{"type":"Point","coordinates":[-122.004517,37.334972]}},{"properties":{"name":"1001 Hillsdale Blvd, Foster City, CA","city":"Foster City","latitude":37.554865,"tenant/buyer":"Guidewire","longitude":-122.266041,"street name":"Hillsdale Blvd","id":"a63zpycruey6","transaction date":"12/19/2011","office class or r&d":"Class ?","transaction sf":97674,"state":"CA","street #":1001},"type":"Feature","geometry":{"type":"Point","coordinates":[-122.266041,37.554865]}},{"properties":{"name":"951 Mariners Island Blvd, San Mateo, CA","city":"San Mateo","latitude":37.554596,"tenant/buyer":"Actuate","longitude":-122.303432,"street name":"Mariners Island Blvd","id":"a63zpy5jpjem","transaction date":"12/1/2011","office class or r&d":"Class ?","transaction sf":58069,"state":"CA","street #":951},"type":"Feature","geometry":{"type":"Point","coordinates":[-122.303432,37.554596]}},{"properties":{"name":"101 Redwood Shores Pkwy, Redwood City, CA","city":"Redwood City","latitude":37.517044,"tenant/buyer":"Perfect World Entertainment","longitude":-122.253996,"street name":"Redwood Shores Pkwy","id":"a63zpy1z6c4r","transaction date":"7/27/2011","office class or r&d":"Class ?","transaction sf":99535,"state":"CA","street #":101},"type":"Feature","geometry":{"type":"Point","coordinates":[-122.253996,37.517044]}},{"properties":{"name":"2955 Campus Dr, San Mateo, CA","city":"San Mateo","latitude":37.554596,"tenant/buyer":"Netsuite","longitude":-122.303432,"street name":"Campus Dr","id":"a63zpy7udoah","transaction date":"12/9/2011","office class or r&d":"Class ?","transaction sf":79589,"state":"CA","street #":2955},"type":"Feature","geometry":{"type":"Point","coordinates":[-122.303432,37.554596]}},{"properties":{"name":"4100 3rd Ave, Foster City, CA","city":"Foster City","latitude":37.554865,"tenant/buyer":"Philips Electronics North America Corp.","longitude":-122.266041,"street name":"3rd Ave","id":"a63zpy2p6hpw","transaction date":"7/1/2011","office class or r&d":"Class ?","transaction sf":67000,"state":"CA","street #":4100},"type":"Feature","geometry":{"type":"Point","coordinates":[-122.266041,37.554865]}},{"properties":{"name":"2215 Bridgepointe Pky, San Mateo, CA","city":"San Mateo","latitude":37.554596,"tenant/buyer":"Sony Computer Entertainment of America","longitude":-122.303432,"street name":"Bridgepointe Pky","id":"a63zpyb6i9u9","transaction date":"9/21/2011","office class or r&d":"Class ?","transaction sf":450505,"state":"CA","street #":2215},"type":"Feature","geometry":{"type":"Point","coordinates":[-122.303432,37.554596]}},{"properties":{"name":"959 Skyway Rd, San Carlos, CA","city":"San Carlos","latitude":37.504505,"tenant/buyer":"Kabam","longitude":-122.262289,"street name":"Skyway Rd","id":"a63zpygsv2m9","transaction date":"10/5/2011","office class or r&d":"Class ?","transaction sf":56725,"state":"CA","street #":959},"type":"Feature","geometry":{"type":"Point","coordinates":[-122.262289,37.504505]}},{"properties":{"name":"1800 Seaport Blvd, Redwood City, CA","city":"Redwood City","latitude":37.50621,"tenant/buyer":"Zazzle, Inc.","longitude":-122.224209,"street name":"Seaport Blvd","id":"a63zpycwpniu","transaction date":"10/15/2011","office class or r&d":"Class ?","transaction sf":119730,"state":"CA","street #":1800},"type":"Feature","geometry":{"type":"Point","coordinates":[-122.224209,37.50621]}},{"properties":{"name":"3000 Clearview Way, San Mateo, CA","city":"San Mateo","latitude":37.554596,"tenant/buyer":"GoPro","longitude":-122.303432,"street name":"Clearview Way","id":"a63zpy52jief","transaction date":"10/1/2011","office class or r&d":"Class ?","transaction sf":82657,"state":"CA","street #":3000},"type":"Feature","geometry":{"type":"Point","coordinates":[-122.303432,37.554596]}},{"properties":{"name":"1300 Seaport Blvd, Redwood City, CA","city":"Redwood City","latitude":37.50621,"tenant/buyer":"C3","longitude":-122.224209,"street name":"Seaport Blvd","id":"a63zpy3rlz1n","transaction date":"10/21/2011","office class or r&d":"Class ?","transaction sf":68410,"state":"CA","street #":1300},"type":"Feature","geometry":{"type":"Point","coordinates":[-122.224209,37.50621]}},{"properties":{"name":"3172 Porter Dr, Palo Alto, CA","city":"Palo Alto","latitude":37.408236,"tenant/buyer":"Stanford School of Medicine","longitude":-122.150766,"street name":"Porter Dr","id":"a63zpy8iwxq2","transaction date":"12/15/2011","office class or r&d":"R&amp;D/Flex","transaction sf":61081,"state":"CA","street #":3172},"type":"Feature","geometry":{"type":"Point","coordinates":[-122.150766,37.408236]}},{"properties":{"name":"1100 Grundy Ln, San Bruno, CA","city":"San Bruno","latitude":37.6215,"tenant/buyer":"Responsys, Inc.","longitude":-122.436478,"street name":"Grundy Ln","id":"a63zpya91kfp","transaction date":"12/1/2011","office class or r&d":"Class ?","transaction sf":58388,"state":"CA","street #":1100},"type":"Feature","geometry":{"type":"Point","coordinates":[-122.436478,37.6215]}},{"properties":{"name":"700 Bay Rd., Redwood City, CA","city":"Redwood City","latitude":37.485769,"tenant/buyer":"Medarex, Inc.","longitude":-122.218172,"street name":"Bay Rd.","id":"a63zpye2sdtj","transaction date":"2/1/2011","office class or r&d":"R&amp;D/Flex","transaction sf":132726,"state":"CA","street #":700},"type":"Feature","geometry":{"type":"Point","coordinates":[-122.218172,37.485769]}},{"properties":{"name":"180 Jefferson Dr, Menlo Park, CA","city":"Menlo Park","latitude":37.48345,"tenant/buyer":"Intuit","longitude":-122.153721,"street name":"Jefferson Dr","id":"a63zpybz00rl","transaction date":"11/15/2011","office class or r&d":"Office ?","transaction sf":210000,"state":"CA","street #":180},"type":"Feature","geometry":{"type":"Point","coordinates":[-122.153721,37.48345]}},{"properties":{"name":"200 Penobscot Dr, Redwood City, CA","city":"Redwood City","latitude":37.50621,"tenant/buyer":"Codexis, Inc.","longitude":-122.224209,"street name":"Penobscot Dr","id":"a63zpyfpsx0j","transaction date":"2/1/2011","office class or r&d":"R&amp;D/Flex","transaction sf":96002,"state":"CA","street #":200},"type":"Feature","geometry":{"type":"Point","coordinates":[-122.224209,37.50621]}}],"is_temporal":false,"author":{"url":"","metadata":"","contact_name":"","contact_address":"","source":"","contact_phone":""},"source":"","pagination":{"sort":null,"start":0,"total":48,"limit":1000000},"state":"complete","tags":"","published":"2014-08-14T18:25:48-04:00","id":232561}