{"type":"FeatureCollection","data_type":"Dataset","url_type":null,"permissions":[{"permissions":{"download":true,"view":true},"group_id":"everyone"}],"classification":null,"title":"ESPNU150","count":50,"stream_id":232961,"contributor":{"url":"http://geocommons.com/users/40695","name":"seem0040"},"data_attributes":null,"calculation_params":null,"icon_link":null,"link":"http://geocommons.com/overlays/232961.json","extent":[0.0,0.0,0.0,0.0],"geometry_types":null,"unique_name":null,"name":"ESPNU150","feature_count":50,"description":"","next_feature":null,"is_raster":false,"short_classification":"Y","features":[{"properties":{"recruits per million":"5.235602094","population in millions":"19.1","espnu150 recruits (last 3 years)":"100","f":"70.7","id":"ap4aio65t8xd","state":"FLORIDA"},"type":"Feature","geometry":null},{"properties":{"recruits per million":"0.714285714","population in millions":"1.4","espnu150 recruits (last 3 years)":"1","f":"70","id":"ap4ainxvgh8x","state":"HAWAII"},"type":"Feature","geometry":null},{"properties":{"recruits per million":"3.260869565","population in millions":"4.6","espnu150 recruits (last 3 years)":"15","f":"66.4","id":"ap4aio2n7rcc","state":"LOUISIANA"},"type":"Feature","geometry":null},{"properties":{"recruits per million":"2.373540856","population in millions":"25.7","espnu150 recruits (last 3 years)":"61","f":"64.8","id":"ap4ainze89yb","state":"TEXAS"},"type":"Feature","geometry":null},{"properties":{"recruits per million":"4.489795918","population in millions":"9.8","espnu150 recruits (last 3 years)":"44","f":"63.5","id":"ap4aio10bzix","state":"GEORGIA"},"type":"Feature","geometry":null},{"properties":{"recruits per million":"2.666666667","population in millions":"3","espnu150 recruits (last 3 years)":"8","f":"63.4","id":"ap4aio9d56jt","state":"MISSISSIPPI"},"type":"Feature","geometry":null},{"properties":{"recruits per million":"4.166666667","population in millions":"4.8","espnu150 recruits (last 3 years)":"20","f":"62.8","id":"ap4aio7e2c2s","state":"ALABAMA"},"type":"Feature","geometry":null},{"properties":{"recruits per million":"1.489361702","population in millions":"4.7","espnu150 recruits (last 3 years)":"7","f":"62.4","id":"ap4aio4v53n3","state":"SOUTH CAROLINA"},"type":"Feature","geometry":null},{"properties":{"recruits per million":"1.724137931","population in millions":"2.9","espnu150 recruits (last 3 years)":"5","f":"60.4","id":"ap4aio9mqgz6","state":"ARKANSAS"},"type":"Feature","geometry":null},{"properties":{"recruits per million":"1.230769231","population in millions":"6.5","espnu150 recruits (last 3 years)":"8","f":"60.3","id":"ap4aio1y6trl","state":"ARIZONA"},"type":"Feature","geometry":null},{"properties":{"recruits per million":"1.315789474","population in millions":"3.8","espnu150 recruits (last 3 years)":"5","f":"59.6","id":"ap4aio6pjzzd","state":"OKLAHOMA"},"type":"Feature","geometry":null},{"properties":{"recruits per million":"1.140583554","population in millions":"37.7","espnu150 recruits (last 3 years)":"43","f":"59.4","id":"ap4aio081r5k","state":"CALIFORNIA"},"type":"Feature","geometry":null},{"properties":{"recruits per million":"1.546391753","population in millions":"9.7","espnu150 recruits (last 3 years)":"15","f":"59","id":"ap4aio9y5jnv","state":"NORTH CAROLINA"},"type":"Feature","geometry":null},{"properties":{"recruits per million":"0.625","population in millions":"6.4","espnu150 recruits (last 3 years)":"4","f":"57.6","id":"ap4aio334tue","state":"TENNESSEE"},"type":"Feature","geometry":null},{"properties":{"recruits per million":"0.681818182","population in millions":"4.4","espnu150 recruits (last 3 years)":"3","f":"55.6","id":"ap4ainzddcsh","state":"KENTUCKY"},"type":"Feature","geometry":null},{"properties":{"recruits per million":"0","population in millions":"0.9","espnu150 recruits (last 3 years)":"0","f":"55.3","id":"ap4aiocxrqkw","state":"DELAWARE"},"type":"Feature","geometry":null},{"properties":{"recruits per million":"1.975308642","population in millions":"8.1","espnu150 recruits (last 3 years)":"16","f":"55.1","id":"ap4aio1efonv","state":"VIRGINIA"},"type":"Feature","geometry":null},{"properties":{"recruits per million":"0.833333333","population in millions":"6","espnu150 recruits (last 3 years)":"5","f":"54.5","id":"ap4aio28ztau","state":"MISSOURI"},"type":"Feature","geometry":null},{"properties":{"recruits per million":"0.689655172","population in millions":"2.9","espnu150 recruits (last 3 years)":"2","f":"54.3","id":"ap4aio4ws8qu","state":"KANSAS"},"type":"Feature","geometry":null},{"properties":{"recruits per million":"1.551724138","population in millions":"5.8","espnu150 recruits (last 3 years)":"9","f":"54.2","id":"ap4aio5ucjup","state":"MARYLAND"},"type":"Feature","geometry":null},{"properties":{"recruits per million":"0.476190476","population in millions":"2.1","espnu150 recruits (last 3 years)":"1","f":"53.4","id":"ap4aio5x373i","state":"NEW MEXICO"},"type":"Feature","geometry":null},{"properties":{"recruits per million":"1.25","population in millions":"8.8","espnu150 recruits (last 3 years)":"11","f":"52.7","id":"ap4aiocn7thf","state":"NEW JERSEY"},"type":"Feature","geometry":null},{"properties":{"recruits per million":"0.852713178","population in millions":"12.9","espnu150 recruits (last 3 years)":"11","f":"51.8","id":"ap4aio3kkm2v","state":"ILLINOIS"},"type":"Feature","geometry":null},{"properties":{"recruits per million":"0","population in millions":"1.9","espnu150 recruits (last 3 years)":"0","f":"51.8","id":"ap4aio6j5v5a","state":"WEST VIRGINIA"},"type":"Feature","geometry":null},{"properties":{"recruits per million":"0.923076923","population in millions":"6.5","espnu150 recruits (last 3 years)":"6","f":"51.7","id":"ap4aioe2d66n","state":"INDIANA"},"type":"Feature","geometry":null},{"properties":{"recruits per million":"1.47826087","population in millions":"11.5","espnu150 recruits (last 3 years)":"17","f":"50.7","id":"ap4aioa6gxa0","state":"OHIO"},"type":"Feature","geometry":null},{"properties":{"recruits per million":"0","population in millions":"1.1","espnu150 recruits (last 3 years)":"0","f":"50.1","id":"ap4aiod9xddj","state":"RHODE ISLAND"},"type":"Feature","geometry":null},{"properties":{"recruits per million":"0","population in millions":"2.7","espnu150 recruits (last 3 years)":"0","f":"49.9","id":"ap4aio6p5vp9","state":"NEVADA"},"type":"Feature","geometry":null},{"properties":{"recruits per million":"0","population in millions":"3.6","espnu150 recruits (last 3 years)":"0","f":"49","id":"ap4aio5z2jm4","state":"CONNECTICUTT"},"type":"Feature","geometry":null},{"properties":{"recruits per million":"0.866141732","population in millions":"12.7","espnu150 recruits (last 3 years)":"11","f":"48.8","id":"ap4aiobey1vq","state":"PENNSYLVANIA"},"type":"Feature","geometry":null},{"properties":{"recruits per million":"0","population in millions":"1.8","espnu150 recruits (last 3 years)":"0","f":"48.8","id":"ap4aio00z1as","state":"NEBRASKA"},"type":"Feature","geometry":null},{"properties":{"recruits per million":"0.357142857","population in millions":"2.8","espnu150 recruits (last 3 years)":"1","f":"48.6","id":"ap4aio7r6hoi","state":"UTAH"},"type":"Feature","geometry":null},{"properties":{"recruits per million":"0.512820513","population in millions":"3.9","espnu150 recruits (last 3 years)":"2","f":"48.4","id":"ap4aio0wg93l","state":"OREGON"},"type":"Feature","geometry":null},{"properties":{"recruits per million":"0.735294118","population in millions":"6.8","espnu150 recruits (last 3 years)":"5","f":"48.3","id":"ap4aio0gpe5l","state":"WASHINGTON"},"type":"Feature","geometry":null},{"properties":{"recruits per million":"0","population in millions":"6.6","espnu150 recruits (last 3 years)":"0","f":"47.9","id":"ap4aio5x9ncc","state":"MASSACHUSETTS"},"type":"Feature","geometry":null},{"properties":{"recruits per million":"0","population in millions":"3.1","espnu150 recruits (last 3 years)":"0","f":"47.8","id":"ap4aio36pcy8","state":"IOWA"},"type":"Feature","geometry":null},{"properties":{"recruits per million":"0.153846154","population in millions":"19.5","espnu150 recruits (last 3 years)":"3","f":"45.4","id":"ap4ainzrjfvb","state":"NEW YORK"},"type":"Feature","geometry":null},{"properties":{"recruits per million":"0","population in millions":"0.8","espnu150 recruits (last 3 years)":"0","f":"45.2","id":"ap4aio0vab3m","state":"SOUTH DAKOTA"},"type":"Feature","geometry":null},{"properties":{"recruits per million":"0.392156863","population in millions":"5.1","espnu150 recruits (last 3 years)":"2","f":"45.1","id":"ap4aio54yyq8","state":"COLORADO"},"type":"Feature","geometry":null},{"properties":{"recruits per million":"0.707070707","population in millions":"9.9","espnu150 recruits (last 3 years)":"7","f":"44.4","id":"ap4aiobbvol2","state":"MICHIGAN"},"type":"Feature","geometry":null},{"properties":{"recruits per million":"0","population in millions":"1.6","espnu150 recruits (last 3 years)":"0","f":"44.4","id":"ap4ainyk69f3","state":"IDAHO"},"type":"Feature","geometry":null},{"properties":{"recruits per million":"0","population in millions":"1.3","espnu150 recruits (last 3 years)":"0","f":"43.8","id":"ap4aio7u34eq","state":"NEW HAMPSHIRE"},"type":"Feature","geometry":null},{"properties":{"recruits per million":"0","population in millions":"5.7","espnu150 recruits (last 3 years)":"0","f":"43.1","id":"ap4ainz1trl3","state":"WISCONSIN"},"type":"Feature","geometry":null},{"properties":{"recruits per million":"0","population in millions":"0.6","espnu150 recruits (last 3 years)":"0","f":"42.9","id":"ap4aio6f44g0","state":"VERMONT"},"type":"Feature","geometry":null},{"properties":{"recruits per million":"0","population in millions":"1","espnu150 recruits (last 3 years)":"0","f":"42.7","id":"ap4aioa19jb4","state":"MONTANA"},"type":"Feature","geometry":null},{"properties":{"recruits per million":"0","population in millions":"0.6","espnu150 recruits (last 3 years)":"0","f":"42","id":"ap4aio2kjz5b","state":"WYOMING"},"type":"Feature","geometry":null},{"properties":{"recruits per million":"0.188679245","population in millions":"5.3","espnu150 recruits (last 3 years)":"1","f":"41.2","id":"ap4aiocihwlz","state":"MINNESOTA"},"type":"Feature","geometry":null},{"properties":{"recruits per million":"0","population in millions":"1.3","espnu150 recruits (last 3 years)":"0","f":"41","id":"ap4aiocechdk","state":"MAINE"},"type":"Feature","geometry":null},{"properties":{"recruits per million":"0","population in millions":"0.7","espnu150 recruits (last 3 years)":"0","f":"40.4","id":"ap4aio4pknfe","state":"NORTH DAKOTA"},"type":"Feature","geometry":null},{"properties":{"recruits per million":"0","population in millions":"0.7","espnu150 recruits (last 3 years)":"0","f":"26.6","id":"ap4aiobim3ic","state":"ALASKA"},"type":"Feature","geometry":null}],"is_temporal":false,"author":{"url":"","metadata":null,"contact_name":null,"contact_address":null,"source":null,"contact_phone":null},"source":"","pagination":{"sort":null,"start":0,"total":50,"limit":1000000},"state":"parsed","tags":"","published":"2014-08-14T18:55:14-04:00","id":232961}