{"type":"FeatureCollection","data_type":"Dataset","url_type":null,"permissions":[{"permissions":{"download":true,"view":true},"group_id":"everyone"}],"classification":null,"title":"obama fundraisers-city-state","count":52,"stream_id":233122,"contributor":{"url":"http://geocommons.com/users/19143","name":"hatchjt"},"data_attributes":null,"calculation_params":null,"icon_link":null,"link":"http://geocommons.com/overlays/233122.json","extent":[-123.345,25.7743,-70.2553,47.6155],"geometry_types":["point"],"unique_name":null,"name":"obama fundraisers-city-state","feature_count":52,"description":"","next_feature":null,"is_raster":false,"short_classification":"Y","stats":{},"features":[{"properties":{"city":"Phoenix","geo_score":0.857,"id":"a64n35hgqgqh","geo_precision":"city","state":"AZ"},"type":"Feature","geometry":{"type":"Point","coordinates":[-112.074037,33.448377]}},{"properties":{"city":"Atherton","geo_score":0.857,"id":"a64n35du1ars","geo_precision":"city","state":"CA"},"type":"Feature","geometry":{"type":"Point","coordinates":[-122.199439,37.450627]}},{"properties":{"city":"Corona Del Mar","geo_score":0.726,"id":"a64n35ihhe57","geo_precision":"city","state":"CA"},"type":"Feature","geometry":{"type":"Point","coordinates":[-123.34501,39.398219]}},{"properties":{"city":"Los Angeles","geo_score":0.857,"id":"a64n35o37v3b","geo_precision":"city","state":"CA"},"type":"Feature","geometry":{"type":"Point","coordinates":[-118.243685,34.052234]}},{"properties":{"city":"San Diego","geo_score":0.857,"id":"a64n35obzv08","geo_precision":"city","state":"CA"},"type":"Feature","geometry":{"type":"Point","coordinates":[-117.157255,32.715329]}},{"properties":{"city":"San Francisco","geo_score":0.857,"id":"a64n35p16v7p","geo_precision":"city","state":"CA"},"type":"Feature","geometry":{"type":"Point","coordinates":[-122.419416,37.77493]}},{"properties":{"city":"Washington","geo_score":0.857,"id":"a64n35bhr76d","geo_precision":"city","state":"DC"},"type":"Feature","geometry":{"type":"Point","coordinates":[-77.036366,38.895112]}},{"properties":{"city":"Coral Gables","geo_score":0.766,"id":"a64n35ea1ekx","geo_precision":"city","state":"FL"},"type":"Feature","geometry":{"type":"Point","coordinates":[-82.742879,28.053073]}},{"properties":{"city":"Golden Beach","geo_score":0.857,"id":"a64n35msj0x5","geo_precision":"city","state":"FL"},"type":"Feature","geometry":{"type":"Point","coordinates":[-80.122267,25.965092]}},{"properties":{"city":"Hollywood","geo_score":0.857,"id":"a64n35nv36wt","geo_precision":"city","state":"FL"},"type":"Feature","geometry":{"type":"Point","coordinates":[-80.14949,26.011201]}},{"properties":{"city":"Miami","geo_score":0.857,"id":"a64n35cpqt6m","geo_precision":"city","state":"FL"},"type":"Feature","geometry":{"type":"Point","coordinates":[-80.193659,25.774266]}},{"properties":{"city":"Miami Beach","geo_score":0.786,"id":"a64n35o6yy9d","geo_precision":"city","state":"FL"},"type":"Feature","geometry":{"type":"Point","coordinates":[-80.193659,25.774266]}},{"properties":{"city":"Palm Beach Gardens","geo_score":0.741,"id":"a64n35kqdbqj","geo_precision":"city","state":"FL"},"type":"Feature","geometry":{"type":"Point","coordinates":[-81.698988,30.440794]}},{"properties":{"city":"Sarasota","geo_score":0.857,"id":"a64n35p0wiug","geo_precision":"city","state":"FL"},"type":"Feature","geometry":{"type":"Point","coordinates":[-82.530653,27.336435]}},{"properties":{"city":"Saint Petersburg","geo_score":0.857,"id":"a64n35euyoao","geo_precision":"city","state":"Florida"},"type":"Feature","geometry":{"type":"Point","coordinates":[-82.679266,27.770861]}},{"properties":{"city":"Tallahassee","geo_score":0.857,"id":"a64n35pdo96g","geo_precision":"city","state":"FL"},"type":"Feature","geometry":{"type":"Point","coordinates":[-84.280733,30.438256]}},{"properties":{"city":"Tampa","geo_score":0.857,"id":"a64n35eckd6a","geo_precision":"city","state":"FL"},"type":"Feature","geometry":{"type":"Point","coordinates":[-82.458428,27.947522]}},{"properties":{"city":"Windermere","geo_score":0.857,"id":"a64n35pvyovs","geo_precision":"city","state":"Florida"},"type":"Feature","geometry":{"type":"Point","coordinates":[-81.543979,28.481031]}},{"properties":{"city":"Atlanta","geo_score":0.857,"id":"a64n35kzox7b","geo_precision":"city","state":"GA"},"type":"Feature","geometry":{"type":"Point","coordinates":[-84.387982,33.748995]}},{"properties":{"city":"Des Moines","geo_score":0.857,"id":"a64n35p3cqhs","geo_precision":"city","state":"IA"},"type":"Feature","geometry":{"type":"Point","coordinates":[-93.609106,41.600545]}},{"properties":{"city":"Chicago","geo_score":0.857,"id":"a64n35l5e7os","geo_precision":"city","state":"IL"},"type":"Feature","geometry":{"type":"Point","coordinates":[-87.650052,41.850033]}},{"properties":{"city":"Indianapolis","geo_score":0.857,"id":"a64n35p7b9re","geo_precision":"city","state":"IN"},"type":"Feature","geometry":{"type":"Point","coordinates":[-86.158042,39.768377]}},{"properties":{"city":"Louisville","geo_score":0.857,"id":"a64n35bgwcut","geo_precision":"city","state":"KY"},"type":"Feature","geometry":{"type":"Point","coordinates":[-85.759407,38.254238]}},{"properties":{"city":"Boston","geo_score":0.857,"id":"a64n35fsxhyl","geo_precision":"city","state":"MA"},"type":"Feature","geometry":{"type":"Point","coordinates":[-71.059773,42.358431]}},{"properties":{"city":"Cambridge","geo_score":0.813,"id":"a64n35jtqc44","geo_precision":"city","state":"MA"},"type":"Feature","geometry":{"type":"Point","coordinates":[-71.103663,42.358431]}},{"properties":{"city":"Newton","geo_score":0.837,"id":"a64n35lllso1","geo_precision":"city","state":"MA"},"type":"Feature","geometry":{"type":"Point","coordinates":[-70.438637,41.671776]}},{"properties":{"city":"Oak Bluffs","geo_score":0.857,"id":"a64n35g3cw8m","geo_precision":"city","state":"MA"},"type":"Feature","geometry":{"type":"Point","coordinates":[-70.560032,41.417376]}},{"properties":{"city":"West Newton","geo_score":0.786,"id":"a64n35ega4y4","geo_precision":"city","state":"MA"},"type":"Feature","geometry":{"type":"Point","coordinates":[-70.438637,41.671776]}},{"properties":{"city":"Chevy Chase","geo_score":0.857,"id":"a64n35mswr9j","geo_precision":"city","state":"MD"},"type":"Feature","geometry":{"type":"Point","coordinates":[-77.076367,38.971222]}},{"properties":{"city":"Portland","geo_score":0.857,"id":"a64n35djd4hc","geo_precision":"city","state":"ME"},"type":"Feature","geometry":{"type":"Point","coordinates":[-70.255326,43.661471]}},{"properties":{"city":"South Portland","geo_score":0.802,"id":"a64n35o1t6ox","geo_precision":"city","state":"ME"},"type":"Feature","geometry":{"type":"Point","coordinates":[-70.255326,43.661471]}},{"properties":{"city":"Dearborn","geo_score":0.857,"id":"a64n35oi8tnh","geo_precision":"city","state":"MI"},"type":"Feature","geometry":{"type":"Point","coordinates":[-83.177625,42.310037]}},{"properties":{"city":"Minneapolis","geo_score":0.857,"id":"a64n35e2wyz0","geo_precision":"city","state":"MN"},"type":"Feature","geometry":{"type":"Point","coordinates":[-93.263836,44.979965]}},{"properties":{"city":"Saint Louis","geo_score":0.857,"id":"a64n35hw8o89","geo_precision":"city","state":"Missouri"},"type":"Feature","geometry":{"type":"Point","coordinates":[-90.197889,38.627273]}},{"properties":{"city":"Cary","geo_score":0.821,"id":"a64n35hkboq4","geo_precision":"city","state":"NC"},"type":"Feature","geometry":{"type":"Point","coordinates":[-79.220017,36.211527]}},{"properties":{"city":"Omaha","geo_score":0.857,"id":"a64n35qiyidn","geo_precision":"city","state":"NE"},"type":"Feature","geometry":{"type":"Point","coordinates":[-95.937792,41.25861]}},{"properties":{"city":"Lloyd Harbor","geo_score":0.779,"id":"a64n35gfu2fv","geo_precision":"city","state":"NY"},"type":"Feature","geometry":{"type":"Point","coordinates":[-74.005418,41.736204]}},{"properties":{"city":"New York","geo_score":0.857,"id":"a64n35atl6ze","geo_precision":"city","state":"NY"},"type":"Feature","geometry":{"type":"Point","coordinates":[-74.005973,40.714269]}},{"properties":{"city":"Cincinnati","geo_score":0.857,"id":"a64n35io5kp8","geo_precision":"city","state":"OH"},"type":"Feature","geometry":{"type":"Point","coordinates":[-84.456886,39.162004]}},{"properties":{"city":"Columbus","geo_score":0.776,"id":"a64n35affc07","geo_precision":"city","state":"OH"},"type":"Feature","geometry":{"type":"Point","coordinates":[-82.695724,39.998397]}},{"properties":{"city":"Philadelphia","geo_score":0.857,"id":"a64n35jfzf7f","geo_precision":"city","state":"PA"},"type":"Feature","geometry":{"type":"Point","coordinates":[-75.163789,39.952335]}},{"properties":{"city":"Pittsburgh","geo_score":0.857,"id":"a64n35k9cyoy","geo_precision":"city","state":"PA"},"type":"Feature","geometry":{"type":"Point","coordinates":[-79.995886,40.440625]}},{"properties":{"city":"Charleston","geo_score":0.798,"id":"a64n35fwvpu7","geo_precision":"city","state":"SC"},"type":"Feature","geometry":{"type":"Point","coordinates":[-79.970643,32.85712]}},{"properties":{"city":"Columbia","geo_score":0.857,"id":"a64n35es48fj","geo_precision":"city","state":"SC"},"type":"Feature","geometry":{"type":"Point","coordinates":[-81.024864,33.987454]}},{"properties":{"city":"Nashville","geo_score":0.857,"id":"a64n35dhmdbi","geo_precision":"city","state":"TN"},"type":"Feature","geometry":{"type":"Point","coordinates":[-86.784443,36.16589]}},{"properties":{"city":"Austin","geo_score":0.857,"id":"a64n35kq29g1","geo_precision":"city","state":"TX"},"type":"Feature","geometry":{"type":"Point","coordinates":[-97.743061,30.267153]}},{"properties":{"city":"Houston","geo_score":0.816,"id":"a64n35nulzmt","geo_precision":"city","state":"TX"},"type":"Feature","geometry":{"type":"Point","coordinates":[-96.919704,29.845783]}},{"properties":{"city":"McLean","geo_score":0.857,"id":"a64n35i3g248","geo_precision":"city","state":"VA"},"type":"Feature","geometry":{"type":"Point","coordinates":[-77.17748,38.934278]}},{"properties":{"city":"Burlington","geo_score":0.78,"id":"a64n35e8t1eo","geo_precision":"city","state":"VT"},"type":"Feature","geometry":{"type":"Point","coordinates":[-72.575941,44.21006]}},{"properties":{"city":"Bellevue","geo_score":0.857,"id":"a64n35mzpfnq","geo_precision":"city","state":"WA"},"type":"Feature","geometry":{"type":"Point","coordinates":[-122.207221,47.615471]}},{"properties":{"city":"Medina","geo_score":0.735,"id":"a64n35odagl8","geo_precision":"city","state":"WA"},"type":"Feature","geometry":{"type":"Point","coordinates":[-122.94347,46.897599]}},{"properties":{"city":"Seattle","geo_score":0.857,"id":"a64n35gvef52","geo_precision":"city","state":"WA"},"type":"Feature","geometry":{"type":"Point","coordinates":[-122.332071,47.60621]}}],"is_temporal":false,"author":{"url":"","metadata":"","contact_name":"","contact_address":"","source":"","contact_phone":""},"source":"","pagination":{"sort":null,"start":0,"total":52,"limit":1000000},"state":"complete","tags":"","published":"2014-08-14T19:04:32-04:00","id":233122}