{"type":"FeatureCollection","data_type":"Dataset","url_type":null,"permissions":[{"permissions":{"download":true,"view":true},"group_id":"everyone"}],"classification":null,"title":"Washington CHARS Hospital Directory 2007","count":97,"stream_id":2338,"contributor":{"url":"http://geocommons.com/users/544","name":"Marco2post"},"data_attributes":null,"calculation_params":null,"icon_link":null,"link":"http://geocommons.com/overlays/2338.json","extent":[-124.393,45.6255,-117.049,48.8214],"geometry_types":["point"],"unique_name":null,"name":"Washington CHARS Hospital Directory 2007","feature_count":97,"description":"Hospital directory for Washington State CHARS Hospitals.","next_feature":null,"is_raster":false,"short_classification":"Y","stats":{"lat":{"max":48.82141,"mean":47.3354057835051,"variance":0.556396880393463,"stdev":0.745920156848884,"min":45.625515,"median":47.488319},"long":{"max":-117.048516,"mean":-120.93969227835,"variance":4.17077013564539,"stdev":2.04224634548465,"min":-124.393282,"median":-122.18587}},"features":[{"properties":{"name":"Affiliated Health Services","city":"Mt Vernon","zip":"98273-4190","county":"Skagit","id":"a677a4gxc3a5","address":"1415 Kincaid St E","lat":48.41749,"state":"WA","long":-122.338919},"type":"Feature","geometry":{"type":"Point","coordinates":[-122.338919,48.41749]}},{"properties":{"name":"Auburn Regional Medical Center","city":"Auburn","zip":"98002-4932","county":"King","id":"a677a43s1gby","address":"20 2nd St NE","lat":47.309015,"state":"WA","long":-122.228366},"type":"Feature","geometry":{"type":"Point","coordinates":[-122.228366,47.309015]}},{"properties":{"name":"BHC Fairfax Hospital","city":"Kirkland","zip":"98034-2899","county":"King","id":"a677a45ckzvy","address":"10200 132nd St NE","lat":47.718586,"state":"WA","long":-122.204444},"type":"Feature","geometry":{"type":"Point","coordinates":[-122.204444,47.718586]}},{"properties":{"name":"Capital Medical Center","city":"Olympia","zip":98502,"county":"Thurston","id":"a677a469ci6r","address":"3900 Capital Mall Dr SW","lat":47.041614,"state":"WA","long":-122.949886},"type":"Feature","geometry":{"type":"Point","coordinates":[-122.949886,47.041614]}},{"properties":{"name":"Cascade Medical Center","city":"Leavenworth","zip":"98826-0330","county":"Chelan","id":"a677a4eo64r8","address":"817 Commercial St","lat":47.594444,"state":"WA","long":-120.661159},"type":"Feature","geometry":{"type":"Point","coordinates":[-120.661159,47.594444]}},{"properties":{"name":"Cascade Valley Hospital","city":"Arlington","zip":"98223-1641","county":"Snohomish","id":"a677a4dy4wvx","address":"330 Stillaguamish Ave S","lat":48.195229,"state":"WA","long":-122.11835},"type":"Feature","geometry":{"type":"Point","coordinates":[-122.11835,48.195229]}},{"properties":{"name":"Central Washington Hospital","city":"Wenatchee","zip":"98807-1887","county":"Chelan","id":"a677a44r513x","address":"1300 Fuller St","lat":47.83983,"state":"WA","long":-120.013794},"type":"Feature","geometry":{"type":"Point","coordinates":[-120.013794,47.83983]}},{"properties":{"name":"Childrens Hospital &amp; Regional Medical Center","city":"Seattle","zip":"98105-0317","county":"King","id":"a677a4ctgsr5","address":"4800 Sandpoint Way NE","lat":47.664214,"state":"WA","long":-122.283288},"type":"Feature","geometry":{"type":"Point","coordinates":[-122.283288,47.664214]}},{"properties":{"name":"Columbia Basin Hospital","city":"Ephrata","zip":"98823-1997","county":"Grant","id":"a677a4ha0m28","address":"200 Southeast Blvd","lat":47.292121,"state":"WA","long":-119.562664},"type":"Feature","geometry":{"type":"Point","coordinates":[-119.562664,47.292121]}},{"properties":{"name":"Coulee Community Hospital","city":"Grand Coulee","zip":"99133-0840","county":"Grant","id":"a677a4fcclr7","address":"411 Fortuyn Rd","lat":47.942248,"state":"WA","long":-119.005486},"type":"Feature","geometry":{"type":"Point","coordinates":[-119.005486,47.942248]}},{"properties":{"name":"Dayton General Hospital","city":"Dayton","zip":"99328-1696","county":"Columbia","id":"a677a45phsy0","address":"1012 South 3rd St","lat":46.312888,"state":"WA","long":-117.969519},"type":"Feature","geometry":{"type":"Point","coordinates":[-117.969519,46.312888]}},{"properties":{"name":"Deaconess Medical Center","city":"Spokane","zip":99210,"county":"Spokane","id":"a677a47112wc","address":"West 800 - 5Th Ave","lat":47.65726,"state":"WA","long":-117.412279},"type":"Feature","geometry":{"type":"Point","coordinates":[-117.412279,47.65726]}},{"properties":{"name":"Deer Park Hospital","city":"Deer Park","zip":99006,"county":"Spokane","id":"a677a44rk88v","address":"Forest And D St","lat":47.95076,"state":"WA","long":-117.460369},"type":"Feature","geometry":{"type":"Point","coordinates":[-117.460369,47.95076]}},{"properties":{"name":"East Adams Rural Hospital","city":"Ritzville","zip":"99169-2298","county":"Adams","id":"a677a4bd3j1v","address":"903 Adams S","lat":47.121168,"state":"WA","long":-118.372454},"type":"Feature","geometry":{"type":"Point","coordinates":[-118.372454,47.121168]}},{"properties":{"name":"Enumclaw Community Hospital","city":"Enumclaw","zip":98022,"county":"King","id":"a677a4df3fvr","address":"2125 'C' Street","lat":47.196468,"state":"WA","long":-121.99939},"type":"Feature","geometry":{"type":"Point","coordinates":[-121.99939,47.196468]}},{"properties":{"name":"Evergreen Hospital Medical Center","city":"Kirkland","zip":"98033-3098","county":"King","id":"a677a43g51ga","address":"12040 128th St NE","lat":47.678855,"state":"WA","long":-122.207244},"type":"Feature","geometry":{"type":"Point","coordinates":[-122.207244,47.678855]}},{"properties":{"name":"Ferry County Memorial Hospital","city":"Republic","zip":"99166-0365","county":"Ferry","id":"a677a4b7uytn","address":"36 N Klondike","lat":48.65266,"state":"WA","long":-118.701635},"type":"Feature","geometry":{"type":"Point","coordinates":[-118.701635,48.65266]}},{"properties":{"name":"Forks Community Hospital","city":"Forks","zip":"98331-9699","county":"Clallam","id":"a677a4gwt7pr","address":"530 Bagachiel Way","lat":47.946427,"state":"WA","long":-124.393282},"type":"Feature","geometry":{"type":"Point","coordinates":[-124.393282,47.946427]}},{"properties":{"name":"Garfield County Memorial Hospital","city":"Pomeroy","zip":"99347-0880","county":"Garfield","id":"a677a48e3zu9","address":"North 66 - 6th St","lat":46.39804,"state":"WA","long":-117.557624},"type":"Feature","geometry":{"type":"Point","coordinates":[-117.557624,46.39804]}},{"properties":{"name":"Good Samaritan Hospital","city":"Puyallup","zip":"98372-3851","county":"Pierce","id":"a677a4e95cuu","address":"407 14Th Ave SE","lat":47.203464,"state":"WA","long":-122.288793},"type":"Feature","geometry":{"type":"Point","coordinates":[-122.288793,47.203464]}},{"properties":{"name":"Grays Harbor Community Hospital","city":"Aberdeen","zip":"98520-1097","county":"Grays Harbor","id":"a677a4c8x580","address":"915 Anderson Dr","lat":46.979287,"state":"WA","long":-123.846543},"type":"Feature","geometry":{"type":"Point","coordinates":[-123.846543,46.979287]}},{"properties":{"name":"Group Health Central Hospital","city":"Seattle","zip":"98112-5298","county":"King","id":"a677a4gjzpuh","address":"200 15th Ave E","lat":47.62,"state":"WA","long":-122.312701},"type":"Feature","geometry":{"type":"Point","coordinates":[-122.312701,47.62]}},{"properties":{"name":"Group Health Eastside Hospital","city":"Redmond","zip":"98052-5560","county":"King","id":"a677a4el9izk","address":"2700 152nd Ave NE","lat":47.633441,"state":"WA","long":-122.137594},"type":"Feature","geometry":{"type":"Point","coordinates":[-122.137594,47.633441]}},{"properties":{"name":"Harborview Medical Center","city":"Seattle","zip":"98104-2499","county":"King","id":"a677a461devb","address":"325 Ninth Ave","lat":47.60358,"state":"WA","long":-122.329454},"type":"Feature","geometry":{"type":"Point","coordinates":[-122.329454,47.60358]}},{"properties":{"name":"Harrison Memorial Hospital","city":"Bremerton","zip":"98310-4270","county":"Kitsap","id":"a677a4b4ra62","address":"2520 Cherry Ave","lat":47.582229,"state":"WA","long":-122.625824},"type":"Feature","geometry":{"type":"Point","coordinates":[-122.625824,47.582229]}},{"properties":{"name":"Highline Community Hospital","city":"Burien","zip":"98166-3052","county":"King","id":"a677a4a8jzn3","address":"16251 Sylvester Rd SW","lat":47.456596,"state":"WA","long":-122.341823},"type":"Feature","geometry":{"type":"Point","coordinates":[-122.341823,47.456596]}},{"properties":{"name":"Holy Family Hospital","city":"Spokane","zip":"99207-1224","county":"Spokane","id":"a677a44gau3y","address":"5633 Lidgerwood N","lat":47.70791,"state":"WA","long":-117.405879},"type":"Feature","geometry":{"type":"Point","coordinates":[-117.405879,47.70791]}},{"properties":{"name":"Island Hospital","city":"Anacortes","zip":"98221-2590","county":"Skagit","id":"a677a46jeq46","address":"1211 24th St","lat":48.502769,"state":"WA","long":-122.615915},"type":"Feature","geometry":{"type":"Point","coordinates":[-122.615915,48.502769]}},{"properties":{"name":"Jefferson Hospital","city":"Port Townsend","zip":"98368-2499","county":"Jefferson","id":"a677a4en26ld","address":"834 Sheridan St","lat":48.105955,"state":"WA","long":-122.790136},"type":"Feature","geometry":{"type":"Point","coordinates":[-122.790136,48.105955]}},{"properties":{"name":"Kadlec Medical Center","city":"Richland","zip":"99352-3583","county":"Benton","id":"a677a4i9dpfz","address":"888 Swift Blvd","lat":46.280635,"state":"WA","long":-119.280917},"type":"Feature","geometry":{"type":"Point","coordinates":[-119.280917,46.280635]}},{"properties":{"name":"Kennewick General Hospital","city":"Kennewick","zip":"99336-5672","county":"Benton","id":"a677a43f7v3c","address":"900 Auburn St S","lat":46.199139,"state":"WA","long":-119.118719},"type":"Feature","geometry":{"type":"Point","coordinates":[-119.118719,46.199139]}},{"properties":{"name":"Kindred Hospital Seattle","city":"Seattle","zip":"98125-7298","county":"King","id":"a677a431lyiz","address":"10560 5th Ave NE","lat":47.70581,"state":"WA","long":-122.323009},"type":"Feature","geometry":{"type":"Point","coordinates":[-122.323009,47.70581]}},{"properties":{"name":"Kittitas Valley Hospital","city":"Ellensburg","zip":"98926-3897","county":"Kittitas","id":"a677a47j1kh2","address":"603 Chestnut St S","lat":46.997929,"state":"WA","long":-120.537437},"type":"Feature","geometry":{"type":"Point","coordinates":[-120.537437,46.997929]}},{"properties":{"name":"Klickitat Valley Hospital","city":"Goldendale","zip":"98620-0005","county":"Klickitat","id":"a677a4at1uvr","address":"Roosevelt &amp; Allyn St","lat":45.87987,"state":"WA","long":-120.807299},"type":"Feature","geometry":{"type":"Point","coordinates":[-120.807299,45.87987]}},{"properties":{"name":"Lake Chelan Community Hospital","city":"Chelan","zip":"98816-0908","county":"Chelan","id":"a677a4a9wdlc","address":"503 Highland Ave E","lat":47.844759,"state":"WA","long":-120.009759},"type":"Feature","geometry":{"type":"Point","coordinates":[-120.009759,47.844759]}},{"properties":{"name":"Legacy Salmon Creek Hospital","city":"Vancouver","zip":98686,"county":"Clark","id":"a677a4fqggsy","address":"2211 NE 139th Street","lat":45.721741,"state":"WA","long":-122.649056},"type":"Feature","geometry":{"type":"Point","coordinates":[-122.649056,45.721741]}},{"properties":{"name":"Lincoln Hospital","city":"Davenport","zip":"99122-0068","county":"Lincoln","id":"a677a4dj6okz","address":"10 Nichols St","lat":47.65713,"state":"WA","long":-118.146085},"type":"Feature","geometry":{"type":"Point","coordinates":[-118.146085,47.65713]}},{"properties":{"name":"Lourdes Medical Center","city":"Pasco","zip":"99301-5257","county":"Franklin","id":"a677a4g63j5s","address":"520 4th Ave N","lat":46.234622,"state":"WA","long":-119.094494},"type":"Feature","geometry":{"type":"Point","coordinates":[-119.094494,46.234622]}},{"properties":{"name":"Mark Reed Hospital","city":"McCleary","zip":98557,"county":"Grays Harbor","id":"a677a47cenng","address":"322 Birch St S","lat":47.055389,"state":"WA","long":-123.260649},"type":"Feature","geometry":{"type":"Point","coordinates":[-123.260649,47.055389]}},{"properties":{"name":"Mary Bridge Children's Hospital &amp; Health Center","city":"Tacoma","zip":"98405-3720","county":"Pierce","id":"a677a4hkyplg","address":"311 South \"L\" St","lat":47.259373,"state":"WA","long":-122.454803},"type":"Feature","geometry":{"type":"Point","coordinates":[-122.454803,47.259373]}},{"properties":{"name":"Mason General Hospital","city":"Shelton","zip":"98584-2057","county":"Mason","id":"a677a45ns0tw","address":"2100 Sherwood LN","lat":47.225042,"state":"WA","long":-123.114821},"type":"Feature","geometry":{"type":"Point","coordinates":[-123.114821,47.225042]}},{"properties":{"name":"Mid-Valley Hospital","city":"Omak","zip":98841,"county":"Okanogan","id":"a677a4798ba8","address":"810 Valley Wy","lat":48.41727,"state":"WA","long":-119.504335},"type":"Feature","geometry":{"type":"Point","coordinates":[-119.504335,48.41727]}},{"properties":{"name":"Morton General Hospital","city":"Morton","zip":"98356-0019","county":"Lewis","id":"a677a4cd163p","address":"520 Adams St","lat":46.556073,"state":"WA","long":-122.280128},"type":"Feature","geometry":{"type":"Point","coordinates":[-122.280128,46.556073]}},{"properties":{"name":"Mount Carmel Hospital","city":"Colville","zip":"99114-0351","county":"Stevens","id":"a677a43mxag9","address":"982 Columbia E.","lat":48.541159,"state":"WA","long":-117.893523},"type":"Feature","geometry":{"type":"Point","coordinates":[-117.893523,48.541159]}},{"properties":{"name":"Newport Community Hospital","city":"Newport","zip":"99156-0669","county":"Pend Oreille","id":"a677a4fox7e8","address":"714 W. Pine","lat":48.182129,"state":"WA","long":-117.048516},"type":"Feature","geometry":{"type":"Point","coordinates":[-117.048516,48.182129]}},{"properties":{"name":"North Valley Hospital","city":"Tonasket","zip":"98855-0488","county":"Okanogan","id":"a677a47czbqp","address":"2nd &amp; Western","lat":48.82141,"state":"WA","long":-119.635274},"type":"Feature","geometry":{"type":"Point","coordinates":[-119.635274,48.82141]}},{"properties":{"name":"Northwest Hospital","city":"Seattle","zip":"98133-8401","county":"King","id":"a677a46xs2sb","address":"1550 North 115Th St","lat":47.7125,"state":"WA","long":-122.337511},"type":"Feature","geometry":{"type":"Point","coordinates":[-122.337511,47.7125]}},{"properties":{"name":"Ocean Beach Hospital","city":"Ilwaco","zip":"98624-0258","county":"Pacific","id":"a677a4darwvi","address":"First &amp; Fir","lat":46.308815,"state":"WA","long":-124.037409},"type":"Feature","geometry":{"type":"Point","coordinates":[-124.037409,46.308815]}},{"properties":{"name":"Odessa Memorial Hospital","city":"Odessa","zip":"99159-0368","county":"Lincoln","id":"a677a4ctl96t","address":"502 Amende Dr E","lat":47.33152,"state":"WA","long":-118.68234},"type":"Feature","geometry":{"type":"Point","coordinates":[-118.68234,47.33152]}},{"properties":{"name":"Okanogan-Douglas Hospital","city":"Brewster","zip":"98812-0577","county":"Okanogan","id":"a677a48htq0v","address":"703 Second NW","lat":48.099675,"state":"WA","long":-119.78091},"type":"Feature","geometry":{"type":"Point","coordinates":[-119.78091,48.099675]}},{"properties":{"name":"Olympic Medical Center","city":"Port Angeles","zip":"98362-3997","county":"Clallam","id":"a677a47bgcif","address":"939 Caroline St","lat":48.115407,"state":"WA","long":-123.415642},"type":"Feature","geometry":{"type":"Point","coordinates":[-123.415642,48.115407]}},{"properties":{"name":"Othello Community Hospital","city":"Othello","zip":"99344-1297","county":"Adams","id":"a677a452oeyg","address":"315 14th Ave N","lat":46.776385,"state":"WA","long":-118.828189},"type":"Feature","geometry":{"type":"Point","coordinates":[-118.828189,46.776385]}},{"properties":{"name":"Overlake Hospital Medical Center","city":"Bellevue","zip":"98004-4686","county":"King","id":"a677a45yjqmi","address":"1035 116th Ave NE","lat":47.62021,"state":"WA","long":-122.18587},"type":"Feature","geometry":{"type":"Point","coordinates":[-122.18587,47.62021]}},{"properties":{"name":"PeaceHealth Saint John Medical Center","city":"Longview","zip":"98632-0302","county":"Cowlitz","id":"a677a46pf4p6","address":"1614 E Kessler Blvd","lat":46.130098,"state":"WA","long":-122.944868},"type":"Feature","geometry":{"type":"Point","coordinates":[-122.944868,46.130098]}},{"properties":{"name":"Prosser Memorial Hospital","city":"Prosser","zip":"99350-1593","county":"Benton","id":"a677a43n11v8","address":"723 Memorial St","lat":46.208611,"state":"WA","long":-119.763735},"type":"Feature","geometry":{"type":"Point","coordinates":[-119.763735,46.208611]}},{"properties":{"name":"Providence Centralia Hospital","city":"Centralia","zip":"98531-9097","county":"Lewis","id":"a677a4634d34","address":"914 South Scheuber Road","lat":46.713456,"state":"WA","long":-122.986811},"type":"Feature","geometry":{"type":"Point","coordinates":[-122.986811,46.713456]}},{"properties":{"name":"Providence Everettl Medical Center","city":"Everett","zip":"98201-4147","county":"Snohomish","id":"a677a4i2qb9i","address":"916 Pacific Ave","lat":47.97635,"state":"WA","long":-122.217959},"type":"Feature","geometry":{"type":"Point","coordinates":[-122.217959,47.97635]}},{"properties":{"name":"Providence Saint Peter Hospital","city":"Olympia","zip":"98506-5166","county":"Thurston","id":"a677a49cb3yw","address":"413 Lilly Rd N","lat":47.051367,"state":"WA","long":-122.844612},"type":"Feature","geometry":{"type":"Point","coordinates":[-122.844612,47.051367]}},{"properties":{"name":"Puget Sound Hospital","city":"Tacoma","zip":"98411-6853","county":"Pierce","id":"a677a479a8sw","address":"215 36th St S","lat":47.22649,"state":"WA","long":-122.434486},"type":"Feature","geometry":{"type":"Point","coordinates":[-122.434486,47.22649]}},{"properties":{"name":"Pullman Regional Hospital","city":"Pullman","zip":"99163-4742","county":"Whitman","id":"a677a45s5g84","address":"1125 Washington St NE","lat":46.727593,"state":"WA","long":-117.165973},"type":"Feature","geometry":{"type":"Point","coordinates":[-117.165973,46.727593]}},{"properties":{"name":"Quincy Valley Hospital","city":"Quincy","zip":"98848-1376","county":"Grant","id":"a677a4hdslw2","address":"908 10th Ave Sw","lat":47.081062,"state":"WA","long":-119.856464},"type":"Feature","geometry":{"type":"Point","coordinates":[-119.856464,47.081062]}},{"properties":{"name":"Regional Hospital for Respiratory &amp; Complex Care","city":"Tukwila","zip":98168,"county":"King","id":"a677a44u5cae","address":"12844 Military Road South","lat":47.488319,"state":"WA","long":-122.296866},"type":"Feature","geometry":{"type":"Point","coordinates":[-122.296866,47.488319]}},{"properties":{"name":"Sacred Heart Medical Center","city":"Spokane","zip":"99220-4045","county":"Spokane","id":"a677a4hivhe4","address":"101 8th Ave W","lat":47.648254,"state":"WA","long":-117.412727},"type":"Feature","geometry":{"type":"Point","coordinates":[-117.412727,47.648254]}},{"properties":{"name":"Saint Clare Hospital","city":"Tacoma","zip":"98499-2771","county":"Pierce","id":"a677a4cwyuvq","address":"11315 Bridgeport Way SW","lat":47.154771,"state":"WA","long":-122.504358},"type":"Feature","geometry":{"type":"Point","coordinates":[-122.504358,47.154771]}},{"properties":{"name":"Saint Francis Hospital","city":"Federal Way","zip":98003,"county":"King","id":"a677a456bual","address":"34515 9th Avenue South","lat":47.292468,"state":"WA","long":-122.32314},"type":"Feature","geometry":{"type":"Point","coordinates":[-122.32314,47.292468]}},{"properties":{"name":"Saint Joseph Hospital","city":"Bellingham","zip":"98225-1898","county":"Whatcom","id":"a677a44x2ae0","address":"2901 Squalicum Pky","lat":48.772446,"state":"WA","long":-122.474995},"type":"Feature","geometry":{"type":"Point","coordinates":[-122.474995,48.772446]}},{"properties":{"name":"Saint Joseph Medical Center","city":"Tacoma","zip":"98401-2197","county":"Pierce","id":"a677a48qvqss","address":"1717 \"J\" St S","lat":47.245808,"state":"WA","long":-122.448662},"type":"Feature","geometry":{"type":"Point","coordinates":[-122.448662,47.245808]}},{"properties":{"name":"Saint Joseph's Hospital","city":"Chewelah","zip":"99109-0197","county":"Stevens","id":"a677a44vs563","address":"500 Webster Ave E","lat":48.278111,"state":"WA","long":-117.711416},"type":"Feature","geometry":{"type":"Point","coordinates":[-117.711416,48.278111]}},{"properties":{"name":"Saint Luke's Rehabilitation Institute","city":"Spokane","zip":"99202-1330","county":"Spokane","id":"a677a4at01nk","address":"711 Cowley St S","lat":47.649395,"state":"WA","long":-117.408004},"type":"Feature","geometry":{"type":"Point","coordinates":[-117.408004,47.649395]}},{"properties":{"name":"Saint Mary Medical Center","city":"Walla Walla","zip":"99362-2846","county":"Walla Walla","id":"a677a4hyf7tq","address":"401 Poplar St W","lat":46.062974,"state":"WA","long":-118.342879},"type":"Feature","geometry":{"type":"Point","coordinates":[-118.342879,46.062974]}},{"properties":{"name":"Samaritan Hospital","city":"Moses Lake","zip":"98837-1899","county":"Grant","id":"a677a4evqhwk","address":"801 Wheeler Rd","lat":47.130902,"state":"WA","long":-119.265583},"type":"Feature","geometry":{"type":"Point","coordinates":[-119.265583,47.130902]}},{"properties":{"name":"Seattle Cancer Care Alliance","city":"Seattle","zip":"98109-1023","county":"King","id":"a677a4296u9n","address":"825 Eastlake Ave E","lat":47.625548,"state":"WA","long":-122.329458},"type":"Feature","geometry":{"type":"Point","coordinates":[-122.329458,47.625548]}},{"properties":{"name":"Skagit Valley Hospital","city":"Mt Vernon","zip":"98273-4190","county":"Skagit","id":"a677a488ehna","address":"1415 Kincaid St E","lat":48.41749,"state":"WA","long":-122.338919},"type":"Feature","geometry":{"type":"Point","coordinates":[-122.338919,48.41749]}},{"properties":{"name":"Skyline Hospital","city":"White Salmon","zip":"98672-0099","county":"Klickitat","id":"a677a4btveyx","address":"211 Skyline Dr","lat":45.721923,"state":"WA","long":-121.469043},"type":"Feature","geometry":{"type":"Point","coordinates":[-121.469043,45.721923]}},{"properties":{"name":"Snoqualmie Valley Hospital","city":"Snoqualmie","zip":"98065-2021","county":"King","id":"a677a4e0zu4v","address":"9575 Ethan Wade Way SE","lat":47.513478,"state":"WA","long":-121.825935},"type":"Feature","geometry":{"type":"Point","coordinates":[-121.825935,47.513478]}},{"properties":{"name":"Southwest Washington Medical Center","city":"Vancouver","zip":"98668-1600","county":"Clark","id":"a677a4b50vfj","address":"600 Ne 92nd Avenue","lat":45.625515,"state":"WA","long":-122.578644},"type":"Feature","geometry":{"type":"Point","coordinates":[-122.578644,45.625515]}},{"properties":{"name":"Stevens Healthcare","city":"Edmonds","zip":"98020-3702","county":"Snohomish","id":"a677a4a458uk","address":"21600 76th Ave W","lat":47.800781,"state":"WA","long":-122.369744},"type":"Feature","geometry":{"type":"Point","coordinates":[-122.369744,47.800781]}},{"properties":{"name":"Sunnyside Community Hospital","city":"Sunnyside","zip":"98944-2262","county":"Yakima","id":"a677a4g9f0ut","address":"10th And Tacoma","lat":46.330255,"state":"WA","long":-120.007414},"type":"Feature","geometry":{"type":"Point","coordinates":[-120.007414,46.330255]}},{"properties":{"name":"Swedish Medical Center","city":"Seattle","zip":"98114-0999","county":"King","id":"a677a4bsfb8y","address":"747 Broadway","lat":47.603463,"state":"WA","long":-122.329356},"type":"Feature","geometry":{"type":"Point","coordinates":[-122.329356,47.603463]}},{"properties":{"name":"Swedish Providence Medical Center","city":"Seattle","zip":"98122-5799","county":"King","id":"a677a4dlidhp","address":"500 17th Ave","lat":47.606246,"state":"WA","long":-122.31014},"type":"Feature","geometry":{"type":"Point","coordinates":[-122.31014,47.606246]}},{"properties":{"name":"Tacoma General Hospital","city":"Tacoma","zip":"98405-4298","county":"Pierce","id":"a677a4252apa","address":"315 Martin Luther King Jr. Way","lat":47.260063,"state":"WA","long":-122.45334},"type":"Feature","geometry":{"type":"Point","coordinates":[-122.45334,47.260063]}},{"properties":{"name":"Toppenish Community Hospital","city":"Toppenish","zip":"98948-0672","county":"Yakima","id":"a677a47vback","address":"502 4th Ave W","lat":46.31124,"state":"WA","long":-120.788249},"type":"Feature","geometry":{"type":"Point","coordinates":[-120.788249,46.31124]}},{"properties":{"name":"Tri-State Memorial Hospital","city":"Clarkston","zip":"99403-0189","county":"Asotin","id":"a677a4bs6eh2","address":"1221 Highland Ave","lat":46.403527,"state":"WA","long":-117.056436},"type":"Feature","geometry":{"type":"Point","coordinates":[-117.056436,46.403527]}},{"properties":{"name":"United General Hospital","city":"Sedro Wolley","zip":98284,"county":"Skagit","id":"a677a4besdol","address":"2000 Hospital Drive","lat":48.495586,"state":"WA","long":-122.275628},"type":"Feature","geometry":{"type":"Point","coordinates":[-122.275628,48.495586]}},{"properties":{"name":"University Of Washington Medical Center","city":"Seattle","zip":"98195-6151","county":"King","id":"a677a4bcsyi3","address":"1959 Pacific St NE","lat":47.649848,"state":"WA","long":-122.306361},"type":"Feature","geometry":{"type":"Point","coordinates":[-122.306361,47.649848]}},{"properties":{"name":"Valley General Hospital","city":"Monroe","zip":"98272-1108","county":"Snohomish","id":"a677a424trt6","address":"14701 179th Ave SE","lat":47.863675,"state":"WA","long":-121.990596},"type":"Feature","geometry":{"type":"Point","coordinates":[-121.990596,47.863675]}},{"properties":{"name":"Valley Hospital and Medical Center","city":"Spokane","zip":"99216-1090","county":"Spokane","id":"a677a4d0i7yd","address":"12606 Mission Ave E","lat":47.671534,"state":"WA","long":-117.235209},"type":"Feature","geometry":{"type":"Point","coordinates":[-117.235209,47.671534]}},{"properties":{"name":"Valley Medical Center","city":"Renton","zip":"98055-5784","county":"King","id":"a677a4hsb6f8","address":"400 43rd St S","lat":47.441218,"state":"WA","long":-122.214229},"type":"Feature","geometry":{"type":"Point","coordinates":[-122.214229,47.441218]}},{"properties":{"name":"Virginia Mason Medical Center","city":"Seattle","zip":"98101-0900","county":"King","id":"a677a42kg6w5","address":"1100 Ninth Avenue","lat":47.609216,"state":"WA","long":-122.327987},"type":"Feature","geometry":{"type":"Point","coordinates":[-122.327987,47.609216]}},{"properties":{"name":"Walla Walla General Hospital","city":"Walla Walla","zip":"99362-0309","county":"Walla Walla","id":"a677a44va663","address":"1025 2nd St S","lat":46.07038,"state":"WA","long":-118.342369},"type":"Feature","geometry":{"type":"Point","coordinates":[-118.342369,46.07038]}},{"properties":{"name":"Wenatchee Valley Hospital","city":"Wenatchee","zip":98801,"county":"Chelan","id":"a677a4hzoi87","address":"820 N. Chelan Avenue","lat":47.433241,"state":"WA","long":-120.321921},"type":"Feature","geometry":{"type":"Point","coordinates":[-120.321921,47.433241]}},{"properties":{"name":"West Seattle Psychiatric Hospital","city":"Seattle","zip":"98126-3505","county":"King","id":"a677a47qtpwt","address":"2600 SW Holden Street","lat":47.533792,"state":"WA","long":-122.365959},"type":"Feature","geometry":{"type":"Point","coordinates":[-122.365959,47.533792]}},{"properties":{"name":"Whidbey General Hospital","city":"Coupeville","zip":"98239-0400","county":"Island","id":"a677a4e5jngm","address":"Main St","lat":48.19781,"state":"WA","long":-122.668488},"type":"Feature","geometry":{"type":"Point","coordinates":[-122.668488,48.19781]}},{"properties":{"name":"Whitman Hospital &amp; Medical Center","city":"Colfax","zip":"99111-0032","county":"Whitman","id":"a677a4d6mfds","address":"1200 Almota Road","lat":46.866334,"state":"WA","long":-117.377137},"type":"Feature","geometry":{"type":"Point","coordinates":[-117.377137,46.866334]}},{"properties":{"name":"Willapa Harbor Hospital","city":"South Bend","zip":"98586-0438","county":"Pacific","id":"a677a428k913","address":"Alder and Cedar Streets","lat":46.585228,"state":"WA","long":-123.835449},"type":"Feature","geometry":{"type":"Point","coordinates":[-123.835449,46.585228]}},{"properties":{"name":"Yakima Regional Medical &amp; Heart Center","city":"Yakima","zip":"98902-3315","county":"Yakima","id":"a677a47lsnu2","address":"110 9th Ave S","lat":46.597116,"state":"WA","long":-120.520693},"type":"Feature","geometry":{"type":"Point","coordinates":[-120.520693,46.597116]}},{"properties":{"name":"Yakima Valley Memorial Hospital","city":"Yakima","zip":"98902-3799","county":"Yakima","id":"a677a4acvvkm","address":"2811 Tieton DR","lat":46.592839,"state":"WA","long":-120.5464},"type":"Feature","geometry":{"type":"Point","coordinates":[-120.5464,46.592839]}}],"is_temporal":false,"author":{"url":"","metadata":"","contact_name":"Mark Sansom","contact_address":"617 S. 35th Ave., Yakima, WA 98902","source":"http://www.doh.wa.gov/ehsphl/hospdata/Chars.htm","contact_phone":""},"source":"","pagination":{"sort":null,"start":0,"total":97,"limit":1000000},"state":"complete","tags":"chars,directory,hospital,washington","published":"2008-06-30T12:00:00Z","id":2338}