{"type":"FeatureCollection","data_type":"Dataset","url_type":null,"permissions":[{"permissions":{"download":true,"view":true},"group_id":"everyone"}],"classification":null,"title":"Unemployment","count":50,"stream_id":234618,"contributor":{"url":"http://geocommons.com/users/44603","name":"alanroda"},"data_attributes":null,"calculation_params":null,"icon_link":null,"link":"http://geocommons.com/overlays/234618.json","extent":[0.0,0.0,0.0,0.0],"geometry_types":null,"unique_name":null,"name":"Unemployment","feature_count":50,"description":"","next_feature":null,"is_raster":false,"short_classification":"Y","features":[{"properties":{"id":"ap4dbuihxhw5","unemployment rate":"7.3","state":"Alabama"},"type":"Feature","geometry":null},{"properties":{"id":"ap4dbuo7hsm2","unemployment rate":"7","state":"Alaska"},"type":"Feature","geometry":null},{"properties":{"id":"ap4dbup4eeou","unemployment rate":"8.6","state":"Arizona"},"type":"Feature","geometry":null},{"properties":{"id":"ap4dbuw31ur7","unemployment rate":"7.4","state":"Arkansas"},"type":"Feature","geometry":null},{"properties":{"id":"ap4dbupx2rzu","unemployment rate":"11","state":"California"},"type":"Feature","geometry":null},{"properties":{"id":"ap4dbursyn59","unemployment rate":"7.8","state":"Colorado"},"type":"Feature","geometry":null},{"properties":{"id":"ap4dbumofokp","unemployment rate":"7.7","state":"Connecticut"},"type":"Feature","geometry":null},{"properties":{"id":"ap4dbump324y","unemployment rate":"6.9","state":"Delaware"},"type":"Feature","geometry":null},{"properties":{"id":"ap4dbuszf0zk","unemployment rate":"9","state":"Florida"},"type":"Feature","geometry":null},{"properties":{"id":"ap4dbugtdaqs","unemployment rate":"9","state":"Georgia"},"type":"Feature","geometry":null},{"properties":{"id":"ap4dbuh3hxid","unemployment rate":"6.4","state":"Hawaii"},"type":"Feature","geometry":null},{"properties":{"id":"ap4dbuk4rz5m","unemployment rate":"7.9","state":"Idaho"},"type":"Feature","geometry":null},{"properties":{"id":"ap4dburt6ati","unemployment rate":"8.8","state":"Illinois"},"type":"Feature","geometry":null},{"properties":{"id":"ap4dbuquvkbc","unemployment rate":"8.2","state":"Indiana"},"type":"Feature","geometry":null},{"properties":{"id":"ap4dbuqq4vk4","unemployment rate":"5.2","state":"Iowa"},"type":"Feature","geometry":null},{"properties":{"id":"ap4dbuswq8zp","unemployment rate":"6.2","state":"Kansas"},"type":"Feature","geometry":null},{"properties":{"id":"ap4dbuns95pk","unemployment rate":"8.6","state":"Kentucky"},"type":"Feature","geometry":null},{"properties":{"id":"ap4dbur2t517","unemployment rate":"7.1","state":"Louisiana"},"type":"Feature","geometry":null},{"properties":{"id":"ap4dbuv1civb","unemployment rate":"7.2","state":"Maine"},"type":"Feature","geometry":null},{"properties":{"id":"ap4dbulerhda","unemployment rate":"6.6","state":"Maryland"},"type":"Feature","geometry":null},{"properties":{"id":"ap4dbuqnbo1o","unemployment rate":"6.5","state":"Massachusetts"},"type":"Feature","geometry":null},{"properties":{"id":"ap4dbuuw8zna","unemployment rate":"8.5","state":"Michigan"},"type":"Feature","geometry":null},{"properties":{"id":"ap4dbuv6tek1","unemployment rate":"5.8","state":"Minnesota"},"type":"Feature","geometry":null},{"properties":{"id":"ap4dbupp15yw","unemployment rate":"9","state":"Mississippi"},"type":"Feature","geometry":null},{"properties":{"id":"ap4dbus091zg","unemployment rate":"7.4","state":"Missouri"},"type":"Feature","geometry":null},{"properties":{"id":"ap4dbuiq5pi7","unemployment rate":"6.2","state":"Montana"},"type":"Feature","geometry":null},{"properties":{"id":"ap4dbup020kg","unemployment rate":"4","state":"Nebraska"},"type":"Feature","geometry":null},{"properties":{"id":"ap4dbuo33kgo","unemployment rate":"12","state":"Nevada"},"type":"Feature","geometry":null},{"properties":{"id":"ap4dbuipsugx","unemployment rate":"5.2","state":"New Hampshire"},"type":"Feature","geometry":null},{"properties":{"id":"ap4dbuh9rqkf","unemployment rate":"9","state":"New Jersey"},"type":"Feature","geometry":null},{"properties":{"id":"ap4dbumncpcs","unemployment rate":"7.2","state":"New Mexico"},"type":"Feature","geometry":null},{"properties":{"id":"ap4dbuh3s2ht","unemployment rate":"8.5","state":"New York"},"type":"Feature","geometry":null},{"properties":{"id":"ap4dbuqfo4uk","unemployment rate":"9.7","state":"North Carolina"},"type":"Feature","geometry":null},{"properties":{"id":"ap4dbuvkeps1","unemployment rate":"3","state":"North Dakota"},"type":"Feature","geometry":null},{"properties":{"id":"ap4dbuivx4kq","unemployment rate":"7.5","state":"Ohio"},"type":"Feature","geometry":null},{"properties":{"id":"ap4dbuv4ij3s","unemployment rate":"5.4","state":"Oklahoma"},"type":"Feature","geometry":null},{"properties":{"id":"ap4dbur103l5","unemployment rate":"8.6","state":"Oregon"},"type":"Feature","geometry":null},{"properties":{"id":"ap4dbunjfo11","unemployment rate":"7.5","state":"Pennsylvania"},"type":"Feature","geometry":null},{"properties":{"id":"ap4dbuvhnokf","unemployment rate":"11.1","state":"Rhode Island"},"type":"Feature","geometry":null},{"properties":{"id":"ap4dbuma6zc9","unemployment rate":"8.9","state":"South Carolina"},"type":"Feature","geometry":null},{"properties":{"id":"ap4dbugvbnqz","unemployment rate":"4.3","state":"South Dakota"},"type":"Feature","geometry":null},{"properties":{"id":"ap4dbugxenaj","unemployment rate":"7.9","state":"Tennessee"},"type":"Feature","geometry":null},{"properties":{"id":"ap4dbuinqwtw","unemployment rate":"7","state":"Texas"},"type":"Feature","geometry":null},{"properties":{"id":"ap4dbuhev0uh","unemployment rate":"5.8","state":"Utah"},"type":"Feature","geometry":null},{"properties":{"id":"ap4dbulxap3n","unemployment rate":"4.8","state":"Vermont"},"type":"Feature","geometry":null},{"properties":{"id":"ap4dbuqp369x","unemployment rate":"5.6","state":"Virginia"},"type":"Feature","geometry":null},{"properties":{"id":"ap4dbuhclok3","unemployment rate":"8.3","state":"Washington"},"type":"Feature","geometry":null},{"properties":{"id":"ap4dbuwzvt6l","unemployment rate":"6.9","state":"West Virginia"},"type":"Feature","geometry":null},{"properties":{"id":"ap4dbuwpvmke","unemployment rate":"6.8","state":"Wisconsin"},"type":"Feature","geometry":null},{"properties":{"id":"ap4dbutjcjm5","unemployment rate":"5.3","state":"Wyoming"},"type":"Feature","geometry":null}],"is_temporal":false,"author":{"url":"","metadata":null,"contact_name":null,"contact_address":null,"source":null,"contact_phone":null},"source":"","pagination":{"sort":null,"start":0,"total":50,"limit":1000000},"state":"parsed","tags":"","published":"2014-08-14T21:07:25-04:00","id":234618}