{"type":"FeatureCollection","data_type":"Dataset","url_type":null,"permissions":[{"permissions":{"download":true,"view":true},"group_id":"everyone"}],"classification":null,"title":"Beleefdag","count":573,"stream_id":234892,"contributor":{"url":"http://geocommons.com/users/44642","name":"frieslandcollege"},"data_attributes":null,"calculation_params":null,"icon_link":null,"link":"http://geocommons.com/overlays/234892.json","extent":[-75.2249,39.112,-68.842,44.0851],"geometry_types":["point"],"unique_name":null,"name":"Beleefdag","feature_count":573,"description":"","next_feature":null,"is_raster":false,"short_classification":"Y","stats":{},"features":[{"properties":{"postcode":"8471ag","geo_score":0.0,"id":"a67tnlhf582s","geo_precision":"unmatched"},"type":"Feature","geometry":null},{"properties":{"postcode":"8822 WE","geo_score":0.714,"id":"a67tnlrbllr4","geo_precision":"zip"},"type":"Feature","geometry":{"type":"Point","coordinates":[-74.808775,40.502604]}},{"properties":{"postcode":"8934BX","geo_score":0.714,"id":"a67tnlvmr05j","geo_precision":"zip"},"type":"Feature","geometry":{"type":"Point","coordinates":[-74.451819,40.486216]}},{"properties":{"postcode":"9056 pr","geo_score":0.0,"id":"a67tnlg3c0oq","geo_precision":"unmatched"},"type":"Feature","geometry":null},{"properties":{"postcode":"8822WN","geo_score":0.714,"id":"a67tnlntz77y","geo_precision":"zip"},"type":"Feature","geometry":{"type":"Point","coordinates":[-74.808775,40.502604]}},{"properties":{"postcode":"8651 EA","geo_score":0.714,"id":"a67tnlhxk7nj","geo_precision":"zip"},"type":"Feature","geometry":{"type":"Point","coordinates":[-74.742939,40.217053]}},{"properties":{"postcode":"8388MC","geo_score":0.0,"id":"a67tnlupaw35","geo_precision":"unmatched"},"type":"Feature","geometry":null},{"properties":{"postcode":"8932 NP","geo_score":0.714,"id":"a67tnli7nvyt","geo_precision":"zip"},"type":"Feature","geometry":{"type":"Point","coordinates":[-74.451819,40.486216]}},{"properties":{"postcode":"8932 NP","geo_score":0.714,"id":"a67tnlw7cl9d","geo_precision":"zip"},"type":"Feature","geometry":{"type":"Point","coordinates":[-74.451819,40.486216]}},{"properties":{"postcode":"8451 BS","geo_score":0.0,"id":"a67tnluuizqw","geo_precision":"unmatched"},"type":"Feature","geometry":null},{"properties":{"postcode":"8642WB","geo_score":0.714,"id":"a67tnlskw5tw","geo_precision":"zip"},"type":"Feature","geometry":{"type":"Point","coordinates":[-74.742939,40.217053]}},{"properties":{"postcode":"8601GD","geo_score":0.714,"id":"a67tnli1by1m","geo_precision":"zip"},"type":"Feature","geometry":{"type":"Point","coordinates":[-74.712018,40.280531]}},{"properties":{"postcode":"8601GD","geo_score":0.714,"id":"a67tnlgenfvz","geo_precision":"zip"},"type":"Feature","geometry":{"type":"Point","coordinates":[-74.712018,40.280531]}},{"properties":{"postcode":"8331 JV","geo_score":0.0,"id":"a67tnlw1lpv9","geo_precision":"unmatched"},"type":"Feature","geometry":null},{"properties":{"postcode":"8922BS","geo_score":0.714,"id":"a67tnls5ov7s","geo_precision":"zip"},"type":"Feature","geometry":{"type":"Point","coordinates":[-74.417344,40.430006]}},{"properties":{"postcode":"8845 SH","geo_score":0.0,"id":"a67tnlk5fnp8","geo_precision":"unmatched"},"type":"Feature","geometry":null},{"properties":{"postcode":"8331 DJ","geo_score":0.0,"id":"a67tnlgcgxyy","geo_precision":"unmatched"},"type":"Feature","geometry":null},{"properties":{"postcode":"8802 RS","geo_score":0.714,"id":"a67tnlhvofp0","geo_precision":"zip"},"type":"Feature","geometry":{"type":"Point","coordinates":[-75.033227,40.662323]}},{"properties":{"postcode":"8651CS","geo_score":0.714,"id":"a67tnlhxscb6","geo_precision":"zip"},"type":"Feature","geometry":{"type":"Point","coordinates":[-74.742939,40.217053]}},{"properties":{"postcode":"8604AJ","geo_score":0.714,"id":"a67tnln5nwey","geo_precision":"zip"},"type":"Feature","geometry":{"type":"Point","coordinates":[-74.712018,40.280531]}},{"properties":{"postcode":"8433 KB","geo_score":0.0,"id":"a67tnlj1260z","geo_precision":"unmatched"},"type":"Feature","geometry":null},{"properties":{"postcode":"8604DC","geo_score":0.714,"id":"a67tnlpsfkja","geo_precision":"zip"},"type":"Feature","geometry":{"type":"Point","coordinates":[-74.712018,40.280531]}},{"properties":{"postcode":"8491AB","geo_score":0.0,"id":"a67tnlosecbj","geo_precision":"unmatched"},"type":"Feature","geometry":null},{"properties":{"postcode":"8391KG","geo_score":0.0,"id":"a67tnlrqo09z","geo_precision":"unmatched"},"type":"Feature","geometry":null},{"properties":{"postcode":"8861 BP","geo_score":0.714,"id":"a67tnliz7ezu","geo_precision":"zip"},"type":"Feature","geometry":{"type":"Point","coordinates":[-74.292925,40.527049]}},{"properties":{"postcode":"8855 CW","geo_score":0.714,"id":"a67tnlo24zl4","geo_precision":"zip"},"type":"Feature","geometry":{"type":"Point","coordinates":[-74.417344,40.430006]}},{"properties":{"postcode":"8451 cj","geo_score":0.0,"id":"a67tnlkdlqm7","geo_precision":"unmatched"},"type":"Feature","geometry":null},{"properties":{"postcode":"8913HP","geo_score":0.714,"id":"a67tnlw4f98x","geo_precision":"zip"},"type":"Feature","geometry":{"type":"Point","coordinates":[-74.451819,40.486216]}},{"properties":{"postcode":"9163 HP","geo_score":0.0,"id":"a67tnlng33e7","geo_precision":"unmatched"},"type":"Feature","geometry":null},{"properties":{"postcode":"8857BC","geo_score":0.714,"id":"a67tnluizbke","geo_precision":"zip"},"type":"Feature","geometry":{"type":"Point","coordinates":[-74.354315,40.408163]}},{"properties":{"postcode":"8723CW","geo_score":0.714,"id":"a67tnlgki2fg","geo_precision":"zip"},"type":"Feature","geometry":{"type":"Point","coordinates":[-74.073193,40.044283]}},{"properties":{"postcode":"8632wj","geo_score":0.714,"id":"a67tnlsk7ygy","geo_precision":"zip"},"type":"Feature","geometry":{"type":"Point","coordinates":[-74.742939,40.217053]}},{"properties":{"postcode":"9084 AA","geo_score":0.0,"id":"a67tnlkcryo0","geo_precision":"unmatched"},"type":"Feature","geometry":null},{"properties":{"postcode":"1777dv","geo_score":0.0,"id":"a67tnlqszzq0","geo_precision":"unmatched"},"type":"Feature","geometry":null},{"properties":{"postcode":"1777dv","geo_score":0.0,"id":"a67tnlt79ioe","geo_precision":"unmatched"},"type":"Feature","geometry":null},{"properties":{"postcode":"8536 VC","geo_score":0.714,"id":"a67tnlur1ubj","geo_precision":"zip"},"type":"Feature","geometry":{"type":"Point","coordinates":[-74.582062,40.342197]}},{"properties":{"postcode":"7316AS","geo_score":0.714,"id":"a67tnlgxs0zb","geo_precision":"zip"},"type":"Feature","geometry":{"type":"Point","coordinates":[-74.077642,40.728158]}},{"properties":{"postcode":"8861 CX","geo_score":0.714,"id":"a67tnlo7sc8e","geo_precision":"zip"},"type":"Feature","geometry":{"type":"Point","coordinates":[-74.292925,40.527049]}},{"properties":{"postcode":"9035 VC","geo_score":0.0,"id":"a67tnlhispak","geo_precision":"unmatched"},"type":"Feature","geometry":null},{"properties":{"postcode":"8862 PL","geo_score":0.714,"id":"a67tnlvooqzy","geo_precision":"zip"},"type":"Feature","geometry":{"type":"Point","coordinates":[-74.417344,40.430006]}},{"properties":{"postcode":"8403 BC","geo_score":0.714,"id":"a67tnlgcg2e6","geo_precision":"zip"},"type":"Feature","geometry":{"type":"Point","coordinates":[-74.513497,39.324265]}},{"properties":{"postcode":"8806 KM","geo_score":0.0,"id":"a67tnlr9v22z","geo_precision":"unmatched"},"type":"Feature","geometry":null},{"properties":{"postcode":"8925 HM","geo_score":0.714,"id":"a67tnlorpe38","geo_precision":"zip"},"type":"Feature","geometry":{"type":"Point","coordinates":[-74.451819,40.486216]}},{"properties":{"postcode":"9211rd","geo_score":0.0,"id":"a67tnlqcr3p0","geo_precision":"unmatched"},"type":"Feature","geometry":null},{"properties":{"postcode":"8474CH","geo_score":0.0,"id":"a67tnlr9823f","geo_precision":"unmatched"},"type":"Feature","geometry":null},{"properties":{"postcode":"8334SW","geo_score":0.0,"id":"a67tnljwk1cv","geo_precision":"unmatched"},"type":"Feature","geometry":null},{"properties":{"postcode":"8734HR","geo_score":0.714,"id":"a67tnlv3zsf9","geo_precision":"zip"},"type":"Feature","geometry":{"type":"Point","coordinates":[-74.134027,39.860397]}},{"properties":{"postcode":"9104 BM","geo_score":0.0,"id":"a67tnljrk6mp","geo_precision":"unmatched"},"type":"Feature","geometry":null},{"properties":{"postcode":"8932GE","geo_score":0.714,"id":"a67tnlwfvztw","geo_precision":"zip"},"type":"Feature","geometry":{"type":"Point","coordinates":[-74.451819,40.486216]}},{"properties":{"postcode":"8932GE","geo_score":0.714,"id":"a67tnlpd4haj","geo_precision":"zip"},"type":"Feature","geometry":{"type":"Point","coordinates":[-74.451819,40.486216]}},{"properties":{"postcode":"9205 AK","geo_score":0.0,"id":"a67tnlqo73n2","geo_precision":"unmatched"},"type":"Feature","geometry":null},{"properties":{"postcode":"9022 BJ","geo_score":0.0,"id":"a67tnlu623v0","geo_precision":"unmatched"},"type":"Feature","geometry":null},{"properties":{"postcode":"9022 BJ","geo_score":0.0,"id":"a67tnlpmihgh","geo_precision":"unmatched"},"type":"Feature","geometry":null},{"properties":{"postcode":"8861JJ","geo_score":0.714,"id":"a67tnlt056td","geo_precision":"zip"},"type":"Feature","geometry":{"type":"Point","coordinates":[-74.292925,40.527049]}},{"properties":{"postcode":"9201 EW","geo_score":0.0,"id":"a67tnlgpdunn","geo_precision":"unmatched"},"type":"Feature","geometry":null},{"properties":{"postcode":"8748CG","geo_score":0.0,"id":"a67tnlja6vne","geo_precision":"unmatched"},"type":"Feature","geometry":null},{"properties":{"postcode":"9047 HR","geo_score":0.0,"id":"a67tnlm4as19","geo_precision":"unmatched"},"type":"Feature","geometry":null},{"properties":{"postcode":"9104HT","geo_score":0.0,"id":"a67tnlrd1qtb","geo_precision":"unmatched"},"type":"Feature","geometry":null},{"properties":{"postcode":"9104gk","geo_score":0.0,"id":"a67tnlhba4uf","geo_precision":"unmatched"},"type":"Feature","geometry":null},{"properties":{"postcode":"8713kk","geo_score":0.0,"id":"a67tnlt72vyp","geo_precision":"unmatched"},"type":"Feature","geometry":null},{"properties":{"postcode":"9283 TZ","geo_score":0.0,"id":"a67tnlw0e9xi","geo_precision":"unmatched"},"type":"Feature","geometry":null},{"properties":{"postcode":"9055 LR","geo_score":0.0,"id":"a67tnlpwpdnd","geo_precision":"unmatched"},"type":"Feature","geometry":null},{"properties":{"postcode":"9055 LR","geo_score":0.0,"id":"a67tnlouhuiy","geo_precision":"unmatched"},"type":"Feature","geometry":null},{"properties":{"postcode":"9285XD","geo_score":0.0,"id":"a67tnlqyfm4c","geo_precision":"unmatched"},"type":"Feature","geometry":null},{"properties":{"postcode":"8561 AD","geo_score":0.714,"id":"a67tnlo9l1fb","geo_precision":"zip"},"type":"Feature","geometry":{"type":"Point","coordinates":[-74.578709,40.242313]}},{"properties":{"postcode":"9201 GC","geo_score":0.0,"id":"a67tnlp5us3i","geo_precision":"unmatched"},"type":"Feature","geometry":null},{"properties":{"postcode":"9062 GC","geo_score":0.0,"id":"a67tnlihk5ar","geo_precision":"unmatched"},"type":"Feature","geometry":null},{"properties":{"postcode":"8408 HM","geo_score":0.0,"id":"a67tnlh7yod9","geo_precision":"unmatched"},"type":"Feature","geometry":null},{"properties":{"postcode":"9283 tg","geo_score":0.0,"id":"a67tnlvrp28x","geo_precision":"unmatched"},"type":"Feature","geometry":null},{"properties":{"postcode":"9057RG","geo_score":0.0,"id":"a67tnlmzk0sk","geo_precision":"unmatched"},"type":"Feature","geometry":null},{"properties":{"postcode":"9057RG","geo_score":0.0,"id":"a67tnlozxts6","geo_precision":"unmatched"},"type":"Feature","geometry":null},{"properties":{"postcode":"8398gk","geo_score":0.0,"id":"a67tnlsj0ttm","geo_precision":"unmatched"},"type":"Feature","geometry":null},{"properties":{"postcode":"8802 CD","geo_score":0.714,"id":"a67tnlkahqow","geo_precision":"zip"},"type":"Feature","geometry":{"type":"Point","coordinates":[-75.033227,40.662323]}},{"properties":{"postcode":"8801dn","geo_score":0.714,"id":"a67tnlic3dgy","geo_precision":"zip"},"type":"Feature","geometry":{"type":"Point","coordinates":[-74.879611,40.581769]}},{"properties":{"postcode":"8801 DM","geo_score":0.714,"id":"a67tnlhz9g1t","geo_precision":"zip"},"type":"Feature","geometry":{"type":"Point","coordinates":[-74.879611,40.581769]}},{"properties":{"postcode":"9162 EK","geo_score":0.0,"id":"a67tnlh4ow3z","geo_precision":"unmatched"},"type":"Feature","geometry":null},{"properties":{"postcode":"9007 SE","geo_score":0.0,"id":"a67tnlg107l6","geo_precision":"unmatched"},"type":"Feature","geometry":null},{"properties":{"postcode":"9241GD","geo_score":0.0,"id":"a67tnlw31nu1","geo_precision":"unmatched"},"type":"Feature","geometry":null},{"properties":{"postcode":"9202GK","geo_score":0.0,"id":"a67tnlkklszs","geo_precision":"unmatched"},"type":"Feature","geometry":null},{"properties":{"postcode":"9261XV","geo_score":0.0,"id":"a67tnlq8kp7v","geo_precision":"unmatched"},"type":"Feature","geometry":null},{"properties":{"postcode":"8574TD","geo_score":0.0,"id":"a67tnlp5mhpo","geo_precision":"unmatched"},"type":"Feature","geometry":null},{"properties":{"postcode":"9271HD","geo_score":0.0,"id":"a67tnlgnzivc","geo_precision":"unmatched"},"type":"Feature","geometry":null},{"properties":{"postcode":"8448MN","geo_score":0.0,"id":"a67tnlk8cl3p","geo_precision":"unmatched"},"type":"Feature","geometry":null},{"properties":{"postcode":"8916 EM","geo_score":0.714,"id":"a67tnlqj8vwl","geo_precision":"zip"},"type":"Feature","geometry":{"type":"Point","coordinates":[-74.451819,40.486216]}},{"properties":{"postcode":"9035 GG","geo_score":0.0,"id":"a67tnlo4bvat","geo_precision":"unmatched"},"type":"Feature","geometry":null},{"properties":{"postcode":"8622 XM","geo_score":0.714,"id":"a67tnlrcl33i","geo_precision":"zip"},"type":"Feature","geometry":{"type":"Point","coordinates":[-74.742939,40.217053]}},{"properties":{"postcode":"2132 RT","geo_score":0.714,"id":"a67tnlhhb2nc","geo_precision":"zip"},"type":"Feature","geometry":{"type":"Point","coordinates":[-71.155833,42.277897]}},{"properties":{"postcode":"8862 bn","geo_score":0.714,"id":"a67tnllzfox2","geo_precision":"zip"},"type":"Feature","geometry":{"type":"Point","coordinates":[-74.417344,40.430006]}},{"properties":{"postcode":"8468 ML","geo_score":0.0,"id":"a67tnlptmdcz","geo_precision":"unmatched"},"type":"Feature","geometry":null},{"properties":{"postcode":"8404GJ","geo_score":0.714,"id":"a67tnluu4bnn","geo_precision":"zip"},"type":"Feature","geometry":{"type":"Point","coordinates":[-74.608557,39.509208]}},{"properties":{"postcode":"8735 HK","geo_score":0.714,"id":"a67tnllswsbl","geo_precision":"zip"},"type":"Feature","geometry":{"type":"Point","coordinates":[-74.066248,39.981507]}},{"properties":{"postcode":"8746NJ","geo_score":0.0,"id":"a67tnlskjd9j","geo_precision":"unmatched"},"type":"Feature","geometry":null},{"properties":{"postcode":"8433 KB","geo_score":0.0,"id":"a67tnlguvlt8","geo_precision":"unmatched"},"type":"Feature","geometry":null},{"properties":{"postcode":"8408 JK","geo_score":0.0,"id":"a67tnls5e2ij","geo_precision":"unmatched"},"type":"Feature","geometry":null},{"properties":{"postcode":"8407 EG","geo_score":0.0,"id":"a67tnlvmqq6b","geo_precision":"unmatched"},"type":"Feature","geometry":null},{"properties":{"postcode":"8744ES","geo_score":0.0,"id":"a67tnlpm19of","geo_precision":"unmatched"},"type":"Feature","geometry":null},{"properties":{"postcode":"9063 JC","geo_score":0.0,"id":"a67tnll4vd8v","geo_precision":"unmatched"},"type":"Feature","geometry":null},{"properties":{"postcode":"8932 LX","geo_score":0.714,"id":"a67tnlo854ad","geo_precision":"zip"},"type":"Feature","geometry":{"type":"Point","coordinates":[-74.451819,40.486216]}},{"properties":{"postcode":"9216WR","geo_score":0.0,"id":"a67tnlkqhhcb","geo_precision":"unmatched"},"type":"Feature","geometry":null},{"properties":{"postcode":"8456HC","geo_score":0.0,"id":"a67tnlsrrjoq","geo_precision":"unmatched"},"type":"Feature","geometry":null},{"properties":{"postcode":"8921pr","geo_score":0.714,"id":"a67tnliuhy4s","geo_precision":"zip"},"type":"Feature","geometry":{"type":"Point","coordinates":[-74.451819,40.486216]}},{"properties":{"postcode":"8933 gb","geo_score":0.714,"id":"a67tnlt19u08","geo_precision":"zip"},"type":"Feature","geometry":{"type":"Point","coordinates":[-74.417344,40.430006]}},{"properties":{"postcode":"8934 bs","geo_score":0.714,"id":"a67tnlvb3la2","geo_precision":"zip"},"type":"Feature","geometry":{"type":"Point","coordinates":[-74.451819,40.486216]}},{"properties":{"postcode":"8911KE","geo_score":0.714,"id":"a67tnlm4uqik","geo_precision":"zip"},"type":"Feature","geometry":{"type":"Point","coordinates":[-74.451819,40.486216]}},{"properties":{"postcode":"8423 vm","geo_score":0.0,"id":"a67tnlu3gb4k","geo_precision":"unmatched"},"type":"Feature","geometry":null},{"properties":{"postcode":"8918 LM","geo_score":0.714,"id":"a67tnljle71o","geo_precision":"zip"},"type":"Feature","geometry":{"type":"Point","coordinates":[-74.451819,40.486216]}},{"properties":{"postcode":"8735 HK","geo_score":0.714,"id":"a67tnljhkt6o","geo_precision":"zip"},"type":"Feature","geometry":{"type":"Point","coordinates":[-74.066248,39.981507]}},{"properties":{"postcode":"8584 WT","geo_score":0.0,"id":"a67tnlle2zc4","geo_precision":"unmatched"},"type":"Feature","geometry":null},{"properties":{"postcode":"9088BC","geo_score":0.0,"id":"a67tnlrmf0lt","geo_precision":"unmatched"},"type":"Feature","geometry":null},{"properties":{"postcode":"8408 HP","geo_score":0.0,"id":"a67tnlpnibl4","geo_precision":"unmatched"},"type":"Feature","geometry":null},{"properties":{"postcode":"8401 TR","geo_score":0.714,"id":"a67tnli98u2y","geo_precision":"zip"},"type":"Feature","geometry":{"type":"Point","coordinates":[-74.643014,39.486848]}},{"properties":{"postcode":"8531as","geo_score":0.0,"id":"a67tnlthbo4j","geo_precision":"unmatched"},"type":"Feature","geometry":null},{"properties":{"postcode":"8332JP","geo_score":0.714,"id":"a67tnlno7g80","geo_precision":"zip"},"type":"Feature","geometry":{"type":"Point","coordinates":[-75.024899,39.378171]}},{"properties":{"postcode":"8423TT","geo_score":0.0,"id":"a67tnlhlc2mz","geo_precision":"unmatched"},"type":"Feature","geometry":null},{"properties":{"postcode":"8606XH","geo_score":0.714,"id":"a67tnltfsozm","geo_precision":"zip"},"type":"Feature","geometry":{"type":"Point","coordinates":[-74.712018,40.280531]}},{"properties":{"postcode":"9062 HL","geo_score":0.0,"id":"a67tnljkwqki","geo_precision":"unmatched"},"type":"Feature","geometry":null},{"properties":{"postcode":"8918HN","geo_score":0.714,"id":"a67tnlpgzaeg","geo_precision":"zip"},"type":"Feature","geometry":{"type":"Point","coordinates":[-74.451819,40.486216]}},{"properties":{"postcode":"9256HH","geo_score":0.0,"id":"a67tnlqf0ab2","geo_precision":"unmatched"},"type":"Feature","geometry":null},{"properties":{"postcode":"8604 VB","geo_score":0.714,"id":"a67tnlw85hvd","geo_precision":"zip"},"type":"Feature","geometry":{"type":"Point","coordinates":[-74.712018,40.280531]}},{"properties":{"postcode":"8855 HS","geo_score":0.714,"id":"a67tnlqf2t78","geo_precision":"zip"},"type":"Feature","geometry":{"type":"Point","coordinates":[-74.417344,40.430006]}},{"properties":{"postcode":"8701 KA","geo_score":0.714,"id":"a67tnlk3g535","geo_precision":"zip"},"type":"Feature","geometry":{"type":"Point","coordinates":[-74.224866,40.138447]}},{"properties":{"postcode":"8471 TV","geo_score":0.0,"id":"a67tnls2louw","geo_precision":"unmatched"},"type":"Feature","geometry":null},{"properties":{"postcode":"9008SC","geo_score":0.0,"id":"a67tnlhp5536","geo_precision":"unmatched"},"type":"Feature","geometry":null},{"properties":{"postcode":"9008SC","geo_score":0.0,"id":"a67tnlge7ogv","geo_precision":"unmatched"},"type":"Feature","geometry":null},{"properties":{"postcode":"8899BN","geo_score":0.714,"id":"a67tnloq7kp9","geo_precision":"zip"},"type":"Feature","geometry":{"type":"Point","coordinates":[-74.420545,40.520254]}},{"properties":{"postcode":"9213 VG","geo_score":0.0,"id":"a67tnlvnnqvv","geo_precision":"unmatched"},"type":"Feature","geometry":null},{"properties":{"postcode":"8802 MD","geo_score":0.714,"id":"a67tnllc2yt9","geo_precision":"zip"},"type":"Feature","geometry":{"type":"Point","coordinates":[-75.033227,40.662323]}},{"properties":{"postcode":"8802 DD","geo_score":0.714,"id":"a67tnlgn99ky","geo_precision":"zip"},"type":"Feature","geometry":{"type":"Point","coordinates":[-75.033227,40.662323]}},{"properties":{"postcode":"9171LL","geo_score":0.0,"id":"a67tnlkhefzf","geo_precision":"unmatched"},"type":"Feature","geometry":null},{"properties":{"postcode":"9204AL","geo_score":0.0,"id":"a67tnlr45zxm","geo_precision":"unmatched"},"type":"Feature","geometry":null},{"properties":{"postcode":"9051 LG","geo_score":0.0,"id":"a67tnls1yoos","geo_precision":"unmatched"},"type":"Feature","geometry":null},{"properties":{"postcode":"9153 BL","geo_score":0.0,"id":"a67tnlj83xlj","geo_precision":"unmatched"},"type":"Feature","geometry":null},{"properties":{"postcode":"8744ES","geo_score":0.0,"id":"a67tnlj3v5iy","geo_precision":"unmatched"},"type":"Feature","geometry":null},{"properties":{"postcode":"8855DA","geo_score":0.714,"id":"a67tnloq2sx7","geo_precision":"zip"},"type":"Feature","geometry":{"type":"Point","coordinates":[-74.417344,40.430006]}},{"properties":{"postcode":"8924jb","geo_score":0.714,"id":"a67tnlu0s11w","geo_precision":"zip"},"type":"Feature","geometry":{"type":"Point","coordinates":[-74.451819,40.486216]}},{"properties":{"postcode":"8608 ZC","geo_score":0.714,"id":"a67tnlhon9a7","geo_precision":"zip"},"type":"Feature","geometry":{"type":"Point","coordinates":[-74.764055,40.220108]}},{"properties":{"postcode":"9205 CA","geo_score":0.0,"id":"a67tnlgkadd5","geo_precision":"unmatched"},"type":"Feature","geometry":null},{"properties":{"postcode":"8433 LB","geo_score":0.0,"id":"a67tnlrhq93t","geo_precision":"unmatched"},"type":"Feature","geometry":null},{"properties":{"postcode":"8764PR","geo_score":0.0,"id":"a67tnlghhoop","geo_precision":"unmatched"},"type":"Feature","geometry":null},{"properties":{"postcode":"9202 XG`","geo_score":0.0,"id":"a67tnlgwxrec","geo_precision":"unmatched"},"type":"Feature","geometry":null},{"properties":{"postcode":"8926 ME","geo_score":0.714,"id":"a67tnlhbodt6","geo_precision":"zip"},"type":"Feature","geometry":{"type":"Point","coordinates":[-74.451819,40.486216]}},{"properties":{"postcode":"8608WR","geo_score":0.714,"id":"a67tnlmnbian","geo_precision":"zip"},"type":"Feature","geometry":{"type":"Point","coordinates":[-74.764055,40.220108]}},{"properties":{"postcode":"9035 VE","geo_score":0.0,"id":"a67tnlvc7i2q","geo_precision":"unmatched"},"type":"Feature","geometry":null},{"properties":{"postcode":"8651EA","geo_score":0.714,"id":"a67tnlg8n0wf","geo_precision":"zip"},"type":"Feature","geometry":{"type":"Point","coordinates":[-74.742939,40.217053]}},{"properties":{"postcode":"9055 NB","geo_score":0.0,"id":"a67tnliotlk0","geo_precision":"unmatched"},"type":"Feature","geometry":null},{"properties":{"postcode":"8862 VK","geo_score":0.714,"id":"a67tnlw2oj5f","geo_precision":"zip"},"type":"Feature","geometry":{"type":"Point","coordinates":[-74.417344,40.430006]}},{"properties":{"postcode":"9204WE","geo_score":0.0,"id":"a67tnls8jw8w","geo_precision":"unmatched"},"type":"Feature","geometry":null},{"properties":{"postcode":"9205CX","geo_score":0.0,"id":"a67tnlrgjp45","geo_precision":"unmatched"},"type":"Feature","geometry":null},{"properties":{"postcode":"9035 VC","geo_score":0.0,"id":"a67tnlfzubwo","geo_precision":"unmatched"},"type":"Feature","geometry":null},{"properties":{"postcode":"9051ng","geo_score":0.0,"id":"a67tnlgbclll","geo_precision":"unmatched"},"type":"Feature","geometry":null},{"properties":{"postcode":"9022AG","geo_score":0.0,"id":"a67tnlovpijz","geo_precision":"unmatched"},"type":"Feature","geometry":null},{"properties":{"postcode":"9494 RW","geo_score":0.0,"id":"a67tnlrba5wq","geo_precision":"unmatched"},"type":"Feature","geometry":null},{"properties":{"postcode":"8521 ND","geo_score":0.0,"id":"a67tnlq42ko4","geo_precision":"unmatched"},"type":"Feature","geometry":null},{"properties":{"postcode":"9104 HW","geo_score":0.0,"id":"a67tnlick5jt","geo_precision":"unmatched"},"type":"Feature","geometry":null},{"properties":{"postcode":"1788 RE","geo_score":0.0,"id":"a67tnlmtojfq","geo_precision":"unmatched"},"type":"Feature","geometry":null},{"properties":{"postcode":"8334 SZ","geo_score":0.0,"id":"a67tnlhdq8fw","geo_precision":"unmatched"},"type":"Feature","geometry":null},{"properties":{"postcode":"8872 NZ","geo_score":0.714,"id":"a67tnlkx3vi5","geo_precision":"zip"},"type":"Feature","geometry":{"type":"Point","coordinates":[-74.330426,40.465384]}},{"properties":{"postcode":"8872 NZ","geo_score":0.714,"id":"a67tnljwqrq4","geo_precision":"zip"},"type":"Feature","geometry":{"type":"Point","coordinates":[-74.330426,40.465384]}},{"properties":{"postcode":"9865 VK","geo_score":0.0,"id":"a67tnlgflix9","geo_precision":"unmatched"},"type":"Feature","geometry":null},{"properties":{"postcode":"8395 tk","geo_score":0.0,"id":"a67tnlrxf4t1","geo_precision":"unmatched"},"type":"Feature","geometry":null},{"properties":{"postcode":"9865 AD","geo_score":0.0,"id":"a67tnlmkmou0","geo_precision":"unmatched"},"type":"Feature","geometry":null},{"properties":{"postcode":"8861 TW","geo_score":0.714,"id":"a67tnlgiw2uq","geo_precision":"zip"},"type":"Feature","geometry":{"type":"Point","coordinates":[-74.292925,40.527049]}},{"properties":{"postcode":"8538 RG","geo_score":0.0,"id":"a67tnlmrb8x9","geo_precision":"unmatched"},"type":"Feature","geometry":null},{"properties":{"postcode":"8426ja","geo_score":0.0,"id":"a67tnls4tj6r","geo_precision":"unmatched"},"type":"Feature","geometry":null},{"properties":{"postcode":"8426ja","geo_score":0.0,"id":"a67tnllolwxd","geo_precision":"unmatched"},"type":"Feature","geometry":null},{"properties":{"postcode":"8926pm","geo_score":0.714,"id":"a67tnln9azyn","geo_precision":"zip"},"type":"Feature","geometry":{"type":"Point","coordinates":[-74.451819,40.486216]}},{"properties":{"postcode":"8701 HT","geo_score":0.714,"id":"a67tnlut89x6","geo_precision":"zip"},"type":"Feature","geometry":{"type":"Point","coordinates":[-74.224866,40.138447]}},{"properties":{"postcode":"8491EG","geo_score":0.0,"id":"a67tnlkxjhn2","geo_precision":"unmatched"},"type":"Feature","geometry":null},{"properties":{"postcode":"8605BC","geo_score":0.714,"id":"a67tnlgz8990","geo_precision":"zip"},"type":"Feature","geometry":{"type":"Point","coordinates":[-74.712018,40.280531]}},{"properties":{"postcode":"9166 PS","geo_score":0.0,"id":"a67tnlocch3n","geo_precision":"unmatched"},"type":"Feature","geometry":null},{"properties":{"postcode":"9205 BM","geo_score":0.0,"id":"a67tnlsdc1dv","geo_precision":"unmatched"},"type":"Feature","geometry":null},{"properties":{"postcode":"9202 GJ","geo_score":0.0,"id":"a67tnlkbsvkh","geo_precision":"unmatched"},"type":"Feature","geometry":null},{"properties":{"postcode":"8804 NK","geo_score":0.714,"id":"a67tnlvtv34c","geo_precision":"zip"},"type":"Feature","geometry":{"type":"Point","coordinates":[-75.092934,40.646294]}},{"properties":{"postcode":"9051BP","geo_score":0.0,"id":"a67tnllmeupc","geo_precision":"unmatched"},"type":"Feature","geometry":null},{"properties":{"postcode":"9051BP","geo_score":0.0,"id":"a67tnlgh9855","geo_precision":"unmatched"},"type":"Feature","geometry":null},{"properties":{"postcode":"9051CH","geo_score":0.0,"id":"a67tnlpca43e","geo_precision":"unmatched"},"type":"Feature","geometry":null},{"properties":{"postcode":"9051CH","geo_score":0.0,"id":"a67tnlmwiing","geo_precision":"unmatched"},"type":"Feature","geometry":null},{"properties":{"postcode":"8896 JE","geo_score":0.714,"id":"a67tnll9wtuk","geo_precision":"zip"},"type":"Feature","geometry":{"type":"Point","coordinates":[-74.599801,40.566553]}},{"properties":{"postcode":"8896 JE","geo_score":0.714,"id":"a67tnlo51vwn","geo_precision":"zip"},"type":"Feature","geometry":{"type":"Point","coordinates":[-74.599801,40.566553]}},{"properties":{"postcode":"9035EA","geo_score":0.0,"id":"a67tnlie5pvq","geo_precision":"unmatched"},"type":"Feature","geometry":null},{"properties":{"postcode":"9883RB","geo_score":0.0,"id":"a67tnltkjto7","geo_precision":"unmatched"},"type":"Feature","geometry":null},{"properties":{"postcode":"1777 AP","geo_score":0.0,"id":"a67tnljw03cw","geo_precision":"unmatched"},"type":"Feature","geometry":null},{"properties":{"postcode":"8315an","geo_score":0.714,"id":"a67tnlrjam51","geo_precision":"zip"},"type":"Feature","geometry":{"type":"Point","coordinates":[-75.095025,39.273214]}},{"properties":{"postcode":"8861JJ","geo_score":0.714,"id":"a67tnli05vro","geo_precision":"zip"},"type":"Feature","geometry":{"type":"Point","coordinates":[-74.292925,40.527049]}},{"properties":{"postcode":"8861 CX","geo_score":0.714,"id":"a67tnlkmr10d","geo_precision":"zip"},"type":"Feature","geometry":{"type":"Point","coordinates":[-74.292925,40.527049]}},{"properties":{"postcode":"8861 CX","geo_score":0.714,"id":"a67tnll65ukr","geo_precision":"zip"},"type":"Feature","geometry":{"type":"Point","coordinates":[-74.292925,40.527049]}},{"properties":{"postcode":"8855xc","geo_score":0.714,"id":"a67tnlihnn7a","geo_precision":"zip"},"type":"Feature","geometry":{"type":"Point","coordinates":[-74.417344,40.430006]}},{"properties":{"postcode":"8802 PV","geo_score":0.714,"id":"a67tnls2ezf4","geo_precision":"zip"},"type":"Feature","geometry":{"type":"Point","coordinates":[-75.033227,40.662323]}},{"properties":{"postcode":"8939DT","geo_score":0.714,"id":"a67tnll78wc2","geo_precision":"zip"},"type":"Feature","geometry":{"type":"Point","coordinates":[-74.451819,40.486216]}},{"properties":{"postcode":"8602 bp","geo_score":0.714,"id":"a67tnlsr0i32","geo_precision":"zip"},"type":"Feature","geometry":{"type":"Point","coordinates":[-74.712018,40.280531]}},{"properties":{"postcode":"8604AM","geo_score":0.714,"id":"a67tnlg2t46w","geo_precision":"zip"},"type":"Feature","geometry":{"type":"Point","coordinates":[-74.712018,40.280531]}},{"properties":{"postcode":"4863VD","geo_score":0.714,"id":"a67tnlgbcdd8","geo_precision":"zip"},"type":"Feature","geometry":{"type":"Point","coordinates":[-68.841965,44.08511]}},{"properties":{"postcode":"9254 JS","geo_score":0.0,"id":"a67tnlnlf1kx","geo_precision":"unmatched"},"type":"Feature","geometry":null},{"properties":{"postcode":"8443 EE","geo_score":0.0,"id":"a67tnln1iwqx","geo_precision":"unmatched"},"type":"Feature","geometry":null},{"properties":{"postcode":"8465 SC","geo_score":0.0,"id":"a67tnloycqr1","geo_precision":"unmatched"},"type":"Feature","geometry":null},{"properties":{"postcode":"9001ND","geo_score":0.0,"id":"a67tnlmszt1a","geo_precision":"unmatched"},"type":"Feature","geometry":null},{"properties":{"postcode":"8701 WJ","geo_score":0.714,"id":"a67tnlu7217e","geo_precision":"zip"},"type":"Feature","geometry":{"type":"Point","coordinates":[-74.224866,40.138447]}},{"properties":{"postcode":"8899BE","geo_score":0.714,"id":"a67tnlmyi199","geo_precision":"zip"},"type":"Feature","geometry":{"type":"Point","coordinates":[-74.420545,40.520254]}},{"properties":{"postcode":"8899CG","geo_score":0.714,"id":"a67tnlgzm7zc","geo_precision":"zip"},"type":"Feature","geometry":{"type":"Point","coordinates":[-74.420545,40.520254]}},{"properties":{"postcode":"8471 DC","geo_score":0.0,"id":"a67tnliorq1n","geo_precision":"unmatched"},"type":"Feature","geometry":null},{"properties":{"postcode":"9067DS","geo_score":0.0,"id":"a67tnlir91rq","geo_precision":"unmatched"},"type":"Feature","geometry":null},{"properties":{"postcode":"8501TV","geo_score":0.714,"id":"a67tnlrgdatv","geo_precision":"zip"},"type":"Feature","geometry":{"type":"Point","coordinates":[-74.547654,40.172334]}},{"properties":{"postcode":"8493 LW","geo_score":0.0,"id":"a67tnloqmuhn","geo_precision":"unmatched"},"type":"Feature","geometry":null},{"properties":{"postcode":"8501 JM","geo_score":0.714,"id":"a67tnlndilrf","geo_precision":"zip"},"type":"Feature","geometry":{"type":"Point","coordinates":[-74.547654,40.172334]}},{"properties":{"postcode":"8506 BK","geo_score":0.0,"id":"a67tnlhh175a","geo_precision":"unmatched"},"type":"Feature","geometry":null},{"properties":{"postcode":"8456 HA","geo_score":0.0,"id":"a67tnlq4perh","geo_precision":"unmatched"},"type":"Feature","geometry":null},{"properties":{"postcode":"8608WP","geo_score":0.714,"id":"a67tnlgdkpiu","geo_precision":"zip"},"type":"Feature","geometry":{"type":"Point","coordinates":[-74.764055,40.220108]}},{"properties":{"postcode":"9298VT","geo_score":0.0,"id":"a67tnlvzds9i","geo_precision":"unmatched"},"type":"Feature","geometry":null},{"properties":{"postcode":"8804 NA","geo_score":0.714,"id":"a67tnlu95of2","geo_precision":"zip"},"type":"Feature","geometry":{"type":"Point","coordinates":[-75.092934,40.646294]}},{"properties":{"postcode":"8932 LB","geo_score":0.714,"id":"a67tnllxkk0f","geo_precision":"zip"},"type":"Feature","geometry":{"type":"Point","coordinates":[-74.451819,40.486216]}},{"properties":{"postcode":"9725HL","geo_score":0.0,"id":"a67tnljomp92","geo_precision":"unmatched"},"type":"Feature","geometry":null},{"properties":{"postcode":"9725HL","geo_score":0.0,"id":"a67tnlstxns0","geo_precision":"unmatched"},"type":"Feature","geometry":null},{"properties":{"postcode":"8401BG","geo_score":0.714,"id":"a67tnlk18zzz","geo_precision":"zip"},"type":"Feature","geometry":{"type":"Point","coordinates":[-74.643014,39.486848]}},{"properties":{"postcode":"8414 KC","geo_score":0.0,"id":"a67tnlip7loo","geo_precision":"unmatched"},"type":"Feature","geometry":null},{"properties":{"postcode":"8501 ZH","geo_score":0.714,"id":"a67tnlsrcyvt","geo_precision":"zip"},"type":"Feature","geometry":{"type":"Point","coordinates":[-74.547654,40.172334]}},{"properties":{"postcode":"9101 AZ","geo_score":0.0,"id":"a67tnlgqve8z","geo_precision":"unmatched"},"type":"Feature","geometry":null},{"properties":{"postcode":"9281 MG","geo_score":0.0,"id":"a67tnlw3of3l","geo_precision":"unmatched"},"type":"Feature","geometry":null},{"properties":{"postcode":"8633 KP","geo_score":0.714,"id":"a67tnlja1k76","geo_precision":"zip"},"type":"Feature","geometry":{"type":"Point","coordinates":[-74.742939,40.217053]}},{"properties":{"postcode":"9231AT","geo_score":0.0,"id":"a67tnllxflze","geo_precision":"unmatched"},"type":"Feature","geometry":null},{"properties":{"postcode":"9872 TJ","geo_score":0.0,"id":"a67tnlhe7dq6","geo_precision":"unmatched"},"type":"Feature","geometry":null},{"properties":{"postcode":"9286GB","geo_score":0.0,"id":"a67tnlrw8rjn","geo_precision":"unmatched"},"type":"Feature","geometry":null},{"properties":{"postcode":"9077SB","geo_score":0.0,"id":"a67tnlm8is8m","geo_precision":"unmatched"},"type":"Feature","geometry":null},{"properties":{"postcode":"8561 AD","geo_score":0.714,"id":"a67tnltce5ta","geo_precision":"zip"},"type":"Feature","geometry":{"type":"Point","coordinates":[-74.578709,40.242313]}},{"properties":{"postcode":"8448 PK","geo_score":0.0,"id":"a67tnlp0kwo1","geo_precision":"unmatched"},"type":"Feature","geometry":null},{"properties":{"postcode":"8932 KX","geo_score":0.714,"id":"a67tnlmagd6u","geo_precision":"zip"},"type":"Feature","geometry":{"type":"Point","coordinates":[-74.451819,40.486216]}},{"properties":{"postcode":"8608 ZC","geo_score":0.714,"id":"a67tnloaww1r","geo_precision":"zip"},"type":"Feature","geometry":{"type":"Point","coordinates":[-74.764055,40.220108]}},{"properties":{"postcode":"9204ak","geo_score":0.0,"id":"a67tnljjnpx1","geo_precision":"unmatched"},"type":"Feature","geometry":null},{"properties":{"postcode":"9204ak","geo_score":0.0,"id":"a67tnlm3fzi3","geo_precision":"unmatched"},"type":"Feature","geometry":null},{"properties":{"postcode":"9204ak","geo_score":0.0,"id":"a67tnlr76fml","geo_precision":"unmatched"},"type":"Feature","geometry":null},{"properties":{"postcode":"9204ak","geo_score":0.0,"id":"a67tnltv1apr","geo_precision":"unmatched"},"type":"Feature","geometry":null},{"properties":{"postcode":"9204ak","geo_score":0.0,"id":"a67tnlpy6ww4","geo_precision":"unmatched"},"type":"Feature","geometry":null},{"properties":{"postcode":"8313AN","geo_score":0.714,"id":"a67tnlj4s0al","geo_precision":"zip"},"type":"Feature","geometry":{"type":"Point","coordinates":[-75.224865,39.529261]}},{"properties":{"postcode":"8474CT","geo_score":0.0,"id":"a67tnllymx27","geo_precision":"unmatched"},"type":"Feature","geometry":null},{"properties":{"postcode":"8502AE","geo_score":0.714,"id":"a67tnlhodw51","geo_precision":"zip"},"type":"Feature","geometry":{"type":"Point","coordinates":[-74.662381,40.447605]}},{"properties":{"postcode":"8457 CG","geo_score":0.0,"id":"a67tnlv924ph","geo_precision":"unmatched"},"type":"Feature","geometry":null},{"properties":{"postcode":"8446 MJ","geo_score":0.0,"id":"a67tnlnrs5io","geo_precision":"unmatched"},"type":"Feature","geometry":null},{"properties":{"postcode":"8446 MJ","geo_score":0.0,"id":"a67tnlun68mv","geo_precision":"unmatched"},"type":"Feature","geometry":null},{"properties":{"postcode":"9051GM","geo_score":0.0,"id":"a67tnlrcu39m","geo_precision":"unmatched"},"type":"Feature","geometry":null},{"properties":{"postcode":"8931CG","geo_score":0.714,"id":"a67tnlu36dqk","geo_precision":"zip"},"type":"Feature","geometry":{"type":"Point","coordinates":[-74.451819,40.486216]}},{"properties":{"postcode":"8754AM","geo_score":0.714,"id":"a67tnluy3nn8","geo_precision":"zip"},"type":"Feature","geometry":{"type":"Point","coordinates":[-74.24928,40.000759]}},{"properties":{"postcode":"9171LL","geo_score":0.0,"id":"a67tnlihci76","geo_precision":"unmatched"},"type":"Feature","geometry":null},{"properties":{"postcode":"8401 TR","geo_score":0.714,"id":"a67tnlsd5nzd","geo_precision":"zip"},"type":"Feature","geometry":{"type":"Point","coordinates":[-74.643014,39.486848]}},{"properties":{"postcode":"8701 MB","geo_score":0.714,"id":"a67tnlv44465","geo_precision":"zip"},"type":"Feature","geometry":{"type":"Point","coordinates":[-74.224866,40.138447]}},{"properties":{"postcode":"8754KB","geo_score":0.714,"id":"a67tnlpd1ocb","geo_precision":"zip"},"type":"Feature","geometry":{"type":"Point","coordinates":[-74.24928,40.000759]}},{"properties":{"postcode":"8401 MS","geo_score":0.714,"id":"a67tnlqza9jj","geo_precision":"zip"},"type":"Feature","geometry":{"type":"Point","coordinates":[-74.643014,39.486848]}},{"properties":{"postcode":"8461 lj","geo_score":0.0,"id":"a67tnltmlxtc","geo_precision":"unmatched"},"type":"Feature","geometry":null},{"properties":{"postcode":"9041 VJ","geo_score":0.0,"id":"a67tnlkzre0s","geo_precision":"unmatched"},"type":"Feature","geometry":null},{"properties":{"postcode":"9051 LG","geo_score":0.0,"id":"a67tnlmirgor","geo_precision":"unmatched"},"type":"Feature","geometry":null},{"properties":{"postcode":"8625TH","geo_score":0.714,"id":"a67tnlujbepu","geo_precision":"zip"},"type":"Feature","geometry":{"type":"Point","coordinates":[-74.712018,40.280531]}},{"properties":{"postcode":"8918JX","geo_score":0.714,"id":"a67tnluqnc4w","geo_precision":"zip"},"type":"Feature","geometry":{"type":"Point","coordinates":[-74.451819,40.486216]}},{"properties":{"postcode":"8764 PR","geo_score":0.0,"id":"a67tnlh6mq0h","geo_precision":"unmatched"},"type":"Feature","geometry":null},{"properties":{"postcode":"8756 JP","geo_score":0.714,"id":"a67tnliur89v","geo_precision":"zip"},"type":"Feature","geometry":{"type":"Point","coordinates":[-74.191058,39.787966]}},{"properties":{"postcode":"9246 TN","geo_score":0.0,"id":"a67tnlgg2qr6","geo_precision":"unmatched"},"type":"Feature","geometry":null},{"properties":{"postcode":"8401 RT","geo_score":0.714,"id":"a67tnltnkkdi","geo_precision":"zip"},"type":"Feature","geometry":{"type":"Point","coordinates":[-74.643014,39.486848]}},{"properties":{"postcode":"8939 CJ","geo_score":0.714,"id":"a67tnllfe8ps","geo_precision":"zip"},"type":"Feature","geometry":{"type":"Point","coordinates":[-74.451819,40.486216]}},{"properties":{"postcode":"8431 HC","geo_score":0.0,"id":"a67tnlh5wko1","geo_precision":"unmatched"},"type":"Feature","geometry":null},{"properties":{"postcode":"8925 AL","geo_score":0.714,"id":"a67tnluvktst","geo_precision":"zip"},"type":"Feature","geometry":{"type":"Point","coordinates":[-74.451819,40.486216]}},{"properties":{"postcode":"8925HP","geo_score":0.714,"id":"a67tnlpfej16","geo_precision":"zip"},"type":"Feature","geometry":{"type":"Point","coordinates":[-74.451819,40.486216]}},{"properties":{"postcode":"8925HP","geo_score":0.714,"id":"a67tnlmxv4v3","geo_precision":"zip"},"type":"Feature","geometry":{"type":"Point","coordinates":[-74.451819,40.486216]}},{"properties":{"postcode":"8925 AL","geo_score":0.714,"id":"a67tnlh4nyw9","geo_precision":"zip"},"type":"Feature","geometry":{"type":"Point","coordinates":[-74.451819,40.486216]}},{"properties":{"postcode":"9034hh","geo_score":0.0,"id":"a67tnllg2zgx","geo_precision":"unmatched"},"type":"Feature","geometry":null},{"properties":{"postcode":"9001 NX","geo_score":0.0,"id":"a67tnljxx5tb","geo_precision":"unmatched"},"type":"Feature","geometry":null},{"properties":{"postcode":"8855 CW","geo_score":0.714,"id":"a67tnlsu2kwx","geo_precision":"zip"},"type":"Feature","geometry":{"type":"Point","coordinates":[-74.417344,40.430006]}},{"properties":{"postcode":"8749GS","geo_score":0.0,"id":"a67tnlhs57np","geo_precision":"unmatched"},"type":"Feature","geometry":null},{"properties":{"postcode":"8885 HE","geo_score":0.714,"id":"a67tnlirgqvn","geo_precision":"zip"},"type":"Feature","geometry":{"type":"Point","coordinates":[-74.831105,40.576372]}},{"properties":{"postcode":"8881 Bl","geo_score":0.0,"id":"a67tnlntai66","geo_precision":"unmatched"},"type":"Feature","geometry":null},{"properties":{"postcode":"9201GR","geo_score":0.0,"id":"a67tnlhxjwl3","geo_precision":"unmatched"},"type":"Feature","geometry":null},{"properties":{"postcode":"8801XB","geo_score":0.714,"id":"a67tnlr50g51","geo_precision":"zip"},"type":"Feature","geometry":{"type":"Point","coordinates":[-74.879611,40.581769]}},{"properties":{"postcode":"9051PE","geo_score":0.0,"id":"a67tnlup6wx5","geo_precision":"unmatched"},"type":"Feature","geometry":null},{"properties":{"postcode":"8446 ET","geo_score":0.0,"id":"a67tnlkas7ov","geo_precision":"unmatched"},"type":"Feature","geometry":null},{"properties":{"postcode":"8731 CP","geo_score":0.714,"id":"a67tnlvccq6t","geo_precision":"zip"},"type":"Feature","geometry":{"type":"Point","coordinates":[-74.170139,39.817064]}},{"properties":{"postcode":"8711CP","geo_score":0.0,"id":"a67tnlsedljw","geo_precision":"unmatched"},"type":"Feature","geometry":null},{"properties":{"postcode":"9244 CP","geo_score":0.0,"id":"a67tnlgilx3s","geo_precision":"unmatched"},"type":"Feature","geometry":null},{"properties":{"postcode":"1777 AP","geo_score":0.0,"id":"a67tnlrelux5","geo_precision":"unmatched"},"type":"Feature","geometry":null},{"properties":{"postcode":"9148BD","geo_score":0.0,"id":"a67tnlwhdsfp","geo_precision":"unmatched"},"type":"Feature","geometry":null},{"properties":{"postcode":"8802 ZA","geo_score":0.714,"id":"a67tnliw8pzz","geo_precision":"zip"},"type":"Feature","geometry":{"type":"Point","coordinates":[-75.033227,40.662323]}},{"properties":{"postcode":"8851 HA","geo_score":0.0,"id":"a67tnlu4x64t","geo_precision":"unmatched"},"type":"Feature","geometry":null},{"properties":{"postcode":"9051CH","geo_score":0.0,"id":"a67tnliein9x","geo_precision":"unmatched"},"type":"Feature","geometry":null},{"properties":{"postcode":"9051BP","geo_score":0.0,"id":"a67tnlrw50ex","geo_precision":"unmatched"},"type":"Feature","geometry":null},{"properties":{"postcode":"9051BP","geo_score":0.0,"id":"a67tnln2u89f","geo_precision":"unmatched"},"type":"Feature","geometry":null},{"properties":{"postcode":"8802BE","geo_score":0.714,"id":"a67tnluf88h6","geo_precision":"zip"},"type":"Feature","geometry":{"type":"Point","coordinates":[-75.033227,40.662323]}},{"properties":{"postcode":"9164KM","geo_score":0.0,"id":"a67tnllnayxp","geo_precision":"unmatched"},"type":"Feature","geometry":null},{"properties":{"postcode":"8917EB","geo_score":0.714,"id":"a67tnlo0sctc","geo_precision":"zip"},"type":"Feature","geometry":{"type":"Point","coordinates":[-74.451819,40.486216]}},{"properties":{"postcode":"9076 BH","geo_score":0.0,"id":"a67tnlklq2ex","geo_precision":"unmatched"},"type":"Feature","geometry":null},{"properties":{"postcode":"9076 BH","geo_score":0.0,"id":"a67tnlvaldk6","geo_precision":"unmatched"},"type":"Feature","geometry":null},{"properties":{"postcode":"8443cp","geo_score":0.0,"id":"a67tnlrvgxh9","geo_precision":"unmatched"},"type":"Feature","geometry":null},{"properties":{"postcode":"9077 ST","geo_score":0.0,"id":"a67tnlvao7oy","geo_precision":"unmatched"},"type":"Feature","geometry":null},{"properties":{"postcode":"8411 VS","geo_score":0.0,"id":"a67tnljmfvym","geo_precision":"unmatched"},"type":"Feature","geometry":null},{"properties":{"postcode":"9166PH","geo_score":0.0,"id":"a67tnlhermqf","geo_precision":"unmatched"},"type":"Feature","geometry":null},{"properties":{"postcode":"9076 JD","geo_score":0.0,"id":"a67tnllel18k","geo_precision":"unmatched"},"type":"Feature","geometry":null},{"properties":{"postcode":"9076 JD","geo_score":0.0,"id":"a67tnluystld","geo_precision":"unmatched"},"type":"Feature","geometry":null},{"properties":{"postcode":"9163GB","geo_score":0.0,"id":"a67tnlh6302y","geo_precision":"unmatched"},"type":"Feature","geometry":null},{"properties":{"postcode":"8431 BK","geo_score":0.0,"id":"a67tnlitei6j","geo_precision":"unmatched"},"type":"Feature","geometry":null},{"properties":{"postcode":"9133 MT","geo_score":0.0,"id":"a67tnlvgue8h","geo_precision":"unmatched"},"type":"Feature","geometry":null},{"properties":{"postcode":"9076 GP","geo_score":0.0,"id":"a67tnlifbfkb","geo_precision":"unmatched"},"type":"Feature","geometry":null},{"properties":{"postcode":"8494 PV","geo_score":0.0,"id":"a67tnll16ucx","geo_precision":"unmatched"},"type":"Feature","geometry":null},{"properties":{"postcode":"8494 PV","geo_score":0.0,"id":"a67tnlit6mcb","geo_precision":"unmatched"},"type":"Feature","geometry":null},{"properties":{"postcode":"9204 DG","geo_score":0.0,"id":"a67tnlw5zino","geo_precision":"unmatched"},"type":"Feature","geometry":null},{"properties":{"postcode":"8891 CE","geo_score":0.0,"id":"a67tnluypxrp","geo_precision":"unmatched"},"type":"Feature","geometry":null},{"properties":{"postcode":"9254 GD","geo_score":0.0,"id":"a67tnlmalg9f","geo_precision":"unmatched"},"type":"Feature","geometry":null},{"properties":{"postcode":"8862 VN","geo_score":0.714,"id":"a67tnlnrznqm","geo_precision":"zip"},"type":"Feature","geometry":{"type":"Point","coordinates":[-74.417344,40.430006]}},{"properties":{"postcode":"8806 KM","geo_score":0.0,"id":"a67tnlmi0dvw","geo_precision":"unmatched"},"type":"Feature","geometry":null},{"properties":{"postcode":"9033wr","geo_score":0.0,"id":"a67tnlw4400d","geo_precision":"unmatched"},"type":"Feature","geometry":null},{"properties":{"postcode":"8918DE","geo_score":0.714,"id":"a67tnlhfayt0","geo_precision":"zip"},"type":"Feature","geometry":{"type":"Point","coordinates":[-74.451819,40.486216]}},{"properties":{"postcode":"1779GA","geo_score":0.0,"id":"a67tnlt68u07","geo_precision":"unmatched"},"type":"Feature","geometry":null},{"properties":{"postcode":"8748 AS","geo_score":0.0,"id":"a67tnln2f8ur","geo_precision":"unmatched"},"type":"Feature","geometry":null},{"properties":{"postcode":"9172NP","geo_score":0.0,"id":"a67tnluoausz","geo_precision":"unmatched"},"type":"Feature","geometry":null},{"properties":{"postcode":"8607 HM","geo_score":0.714,"id":"a67tnlpcd9g0","geo_precision":"zip"},"type":"Feature","geometry":{"type":"Point","coordinates":[-74.712018,40.280531]}},{"properties":{"postcode":"8915 JH","geo_score":0.714,"id":"a67tnlpun4d5","geo_precision":"zip"},"type":"Feature","geometry":{"type":"Point","coordinates":[-74.451819,40.486216]}},{"properties":{"postcode":"9422 GP","geo_score":0.0,"id":"a67tnluhd214","geo_precision":"unmatched"},"type":"Feature","geometry":null},{"properties":{"postcode":"8571 RJ","geo_score":0.0,"id":"a67tnlu1nsj9","geo_precision":"unmatched"},"type":"Feature","geometry":null},{"properties":{"postcode":"9105 LG","geo_score":0.0,"id":"a67tnltu6lk8","geo_precision":"unmatched"},"type":"Feature","geometry":null},{"properties":{"postcode":"9041 AD","geo_score":0.0,"id":"a67tnlw85sex","geo_precision":"unmatched"},"type":"Feature","geometry":null},{"properties":{"postcode":"9861 ET","geo_score":0.0,"id":"a67tnlj7v2q7","geo_precision":"unmatched"},"type":"Feature","geometry":null},{"properties":{"postcode":"9269TV","geo_score":0.0,"id":"a67tnlt7wny0","geo_precision":"unmatched"},"type":"Feature","geometry":null},{"properties":{"postcode":"9861 ET","geo_score":0.0,"id":"a67tnlm0hjs9","geo_precision":"unmatched"},"type":"Feature","geometry":null},{"properties":{"postcode":"8471 VJ","geo_score":0.0,"id":"a67tnlvub4ga","geo_precision":"unmatched"},"type":"Feature","geometry":null},{"properties":{"postcode":"8471SP","geo_score":0.0,"id":"a67tnljiq1qp","geo_precision":"unmatched"},"type":"Feature","geometry":null},{"properties":{"postcode":"9051PC","geo_score":0.0,"id":"a67tnlisp1rs","geo_precision":"unmatched"},"type":"Feature","geometry":null},{"properties":{"postcode":"8913 BP","geo_score":0.714,"id":"a67tnlpp55cv","geo_precision":"zip"},"type":"Feature","geometry":{"type":"Point","coordinates":[-74.451819,40.486216]}},{"properties":{"postcode":"8331 GX","geo_score":0.0,"id":"a67tnlw31l4l","geo_precision":"unmatched"},"type":"Feature","geometry":null},{"properties":{"postcode":"8845SH","geo_score":0.0,"id":"a67tnlksryjk","geo_precision":"unmatched"},"type":"Feature","geometry":null},{"properties":{"postcode":"9051ps","geo_score":0.0,"id":"a67tnlteax6v","geo_precision":"unmatched"},"type":"Feature","geometry":null},{"properties":{"postcode":"8521 NN","geo_score":0.0,"id":"a67tnlj1j2y3","geo_precision":"unmatched"},"type":"Feature","geometry":null},{"properties":{"postcode":"8303ds","geo_score":0.0,"id":"a67tnlv1y0tp","geo_precision":"unmatched"},"type":"Feature","geometry":null},{"properties":{"postcode":"8701 gn","geo_score":0.714,"id":"a67tnlivktpt","geo_precision":"zip"},"type":"Feature","geometry":{"type":"Point","coordinates":[-74.224866,40.138447]}},{"properties":{"postcode":"8701gn","geo_score":0.714,"id":"a67tnlg6f9k5","geo_precision":"zip"},"type":"Feature","geometry":{"type":"Point","coordinates":[-74.224866,40.138447]}},{"properties":{"postcode":"8701gn","geo_score":0.714,"id":"a67tnlq80ixf","geo_precision":"zip"},"type":"Feature","geometry":{"type":"Point","coordinates":[-74.224866,40.138447]}},{"properties":{"postcode":"8939CS","geo_score":0.714,"id":"a67tnlhpmtm5","geo_precision":"zip"},"type":"Feature","geometry":{"type":"Point","coordinates":[-74.451819,40.486216]}},{"properties":{"postcode":"8855XE","geo_score":0.714,"id":"a67tnlgwxizi","geo_precision":"zip"},"type":"Feature","geometry":{"type":"Point","coordinates":[-74.417344,40.430006]}},{"properties":{"postcode":"8855cc","geo_score":0.714,"id":"a67tnlqrf6gg","geo_precision":"zip"},"type":"Feature","geometry":{"type":"Point","coordinates":[-74.417344,40.430006]}},{"properties":{"postcode":"8501NL","geo_score":0.714,"id":"a67tnltr9gaf","geo_precision":"zip"},"type":"Feature","geometry":{"type":"Point","coordinates":[-74.547654,40.172334]}},{"properties":{"postcode":"8448MN","geo_score":0.0,"id":"a67tnlrjo7mn","geo_precision":"unmatched"},"type":"Feature","geometry":null},{"properties":{"postcode":"8332ck","geo_score":0.714,"id":"a67tnlke4j48","geo_precision":"zip"},"type":"Feature","geometry":{"type":"Point","coordinates":[-75.024899,39.378171]}},{"properties":{"postcode":"8413RT","geo_score":0.0,"id":"a67tnlvygk8y","geo_precision":"unmatched"},"type":"Feature","geometry":null},{"properties":{"postcode":"9001 LV","geo_score":0.0,"id":"a67tnlo33zhv","geo_precision":"unmatched"},"type":"Feature","geometry":null},{"properties":{"postcode":"8921 VZ","geo_score":0.714,"id":"a67tnlvjg0jm","geo_precision":"zip"},"type":"Feature","geometry":{"type":"Point","coordinates":[-74.451819,40.486216]}},{"properties":{"postcode":"8932 JN","geo_score":0.714,"id":"a67tnlntqqy3","geo_precision":"zip"},"type":"Feature","geometry":{"type":"Point","coordinates":[-74.451819,40.486216]}},{"properties":{"postcode":"9033WH","geo_score":0.0,"id":"a67tnlvcojov","geo_precision":"unmatched"},"type":"Feature","geometry":null},{"properties":{"postcode":"9035 VH","geo_score":0.0,"id":"a67tnlm007mf","geo_precision":"unmatched"},"type":"Feature","geometry":null},{"properties":{"postcode":"9035 VH","geo_score":0.0,"id":"a67tnltjr4dy","geo_precision":"unmatched"},"type":"Feature","geometry":null},{"properties":{"postcode":"9035 VH","geo_score":0.0,"id":"a67tnln0gyh6","geo_precision":"unmatched"},"type":"Feature","geometry":null},{"properties":{"postcode":"9035 VH","geo_score":0.0,"id":"a67tnlk8bton","geo_precision":"unmatched"},"type":"Feature","geometry":null},{"properties":{"postcode":"9047hv","geo_score":0.0,"id":"a67tnlvfb3by","geo_precision":"unmatched"},"type":"Feature","geometry":null},{"properties":{"postcode":"8701GM","geo_score":0.714,"id":"a67tnli28ut6","geo_precision":"zip"},"type":"Feature","geometry":{"type":"Point","coordinates":[-74.224866,40.138447]}},{"properties":{"postcode":"9036 js","geo_score":0.0,"id":"a67tnlmbmbyk","geo_precision":"unmatched"},"type":"Feature","geometry":null},{"properties":{"postcode":"8711 CK","geo_score":0.0,"id":"a67tnlsylr14","geo_precision":"unmatched"},"type":"Feature","geometry":null},{"properties":{"postcode":"9012DR","geo_score":0.0,"id":"a67tnlhxq6t4","geo_precision":"unmatched"},"type":"Feature","geometry":null},{"properties":{"postcode":"9084BN","geo_score":0.0,"id":"a67tnlkpb7ey","geo_precision":"unmatched"},"type":"Feature","geometry":null},{"properties":{"postcode":"9084BN","geo_score":0.0,"id":"a67tnlp272qp","geo_precision":"unmatched"},"type":"Feature","geometry":null},{"properties":{"postcode":"9022 AR","geo_score":0.0,"id":"a67tnlhwfrwk","geo_precision":"unmatched"},"type":"Feature","geometry":null},{"properties":{"postcode":"9001 GB","geo_score":0.0,"id":"a67tnljvxhvd","geo_precision":"unmatched"},"type":"Feature","geometry":null},{"properties":{"postcode":"8401 MS","geo_score":0.714,"id":"a67tnlivjf8i","geo_precision":"zip"},"type":"Feature","geometry":{"type":"Point","coordinates":[-74.643014,39.486848]}},{"properties":{"postcode":"8401 MS","geo_score":0.714,"id":"a67tnllqyvk5","geo_precision":"zip"},"type":"Feature","geometry":{"type":"Point","coordinates":[-74.643014,39.486848]}},{"properties":{"postcode":"9287NE","geo_score":0.0,"id":"a67tnltwfu2q","geo_precision":"unmatched"},"type":"Feature","geometry":null},{"properties":{"postcode":"8915 KG","geo_score":0.714,"id":"a67tnlu5v4as","geo_precision":"zip"},"type":"Feature","geometry":{"type":"Point","coordinates":[-74.451819,40.486216]}},{"properties":{"postcode":"8862TR","geo_score":0.714,"id":"a67tnlpbwgbu","geo_precision":"zip"},"type":"Feature","geometry":{"type":"Point","coordinates":[-74.417344,40.430006]}},{"properties":{"postcode":"8862 WP","geo_score":0.714,"id":"a67tnlrgono3","geo_precision":"zip"},"type":"Feature","geometry":{"type":"Point","coordinates":[-74.417344,40.430006]}},{"properties":{"postcode":"9036 jj","geo_score":0.0,"id":"a67tnlwh6m7g","geo_precision":"unmatched"},"type":"Feature","geometry":null},{"properties":{"postcode":"9172MR","geo_score":0.0,"id":"a67tnlvywy4y","geo_precision":"unmatched"},"type":"Feature","geometry":null},{"properties":{"postcode":"9172MR","geo_score":0.0,"id":"a67tnloyyzdu","geo_precision":"unmatched"},"type":"Feature","geometry":null},{"properties":{"postcode":"9101WK","geo_score":0.0,"id":"a67tnlj06040","geo_precision":"unmatched"},"type":"Feature","geometry":null},{"properties":{"postcode":"8855CS","geo_score":0.714,"id":"a67tnlsp9cng","geo_precision":"zip"},"type":"Feature","geometry":{"type":"Point","coordinates":[-74.417344,40.430006]}},{"properties":{"postcode":"8801XB","geo_score":0.714,"id":"a67tnlgsh4we","geo_precision":"zip"},"type":"Feature","geometry":{"type":"Point","coordinates":[-74.879611,40.581769]}},{"properties":{"postcode":"8842 lc","geo_score":0.0,"id":"a67tnllw0o08","geo_precision":"unmatched"},"type":"Feature","geometry":null},{"properties":{"postcode":"8801 LG","geo_score":0.714,"id":"a67tnlul3ykc","geo_precision":"zip"},"type":"Feature","geometry":{"type":"Point","coordinates":[-74.879611,40.581769]}},{"properties":{"postcode":"8801 LG","geo_score":0.714,"id":"a67tnlgzhbeb","geo_precision":"zip"},"type":"Feature","geometry":{"type":"Point","coordinates":[-74.879611,40.581769]}},{"properties":{"postcode":"9057 LG","geo_score":0.0,"id":"a67tnlgct5tr","geo_precision":"unmatched"},"type":"Feature","geometry":null},{"properties":{"postcode":"8711GT","geo_score":0.0,"id":"a67tnlujlunm","geo_precision":"unmatched"},"type":"Feature","geometry":null},{"properties":{"postcode":"8605AV","geo_score":0.714,"id":"a67tnlg28fl1","geo_precision":"zip"},"type":"Feature","geometry":{"type":"Point","coordinates":[-74.712018,40.280531]}},{"properties":{"postcode":"8804 NE","geo_score":0.714,"id":"a67tnlpw40xv","geo_precision":"zip"},"type":"Feature","geometry":{"type":"Point","coordinates":[-75.092934,40.646294]}},{"properties":{"postcode":"8408JB","geo_score":0.0,"id":"a67tnlnuvrzr","geo_precision":"unmatched"},"type":"Feature","geometry":null},{"properties":{"postcode":"9036KS","geo_score":0.0,"id":"a67tnlppd3lu","geo_precision":"unmatched"},"type":"Feature","geometry":null},{"properties":{"postcode":"8802 DA","geo_score":0.714,"id":"a67tnln8p10d","geo_precision":"zip"},"type":"Feature","geometry":{"type":"Point","coordinates":[-75.033227,40.662323]}},{"properties":{"postcode":"9123JB","geo_score":0.0,"id":"a67tnlhp4niv","geo_precision":"unmatched"},"type":"Feature","geometry":null},{"properties":{"postcode":"9045 PS","geo_score":0.0,"id":"a67tnlsn9c2s","geo_precision":"unmatched"},"type":"Feature","geometry":null},{"properties":{"postcode":"4571 XK","geo_score":0.714,"id":"a67tnlr8tloh","geo_precision":"zip"},"type":"Feature","geometry":{"type":"Point","coordinates":[-69.680144,43.88261]}},{"properties":{"postcode":"9611HT","geo_score":0.0,"id":"a67tnlndm01u","geo_precision":"unmatched"},"type":"Feature","geometry":null},{"properties":{"postcode":"8939 AS","geo_score":0.714,"id":"a67tnlvlbmv4","geo_precision":"zip"},"type":"Feature","geometry":{"type":"Point","coordinates":[-74.451819,40.486216]}},{"properties":{"postcode":"9073 TT","geo_score":0.0,"id":"a67tnlh69axv","geo_precision":"unmatched"},"type":"Feature","geometry":null},{"properties":{"postcode":"8816HV","geo_score":0.714,"id":"a67tnloii5yc","geo_precision":"zip"},"type":"Feature","geometry":{"type":"Point","coordinates":[-74.409595,40.455106]}},{"properties":{"postcode":"9076 KA","geo_score":0.0,"id":"a67tnlsmkpjj","geo_precision":"unmatched"},"type":"Feature","geometry":null},{"properties":{"postcode":"9078 VP","geo_score":0.0,"id":"a67tnlg9tzl5","geo_precision":"unmatched"},"type":"Feature","geometry":null},{"properties":{"postcode":"8448HB","geo_score":0.0,"id":"a67tnliudnuo","geo_precision":"unmatched"},"type":"Feature","geometry":null},{"properties":{"postcode":"8456 HS","geo_score":0.0,"id":"a67tnlvmc093","geo_precision":"unmatched"},"type":"Feature","geometry":null},{"properties":{"postcode":"9103RA","geo_score":0.0,"id":"a67tnlm4804i","geo_precision":"unmatched"},"type":"Feature","geometry":null},{"properties":{"postcode":"9054 KV","geo_score":0.0,"id":"a67tnlnb3hct","geo_precision":"unmatched"},"type":"Feature","geometry":null},{"properties":{"postcode":"9047 HJ","geo_score":0.0,"id":"a67tnljy1kim","geo_precision":"unmatched"},"type":"Feature","geometry":null},{"properties":{"postcode":"9023 ab","geo_score":0.0,"id":"a67tnlojxjmg","geo_precision":"unmatched"},"type":"Feature","geometry":null},{"properties":{"postcode":"8202 KS","geo_score":0.714,"id":"a67tnlgayw8s","geo_precision":"zip"},"type":"Feature","geometry":{"type":"Point","coordinates":[-74.731427,39.112027]}},{"properties":{"postcode":"9202BD","geo_score":0.0,"id":"a67tnlj1frt0","geo_precision":"unmatched"},"type":"Feature","geometry":null},{"properties":{"postcode":"9202BD","geo_score":0.0,"id":"a67tnlqj1mg3","geo_precision":"unmatched"},"type":"Feature","geometry":null},{"properties":{"postcode":"8841 KG","geo_score":0.0,"id":"a67tnlv2nugb","geo_precision":"unmatched"},"type":"Feature","geometry":null},{"properties":{"postcode":"9047 JV","geo_score":0.0,"id":"a67tnlt61npi","geo_precision":"unmatched"},"type":"Feature","geometry":null},{"properties":{"postcode":"8842 LC","geo_score":0.0,"id":"a67tnlv7tu7e","geo_precision":"unmatched"},"type":"Feature","geometry":null},{"properties":{"postcode":"8855 HT","geo_score":0.714,"id":"a67tnlms5nna","geo_precision":"zip"},"type":"Feature","geometry":{"type":"Point","coordinates":[-74.417344,40.430006]}},{"properties":{"postcode":"8401 WH","geo_score":0.714,"id":"a67tnlnm595r","geo_precision":"zip"},"type":"Feature","geometry":{"type":"Point","coordinates":[-74.643014,39.486848]}},{"properties":{"postcode":"8915ES","geo_score":0.714,"id":"a67tnlp157vl","geo_precision":"zip"},"type":"Feature","geometry":{"type":"Point","coordinates":[-74.451819,40.486216]}},{"properties":{"postcode":"8731 AL","geo_score":0.714,"id":"a67tnlmdw6o4","geo_precision":"zip"},"type":"Feature","geometry":{"type":"Point","coordinates":[-74.170139,39.817064]}},{"properties":{"postcode":"8731BS","geo_score":0.714,"id":"a67tnlu145np","geo_precision":"zip"},"type":"Feature","geometry":{"type":"Point","coordinates":[-74.170139,39.817064]}},{"properties":{"postcode":"9203SN","geo_score":0.0,"id":"a67tnlkrmtrh","geo_precision":"unmatched"},"type":"Feature","geometry":null},{"properties":{"postcode":"9251 RB","geo_score":0.0,"id":"a67tnlqfjzon","geo_precision":"unmatched"},"type":"Feature","geometry":null},{"properties":{"postcode":"9269VW","geo_score":0.0,"id":"a67tnlo89zmz","geo_precision":"unmatched"},"type":"Feature","geometry":null},{"properties":{"postcode":"9076aa","geo_score":0.0,"id":"a67tnlt7qpzv","geo_precision":"unmatched"},"type":"Feature","geometry":null},{"properties":{"postcode":"9003MR","geo_score":0.0,"id":"a67tnlkbf4a9","geo_precision":"unmatched"},"type":"Feature","geometry":null},{"properties":{"postcode":"8931AN","geo_score":0.714,"id":"a67tnlo367g6","geo_precision":"zip"},"type":"Feature","geometry":{"type":"Point","coordinates":[-74.451819,40.486216]}},{"properties":{"postcode":"8391HK","geo_score":0.0,"id":"a67tnlvs28gh","geo_precision":"unmatched"},"type":"Feature","geometry":null},{"properties":{"postcode":"8603 AK","geo_score":0.714,"id":"a67tnlgytei2","geo_precision":"zip"},"type":"Feature","geometry":{"type":"Point","coordinates":[-74.712018,40.280531]}},{"properties":{"postcode":"8531RA","geo_score":0.0,"id":"a67tnlpxjco2","geo_precision":"unmatched"},"type":"Feature","geometry":null},{"properties":{"postcode":"8761 PK","geo_score":0.0,"id":"a67tnlu3ijzs","geo_precision":"unmatched"},"type":"Feature","geometry":null},{"properties":{"postcode":"9035 DL","geo_score":0.0,"id":"a67tnlkoxf6q","geo_precision":"unmatched"},"type":"Feature","geometry":null},{"properties":{"postcode":"8915 DR","geo_score":0.714,"id":"a67tnlhsjxzg","geo_precision":"zip"},"type":"Feature","geometry":{"type":"Point","coordinates":[-74.451819,40.486216]}},{"properties":{"postcode":"8924 EX","geo_score":0.714,"id":"a67tnlqhj5dq","geo_precision":"zip"},"type":"Feature","geometry":{"type":"Point","coordinates":[-74.451819,40.486216]}},{"properties":{"postcode":"8556 AR","geo_score":0.714,"id":"a67tnltadgvs","geo_precision":"zip"},"type":"Feature","geometry":{"type":"Point","coordinates":[-74.988619,40.419965]}},{"properties":{"postcode":"9035 DL","geo_score":0.0,"id":"a67tnllz8a92","geo_precision":"unmatched"},"type":"Feature","geometry":null},{"properties":{"postcode":"8924 EX","geo_score":0.714,"id":"a67tnlw8xfnc","geo_precision":"zip"},"type":"Feature","geometry":{"type":"Point","coordinates":[-74.451819,40.486216]}},{"properties":{"postcode":"8915 DR","geo_score":0.714,"id":"a67tnlwh8fg8","geo_precision":"zip"},"type":"Feature","geometry":{"type":"Point","coordinates":[-74.451819,40.486216]}},{"properties":{"postcode":"9035 DL","geo_score":0.0,"id":"a67tnlvp6lyu","geo_precision":"unmatched"},"type":"Feature","geometry":null},{"properties":{"postcode":"8441 BM","geo_score":0.0,"id":"a67tnlpmqi07","geo_precision":"unmatched"},"type":"Feature","geometry":null},{"properties":{"postcode":"8918GH","geo_score":0.714,"id":"a67tnlmcsp37","geo_precision":"zip"},"type":"Feature","geometry":{"type":"Point","coordinates":[-74.451819,40.486216]}},{"properties":{"postcode":"8855 HN","geo_score":0.714,"id":"a67tnlqtil8j","geo_precision":"zip"},"type":"Feature","geometry":{"type":"Point","coordinates":[-74.417344,40.430006]}},{"properties":{"postcode":"8446 em","geo_score":0.0,"id":"a67tnljzc6bv","geo_precision":"unmatched"},"type":"Feature","geometry":null},{"properties":{"postcode":"8446 em","geo_score":0.0,"id":"a67tnln19w4z","geo_precision":"unmatched"},"type":"Feature","geometry":null},{"properties":{"postcode":"8446 em","geo_score":0.0,"id":"a67tnli3s78y","geo_precision":"unmatched"},"type":"Feature","geometry":null},{"properties":{"postcode":"8932KM","geo_score":0.714,"id":"a67tnlq8txkg","geo_precision":"zip"},"type":"Feature","geometry":{"type":"Point","coordinates":[-74.451819,40.486216]}},{"properties":{"postcode":"8608XN","geo_score":0.714,"id":"a67tnllfc99q","geo_precision":"zip"},"type":"Feature","geometry":{"type":"Point","coordinates":[-74.764055,40.220108]}},{"properties":{"postcode":"8608XN","geo_score":0.714,"id":"a67tnltgz65m","geo_precision":"zip"},"type":"Feature","geometry":{"type":"Point","coordinates":[-74.764055,40.220108]}},{"properties":{"postcode":"8608XN","geo_score":0.714,"id":"a67tnlmqhtq4","geo_precision":"zip"},"type":"Feature","geometry":{"type":"Point","coordinates":[-74.764055,40.220108]}},{"properties":{"postcode":"8608XN","geo_score":0.714,"id":"a67tnlgfeujd","geo_precision":"zip"},"type":"Feature","geometry":{"type":"Point","coordinates":[-74.764055,40.220108]}},{"properties":{"postcode":"8603 VS","geo_score":0.714,"id":"a67tnlm43p33","geo_precision":"zip"},"type":"Feature","geometry":{"type":"Point","coordinates":[-74.712018,40.280531]}},{"properties":{"postcode":"8401EL","geo_score":0.714,"id":"a67tnlivsgww","geo_precision":"zip"},"type":"Feature","geometry":{"type":"Point","coordinates":[-74.643014,39.486848]}},{"properties":{"postcode":"8701GM","geo_score":0.714,"id":"a67tnlrqzx37","geo_precision":"zip"},"type":"Feature","geometry":{"type":"Point","coordinates":[-74.224866,40.138447]}},{"properties":{"postcode":"8701GM","geo_score":0.714,"id":"a67tnlk8w8oi","geo_precision":"zip"},"type":"Feature","geometry":{"type":"Point","coordinates":[-74.224866,40.138447]}},{"properties":{"postcode":"8701GM","geo_score":0.714,"id":"a67tnlm2aez9","geo_precision":"zip"},"type":"Feature","geometry":{"type":"Point","coordinates":[-74.224866,40.138447]}},{"properties":{"postcode":"8701GM","geo_score":0.714,"id":"a67tnlwby0uy","geo_precision":"zip"},"type":"Feature","geometry":{"type":"Point","coordinates":[-74.224866,40.138447]}},{"properties":{"postcode":"9051 PC","geo_score":0.0,"id":"a67tnlprecnt","geo_precision":"unmatched"},"type":"Feature","geometry":null},{"properties":{"postcode":"8931EB","geo_score":0.714,"id":"a67tnlkdrlm5","geo_precision":"zip"},"type":"Feature","geometry":{"type":"Point","coordinates":[-74.451819,40.486216]}},{"properties":{"postcode":"8759LV","geo_score":0.714,"id":"a67tnljto4z9","geo_precision":"zip"},"type":"Feature","geometry":{"type":"Point","coordinates":[-74.389037,39.938173]}},{"properties":{"postcode":"9132 LV","geo_score":0.0,"id":"a67tnlkl1sky","geo_precision":"unmatched"},"type":"Feature","geometry":null},{"properties":{"postcode":"8603DZ","geo_score":0.714,"id":"a67tnlkqw0z3","geo_precision":"zip"},"type":"Feature","geometry":{"type":"Point","coordinates":[-74.712018,40.280531]}},{"properties":{"postcode":"8442 CD","geo_score":0.0,"id":"a67tnlpvuxkc","geo_precision":"unmatched"},"type":"Feature","geometry":null},{"properties":{"postcode":"1212aw","geo_score":0.0,"id":"a67tnlrvtjrc","geo_precision":"unmatched"},"type":"Feature","geometry":null},{"properties":{"postcode":"9103pe","geo_score":0.0,"id":"a67tnlqc6hcw","geo_precision":"unmatched"},"type":"Feature","geometry":null},{"properties":{"postcode":"9045 PS","geo_score":0.0,"id":"a67tnllxm4dv","geo_precision":"unmatched"},"type":"Feature","geometry":null},{"properties":{"postcode":"8862AZ","geo_score":0.714,"id":"a67tnlu5ecqq","geo_precision":"zip"},"type":"Feature","geometry":{"type":"Point","coordinates":[-74.417344,40.430006]}},{"properties":{"postcode":"8531 DL","geo_score":0.0,"id":"a67tnlrxk0xd","geo_precision":"unmatched"},"type":"Feature","geometry":null},{"properties":{"postcode":"8536VG","geo_score":0.714,"id":"a67tnlmhcqbp","geo_precision":"zip"},"type":"Feature","geometry":{"type":"Point","coordinates":[-74.582062,40.342197]}},{"properties":{"postcode":"3572 PJ","geo_score":0.0,"id":"a67tnlsajy08","geo_precision":"unmatched"},"type":"Feature","geometry":null},{"properties":{"postcode":"9356 CK","geo_score":0.0,"id":"a67tnlos08wz","geo_precision":"unmatched"},"type":"Feature","geometry":null},{"properties":{"postcode":"9035GJ","geo_score":0.0,"id":"a67tnlkzjxkc","geo_precision":"unmatched"},"type":"Feature","geometry":null},{"properties":{"postcode":"8614 JJ","geo_score":0.714,"id":"a67tnlpw48br","geo_precision":"zip"},"type":"Feature","geometry":{"type":"Point","coordinates":[-74.742939,40.217053]}},{"properties":{"postcode":"8723 AN","geo_score":0.714,"id":"a67tnlhqiwmc","geo_precision":"zip"},"type":"Feature","geometry":{"type":"Point","coordinates":[-74.073193,40.044283]}},{"properties":{"postcode":"9035 VM","geo_score":0.0,"id":"a67tnlsxvmex","geo_precision":"unmatched"},"type":"Feature","geometry":null},{"properties":{"postcode":"8491 GE","geo_score":0.0,"id":"a67tnlgz0jp6","geo_precision":"unmatched"},"type":"Feature","geometry":null},{"properties":{"postcode":"8862 PJ","geo_score":0.714,"id":"a67tnlkljqzt","geo_precision":"zip"},"type":"Feature","geometry":{"type":"Point","coordinates":[-74.417344,40.430006]}},{"properties":{"postcode":"7761 AK","geo_score":0.0,"id":"a67tnlkb73jc","geo_precision":"unmatched"},"type":"Feature","geometry":null},{"properties":{"postcode":"8608","geo_score":0.714,"id":"a67tnlofhlrb","geo_precision":"zip"},"type":"Feature","geometry":{"type":"Point","coordinates":[-74.764055,40.220108]}},{"properties":{"postcode":"8701 KW","geo_score":0.714,"id":"a67tnlrsv5id","geo_precision":"zip"},"type":"Feature","geometry":{"type":"Point","coordinates":[-74.224866,40.138447]}},{"properties":{"postcode":"8711 ck","geo_score":0.0,"id":"a67tnltwt6dn","geo_precision":"unmatched"},"type":"Feature","geometry":null},{"properties":{"postcode":"9074BP","geo_score":0.0,"id":"a67tnlqo5d4n","geo_precision":"unmatched"},"type":"Feature","geometry":null},{"properties":{"postcode":"8603VS","geo_score":0.714,"id":"a67tnloza6zq","geo_precision":"zip"},"type":"Feature","geometry":{"type":"Point","coordinates":[-74.712018,40.280531]}},{"properties":{"postcode":"8724 HP","geo_score":0.714,"id":"a67tnllxogy4","geo_precision":"zip"},"type":"Feature","geometry":{"type":"Point","coordinates":[-74.17109,39.938047]}},{"properties":{"postcode":"9201 JH","geo_score":0.0,"id":"a67tnlo8savq","geo_precision":"unmatched"},"type":"Feature","geometry":null},{"properties":{"postcode":"8651 BZ","geo_score":0.714,"id":"a67tnlry2vkx","geo_precision":"zip"},"type":"Feature","geometry":{"type":"Point","coordinates":[-74.742939,40.217053]}},{"properties":{"postcode":"8431 DG","geo_score":0.0,"id":"a67tnlpi7bfw","geo_precision":"unmatched"},"type":"Feature","geometry":null},{"properties":{"postcode":"8746 NJ","geo_score":0.0,"id":"a67tnlnkdpw3","geo_precision":"unmatched"},"type":"Feature","geometry":null},{"properties":{"postcode":"8332KJ","geo_score":0.714,"id":"a67tnlo9zy1k","geo_precision":"zip"},"type":"Feature","geometry":{"type":"Point","coordinates":[-75.024899,39.378171]}},{"properties":{"postcode":"8411 vz","geo_score":0.0,"id":"a67tnlvjheew","geo_precision":"unmatched"},"type":"Feature","geometry":null},{"properties":{"postcode":"9135 PN","geo_score":0.0,"id":"a67tnlr1tma5","geo_precision":"unmatched"},"type":"Feature","geometry":null},{"properties":{"postcode":"9296ME","geo_score":0.0,"id":"a67tnlo608it","geo_precision":"unmatched"},"type":"Feature","geometry":null},{"properties":{"postcode":"9298RG","geo_score":0.0,"id":"a67tnlg2ihfn","geo_precision":"unmatched"},"type":"Feature","geometry":null},{"properties":{"postcode":"8939DA","geo_score":0.714,"id":"a67tnlks2e6l","geo_precision":"zip"},"type":"Feature","geometry":{"type":"Point","coordinates":[-74.451819,40.486216]}},{"properties":{"postcode":"8851 ER","geo_score":0.0,"id":"a67tnlodsqfi","geo_precision":"unmatched"},"type":"Feature","geometry":null},{"properties":{"postcode":"9073 LN","geo_score":0.0,"id":"a67tnlv1cl29","geo_precision":"unmatched"},"type":"Feature","geometry":null},{"properties":{"postcode":"8921 LE","geo_score":0.714,"id":"a67tnli6pxml","geo_precision":"zip"},"type":"Feature","geometry":{"type":"Point","coordinates":[-74.451819,40.486216]}},{"properties":{"postcode":"9202 vg","geo_score":0.0,"id":"a67tnlij1l8f","geo_precision":"unmatched"},"type":"Feature","geometry":null},{"properties":{"postcode":"9202 vg","geo_score":0.0,"id":"a67tnlkstneh","geo_precision":"unmatched"},"type":"Feature","geometry":null},{"properties":{"postcode":"8915 GC","geo_score":0.714,"id":"a67tnlpeugxy","geo_precision":"zip"},"type":"Feature","geometry":{"type":"Point","coordinates":[-74.451819,40.486216]}},{"properties":{"postcode":"9101 GJ","geo_score":0.0,"id":"a67tnlgn5zvw","geo_precision":"unmatched"},"type":"Feature","geometry":null},{"properties":{"postcode":"8918HN","geo_score":0.714,"id":"a67tnlvhjc41","geo_precision":"zip"},"type":"Feature","geometry":{"type":"Point","coordinates":[-74.451819,40.486216]}},{"properties":{"postcode":"8722 HR","geo_score":0.714,"id":"a67tnlv8c0vq","geo_precision":"zip"},"type":"Feature","geometry":{"type":"Point","coordinates":[-74.198585,39.927521]}},{"properties":{"postcode":"8932AA","geo_score":0.714,"id":"a67tnlmlaqgy","geo_precision":"zip"},"type":"Feature","geometry":{"type":"Point","coordinates":[-74.451819,40.486216]}},{"properties":{"postcode":"9079KX","geo_score":0.0,"id":"a67tnlnl1t76","geo_precision":"unmatched"},"type":"Feature","geometry":null},{"properties":{"postcode":"8471 rl","geo_score":0.0,"id":"a67tnlvk5njn","geo_precision":"unmatched"},"type":"Feature","geometry":null},{"properties":{"postcode":"9247GN","geo_score":0.0,"id":"a67tnlsjrahs","geo_precision":"unmatched"},"type":"Feature","geometry":null},{"properties":{"postcode":"8911 GH","geo_score":0.714,"id":"a67tnlngp7kj","geo_precision":"zip"},"type":"Feature","geometry":{"type":"Point","coordinates":[-74.451819,40.486216]}},{"properties":{"postcode":"9249 na","geo_score":0.0,"id":"a67tnlkywmaa","geo_precision":"unmatched"},"type":"Feature","geometry":null},{"properties":{"postcode":"9022BJ","geo_score":0.0,"id":"a67tnln44sbo","geo_precision":"unmatched"},"type":"Feature","geometry":null},{"properties":{"postcode":"8939 DR","geo_score":0.714,"id":"a67tnlqalrlg","geo_precision":"zip"},"type":"Feature","geometry":{"type":"Point","coordinates":[-74.451819,40.486216]}},{"properties":{"postcode":"8926 MK","geo_score":0.714,"id":"a67tnlp0ws5x","geo_precision":"zip"},"type":"Feature","geometry":{"type":"Point","coordinates":[-74.451819,40.486216]}},{"properties":{"postcode":"8321 XC","geo_score":0.714,"id":"a67tnlrdbyg4","geo_precision":"zip"},"type":"Feature","geometry":{"type":"Point","coordinates":[-75.19137,39.273034]}},{"properties":{"postcode":"8321 HR","geo_score":0.714,"id":"a67tnlp2btds","geo_precision":"zip"},"type":"Feature","geometry":{"type":"Point","coordinates":[-75.19137,39.273034]}},{"properties":{"postcode":"8321 DZ","geo_score":0.714,"id":"a67tnli34ljg","geo_precision":"zip"},"type":"Feature","geometry":{"type":"Point","coordinates":[-75.19137,39.273034]}},{"properties":{"postcode":"8453 WJ","geo_score":0.0,"id":"a67tnltpmzjp","geo_precision":"unmatched"},"type":"Feature","geometry":null},{"properties":{"postcode":"9201BK","geo_score":0.0,"id":"a67tnlsv40im","geo_precision":"unmatched"},"type":"Feature","geometry":null},{"properties":{"postcode":"8491 AH","geo_score":0.0,"id":"a67tnlvqn5xh","geo_precision":"unmatched"},"type":"Feature","geometry":null},{"properties":{"postcode":"9354 AX","geo_score":0.0,"id":"a67tnlr8gbrp","geo_precision":"unmatched"},"type":"Feature","geometry":null},{"properties":{"postcode":"8421SE","geo_score":0.0,"id":"a67tnlj59ax2","geo_precision":"unmatched"},"type":"Feature","geometry":null},{"properties":{"postcode":"9284SJ","geo_score":0.0,"id":"a67tnlooydof","geo_precision":"unmatched"},"type":"Feature","geometry":null},{"properties":{"postcode":"8918 GH","geo_score":0.714,"id":"a67tnlg80uu1","geo_precision":"zip"},"type":"Feature","geometry":{"type":"Point","coordinates":[-74.451819,40.486216]}},{"properties":{"postcode":"27","geo_score":0.0,"id":"a67tnlv69ylw","geo_precision":"unmatched"},"type":"Feature","geometry":null},{"properties":{"postcode":"27","geo_score":0.0,"id":"a67tnlh3f6og","geo_precision":"unmatched"},"type":"Feature","geometry":null},{"properties":{"postcode":"27","geo_score":0.0,"id":"a67tnllm5k0j","geo_precision":"unmatched"},"type":"Feature","geometry":null},{"properties":{"postcode":"27","geo_score":0.0,"id":"a67tnlsa3sbd","geo_precision":"unmatched"},"type":"Feature","geometry":null},{"properties":{"postcode":"9041AD","geo_score":0.0,"id":"a67tnlkdvqww","geo_precision":"unmatched"},"type":"Feature","geometry":null},{"properties":{"postcode":"9203 SN","geo_score":0.0,"id":"a67tnluz5pvu","geo_precision":"unmatched"},"type":"Feature","geometry":null},{"properties":{"postcode":"8448 SB","geo_score":0.0,"id":"a67tnllus5cq","geo_precision":"unmatched"},"type":"Feature","geometry":null},{"properties":{"postcode":"8925DA","geo_score":0.714,"id":"a67tnlrggtc8","geo_precision":"zip"},"type":"Feature","geometry":{"type":"Point","coordinates":[-74.451819,40.486216]}},{"properties":{"postcode":"8442JD","geo_score":0.0,"id":"a67tnlm473x5","geo_precision":"unmatched"},"type":"Feature","geometry":null},{"properties":{"postcode":"9101 WJ","geo_score":0.0,"id":"a67tnln5qvpg","geo_precision":"unmatched"},"type":"Feature","geometry":null},{"properties":{"postcode":"9201AG","geo_score":0.0,"id":"a67tnltkl4gr","geo_precision":"unmatched"},"type":"Feature","geometry":null},{"properties":{"postcode":"8922hc","geo_score":0.714,"id":"a67tnllsy4pq","geo_precision":"zip"},"type":"Feature","geometry":{"type":"Point","coordinates":[-74.417344,40.430006]}},{"properties":{"postcode":"8574SK","geo_score":0.0,"id":"a67tnlnmw2gb","geo_precision":"unmatched"},"type":"Feature","geometry":null},{"properties":{"postcode":"8406 AM","geo_score":0.714,"id":"a67tnlpocwvb","geo_precision":"zip"},"type":"Feature","geometry":{"type":"Point","coordinates":[-74.484596,39.349561]}},{"properties":{"postcode":"9218PX","geo_score":0.0,"id":"a67tnlukzdiz","geo_precision":"unmatched"},"type":"Feature","geometry":null},{"properties":{"postcode":"8891 GS","geo_score":0.0,"id":"a67tnlss2tqc","geo_precision":"unmatched"},"type":"Feature","geometry":null},{"properties":{"postcode":"8658lh","geo_score":0.714,"id":"a67tnll0k5g3","geo_precision":"zip"},"type":"Feature","geometry":{"type":"Point","coordinates":[-74.742939,40.217053]}},{"properties":{"postcode":"9203SN","geo_score":0.0,"id":"a67tnlvs1dwl","geo_precision":"unmatched"},"type":"Feature","geometry":null},{"properties":{"postcode":"8453 WJ","geo_score":0.0,"id":"a67tnlruwb0u","geo_precision":"unmatched"},"type":"Feature","geometry":null},{"properties":{"postcode":"9076pp","geo_score":0.0,"id":"a67tnlvqubas","geo_precision":"unmatched"},"type":"Feature","geometry":null},{"properties":{"postcode":"8744 EV","geo_score":0.0,"id":"a67tnlge36yz","geo_precision":"unmatched"},"type":"Feature","geometry":null},{"properties":{"postcode":"8651 NA","geo_score":0.714,"id":"a67tnljq49vn","geo_precision":"zip"},"type":"Feature","geometry":{"type":"Point","coordinates":[-74.742939,40.217053]}},{"properties":{"postcode":"9078 VP","geo_score":0.0,"id":"a67tnlonp1ze","geo_precision":"unmatched"},"type":"Feature","geometry":null},{"properties":{"postcode":"7412VP","geo_score":0.0,"id":"a67tnltbyao8","geo_precision":"unmatched"},"type":"Feature","geometry":null},{"properties":{"postcode":"8302 LL","geo_score":0.714,"id":"a67tnlgqv45i","geo_precision":"zip"},"type":"Feature","geometry":{"type":"Point","coordinates":[-75.18574,39.468726]}},{"properties":{"postcode":"8939 BG","geo_score":0.714,"id":"a67tnlgqf9qa","geo_precision":"zip"},"type":"Feature","geometry":{"type":"Point","coordinates":[-74.451819,40.486216]}},{"properties":{"postcode":"8842kx","geo_score":0.0,"id":"a67tnluet3o6","geo_precision":"unmatched"},"type":"Feature","geometry":null},{"properties":{"postcode":"9051 HE","geo_score":0.0,"id":"a67tnlm77t9f","geo_precision":"unmatched"},"type":"Feature","geometry":null},{"properties":{"postcode":"9281 RK","geo_score":0.0,"id":"a67tnlg8ga9w","geo_precision":"unmatched"},"type":"Feature","geometry":null},{"properties":{"postcode":"8415AA","geo_score":0.0,"id":"a67tnlvm3vl6","geo_precision":"unmatched"},"type":"Feature","geometry":null},{"properties":{"postcode":"9422BN","geo_score":0.0,"id":"a67tnlo5pj57","geo_precision":"unmatched"},"type":"Feature","geometry":null},{"properties":{"postcode":"8448PT","geo_score":0.0,"id":"a67tnlqf4h4n","geo_precision":"unmatched"},"type":"Feature","geometry":null},{"properties":{"postcode":"8391kb","geo_score":0.0,"id":"a67tnlpnst0h","geo_precision":"unmatched"},"type":"Feature","geometry":null},{"properties":{"postcode":"8453 WJ","geo_score":0.0,"id":"a67tnlt6dld2","geo_precision":"unmatched"},"type":"Feature","geometry":null},{"properties":{"postcode":"8802TG","geo_score":0.714,"id":"a67tnlpewqu0","geo_precision":"zip"},"type":"Feature","geometry":{"type":"Point","coordinates":[-75.033227,40.662323]}},{"properties":{"postcode":"9045 PS","geo_score":0.0,"id":"a67tnlt0qem1","geo_precision":"unmatched"},"type":"Feature","geometry":null},{"properties":{"postcode":"9047jn","geo_score":0.0,"id":"a67tnlg6roqc","geo_precision":"unmatched"},"type":"Feature","geometry":null},{"properties":{"postcode":"8302 LL","geo_score":0.714,"id":"a67tnlrb54vc","geo_precision":"zip"},"type":"Feature","geometry":{"type":"Point","coordinates":[-75.18574,39.468726]}},{"properties":{"postcode":"8801PE","geo_score":0.714,"id":"a67tnlhd3bjo","geo_precision":"zip"},"type":"Feature","geometry":{"type":"Point","coordinates":[-74.879611,40.581769]}},{"properties":{"postcode":"8301BB","geo_score":0.0,"id":"a67tnlrhj5zp","geo_precision":"unmatched"},"type":"Feature","geometry":null},{"properties":{"postcode":"9254BJ","geo_score":0.0,"id":"a67tnls21msc","geo_precision":"unmatched"},"type":"Feature","geometry":null},{"properties":{"postcode":"8823 SL","geo_score":0.714,"id":"a67tnlpapxqv","geo_precision":"zip"},"type":"Feature","geometry":{"type":"Point","coordinates":[-74.560249,40.440604]}},{"properties":{"postcode":"8602BM","geo_score":0.714,"id":"a67tnllzerj1","geo_precision":"zip"},"type":"Feature","geometry":{"type":"Point","coordinates":[-74.712018,40.280531]}},{"properties":{"postcode":"8602BM","geo_score":0.714,"id":"a67tnlnzffhh","geo_precision":"zip"},"type":"Feature","geometry":{"type":"Point","coordinates":[-74.712018,40.280531]}},{"properties":{"postcode":"8602BM","geo_score":0.714,"id":"a67tnlsrwp5l","geo_precision":"zip"},"type":"Feature","geometry":{"type":"Point","coordinates":[-74.712018,40.280531]}},{"properties":{"postcode":"8651 NA","geo_score":0.714,"id":"a67tnltrdm9p","geo_precision":"zip"},"type":"Feature","geometry":{"type":"Point","coordinates":[-74.742939,40.217053]}},{"properties":{"postcode":"8651 NA","geo_score":0.714,"id":"a67tnlqfe7fx","geo_precision":"zip"},"type":"Feature","geometry":{"type":"Point","coordinates":[-74.742939,40.217053]}},{"properties":{"postcode":"8651 NA","geo_score":0.714,"id":"a67tnluh2fcj","geo_precision":"zip"},"type":"Feature","geometry":{"type":"Point","coordinates":[-74.742939,40.217053]}},{"properties":{"postcode":"8651 NA","geo_score":0.714,"id":"a67tnlr0s1sl","geo_precision":"zip"},"type":"Feature","geometry":{"type":"Point","coordinates":[-74.742939,40.217053]}},{"properties":{"postcode":"9051 AX","geo_score":0.0,"id":"a67tnln1qylx","geo_precision":"unmatched"},"type":"Feature","geometry":null},{"properties":{"postcode":"8394TA","geo_score":0.0,"id":"a67tnlhu46ev","geo_precision":"unmatched"},"type":"Feature","geometry":null},{"properties":{"postcode":"8915ES","geo_score":0.714,"id":"a67tnlo14g0d","geo_precision":"zip"},"type":"Feature","geometry":{"type":"Point","coordinates":[-74.451819,40.486216]}},{"properties":{"postcode":"9051 SB","geo_score":0.0,"id":"a67tnlvidjuw","geo_precision":"unmatched"},"type":"Feature","geometry":null},{"properties":{"postcode":"9051 SB","geo_score":0.0,"id":"a67tnlwhdk0b","geo_precision":"unmatched"},"type":"Feature","geometry":null},{"properties":{"postcode":"8531 DL","geo_score":0.0,"id":"a67tnlrgryds","geo_precision":"unmatched"},"type":"Feature","geometry":null},{"properties":{"postcode":"9079 kx","geo_score":0.0,"id":"a67tnlsxxw1i","geo_precision":"unmatched"},"type":"Feature","geometry":null},{"properties":{"postcode":"3421 XB","geo_score":0.0,"id":"a67tnlpwi5u5","geo_precision":"unmatched"},"type":"Feature","geometry":null},{"properties":{"postcode":"9076EE","geo_score":0.0,"id":"a67tnlgy0cxt","geo_precision":"unmatched"},"type":"Feature","geometry":null},{"properties":{"postcode":"7271 HB","geo_score":0.714,"id":"a67tnlvd1vp7","geo_precision":"zip"},"type":"Feature","geometry":{"type":"Point","coordinates":[-74.210701,40.663992]}},{"properties":{"postcode":"8411 KG","geo_score":0.0,"id":"a67tnlsd6zij","geo_precision":"unmatched"},"type":"Feature","geometry":null},{"properties":{"postcode":"8411 KG","geo_score":0.0,"id":"a67tnlucdzuy","geo_precision":"unmatched"},"type":"Feature","geometry":null},{"properties":{"postcode":"8711GT","geo_score":0.0,"id":"a67tnltkttz8","geo_precision":"unmatched"},"type":"Feature","geometry":null},{"properties":{"postcode":"8711 HC","geo_score":0.0,"id":"a67tnlvl6z4c","geo_precision":"unmatched"},"type":"Feature","geometry":null},{"properties":{"postcode":"9222lx","geo_score":0.0,"id":"a67tnlnvp44m","geo_precision":"unmatched"},"type":"Feature","geometry":null},{"properties":{"postcode":"8375 BJ","geo_score":0.0,"id":"a67tnli341y6","geo_precision":"unmatched"},"type":"Feature","geometry":null},{"properties":{"postcode":"9263TM","geo_score":0.0,"id":"a67tnlt5t4og","geo_precision":"unmatched"},"type":"Feature","geometry":null},{"properties":{"postcode":"8401EE","geo_score":0.714,"id":"a67tnliwgxb0","geo_precision":"zip"},"type":"Feature","geometry":{"type":"Point","coordinates":[-74.643014,39.486848]}},{"properties":{"postcode":"1272 AE","geo_score":0.0,"id":"a67tnlip54vq","geo_precision":"unmatched"},"type":"Feature","geometry":null},{"properties":{"postcode":"9011 XK","geo_score":0.0,"id":"a67tnlgu1w8t","geo_precision":"unmatched"},"type":"Feature","geometry":null},{"properties":{"postcode":"8802 NL","geo_score":0.714,"id":"a67tnlgcu05u","geo_precision":"zip"},"type":"Feature","geometry":{"type":"Point","coordinates":[-75.033227,40.662323]}},{"properties":{"postcode":"9079MD","geo_score":0.0,"id":"a67tnlhvef7k","geo_precision":"unmatched"},"type":"Feature","geometry":null},{"properties":{"postcode":"9079MD","geo_score":0.0,"id":"a67tnlnjjbzf","geo_precision":"unmatched"},"type":"Feature","geometry":null},{"properties":{"postcode":"8351 ck","geo_score":0.0,"id":"a67tnlw2r8qg","geo_precision":"unmatched"},"type":"Feature","geometry":null}],"is_temporal":false,"author":{"url":"","metadata":"","contact_name":"","contact_address":"","source":"","contact_phone":""},"source":"","pagination":{"sort":null,"start":0,"total":573,"limit":1000000},"state":"complete","tags":"","published":"2014-08-14T21:34:00-04:00","id":234892}