{"type":"FeatureCollection","data_type":"Dataset","url_type":null,"permissions":[{"permissions":{"download":true,"view":true},"group_id":"everyone"}],"classification":null,"title":"GEO_221_MI_Cancer_Center","count":5,"stream_id":236173,"contributor":{"url":"http://geocommons.com/users/43423","name":"woodcoc8"},"data_attributes":null,"calculation_params":null,"icon_link":null,"link":"http://geocommons.com/overlays/236173.json","extent":[-85.5634,41.678,-83.058,43.6096],"geometry_types":["point"],"unique_name":null,"name":"GEO_221_MI_Cancer_Center","feature_count":5,"description":"","next_feature":null,"is_raster":false,"short_classification":"Y","stats":{},"features":[{"properties":{"city":"Detroit","zip":"48201","name of center":"Komen Detroit Race for the Cure","geo_score":0.916,"id":"a633rr8xfs9r","geo_precision":"range","phone number":"800-527-6266","address":"4100 John R","state":"MI"},"type":"Feature","geometry":{"type":"Point","coordinates":[-83.057999,42.351444]}},{"properties":{"city":"East Lansing","zip":"48826","name of center":"Mid-Michigan Affiliate","geo_score":0.286,"id":"a633rr4d0dua","geo_precision":"street","phone number":"517-886-4901","address":"P.O. Box 4368","state":"MI"},"type":"Feature","geometry":{"type":"Point","coordinates":[-84.79907,43.609646]}},{"properties":{"city":"Toledo","zip":"43606","name of center":"Northwest Ohio Affiliate","geo_score":0.481,"id":"a633rr2qsk5w","geo_precision":"street","phone number":"419-724-2873","address":"3100 W. Central Ave","state":"OH"},"type":"Feature","geometry":{"type":"Point","coordinates":[-83.57394,41.678028]}},{"properties":{"city":"Kalamazoo","zip":"49003","name of center":"Southwest Michigan Affiliate","geo_score":0.393,"id":"a633rr53ckg4","geo_precision":"street","phone number":"877-566-3679","address":"P.O. Box 2031","state":"MI"},"type":"Feature","geometry":{"type":"Point","coordinates":[-85.240226,42.362579]}},{"properties":{"city":"Grand Rapids","zip":"49546","name of center":"West Michigan Affiliate","geo_score":0.941,"id":"a633rrfxoz22","geo_precision":"range","phone number":"616-752-8262","address":"710 Kenmoor SE","state":"MI"},"type":"Feature","geometry":{"type":"Point","coordinates":[-85.56343,42.948617]}}],"is_temporal":false,"author":{"url":"","metadata":null,"contact_name":null,"contact_address":null,"source":null,"contact_phone":null},"source":"","pagination":{"sort":null,"start":0,"total":5,"limit":1000000},"state":"complete","tags":"","published":"2014-08-14T23:45:22-04:00","id":236173}