{"type":"FeatureCollection","data_type":"Dataset","url_type":null,"permissions":[{"permissions":{"download":true,"view":true},"group_id":"everyone"}],"classification":null,"title":"Lab_6_dataset_population_change","count":83,"stream_id":236344,"contributor":{"url":"http://geocommons.com/users/44764","name":"smalley9"},"data_attributes":null,"calculation_params":null,"icon_link":null,"link":"http://geocommons.com/overlays/236344.json","extent":[0.0,0.0,0.0,0.0],"geometry_types":null,"unique_name":null,"name":"Lab_6_dataset_population_change","feature_count":83,"description":"","next_feature":null,"is_raster":false,"short_classification":"Y","features":[{"properties":{"county":"Alcona","unemployment 2007":"10.3%","population 2007":"357","unemployment 2009":"10.1%","population 2009":"318","id":"a86pc3j1p643"},"type":"Feature","geometry":null},{"properties":{"county":"Alger","unemployment 2007":"7.5%","population 2007":"544","unemployment 2009":"8.3%","population 2009":"423","id":"a86pc3qgqkop"},"type":"Feature","geometry":null},{"properties":{"county":"Allegan","unemployment 2007":"6.2%","population 2007":"6,792","unemployment 2009":"6.3%","population 2009":"6,367","id":"a86pc3lgqv9y"},"type":"Feature","geometry":null},{"properties":{"county":"Alpena","unemployment 2007":"7.5%","population 2007":"1,446","unemployment 2009":"8.3%","population 2009":"1,215","id":"a86pc3dzgik4"},"type":"Feature","geometry":null},{"properties":{"county":"Antrim","unemployment 2007":"7.7%","population 2007":"1,103","unemployment 2009":"7.9%","population 2009":"993","id":"a86pc3l2vw7u"},"type":"Feature","geometry":null},{"properties":{"county":"Arenac","unemployment 2007":"9.3%","population 2007":"846","unemployment 2009":"9.8%","population 2009":"739","id":"a86pc3eiulf1"},"type":"Feature","geometry":null},{"properties":{"county":"Baraga","unemployment 2007":"11.1%","population 2007":"559","unemployment 2009":"12.4%","population 2009":"435","id":"a86pc3c60hjv"},"type":"Feature","geometry":null},{"properties":{"county":"Barry","unemployment 2007":"5.1%","population 2007":"3,557","unemployment 2009":"5.3%","population 2009":"3,184","id":"a86pc3n4u4bh"},"type":"Feature","geometry":null},{"properties":{"county":"Bay","unemployment 2007":"7.0%","population 2007":"6,247","unemployment 2009":"6.7%","population 2009":"5,912","id":"a86pc3qiwin7"},"type":"Feature","geometry":null},{"properties":{"county":"Benzie","unemployment 2007":"7.8%","population 2007":"967","unemployment 2009":"7.8%","population 2009":"802","id":"a86pc3bz0hrq"},"type":"Feature","geometry":null},{"properties":{"county":"Berrien","unemployment 2007":"6.8%","population 2007":"8,934","unemployment 2009":"6.8%","population 2009":"8,132","id":"a86pc3mf3l26"},"type":"Feature","geometry":null},{"properties":{"county":"Branch","unemployment 2007":"7.0%","population 2007":"3,135","unemployment 2009":"7.3%","population 2009":"2,678","id":"a86pc3gtp1yx"},"type":"Feature","geometry":null},{"properties":{"county":"Calhoun","unemployment 2007":"6.6%","population 2007":"8,481","unemployment 2009":"6.9%","population 2009":"7,874","id":"a86pc3ldt63z"},"type":"Feature","geometry":null},{"properties":{"county":"Cass","unemployment 2007":"5.0%","population 2007":"2,798","unemployment 2009":"5.6%","population 2009":"2,447","id":"a86pc3cb79hw"},"type":"Feature","geometry":null},{"properties":{"county":"Charlevoix","unemployment 2007":"7.4%","population 2007":"1,276","unemployment 2009":"8.6%","population 2009":"1,187","id":"a86pc3lic7u4"},"type":"Feature","geometry":null},{"properties":{"county":"Cheboygan","unemployment 2007":"9.0%","population 2007":"1,420","unemployment 2009":"10.1%","population 2009":"1,077","id":"a86pc3fg1ylp"},"type":"Feature","geometry":null},{"properties":{"county":"Chippewa","unemployment 2007":"8.5%","population 2007":"2,714","unemployment 2009":"8.6%","population 2009":"3,178","id":"a86pc3pb1a7p"},"type":"Feature","geometry":null},{"properties":{"county":"Clare","unemployment 2007":"9.6%","population 2007":"1,572","unemployment 2009":"10.6%","population 2009":"1,365","id":"a86pc3cotf9b"},"type":"Feature","geometry":null},{"properties":{"county":"Clinton","unemployment 2007":"5.3%","population 2007":"3,821","unemployment 2009":"5.4%","population 2009":"3,420","id":"a86pc3gap4ki"},"type":"Feature","geometry":null},{"properties":{"county":"Crawford","unemployment 2007":"7.1%","population 2007":"769","unemployment 2009":"7.9%","population 2009":"629","id":"a86pc3kz3b3a"},"type":"Feature","geometry":null},{"properties":{"county":"Delta","unemployment 2007":"7.2%","population 2007":"1,801","unemployment 2009":"7.6%","population 2009":"1,626","id":"a86pc3plbdaf"},"type":"Feature","geometry":null},{"properties":{"county":"Dickinson","unemployment 2007":"5.7%","population 2007":"1,315","unemployment 2009":"6.0%","population 2009":"932","id":"a86pc3ckbn3a"},"type":"Feature","geometry":null},{"properties":{"county":"Eaton","unemployment 2007":"5.5%","population 2007":"6,319","unemployment 2009":"5.2%","population 2009":"6,200","id":"a86pc3i2yhbk"},"type":"Feature","geometry":null},{"properties":{"county":"Emmet","unemployment 2007":"7.9%","population 2007":"1,860","unemployment 2009":"9.0%","population 2009":"1,644","id":"a86pc3mvcnb4"},"type":"Feature","geometry":null},{"properties":{"county":"Genesee","unemployment 2007":"7.8%","population 2007":"28,755","unemployment 2009":"8.3%","population 2009":"26,005","id":"a86pc3j95at3"},"type":"Feature","geometry":null},{"properties":{"county":"Gladwin","unemployment 2007":"10.2%","population 2007":"1,223","unemployment 2009":"10.1%","population 2009":"1,132","id":"a86pc3ow7aaj"},"type":"Feature","geometry":null},{"properties":{"county":"Gogebic","unemployment 2007":"7.8%","population 2007":"893","unemployment 2009":"7.7%","population 2009":"794","id":"a86pc3jkeihf"},"type":"Feature","geometry":null},{"properties":{"county":"Grand Traverse","unemployment 2007":"5.9%","population 2007":"5,088","unemployment 2009":"6.5%","population 2009":"4,858","id":"a86pc3g3363f"},"type":"Feature","geometry":null},{"properties":{"county":"Gratiot","unemployment 2007":"8.2%","population 2007":"2,734","unemployment 2009":"8.5%","population 2009":"2,917","id":"a86pc3lzjc3y"},"type":"Feature","geometry":null},{"properties":{"county":"Hillsdale","unemployment 2007":"7.6%","population 2007":"2,605","unemployment 2009":"8.6%","population 2009":"2,565","id":"a86pc3l3bbpf"},"type":"Feature","geometry":null},{"properties":{"county":"Houghton","unemployment 2007":"6.5%","population 2007":"1,707","unemployment 2009":"7.1%","population 2009":"986","id":"a86pc3jshii2"},"type":"Feature","geometry":null},{"properties":{"county":"Huron","unemployment 2007":"7.6%","population 2007":"1,565","unemployment 2009":"7.9%","population 2009":"1,122","id":"a86pc3jwhgxq"},"type":"Feature","geometry":null},{"properties":{"county":"Ingham","unemployment 2007":"6.3%","population 2007":"17,971","unemployment 2009":"6.1%","population 2009":"11,430","id":"a86pc3owhaue"},"type":"Feature","geometry":null},{"properties":{"county":"Ionia","unemployment 2007":"7.2%","population 2007":"4,329","unemployment 2009":"7.3%","population 2009":"3,927","id":"a86pc3k7m9kh"},"type":"Feature","geometry":null},{"properties":{"county":"Iosco","unemployment 2007":"9.1%","population 2007":"1,051","unemployment 2009":"9.8%","population 2009":"876","id":"a86pc3mkfhsb"},"type":"Feature","geometry":null},{"properties":{"county":"Iron","unemployment 2007":"7.4%","population 2007":"493","unemployment 2009":"7.3%","population 2009":"425","id":"a86pc3cgktlx"},"type":"Feature","geometry":null},{"properties":{"county":"Isabella","unemployment 2007":"4.9%","population 2007":"3,340","unemployment 2009":"5.1%","population 2009":"2,082","id":"a86pc3mcfdgk"},"type":"Feature","geometry":null},{"properties":{"county":"Jackson","unemployment 2007":"6.8%","population 2007":"10,665","unemployment 2009":"7.6%","population 2009":"9,556","id":"a86pc3plz0wn"},"type":"Feature","geometry":null},{"properties":{"county":"Kalamazoo","unemployment 2007":"5.2%","population 2007":"15,007","unemployment 2009":"5.2%","population 2009":"10,836","id":"a86pc3hb4zow"},"type":"Feature","geometry":null},{"properties":{"county":"Kalkaska","unemployment 2007":"7.5%","population 2007":"992","unemployment 2009":"7.9%","population 2009":"938","id":"a86pc3i43aqg"},"type":"Feature","geometry":null},{"properties":{"county":"Kent","unemployment 2007":"5.8%","population 2007":"40,265","unemployment 2009":"5.8%","population 2009":"44,980","id":"a86pc3chr692"},"type":"Feature","geometry":null},{"properties":{"county":"Keweenaw","unemployment 2007":"10.6%","population 2007":"99","unemployment 2009":"10.7%","population 2009":"108","id":"a86pc3d2dfk5"},"type":"Feature","geometry":null},{"properties":{"county":"Lake","unemployment 2007":"10.3%","population 2007":"486","unemployment 2009":"10.7%","population 2009":"445","id":"a86pc3fjo0pb"},"type":"Feature","geometry":null},{"properties":{"county":"Lapeer","unemployment 2007":"7.8%","population 2007":"5,603","unemployment 2009":"8.5%","population 2009":"4,330","id":"a86pc3e3jruq"},"type":"Feature","geometry":null},{"properties":{"county":"Leelanau","unemployment 2007":"5.1%","population 2007":"895","unemployment 2009":"5.3%","population 2009":"713","id":"a86pc3i5i2ah"},"type":"Feature","geometry":null},{"properties":{"county":"Lenawee","unemployment 2007":"7.0%","population 2007":"6,522","unemployment 2009":"7.8%","population 2009":"5,686","id":"a86pc3bbimzt"},"type":"Feature","geometry":null},{"properties":{"county":"Livingston","unemployment 2007":"5.4%","population 2007":"10,917","unemployment 2009":"5.7%","population 2009":"8,719","id":"a86pc3mwqbr2"},"type":"Feature","geometry":null},{"properties":{"county":"Luce","unemployment 2007":"7.6%","population 2007":"481","unemployment 2009":"8.9%","population 2009":"407","id":"a86pc3jl1uyy"},"type":"Feature","geometry":null},{"properties":{"county":"Mackinac","unemployment 2007":"10.1%","population 2007":"583","unemployment 2009":"9.9%","population 2009":"388","id":"a86pc3b8nsfb"},"type":"Feature","geometry":null},{"properties":{"county":"Macomb","unemployment 2007":"6.9%","population 2007":"57,920","unemployment 2009":"7.6%","population 2009":"55,163","id":"a86pc3k9zl7w"},"type":"Feature","geometry":null},{"properties":{"county":"Manistee","unemployment 2007":"7.9%","population 2007":"1,255","unemployment 2009":"8.3%","population 2009":"1,058","id":"a86pc3mrocn0"},"type":"Feature","geometry":null},{"properties":{"county":"Marquette","unemployment 2007":"5.8%","population 2007":"3,465","unemployment 2009":"6.1%","population 2009":"2,443","id":"a86pc3kvwowt"},"type":"Feature","geometry":null},{"properties":{"county":"Mason","unemployment 2007":"7.8%","population 2007":"1,449","unemployment 2009":"7.7%","population 2009":"1,233","id":"a86pc3ol7x9t"},"type":"Feature","geometry":null},{"properties":{"county":"Mecosta","unemployment 2007":"7.3%","population 2007":"2,068","unemployment 2009":"7.4%","population 2009":"1,441","id":"a86pc3gq0gam"},"type":"Feature","geometry":null},{"properties":{"county":"Menominee","unemployment 2007":"5.3%","population 2007":"1,120","unemployment 2009":"5.7%","population 2009":"1,075","id":"a86pc3miiu96"},"type":"Feature","geometry":null},{"properties":{"county":"Midland","unemployment 2007":"5.8%","population 2007":"4,694","unemployment 2009":"5.5%","population 2009":"4,387","id":"a86pc3eoim50"},"type":"Feature","geometry":null},{"properties":{"county":"Missaukee","unemployment 2007":"7.4%","population 2007":"793","unemployment 2009":"8.4%","population 2009":"690","id":"a86pc3esv6fk"},"type":"Feature","geometry":null},{"properties":{"county":"Monroe","unemployment 2007":"6.1%","population 2007":"9,344","unemployment 2009":"6.7%","population 2009":"8,684","id":"a86pc3m6zjoa"},"type":"Feature","geometry":null},{"properties":{"county":"Montcalm","unemployment 2007":"8.6%","population 2007":"4,099","unemployment 2009":"11.4%","population 2009":"4,155","id":"a86pc3h3svpo"},"type":"Feature","geometry":null},{"properties":{"county":"Montmorency","unemployment 2007":"12.0%","population 2007":"377","unemployment 2009":"13.0%","population 2009":"331","id":"a86pc3gfka7l"},"type":"Feature","geometry":null},{"properties":{"county":"Muskegon","unemployment 2007":"6.9%","population 2007":"10,671","unemployment 2009":"7.1%","population 2009":"11,039","id":"a86pc3n60452"},"type":"Feature","geometry":null},{"properties":{"county":"Newaygo","unemployment 2007":"7.4%","population 2007":"2,669","unemployment 2009":"7.7%","population 2009":"2,519","id":"a86pc3gw1c2z"},"type":"Feature","geometry":null},{"properties":{"county":"Oakland","unemployment 2007":"5.7%","population 2007":"81,274","unemployment 2009":"6.2%","population 2009":"72,169","id":"a86pc3fsirr3"},"type":"Feature","geometry":null},{"properties":{"county":"Oceana","unemployment 2007":"8.1%","population 2007":"1,407","unemployment 2009":"8.3%","population 2009":"1,298","id":"a86pc3i500ri"},"type":"Feature","geometry":null},{"properties":{"county":"Ogemaw","unemployment 2007":"7.6%","population 2007":"1,031","unemployment 2009":"8.4%","population 2009":"952","id":"a86pc3e1wezy"},"type":"Feature","geometry":null},{"properties":{"county":"Ontonagon","unemployment 2007":"7.3%","population 2007":"309","unemployment 2009":"8.3%","population 2009":"195","id":"a86pc3pplizy"},"type":"Feature","geometry":null},{"properties":{"county":"Osceola","unemployment 2007":"7.6%","population 2007":"1,233","unemployment 2009":"7.8%","population 2009":"1,084","id":"a86pc3qtq3b1"},"type":"Feature","geometry":null},{"properties":{"county":"Oscoda","unemployment 2007":"10.5%","population 2007":"333","unemployment 2009":"10.1%","population 2009":"286","id":"a86pc3qp00is"},"type":"Feature","geometry":null},{"properties":{"county":"Otsego","unemployment 2007":"7.0%","population 2007":"1,354","unemployment 2009":"9.1%","population 2009":"1,063","id":"a86pc3h5ggzb"},"type":"Feature","geometry":null},{"properties":{"county":"Ottawa","unemployment 2007":"5.2%","population 2007":"15,815","unemployment 2009":"5.6%","population 2009":"18,003","id":"a86pc3kf6ze1"},"type":"Feature","geometry":null},{"properties":{"county":"Presque Isle","unemployment 2007":"11.2%","population 2007":"573","unemployment 2009":"12.5%","population 2009":"426","id":"a86pc3lp7kw6"},"type":"Feature","geometry":null},{"properties":{"county":"Roscommon","unemployment 2007":"8.4%","population 2007":"1,023","unemployment 2009":"9.6%","population 2009":"769","id":"a86pc3og4b8d"},"type":"Feature","geometry":null},{"properties":{"county":"Saginaw","unemployment 2007":"7.9%","population 2007":"11,963","unemployment 2009":"7.1%","population 2009":"10,986","id":"a86pc3hdk261"},"type":"Feature","geometry":null},{"properties":{"county":"Saint Clair","unemployment 2007":"8.0%","population 2007":"10,120","unemployment 2009":"9.1%","population 2009":"8,821","id":"a86pc3ctdf6a"},"type":"Feature","geometry":null},{"properties":{"county":"Saint Joseph","unemployment 2007":"6.4%","population 2007":"3,751","unemployment 2009":"6.3%","population 2009":"3,577","id":"a86pc3h6nv4f"},"type":"Feature","geometry":null},{"properties":{"county":"Sanilac","unemployment 2007":"8.1%","population 2007":"2,336","unemployment 2009":"8.9%","population 2009":"2,008","id":"a86pc3ihlodo"},"type":"Feature","geometry":null},{"properties":{"county":"Schoolcraft","unemployment 2007":"10.6%","population 2007":"456","unemployment 2009":"10.7%","population 2009":"325","id":"a86pc3f49n2u"},"type":"Feature","geometry":null},{"properties":{"county":"Shiawassee","unemployment 2007":"7.9%","population 2007":"4,275","unemployment 2009":"8.1%","population 2009":"4,008","id":"a86pc3bv1022"},"type":"Feature","geometry":null},{"properties":{"county":"Tuscola","unemployment 2007":"8.1%","population 2007":"3,247","unemployment 2009":"8.3%","population 2009":"2,928","id":"a86pc3dr8g0y"},"type":"Feature","geometry":null},{"properties":{"county":"Van Buren","unemployment 2007":"7.0%","population 2007":"4,477","unemployment 2009":"6.7%","population 2009":"4,120","id":"a86pc3dycwll"},"type":"Feature","geometry":null},{"properties":{"county":"Washtenaw","unemployment 2007":"4.4%","population 2007":"25,593","unemployment 2009":"4.8%","population 2009":"16,747","id":"a86pc3p3xvw2"},"type":"Feature","geometry":null},{"properties":{"county":"Wayne","unemployment 2007":"8.6%","population 2007":"142,791","unemployment 2009":"8.8%","population 2009":"125,052","id":"a86pc3bxlwgd"},"type":"Feature","geometry":null},{"properties":{"county":"Wexford","unemployment 2007":"7.6%","population 2007":"1,779","unemployment 2009":"8.5%","population 2009":"1,623","id":"a86pc3o05djs"},"type":"Feature","geometry":null}],"is_temporal":false,"author":{"url":"","metadata":null,"contact_name":null,"contact_address":null,"source":null,"contact_phone":null},"source":"","pagination":{"sort":null,"start":0,"total":83,"limit":1000000},"state":"parsed","tags":"","published":"2014-08-15T00:00:49-04:00","id":236344}