{"type":"FeatureCollection","data_type":"Dataset Analysis","url_type":null,"permissions":[{"permissions":{"download":true,"view":true},"group_id":"everyone"}],"classification":null,"title":"Filtered Features of 'Licensed_Daycare_63143_63117' based on 'Sex Offenders 63143'","count":6,"stream_id":236544,"contributor":{"url":"http://geocommons.com/users/43866","name":"Npan"},"data_attributes":null,"calculation_params":[{"calculation":"buffer_intersect","input":{"min_distance":"0","ds1":"236543","ds2":"236537","unit":"ft","include_distance":"1","distance":"1000"}}],"icon_link":null,"link":"http://geocommons.com/overlays/236544.json","extent":[-90.3262,38.6089,-90.3058,38.6262],"geometry_types":["point"],"unique_name":null,"name":"Filtered Features of 'Licensed_Daycare_63143_63117' based on 'Sex Offenders 63143'","feature_count":6,"description":"Dataset created by filtering features of 'Licensed_Daycare_63143_63117' that are within a buffer of 0 to 1000 ft around the features in 'Sex Offenders 63143'","next_feature":null,"is_raster":false,"short_classification":"Y","stats":{"geo_score":{"max":0.849,"variance":0.000174566666666667,"mean":0.822833333333333,"stdev":0.0132123679432064,"min":0.816,"median":0.816},"distance":{"max":869.758293946173,"variance":68011.6622928473,"mean":494.1917100987,"stdev":260.790456675177,"min":114.993168147945,"median":553.24999630394}},"features":[{"properties":{"city":"ST LOUIS","name":"HOME AWAY FROM HOME CHILD CARE","zip":"63143","ages":"6 WEEKS - 6 YEARS","geo_score":0.816,"country":"USA","street":"7523 FLORA AVE","id":"1","geo_precision":"range","distance":114.993168147945},"type":"Feature","geometry":{"type":"Point","coordinates":[-90.324324,38.60893]}},{"properties":{"city":"ST LOUIS","name":"MAPLEWOOD RICHMOND HEIGHTS EARLY CHILDHOOD CENTER","zip":"63143","ages":"36 MONTHS - 12 YEARS","geo_score":0.816,"country":"USA","street":"2801 OAKLAND AVE","id":"2","geo_precision":"range","distance":657.847064149899},"type":"Feature","geometry":{"type":"Point","coordinates":[-90.326158,38.611722]}},{"properties":{"city":"ST LOUIS","name":"BABY STEPS ACADEMY II LLC","zip":"63143","ages":"24 MONTHS - 12 YEARS","geo_score":0.816,"country":"USA","street":"6831 MANCHESTER AVE","id":"0","geo_precision":"range","distance":406.412883372195},"type":"Feature","geometry":{"type":"Point","coordinates":[-90.305758,38.61754]}},{"properties":{"city":"ST LOUIS","name":"MOORE, GLENDA","zip":"63143","ages":"24 MONTHS - 6 YEARS","geo_score":0.816,"country":"USA","street":"2320 BELLEVUE AVE","id":"3","geo_precision":"range","distance":553.24999630394},"type":"Feature","geometry":{"type":"Point","coordinates":[-90.313533,38.617841]}},{"properties":{"city":"ST LOUIS","name":"MAPLEWOOD RICHMOND HEIGHTS ELEMENTARY SCHOOL","zip":"63117","ages":"7 YEARS - 12 YEARS","geo_score":0.824,"country":"USA","street":"1800 PRINCETON PL","id":"8","geo_precision":"range","distance":869.758293946173},"type":"Feature","geometry":{"type":"Point","coordinates":[-90.315154,38.622738]}},{"properties":{"city":"RICHMOND HEIGHTS","name":"LIFE CHANGING CHRISTIAN FELLOWSHIP CHILD CARE CENTER","zip":"63117","ages":null,"geo_score":0.849,"country":"USA","street":"7339 LINDBERGH","id":"5","geo_precision":"range","distance":362.88885467205},"type":"Feature","geometry":{"type":"Point","coordinates":[-90.318013,38.626203]}}],"is_temporal":false,"author":{"url":null,"metadata":null,"contact_name":null,"contact_address":null,"source":null,"contact_phone":null},"source":null,"pagination":{"sort":null,"start":0,"total":6,"limit":1000000},"state":"complete","tags":"","published":"2014-08-15T00:29:49-04:00","id":236544}