{"type":"FeatureCollection","data_type":"Dataset","url_type":null,"permissions":[{"permissions":{"download":true,"view":true},"group_id":"everyone"}],"classification":null,"title":"May1","count":145,"stream_id":236621,"contributor":{"url":"http://geocommons.com/users/38215","name":"88782221b"},"data_attributes":null,"calculation_params":null,"icon_link":null,"link":"http://geocommons.com/overlays/236621.json","extent":[-170.833,-14.3217,-68.3642,61.2181],"geometry_types":["point"],"unique_name":null,"name":"May1","feature_count":145,"description":"","next_feature":null,"is_raster":false,"short_classification":"Y","stats":{},"features":[{"properties":{"city":"Atlanta","comments":null,"geo_score":0.714,"country":null,"url":"http://occupyatlanta.org/events/event/may-day-march-and-festival/","id":"0","geo_precision":"city","state":"Georgia"},"type":"Feature","geometry":{"type":"Point","coordinates":[-84.387982,33.748995]}},{"properties":{"city":"Albany","comments":null,"geo_score":0.714,"country":null,"url":"http://www.occupyalbany.org/occupy-may-day/","id":"1","geo_precision":"city","state":"New York"},"type":"Feature","geometry":{"type":"Point","coordinates":[-73.756232,42.652579]}},{"properties":{"city":"Amherst","comments":null,"geo_score":0.714,"country":null,"url":"http://occupyamherst.com/?page_id=20/","id":"2","geo_precision":"city","state":"Massachusetts"},"type":"Feature","geometry":{"type":"Point","coordinates":[-68.364188,44.833404]}},{"properties":{"city":"Anchorage","comments":null,"geo_score":0.714,"country":null,"url":"http://www.facebook.com/events/174765005979039/","id":"3","geo_precision":"city","state":"Alaska"},"type":"Feature","geometry":{"type":"Point","coordinates":[-149.900278,61.218056]}},{"properties":{"city":"Asheville","comments":null,"geo_score":0.714,"country":null,"url":"https://www.facebook.com/events/342333302490249/","id":"4","geo_precision":"city","state":"North Carolina"},"type":"Feature","geometry":{"type":"Point","coordinates":[-82.554015,35.600945]}},{"properties":{"city":"Athens","comments":null,"geo_score":0.714,"country":null,"url":"http://www.facebook.com/events/335271736539978/","id":"5","geo_precision":"city","state":"Georgia"},"type":"Feature","geometry":{"type":"Point","coordinates":[-93.976862,34.314552]}},{"properties":{"city":"Austin","comments":null,"geo_score":0.714,"country":null,"url":"http://occupyaustin.org/mayday/","id":"6","geo_precision":"city","state":"Texas"},"type":"Feature","geometry":{"type":"Point","coordinates":[-97.743061,30.267153]}},{"properties":{"city":"Baltimore","comments":null,"geo_score":0.714,"country":null,"url":"http://occupybmore.org/event/occupy-may-day-may-day-rally-99/","id":"7","geo_precision":"city","state":"Maryland"},"type":"Feature","geometry":{"type":"Point","coordinates":[-76.612189,39.290385]}},{"properties":{"city":"Bellingham","comments":null,"geo_score":0.714,"country":null,"url":"http://www.occupybellinghamwa.org/2012/04/11/may-1st-is-international-workers-day/","id":"8","geo_precision":"city","state":"Washington"},"type":"Feature","geometry":{"type":"Point","coordinates":[-71.470464,42.076501]}},{"properties":{"city":"Binghamton","comments":null,"geo_score":0.714,"country":null,"url":"https://www.facebook.com/events/376669119029394/","id":"9","geo_precision":"city","state":"New York"},"type":"Feature","geometry":{"type":"Point","coordinates":[-75.917974,42.098687]}},{"properties":{"city":"Birmingham","comments":null,"geo_score":0.714,"country":null,"url":"http://www.facebook.com/events/434673313224729/","id":"10","geo_precision":"city","state":"Alabama"},"type":"Feature","geometry":{"type":"Point","coordinates":[-86.80249,33.520661]}},{"properties":{"city":"Bloomington","comments":null,"geo_score":0.667,"country":null,"url":"http://www.facebook.com/events/386180694737418/","id":"11","geo_precision":"city","state":"Indiana"},"type":"Feature","geometry":{"type":"Point","coordinates":[-77.011365,38.916778]}},{"properties":{"city":"Boise","comments":null,"geo_score":0.714,"country":null,"url":"https://www.facebook.com/events/360314060673941/","id":"12","geo_precision":"city","state":"Idaho"},"type":"Feature","geometry":{"type":"Point","coordinates":[-116.203451,43.6135]}},{"properties":{"city":"Boston","comments":null,"geo_score":0.714,"country":null,"url":"http://www.facebook.com/events/339241909452308","id":"13","geo_precision":"city","state":"Massachusetts"},"type":"Feature","geometry":{"type":"Point","coordinates":[-71.059773,42.358431]}},{"properties":{"city":"Boulder","comments":null,"geo_score":0.714,"country":null,"url":"http://www.facebook.com/events/270243609695753/","id":"14","geo_precision":"city","state":"Colorado"},"type":"Feature","geometry":{"type":"Point","coordinates":[-89.225627,38.696715]}},{"properties":{"city":"Bozeman","comments":null,"geo_score":0.694,"country":null,"url":"http://occupybozeman.org/","id":"15","geo_precision":"city","state":"Montana"},"type":"Feature","geometry":{"type":"Point","coordinates":[-76.273704,38.74955]}},{"properties":{"city":"Brooklyn","comments":null,"geo_score":0.714,"country":null,"url":"http://www.maydaynyc.org/","id":"16","geo_precision":"city","state":"New York"},"type":"Feature","geometry":{"type":"Point","coordinates":[-86.615271,34.22593]}},{"properties":{"city":"Buffalo","comments":null,"geo_score":0.714,"country":null,"url":"http://www.facebook.com/events/250315155048339/","id":"17","geo_precision":"city","state":"New York"},"type":"Feature","geometry":{"type":"Point","coordinates":[-78.878369,42.886447]}},{"properties":{"city":"Burlington","comments":null,"geo_score":0.714,"country":null,"url":"https://www.facebook.com/groups/198482143556896/events/","id":"18","geo_precision":"city","state":"Vermont"},"type":"Feature","geometry":{"type":"Point","coordinates":[-85.938849,32.580411]}},{"properties":{"city":"Campbell County","comments":"(joining Occupy Cincinnati)","geo_score":0.602,"country":null,"url":null,"id":"19","geo_precision":"city","state":"Kentucky"},"type":"Feature","geometry":{"type":"Point","coordinates":[-122.234843,47.380934]}},{"properties":{"city":"Charleston","comments":null,"geo_score":0.714,"country":null,"url":"http://www.facebook.com/pages/Occupy-Charleston-SC/270339779654897?sk=info","id":"20","geo_precision":"city","state":"South Carolina"},"type":"Feature","geometry":{"type":"Point","coordinates":[-81.632624,38.34982]}},{"properties":{"city":"Charlotte","comments":null,"geo_score":0.714,"country":null,"url":"http://occupyclt.net/ai1ec_event/day-general-strike/?instance_id=11515/","id":"21","geo_precision":"city","state":"North Carolina"},"type":"Feature","geometry":{"type":"Point","coordinates":[-80.843127,35.227087]}},{"properties":{"city":"Chattanooga","comments":null,"geo_score":0.714,"country":null,"url":"http://www.facebook.com/OccupyCHA/","id":"22","geo_precision":"city","state":"Tennessee"},"type":"Feature","geometry":{"type":"Point","coordinates":[-85.30968,35.04563]}},{"properties":{"city":"Cheyenne","comments":null,"geo_score":0.714,"country":null,"url":"http://www.facebook.com/occupycheyenne/","id":"23","geo_precision":"city","state":"Wyoming"},"type":"Feature","geometry":{"type":"Point","coordinates":[-104.820246,41.139981]}},{"properties":{"city":"Chicago","comments":null,"geo_score":0.714,"country":null,"url":"http://www.chicagospring.org/May1/","id":"24","geo_precision":"city","state":"Illinois"},"type":"Feature","geometry":{"type":"Point","coordinates":[-87.650052,41.850033]}},{"properties":{"city":"Cincinnati","comments":null,"geo_score":0.714,"country":null,"url":"https://www.facebook.com/events/124910487626652/","id":"25","geo_precision":"city","state":"Ohio"},"type":"Feature","geometry":{"type":"Point","coordinates":[-84.456886,39.162004]}},{"properties":{"city":"Cleveland","comments":null,"geo_score":0.714,"country":null,"url":"http://imgur.com/GDgij/","id":"26","geo_precision":"city","state":"Ohio"},"type":"Feature","geometry":{"type":"Point","coordinates":[-81.695409,41.499495]}},{"properties":{"city":"Colorado Springs","comments":"(GA endorsed)","geo_score":0.714,"country":null,"url":null,"id":"27","geo_precision":"city","state":"Colorado"},"type":"Feature","geometry":{"type":"Point","coordinates":[-104.821363,38.833882]}},{"properties":{"city":"Columbia","comments":null,"geo_score":0.714,"country":null,"url":"https://www.facebook.com/events/427509747274620/","id":"28","geo_precision":"city","state":"Missouri"},"type":"Feature","geometry":{"type":"Point","coordinates":[-92.334072,38.951705]}},{"properties":{"city":"Dallas","comments":null,"geo_score":0.619,"country":null,"url":"http://endthefedusa.ning.com/events/occupy-may-day-dallas/","id":"29","geo_precision":"city","state":"Texas"},"type":"Feature","geometry":{"type":"Point","coordinates":[-95.992775,36.153982]}},{"properties":{"city":"Dayton","comments":null,"geo_score":0.714,"country":null,"url":"http://www.occupydaytonoh.org/calendar-of-events/","id":"30","geo_precision":"city","state":"Ohio"},"type":"Feature","geometry":{"type":"Point","coordinates":[-84.191607,39.758948]}},{"properties":{"city":"Daytona Beach","comments":null,"geo_score":0.643,"country":null,"url":"https://www.facebook.com/events/283622265042365/","id":"31","geo_precision":"city","state":"Florida"},"type":"Feature","geometry":{"type":"Point","coordinates":[-84.191607,39.758948]}},{"properties":{"city":"Denver","comments":null,"geo_score":0.714,"country":null,"url":"http://occupydenver.org/mayday/","id":"32","geo_precision":"city","state":"Colorado"},"type":"Feature","geometry":{"type":"Point","coordinates":[-104.984703,39.739154]}},{"properties":{"city":"Des Moines","comments":null,"geo_score":0.714,"country":null,"url":"http://www.facebook.com/events/311265462279959/?context=create/","id":"33","geo_precision":"city","state":"Iowa"},"type":"Feature","geometry":{"type":"Point","coordinates":[-93.609106,41.600545]}},{"properties":{"city":"Detroit","comments":null,"geo_score":0.714,"country":null,"url":"https://www.facebook.com/events/133920430061332/","id":"34","geo_precision":"city","state":"Michigan"},"type":"Feature","geometry":{"type":"Point","coordinates":[-83.045754,42.331427]}},{"properties":{"city":"Dover","comments":null,"geo_score":0.619,"country":null,"url":"http://www.occupyde.org/2012/04/may-1st-general-strike-bus-trip-nyc/","id":"35","geo_precision":"city","state":"Delaware"},"type":"Feature","geometry":{"type":"Point","coordinates":[-87.5678,34.220655]}},{"properties":{"city":"Durango","comments":null,"geo_score":0.633,"country":null,"url":"http://www.facebook.com/events/336206949734815/","id":"36","geo_precision":"city","state":"Colorado"},"type":"Feature","geometry":{"type":"Point","coordinates":[-71.844523,43.073136]}},{"properties":{"city":"El Paso","comments":null,"geo_score":0.714,"country":null,"url":"http://occupyelpaso.org/component/kunena/2-posts/752-occupy-el-paso-events-april-17-may-1.html?Itemid=0/","id":"37","geo_precision":"city","state":"Texas"},"type":"Feature","geometry":{"type":"Point","coordinates":[-106.486931,31.75872]}},{"properties":{"city":"Fairbanks","comments":null,"geo_score":0.714,"country":null,"url":"http://www.facebook.com/groups/occupyfairbanksak/","id":"38","geo_precision":"city","state":"Alaska"},"type":"Feature","geometry":{"type":"Point","coordinates":[-92.272098,35.444523]}},{"properties":{"city":"Fargo","comments":null,"geo_score":0.714,"country":null,"url":"https://www.facebook.com/events/107988009336122/","id":"39","geo_precision":"city","state":"North Dakota"},"type":"Feature","geometry":{"type":"Point","coordinates":[-90.854854,39.973659]}},{"properties":{"city":"Fort Lauderdale","comments":null,"geo_score":0.714,"country":null,"url":"http://www.facebook.com/events/147900078670459/","id":"40","geo_precision":"city","state":"Florida"},"type":"Feature","geometry":{"type":"Point","coordinates":[-80.143379,26.122308]}},{"properties":{"city":"Fort Wayne","comments":null,"geo_score":0.714,"country":null,"url":"https://www.facebook.com/events/210492185718392/","id":"41","geo_precision":"city","state":"Indiana"},"type":"Feature","geometry":{"type":"Point","coordinates":[-85.12886,41.130604]}},{"properties":{"city":"Frederick","comments":"(will be joining Occupy Baltimore)","geo_score":0.663,"country":null,"url":null,"id":"42","geo_precision":"city","state":"Maryland"},"type":"Feature","geometry":{"type":"Point","coordinates":[-77.46054,38.303184]}},{"properties":{"city":"Fullerton","comments":null,"geo_score":0.714,"country":null,"url":"http://www.occupymay1st.org/","id":"43","geo_precision":"city","state":"California"},"type":"Feature","geometry":{"type":"Point","coordinates":[-117.925338,33.870292]}},{"properties":{"city":"Gainesville","comments":null,"geo_score":0.714,"country":null,"url":"http://www.facebook.com/GvilleMayDay/","id":"44","geo_precision":"city","state":"Florida"},"type":"Feature","geometry":{"type":"Point","coordinates":[-90.510662,36.164788]}},{"properties":{"city":"Greensboro","comments":null,"geo_score":0.714,"country":null,"url":"http://occupygreensboro.org/discussions/forum/may-day-working-group/","id":"45","geo_precision":"city","state":"North Carolina"},"type":"Feature","geometry":{"type":"Point","coordinates":[-79.791975,36.072636]}},{"properties":{"city":"Honolulu","comments":null,"geo_score":0.714,"country":null,"url":"http://www.deoccupyhonolulu.org/apps/calendar/","id":"46","geo_precision":"city","state":"Hawaii"},"type":"Feature","geometry":{"type":"Point","coordinates":[-157.858333,21.306944]}},{"properties":{"city":"Houston","comments":null,"geo_score":0.714,"country":null,"url":"https://www.facebook.com/events/204095203038238/","id":"47","geo_precision":"city","state":"Texas"},"type":"Feature","geometry":{"type":"Point","coordinates":[-82.902629,30.256893]}},{"properties":{"city":"Huntington","comments":"(GA endorsed)","geo_score":0.667,"country":null,"url":null,"id":"48","geo_precision":"city","state":"West Virginia"},"type":"Feature","geometry":{"type":"Point","coordinates":[-117.999227,33.660297]}},{"properties":{"city":"Indianapolis","comments":"(GA endorsed)","geo_score":0.714,"country":null,"url":null,"id":"49","geo_precision":"city","state":"Indiana"},"type":"Feature","geometry":{"type":"Point","coordinates":[-86.158042,39.768377]}},{"properties":{"city":"Iowa City","comments":null,"geo_score":0.643,"country":null,"url":"https://www.facebook.com/events/376813535703030/","id":"50","geo_precision":"city","state":"Iowa"},"type":"Feature","geometry":{"type":"Point","coordinates":[-94.077152,34.734825]}},{"properties":{"city":"Irvine","comments":"(GA endorsed)","geo_score":0.714,"country":null,"url":null,"id":"51","geo_precision":"city","state":"California"},"type":"Feature","geometry":{"type":"Point","coordinates":[-82.25121,29.405527]}},{"properties":{"city":"Kalamazoo","comments":null,"geo_score":0.619,"country":null,"url":"http://www.facebook.com/events/429135527102905/","id":"52","geo_precision":"city","state":"Michigan"},"type":"Feature","geometry":{"type":"Point","coordinates":[-115.071916,32.997542]}},{"properties":{"city":"Kennewick","comments":null,"geo_score":0.622,"country":null,"url":"https://www.facebook.com/events/384096984953946/","id":"53","geo_precision":"city","state":"Washington"},"type":"Feature","geometry":{"type":"Point","coordinates":[-76.311625,40.092596]}},{"properties":{"city":"Lansing","comments":null,"geo_score":0.714,"country":null,"url":"http://www.occupylansing.net/","id":"54","geo_precision":"city","state":"Michigan"},"type":"Feature","geometry":{"type":"Point","coordinates":[-84.555535,42.732535]}},{"properties":{"city":"Las Vegas","comments":null,"geo_score":0.714,"country":null,"url":"http://occupylasvegas.org/ai1ec_event/may-day-general-strike-and-march?instance_id=/","id":"55","geo_precision":"city","state":"Nevada"},"type":"Feature","geometry":{"type":"Point","coordinates":[-115.137223,36.174971]}},{"properties":{"city":"Lincoln","comments":null,"geo_score":0.714,"country":null,"url":"http://www.occupylincoln.net/calendar/?month=may&amp;yr=2012","id":"56","geo_precision":"city","state":"Nebraska"},"type":"Feature","geometry":{"type":"Point","coordinates":[-96.66696,40.800001]}},{"properties":{"city":"Long Beach","comments":null,"geo_score":0.714,"country":null,"url":"http://www.facebook.com/events/182471848516672/","id":"57","geo_precision":"city","state":"California"},"type":"Feature","geometry":{"type":"Point","coordinates":[-118.189235,33.766962]}},{"properties":{"city":"Los Angeles","comments":null,"geo_score":0.714,"country":null,"url":"http://www.occupymay1st.org/","id":"58","geo_precision":"city","state":"California"},"type":"Feature","geometry":{"type":"Point","coordinates":[-118.243685,34.052234]}},{"properties":{"city":"Louisville","comments":null,"geo_score":0.714,"country":null,"url":"http://www.facebook.com/OccupyLouisville/","id":"59","geo_precision":"city","state":"Kentucky"},"type":"Feature","geometry":{"type":"Point","coordinates":[-85.759407,38.254238]}},{"properties":{"city":"Madison","comments":"(will be joining Milwaukee)","geo_score":0.714,"country":null,"url":null,"id":"60","geo_precision":"city","state":"Wisconsin"},"type":"Feature","geometry":{"type":"Point","coordinates":[-89.40123,43.073052]}},{"properties":{"city":"Memphis","comments":null,"geo_score":0.714,"country":null,"url":"http://occupymemphis.org/index.php/calendar/icalrepeat.detail/2012/05/01/17335/-/day-of-action/","id":"61","geo_precision":"city","state":"Tennessee"},"type":"Feature","geometry":{"type":"Point","coordinates":[-90.04898,35.149534]}},{"properties":{"city":"Miami","comments":null,"geo_score":0.714,"country":null,"url":"http://www.facebook.com/events/119683868163613/","id":"62","geo_precision":"city","state":"Florida"},"type":"Feature","geometry":{"type":"Point","coordinates":[-80.193659,25.774266]}},{"properties":{"city":"Milwaukee","comments":null,"geo_score":0.714,"country":null,"url":"http://www.facebook.com/events/201065043338217/","id":"63","geo_precision":"city","state":"Wisconsin"},"type":"Feature","geometry":{"type":"Point","coordinates":[-87.906474,43.038903]}},{"properties":{"city":"Minneapolis","comments":null,"geo_score":0.714,"country":null,"url":"http://occupymay1tc.org/","id":"64","geo_precision":"city","state":"Minnesota"},"type":"Feature","geometry":{"type":"Point","coordinates":[-93.263836,44.979965]}},{"properties":{"city":"Mira Monte","comments":"(GA endorsed)","geo_score":0.619,"country":null,"url":null,"id":"65","geo_precision":"city","state":"California"},"type":"Feature","geometry":{"type":"Point","coordinates":[-88.050595,34.645649]}},{"properties":{"city":"Montgomery County","comments":null,"geo_score":0.598,"country":null,"url":"http://www.occupymocomd.org/ai1ec_event/may-day-general-strike/?instance_id=97/","id":"66","geo_precision":"city","state":"Maryland"},"type":"Feature","geometry":{"type":"Point","coordinates":[-122.234843,47.380934]}},{"properties":{"city":"Naples","comments":"(GA endorsed)","geo_score":0.714,"country":null,"url":null,"id":"67","geo_precision":"city","state":"Florida"},"type":"Feature","geometry":{"type":"Point","coordinates":[-81.79481,26.142036]}},{"properties":{"city":"Nashville","comments":null,"geo_score":0.714,"country":null,"url":"http://occupynashville.org/2012/04/16/may-day-2012-activities-announced-for-may-1st/","id":"68","geo_precision":"city","state":"Tennessee"},"type":"Feature","geometry":{"type":"Point","coordinates":[-86.784443,36.16589]}},{"properties":{"city":"New Brunswick","comments":null,"geo_score":0.714,"country":null,"url":"http://www.facebook.com/events/297351876971640/","id":"69","geo_precision":"city","state":"New Jersey"},"type":"Feature","geometry":{"type":"Point","coordinates":[-74.451819,40.486216]}},{"properties":{"city":"New Haven","comments":"(going to NYC)","geo_score":0.714,"country":null,"url":"http://www.occupynewhaven.org/events/","id":"70","geo_precision":"city","state":"Connecticut"},"type":"Feature","geometry":{"type":"Point","coordinates":[-72.928158,41.308153]}},{"properties":{"city":"New Orleans","comments":null,"geo_score":0.714,"country":null,"url":"http://nolaanarcha.blogspot.com/2012/04/may-day-anti-capitalist-march.html/","id":"71","geo_precision":"city","state":"Louisiana"},"type":"Feature","geometry":{"type":"Point","coordinates":[-89.930956,30.068812]}},{"properties":{"city":"New York City","comments":null,"geo_score":0.662,"country":null,"url":"http://maydaynyc.org/","id":"72","geo_precision":"city","state":"New York"},"type":"Feature","geometry":{"type":"Point","coordinates":[-74.005973,40.714269]}},{"properties":{"city":"Norfolk","comments":null,"geo_score":0.714,"country":null,"url":"http://www.facebook.com/people/Occupy-Norfolk/100002988744682/","id":"73","geo_precision":"city","state":"Virginia"},"type":"Feature","geometry":{"type":"Point","coordinates":[-76.285218,36.846815]}},{"properties":{"city":"Oakland","comments":null,"geo_score":0.714,"country":null,"url":"http://strikemay1st.com/","id":"74","geo_precision":"city","state":"California"},"type":"Feature","geometry":{"type":"Point","coordinates":[-122.270803,37.804372]}},{"properties":{"city":"Oklahoma City","comments":null,"geo_score":0.714,"country":null,"url":"http://www.pressaction.com/news/weblog/full_article/zakkflash04032012/","id":"75","geo_precision":"city","state":"Oklahoma"},"type":"Feature","geometry":{"type":"Point","coordinates":[-97.516428,35.46756]}},{"properties":{"city":"Olympia","comments":null,"geo_score":0.714,"country":null,"url":"http://occupynw.org/ai1ec_event/may-day-spring-festival-music?instance_id=67/","id":"76","geo_precision":"city","state":"Washington"},"type":"Feature","geometry":{"type":"Point","coordinates":[-122.900695,47.037874]}},{"properties":{"city":"Omaha","comments":null,"geo_score":0.714,"country":null,"url":"http://www.facebook.com/occupyomaha/","id":"77","geo_precision":"city","state":"Nebraska"},"type":"Feature","geometry":{"type":"Point","coordinates":[-95.937792,41.25861]}},{"properties":{"city":"Orange County","comments":null,"geo_score":0.607,"country":null,"url":"http://www.occupy-oc.org/calendar/http://www.occupy-oc.org/calendar/","id":"78","geo_precision":"city","state":"California"},"type":"Feature","geometry":{"type":"Point","coordinates":[-122.234843,47.380934]}},{"properties":{"city":"Orlando","comments":null,"geo_score":0.714,"country":null,"url":"http://www.facebook.com/OccupyOrlandoFL/","id":"79","geo_precision":"city","state":"Florida"},"type":"Feature","geometry":{"type":"Point","coordinates":[-81.379237,28.538336]}},{"properties":{"city":"Oxnard","comments":null,"geo_score":0.649,"country":null,"url":"http://occupyoxnard.org/?page_id=489/","id":"80","geo_precision":"city","state":"California"},"type":"Feature","geometry":{"type":"Point","coordinates":[-119.227886,34.163338]}},{"properties":{"city":"Pasadena","comments":null,"geo_score":0.714,"country":null,"url":"http://www.occupymay1st.org/","id":"81","geo_precision":"city","state":"California"},"type":"Feature","geometry":{"type":"Point","coordinates":[-118.144516,34.147785]}},{"properties":{"city":"Pasco","comments":null,"geo_score":0.619,"country":null,"url":"https://www.facebook.com/events/384096984953946/","id":"82","geo_precision":"city","state":"Washington"},"type":"Feature","geometry":{"type":"Point","coordinates":[-86.817224,34.88981]}},{"properties":{"city":"Philadelphia","comments":null,"geo_score":0.714,"country":null,"url":"http://www.facebook.com/events/384999524851887/?ref=nf/","id":"83","geo_precision":"city","state":"Pennsylvania"},"type":"Feature","geometry":{"type":"Point","coordinates":[-75.163789,39.952335]}},{"properties":{"city":"Pittsburgh","comments":null,"geo_score":0.714,"country":null,"url":"http://www.occupypittsburgh.org/content/may-day-rally/","id":"84","geo_precision":"city","state":"Pennsylvania"},"type":"Feature","geometry":{"type":"Point","coordinates":[-79.995886,40.440625]}},{"properties":{"city":"Pittsfield","comments":null,"geo_score":0.649,"country":null,"url":"https://www.occupyberkshires.com/events/may-day-rally/","id":"85","geo_precision":"city","state":"Massachusetts"},"type":"Feature","geometry":{"type":"Point","coordinates":[-86.946117,34.971751]}},{"properties":{"city":"Phoenix","comments":null,"geo_score":0.714,"country":null,"url":"https://www.facebook.com/events/381021661918003/","id":"86","geo_precision":"city","state":"Arizona"},"type":"Feature","geometry":{"type":"Point","coordinates":[-112.074037,33.448377]}},{"properties":{"city":"Portland","comments":null,"geo_score":0.714,"country":null,"url":"https://www.facebook.com/events/339498516097708/","id":"87","geo_precision":"city","state":"Maine"},"type":"Feature","geometry":{"type":"Point","coordinates":[-70.255326,43.661471]}},{"properties":{"city":"Portland","comments":null,"geo_score":0.714,"country":null,"url":"http://www.facebook.com/events/220604641373277/","id":"88","geo_precision":"city","state":"Oregon"},"type":"Feature","geometry":{"type":"Point","coordinates":[-70.255326,43.661471]}},{"properties":{"city":"Providence","comments":null,"geo_score":0.714,"country":null,"url":"http://maydayprovidence.wordpress.com/","id":"89","geo_precision":"city","state":"Rhode Island"},"type":"Feature","geometry":{"type":"Point","coordinates":[-71.412834,41.823989]}},{"properties":{"city":"Raleigh","comments":null,"geo_score":0.714,"country":null,"url":"http://www.occupyraleigh.org/ai1ec_event/may-day-march-and-rally/","id":"90","geo_precision":"city","state":"North Carolina"},"type":"Feature","geometry":{"type":"Point","coordinates":[-78.638615,35.772096]}},{"properties":{"city":"Redlands","comments":null,"geo_score":0.696,"country":null,"url":"http://www.facebook.com/events/355340671168345/","id":"91","geo_precision":"city","state":"California"},"type":"Feature","geometry":{"type":"Point","coordinates":[-93.277669,33.806776]}},{"properties":{"city":"Reno","comments":null,"geo_score":0.714,"country":null,"url":"http://act.350.org/event/impacts_en/2133/signup/?akid=&amp;source=350local/","id":"92","geo_precision":"city","state":"Nevada"},"type":"Feature","geometry":{"type":"Point","coordinates":[-119.813803,39.529633]}},{"properties":{"city":"Richland","comments":null,"geo_score":0.714,"country":null,"url":"https://www.facebook.com/events/384096984953946/","id":"93","geo_precision":"city","state":"Washington"},"type":"Feature","geometry":{"type":"Point","coordinates":[-89.858163,39.845883]}},{"properties":{"city":"Richmond","comments":null,"geo_score":0.714,"country":null,"url":"http://occupyrva.org/calendar-2/","id":"94","geo_precision":"city","state":"Virginia"},"type":"Feature","geometry":{"type":"Point","coordinates":[-122.347749,37.935758]}},{"properties":{"city":"Riverside","comments":null,"geo_score":0.714,"country":null,"url":"http://www.occupymay1st.org/","id":"95","geo_precision":"city","state":"California"},"type":"Feature","geometry":{"type":"Point","coordinates":[-117.396156,33.953349]}},{"properties":{"city":"Roanoke","comments":null,"geo_score":0.714,"country":null,"url":"https://www.facebook.com/events/386776804675369/","id":"96","geo_precision":"city","state":"Virginia"},"type":"Feature","geometry":{"type":"Point","coordinates":[-79.941427,37.27097]}},{"properties":{"city":"Sacramento","comments":null,"geo_score":0.714,"country":null,"url":"http://sacmayday.com/","id":"97","geo_precision":"city","state":"California"},"type":"Feature","geometry":{"type":"Point","coordinates":[-121.4944,38.581572]}},{"properties":{"city":"Salem","comments":null,"geo_score":0.714,"country":null,"url":"http://www.osoga.com/calendar/","id":"98","geo_precision":"city","state":"Oregon"},"type":"Feature","geometry":{"type":"Point","coordinates":[-87.114735,34.938974]}},{"properties":{"city":"Salt Lake City","comments":null,"geo_score":0.714,"country":null,"url":"http://occupyslc.org/event/122/","id":"99","geo_precision":"city","state":"Utah"},"type":"Feature","geometry":{"type":"Point","coordinates":[-111.891047,40.760779]}},{"properties":{"city":"San Antonio","comments":null,"geo_score":0.714,"country":null,"url":"https://www.facebook.com/events/214648721966010/","id":"100","geo_precision":"city","state":"Texas"},"type":"Feature","geometry":{"type":"Point","coordinates":[-98.493628,29.424122]}},{"properties":{"city":"San Diego","comments":null,"geo_score":0.714,"country":null,"url":"http://occupiedsandiego.com/","id":"101","geo_precision":"city","state":"Calufornia"},"type":"Feature","geometry":{"type":"Point","coordinates":[-117.157255,32.715329]}},{"properties":{"city":"San Francisco","comments":null,"geo_score":0.714,"country":null,"url":"http://strikemay1st.com/","id":"102","geo_precision":"city","state":"California"},"type":"Feature","geometry":{"type":"Point","coordinates":[-122.419416,37.77493]}},{"properties":{"city":"San Fernando Valley","comments":null,"geo_score":0.63,"country":null,"url":"http://www.facebook.com/OccupySanFernandoValley/","id":"103","geo_precision":"city","state":"California"},"type":"Feature","geometry":{"type":"Point","coordinates":[-122.419416,37.77493]}},{"properties":{"city":"San Jose","comments":"(GA endorsed)","geo_score":0.714,"country":null,"url":null,"id":"104","geo_precision":"city","state":"California"},"type":"Feature","geometry":{"type":"Point","coordinates":[-121.894956,37.339386]}},{"properties":{"city":"Santa Cruz","comments":null,"geo_score":0.619,"country":null,"url":"http://occupysantacruz.org/calendar/","id":"105","geo_precision":"city","state":"California"},"type":"Feature","geometry":{"type":"Point","coordinates":[-111.85254,40.569992]}},{"properties":{"city":"Santa Fe","comments":null,"geo_score":0.633,"country":null,"url":"http://www.occupynewmexico.org/mayday-2012-occupy-santa-fe/","id":"106","geo_precision":"city","state":"New Mexico"},"type":"Feature","geometry":{"type":"Point","coordinates":[-111.85254,40.569992]}},{"properties":{"city":"Santa Rosa","comments":null,"geo_score":0.619,"country":null,"url":"http://www.facebook.com/events/406313639386299/","id":"107","geo_precision":"city","state":"California"},"type":"Feature","geometry":{"type":"Point","coordinates":[-111.85254,40.569992]}},{"properties":{"city":"Schenectady","comments":"(GA endorsed)","geo_score":0.714,"country":null,"url":null,"id":"108","geo_precision":"city","state":"New York"},"type":"Feature","geometry":{"type":"Point","coordinates":[-73.939569,42.814243]}},{"properties":{"city":"Seattle","comments":null,"geo_score":0.714,"country":null,"url":"https://www.facebook.com/events/367319329957786/","id":"109","geo_precision":"city","state":"Washington"},"type":"Feature","geometry":{"type":"Point","coordinates":[-122.332071,47.60621]}},{"properties":{"city":"Scottsdale","comments":null,"geo_score":0.714,"country":null,"url":"http://www.facebook.com/events/257906917632613/","id":"110","geo_precision":"city","state":"Arizona"},"type":"Feature","geometry":{"type":"Point","coordinates":[-111.899033,33.50921]}},{"properties":{"city":"Shoreline","comments":null,"geo_score":0.643,"country":null,"url":"http://occupyshorelinect.org/calendar/","id":"111","geo_precision":"city","state":"Connecticut"},"type":"Feature","geometry":{"type":"Point","coordinates":[-81.018135,36.442076]}},{"properties":{"city":"Somerville","comments":null,"geo_score":0.649,"country":null,"url":"http://www.facebook.com/Occupy.SomervilleMA/","id":"112","geo_precision":"city","state":"Massachusetts"},"type":"Feature","geometry":{"type":"Point","coordinates":[-87.041658,32.52069]}},{"properties":{"city":"St. Louis","comments":"(GA endorsed)","geo_score":0.592,"country":null,"url":null,"id":"113","geo_precision":"city","state":"Missouri"},"type":"Feature","geometry":{"type":"Point","coordinates":[-91.846798,33.455113]}},{"properties":{"city":"St. Paul","comments":null,"geo_score":0.571,"country":null,"url":"http://occupymay1tc.org/","id":"114","geo_precision":"city","state":"Minnesota"},"type":"Feature","geometry":{"type":"Point","coordinates":[-170.832778,-14.321667]}},{"properties":{"city":"Syracuse","comments":null,"geo_score":0.714,"country":null,"url":"http://www.maydaysyr.org./","id":"115","geo_precision":"city","state":"New York"},"type":"Feature","geometry":{"type":"Point","coordinates":[-76.147424,43.048122]}},{"properties":{"city":"Tacoma","comments":null,"geo_score":0.714,"country":null,"url":"http://occupy-tacoma.org/2012/may-1st-general-strike/","id":"116","geo_precision":"city","state":"Washington"},"type":"Feature","geometry":{"type":"Point","coordinates":[-122.444291,47.252877]}},{"properties":{"city":"Tampa","comments":null,"geo_score":0.657,"country":null,"url":"http://www.occupytampa.org/ai1ec_event/may-day-concert-and-celebration/?instance_id/","id":"117","geo_precision":"city","state":"Florida"},"type":"Feature","geometry":{"type":"Point","coordinates":[-111.90931,33.414768]}},{"properties":{"city":"Toledo","comments":null,"geo_score":0.714,"country":null,"url":"https://www.facebook.com/occupytoledo/timeline/","id":"118","geo_precision":"city","state":"Ohio"},"type":"Feature","geometry":{"type":"Point","coordinates":[-83.555212,41.663938]}},{"properties":{"city":"Tucson","comments":null,"geo_score":0.714,"country":null,"url":"https://www.facebook.com/events/279858558762880/","id":"119","geo_precision":"city","state":"Arizona"},"type":"Feature","geometry":{"type":"Point","coordinates":[-110.926479,32.221743]}},{"properties":{"city":"Tulsa","comments":null,"geo_score":0.714,"country":null,"url":"http://www.pressaction.com/news/weblog/full_article/zakkflash04032012/","id":"120","geo_precision":"city","state":"Oklahoma"},"type":"Feature","geometry":{"type":"Point","coordinates":[-95.992775,36.153982]}},{"properties":{"city":"Venice","comments":null,"geo_score":0.714,"country":null,"url":"http://www.occupymay1st.org/","id":"121","geo_precision":"city","state":"California"},"type":"Feature","geometry":{"type":"Point","coordinates":[-118.460079,33.990845]}},{"properties":{"city":"Ventura","comments":null,"geo_score":0.633,"country":null,"url":"http://occupyventura805.wordpress.com/2012/04/19/may-1st/","id":"122","geo_precision":"city","state":"California"},"type":"Feature","geometry":{"type":"Point","coordinates":[-134.895833,58.256389]}},{"properties":{"city":"Washington","comments":null,"geo_score":0.714,"country":null,"url":"https://www.facebook.com/events/211681612273138/","id":"123","geo_precision":"city","state":"District of Columbia"},"type":"Feature","geometry":{"type":"Point","coordinates":[-77.036366,38.895112]}},{"properties":{"city":"Wilmington","comments":"(trip to NYC)","geo_score":0.714,"country":null,"url":"http://www.occupyde.org/","id":"124","geo_precision":"city","state":"Delaware"},"type":"Feature","geometry":{"type":"Point","coordinates":[-75.546589,39.745947]}},{"properties":{"city":"Wilmington","comments":null,"geo_score":0.714,"country":null,"url":"http://occupywilmingtonnc.org/calendar/","id":"125","geo_precision":"city","state":"North Carolina"},"type":"Feature","geometry":{"type":"Point","coordinates":[-75.546589,39.745947]}},{"properties":{"city":"Winston-Salem","comments":null,"geo_score":0.714,"country":null,"url":"http://occupywinstonsalem.org/events/may-day-parade-with-occupy-greensboro/#.T5GwpaROAxU/","id":"126","geo_precision":"city","state":"North Carolina"},"type":"Feature","geometry":{"type":"Point","coordinates":[-80.244216,36.09986]}},{"properties":{"city":"Amsterdam","comments":null,"geo_score":0.714,"country":"The Netherlands","url":"http://www.facebook.com/events/261547543942310/","id":"127","geo_precision":"city","state":null},"type":"Feature","geometry":{"type":"Point","coordinates":[-84.435742,30.727416]}},{"properties":{"city":"Athens","comments":null,"geo_score":0.714,"country":"Greece","url":null,"id":"128","geo_precision":"city","state":null},"type":"Feature","geometry":{"type":"Point","coordinates":[-93.976862,34.314552]}},{"properties":{"city":"Auckland","comments":null,"geo_score":0.631,"country":"New Zealand","url":"http://www.scoop.co.nz/stories/PO1204/S00191/occupy-auckland-in-the-global-general-strike.htm","id":"129","geo_precision":"city","state":null},"type":"Feature","geometry":{"type":"Point","coordinates":[-113.324354,32.985324]}},{"properties":{"city":"Brussels","comments":null,"geo_score":0.619,"country":"Belgium","url":"http://www.facebook.com/events/336943729693870/","id":"130","geo_precision":"city","state":null},"type":"Feature","geometry":{"type":"Point","coordinates":[-91.070378,29.959924]}},{"properties":{"city":"Barcelona","comments":null,"geo_score":0.651,"country":"Spain","url":"http://acampadabcninternacional.wordpress.com/2012/04/21/eng-esp-ita-por-ger-fra-may-1st-general-assemblies-of-workers/","id":"131","geo_precision":"city","state":null},"type":"Feature","geometry":{"type":"Point","coordinates":[-123.900031,40.107922]}},{"properties":{"city":"Den Haag","comments":null,"geo_score":0.612,"country":"The Netherlands","url":"http://occupydenhaag.org/index.php?action=calendar;year=2012;month=5","id":"132","geo_precision":"city","state":null},"type":"Feature","geometry":{"type":"Point","coordinates":[-85.368562,33.434557]}},{"properties":{"city":"Halifax","comments":null,"geo_score":0.714,"country":"Nova Scotia","url":"http://www.facebook.com/events/330795303645387/","id":"133","geo_precision":"city","state":null},"type":"Feature","geometry":{"type":"Point","coordinates":[-86.24221,36.828377]}},{"properties":{"city":"Kuala Lumpur","comments":null,"geo_score":0.61,"country":"Malaysia","url":"http://www.facebook.com/occupydataran","id":"134","geo_precision":"city","state":null},"type":"Feature","geometry":{"type":"Point","coordinates":[-85.655213,31.323783]}},{"properties":{"city":"London","comments":null,"geo_score":0.714,"country":"England","url":"https://www.facebook.com/events/288620067873162/","id":"135","geo_precision":"city","state":null},"type":"Feature","geometry":{"type":"Point","coordinates":[-86.050237,32.273198]}},{"properties":{"city":"Melbourne","comments":null,"geo_score":0.714,"country":"Australia","url":"http://www.mayday2012.info/","id":"136","geo_precision":"city","state":null},"type":"Feature","geometry":{"type":"Point","coordinates":[-80.608109,28.083627]}},{"properties":{"city":"Montreal","comments":null,"geo_score":0.714,"country":"canada","url":"https://www.facebook.com/events/324635217571613/","id":"137","geo_precision":"city","state":"Quebec"},"type":"Feature","geometry":{"type":"Point","coordinates":[-94.348548,35.117596]}},{"properties":{"city":"Ottawa","comments":null,"geo_score":0.714,"country":"canada","url":"http://maydayottawa.ca/","id":"138","geo_precision":"city","state":"Ontario"},"type":"Feature","geometry":{"type":"Point","coordinates":[-84.45605,37.361749]}},{"properties":{"city":"Rome","comments":null,"geo_score":0.714,"country":"Italy","url":null,"id":"139","geo_precision":"city","state":null},"type":"Feature","geometry":{"type":"Point","coordinates":[-86.668847,31.141842]}},{"properties":{"city":"Seoul","comments":null,"geo_score":0.6,"country":null,"url":"http://www.facebook.com/generalstrikekr","id":"140","geo_precision":"city","state":"South Korea"},"type":"Feature","geometry":{"type":"Point","coordinates":[-86.035245,33.013732]}},{"properties":{"city":"St. Johns","comments":null,"geo_score":0.571,"country":"Newfoundland","url":"http://www.occupynl.ca/2012/04/occupy-may-day-may-1st-harbourside-park.html","id":"141","geo_precision":"city","state":null},"type":"Feature","geometry":{"type":"Point","coordinates":[-120.75384,40.042949]}},{"properties":{"city":"Sydney","comments":null,"geo_score":0.69,"country":"Australia","url":"http://occupysydney.blogspot.com/2012/04/may-1st-general-strike.html","id":"142","geo_precision":"city","state":null},"type":"Feature","geometry":{"type":"Point","coordinates":[-88.234451,31.067957]}},{"properties":{"city":"Toronto","comments":null,"geo_score":0.633,"country":"canada","url":"http://www.facebook.com/events/347909011910846/","id":"143","geo_precision":"city","state":"Ontario"},"type":"Feature","geometry":{"type":"Point","coordinates":[-86.768002,33.594533]}},{"properties":{"city":"Utretcht","comments":null,"geo_score":0.0,"country":"The Netherlands","url":null,"id":"144","geo_precision":"unmatched","state":null},"type":"Feature","geometry":null}],"is_temporal":false,"author":{"url":"","metadata":"","contact_name":"","contact_address":"","source":"","contact_phone":""},"source":"","pagination":{"sort":null,"start":0,"total":145,"limit":1000000},"state":"complete","tags":"","published":"2014-08-15T00:37:25-04:00","id":236621}