{"type":"FeatureCollection","data_type":"Dataset","url_type":null,"permissions":[{"permissions":{"download":true,"view":true},"group_id":"everyone"}],"classification":null,"title":"population","count":50,"stream_id":237034,"contributor":{"url":"http://geocommons.com/users/44914","name":"danvandan"},"data_attributes":null,"calculation_params":null,"icon_link":null,"link":"http://geocommons.com/overlays/237034.json","extent":[0.0,0.0,0.0,0.0],"geometry_types":null,"unique_name":null,"name":"population","feature_count":50,"description":"","next_feature":null,"is_raster":false,"short_classification":"Y","features":[{"properties":{"id":"a86pc2j0okib","2010 census population":"4779736","state":"alabama"},"type":"Feature","geometry":null},{"properties":{"id":"a86pc2t5i03b","2010 census population":"710231","state":"Alaska"},"type":"Feature","geometry":null},{"properties":{"id":"a86pc2s99ugo","2010 census population":"6392017","state":"arizona"},"type":"Feature","geometry":null},{"properties":{"id":"a86pc2i86d7a","2010 census population":"2915918","state":"arkansas"},"type":"Feature","geometry":null},{"properties":{"id":"a86pc2j0kgxz","2010 census population":"37253956","state":"california"},"type":"Feature","geometry":null},{"properties":{"id":"a86pc2fl60a4","2010 census population":"5029196","state":"colorado"},"type":"Feature","geometry":null},{"properties":{"id":"a86pc2f4gknz","2010 census population":"3574097","state":"connecticut"},"type":"Feature","geometry":null},{"properties":{"id":"a86pc2gr28p2","2010 census population":"897934","state":"delaware"},"type":"Feature","geometry":null},{"properties":{"id":"a86pc2ob02dd","2010 census population":"18801310","state":"florida"},"type":"Feature","geometry":null},{"properties":{"id":"a86pc2q4l1b0","2010 census population":"9687653","state":"georgia"},"type":"Feature","geometry":null},{"properties":{"id":"a86pc2n7itk7","2010 census population":"1360301","state":"hawaii"},"type":"Feature","geometry":null},{"properties":{"id":"a86pc2rre34v","2010 census population":"1567582","state":"idaho"},"type":"Feature","geometry":null},{"properties":{"id":"a86pc2pbk3jt","2010 census population":"12830632","state":"illinois"},"type":"Feature","geometry":null},{"properties":{"id":"a86pc2r2geth","2010 census population":"6483802","state":"indiana"},"type":"Feature","geometry":null},{"properties":{"id":"a86pc2txu6al","2010 census population":"3046355","state":"iowa"},"type":"Feature","geometry":null},{"properties":{"id":"a86pc2jrt8uu","2010 census population":"2853118","state":"kansas"},"type":"Feature","geometry":null},{"properties":{"id":"a86pc2eeskss","2010 census population":"4339367","state":"kentucky"},"type":"Feature","geometry":null},{"properties":{"id":"a86pc2lnxxzv","2010 census population":"4533372","state":"louisiana"},"type":"Feature","geometry":null},{"properties":{"id":"a86pc2oq0eli","2010 census population":"1328361","state":"maine"},"type":"Feature","geometry":null},{"properties":{"id":"a86pc2k48w12","2010 census population":"5773552","state":"maryland"},"type":"Feature","geometry":null},{"properties":{"id":"a86pc2pq6r02","2010 census population":"6547629","state":"massachusetts"},"type":"Feature","geometry":null},{"properties":{"id":"a86pc2jxquy1","2010 census population":"9883640","state":"michigan"},"type":"Feature","geometry":null},{"properties":{"id":"a86pc2mrzuiu","2010 census population":"5303925","state":"minnesota"},"type":"Feature","geometry":null},{"properties":{"id":"a86pc2mggolk","2010 census population":"2967297","state":"mississippi"},"type":"Feature","geometry":null},{"properties":{"id":"a86pc2muivck","2010 census population":"5988927","state":"missouri"},"type":"Feature","geometry":null},{"properties":{"id":"a86pc2lj5ydo","2010 census population":"989415","state":"montana"},"type":"Feature","geometry":null},{"properties":{"id":"a86pc2t434sx","2010 census population":"1826341","state":"nebraska"},"type":"Feature","geometry":null},{"properties":{"id":"a86pc2iijlo5","2010 census population":"2700551","state":"nevada"},"type":"Feature","geometry":null},{"properties":{"id":"a86pc2ewsa6m","2010 census population":"1316470","state":"new hampshire"},"type":"Feature","geometry":null},{"properties":{"id":"a86pc2pd2yxj","2010 census population":"8791894","state":"new jersey"},"type":"Feature","geometry":null},{"properties":{"id":"a86pc2ei003j","2010 census population":"2059179","state":"new mexico"},"type":"Feature","geometry":null},{"properties":{"id":"a86pc2o8smq0","2010 census population":"19378102","state":"new york"},"type":"Feature","geometry":null},{"properties":{"id":"a86pc2rsb0di","2010 census population":"9535483","state":"north carolina"},"type":"Feature","geometry":null},{"properties":{"id":"a86pc2iybone","2010 census population":"672591","state":"north dakota"},"type":"Feature","geometry":null},{"properties":{"id":"a86pc2fzd2r8","2010 census population":"11536504","state":"ohio"},"type":"Feature","geometry":null},{"properties":{"id":"a86pc2j3syd6","2010 census population":"3751351","state":"oklahoma"},"type":"Feature","geometry":null},{"properties":{"id":"a86pc2onfzm2","2010 census population":"3831074","state":"oregon"},"type":"Feature","geometry":null},{"properties":{"id":"a86pc2naq7un","2010 census population":"12702379","state":"pennsylvania"},"type":"Feature","geometry":null},{"properties":{"id":"a86pc2mzhpe6","2010 census population":"1052567","state":"rhode island"},"type":"Feature","geometry":null},{"properties":{"id":"a86pc2pc0nbu","2010 census population":"4625364","state":"south carolina"},"type":"Feature","geometry":null},{"properties":{"id":"a86pc2hzm8lb","2010 census population":"814180","state":"south dakota"},"type":"Feature","geometry":null},{"properties":{"id":"a86pc2st6v9z","2010 census population":"6346105","state":"tennessee"},"type":"Feature","geometry":null},{"properties":{"id":"a86pc2jpyc18","2010 census population":"25145561","state":"texas"},"type":"Feature","geometry":null},{"properties":{"id":"a86pc2o6f1xd","2010 census population":"2763885","state":"utah"},"type":"Feature","geometry":null},{"properties":{"id":"a86pc2mwj4yg","2010 census population":"625741","state":"vermont"},"type":"Feature","geometry":null},{"properties":{"id":"a86pc2u2tsrc","2010 census population":"8001024","state":"virginia"},"type":"Feature","geometry":null},{"properties":{"id":"a86pc2smt8ol","2010 census population":"6724540","state":"washington"},"type":"Feature","geometry":null},{"properties":{"id":"a86pc2ncjq0g","2010 census population":"1852994","state":"west virginia"},"type":"Feature","geometry":null},{"properties":{"id":"a86pc2gvyyip","2010 census population":"5686986","state":"wisconsin"},"type":"Feature","geometry":null},{"properties":{"id":"a86pc2ueinjy","2010 census population":"563626","state":"wyoming"},"type":"Feature","geometry":null}],"is_temporal":false,"author":{"url":"","metadata":null,"contact_name":null,"contact_address":null,"source":null,"contact_phone":null},"source":"","pagination":{"sort":null,"start":0,"total":50,"limit":1000000},"state":"parsed","tags":"","published":"2014-08-15T01:15:03-04:00","id":237034}