{"type":"FeatureCollection","data_type":"Dataset","url_type":null,"permissions":[{"permissions":{"download":true,"view":true},"group_id":"everyone"}],"classification":null,"title":"deer-elk_farms","count":326,"stream_id":23760,"contributor":{"url":"http://geocommons.com/users/2","name":"data"},"data_attributes":null,"calculation_params":null,"icon_link":null,"link":"http://geocommons.com/overlays/23760.json","extent":[-95.8415,40.6101,-90.1889,43.4688],"geometry_types":["point"],"unique_name":null,"name":"deer-elk_farms","feature_count":326,"description":"","next_feature":null,"is_raster":false,"short_classification":"Y","stats":{},"features":[{"properties":{"PRESERVE":"5K Elk Ranch","CERVIDTYPE":"Elk","id":"a62c2na8q3z0","COUNTY":"MITCHELL"},"type":"Feature","geometry":{"type":"Point","coordinates":[-92.8497817579241,43.4197223115675]}},{"properties":{"PRESERVE":"Al Fuller","CERVIDTYPE":"Deer","id":"a62c2n5kha7g","COUNTY":"LINN"},"type":"Feature","geometry":{"type":"Point","coordinates":[-91.7365754178389,42.114227702664]}},{"properties":{"PRESERVE":"Alan deNeui","CERVIDTYPE":"Deer","id":"a62c2n9bnjlg","COUNTY":"BREMER"},"type":"Feature","geometry":{"type":"Point","coordinates":[-92.4193808046919,42.7877724806727]}},{"properties":{"PRESERVE":"Alton Snyder","CERVIDTYPE":"Deer","id":"a62c2n0eii2r","COUNTY":"MONTGOMERY"},"type":"Feature","geometry":{"type":"Point","coordinates":[-95.2526191130239,40.9847897093555]}},{"properties":{"PRESERVE":"Alvin Sindt","CERVIDTYPE":"Deer","id":"a62c2nbnof9b","COUNTY":"MUSCATINE"},"type":"Feature","geometry":{"type":"Point","coordinates":[-91.1051996823246,41.439267147753]}},{"properties":{"PRESERVE":"Anthony Funk","CERVIDTYPE":"Deer","id":"a62c2n03sozm","COUNTY":"WAYNE"},"type":"Feature","geometry":{"type":"Point","coordinates":[-93.495627634902,40.8205147862479]}},{"properties":{"PRESERVE":"Antler Ridge Elk Ranch","CERVIDTYPE":"Elk","id":"a62c2nex48cx","COUNTY":"LINN"},"type":"Feature","geometry":{"type":"Point","coordinates":[-91.5502221897978,41.8978925119456]}},{"properties":{"PRESERVE":"Arnie Stroberg","CERVIDTYPE":"Deer","id":"a62c2nehl3zz","COUNTY":"MITCHELL"},"type":"Feature","geometry":{"type":"Point","coordinates":[-92.7924552380081,43.2981209152083]}},{"properties":{"PRESERVE":"Arnold &amp; Marlene Duvall","CERVIDTYPE":"Deer","id":"a62c2n5ev42u","COUNTY":"WARREN"},"type":"Feature","geometry":{"type":"Point","coordinates":[-93.3868628051158,41.2055476806233]}},{"properties":{"PRESERVE":"Austin &amp; Erin Novak","CERVIDTYPE":"Deer","id":"a62c2netjpg6","COUNTY":"LINN"},"type":"Feature","geometry":{"type":"Point","coordinates":[-91.7734464892255,42.2522154682084]}},{"properties":{"PRESERVE":"Awesome Antlers Unlimited","CERVIDTYPE":"Elk","id":"a62c2nbujas7","COUNTY":"TAMA"},"type":"Feature","geometry":{"type":"Point","coordinates":[-92.3910378824562,41.8741230849395]}},{"properties":{"PRESERVE":"Barry McGrew","CERVIDTYPE":"Elk","id":"a62c2n9untyv","COUNTY":"TAMA"},"type":"Feature","geometry":{"type":"Point","coordinates":[-92.3910428319137,41.8741274973488]}},{"properties":{"PRESERVE":"Barry McGrew","CERVIDTYPE":"Deer","id":"a62c2n3esrz2","COUNTY":"TAMA"},"type":"Feature","geometry":{"type":"Point","coordinates":[-92.3912160435931,41.8739489424252]}},{"properties":{"PRESERVE":"Barry McGrew","CERVIDTYPE":null,"id":"a62c2neuleq8","COUNTY":"TAMA"},"type":"Feature","geometry":{"type":"Point","coordinates":[-92.3911812555466,41.8740000358748]}},{"properties":{"PRESERVE":"Barry McGrew","CERVIDTYPE":"Deer","id":"a62c2naoarf5","COUNTY":"TAMA"},"type":"Feature","geometry":{"type":"Point","coordinates":[-92.3552990551306,41.9085725445581]}},{"properties":{"PRESERVE":"Bill Colwell","CERVIDTYPE":null,"id":"a62c2nd6ucgp","COUNTY":"BLACK HAWK"},"type":"Feature","geometry":{"type":"Point","coordinates":[-92.4871316343361,42.5166514940773]}},{"properties":{"PRESERVE":"Bill Stanley","CERVIDTYPE":null,"id":"a62c2n46im4a","COUNTY":"POLK"},"type":"Feature","geometry":{"type":"Point","coordinates":[-93.4447118953889,41.6441696418317]}},{"properties":{"PRESERVE":"Bill Stanley","CERVIDTYPE":"Elk","id":"a62c2navsy9k","COUNTY":"POLK"},"type":"Feature","geometry":{"type":"Point","coordinates":[-93.4447956639868,41.6441693178308]}},{"properties":{"PRESERVE":"Black Eagle Elk Ranch","CERVIDTYPE":"Elk","id":"a62c2mz5o2bg","COUNTY":"BLACK HAWK"},"type":"Feature","geometry":{"type":"Point","coordinates":[-92.356146640582,42.3810682292087]}},{"properties":{"PRESERVE":"Bob &amp; Dave King","CERVIDTYPE":null,"id":"a62c2n1do1km","COUNTY":"FLOYD"},"type":"Feature","geometry":{"type":"Point","coordinates":[-92.7308933273169,43.1118751026478]}},{"properties":{"PRESERVE":"Bob Hitch","CERVIDTYPE":"Elk","id":"a62c2n4ra2ci","COUNTY":"TAYLOR"},"type":"Feature","geometry":{"type":"Point","coordinates":[-94.7526866376024,40.6345008482832]}},{"properties":{"PRESERVE":"Bob Hitch - JJ &amp; RR","CERVIDTYPE":null,"id":"a62c2n352c1r","COUNTY":"TAYLOR"},"type":"Feature","geometry":{"type":"Point","coordinates":[-94.7526725312114,40.6345151234628]}},{"properties":{"PRESERVE":"Bonnie Blanchard","CERVIDTYPE":"Deer","id":"a62c2mzs87xj","COUNTY":"DALLAS"},"type":"Feature","geometry":{"type":"Point","coordinates":[-94.1871397161772,41.580602231287]}},{"properties":{"PRESERVE":"Boone River Elk Farm","CERVIDTYPE":"Elk","id":"a62c2n72xjbn","COUNTY":"HAMILTON"},"type":"Feature","geometry":{"type":"Point","coordinates":[-93.8139712997153,42.4771868932557]}},{"properties":{"PRESERVE":"Brad Erger","CERVIDTYPE":"Deer","id":"a62c2n5yew7c","COUNTY":"BUCHANAN"},"type":"Feature","geometry":{"type":"Point","coordinates":[-91.7787785591124,42.3437398977628]}},{"properties":{"PRESERVE":"Brian &amp; Linda McLaughlin","CERVIDTYPE":null,"id":"a62c2mzedf2f","COUNTY":"DECATUR"},"type":"Feature","geometry":{"type":"Point","coordinates":[-93.7244575343728,40.7251159329876]}},{"properties":{"PRESERVE":"Brian McLaughlin","CERVIDTYPE":"Elk","id":"a62c2nb1tn5m","COUNTY":"DECATUR"},"type":"Feature","geometry":{"type":"Point","coordinates":[-93.7328159335328,40.694270442485]}},{"properties":{"PRESERVE":"Brian Michel","CERVIDTYPE":"Deer","id":"a62c2n6qvzpg","COUNTY":"WASHINGTON"},"type":"Feature","geometry":{"type":"Point","coordinates":[-91.5705116743236,41.4682735363841]}},{"properties":{"PRESERVE":"Brian Vinchattle","CERVIDTYPE":"Deer","id":"a62c2naxfhtg","COUNTY":"WEBSTER"},"type":"Feature","geometry":{"type":"Point","coordinates":[-94.0555955639789,42.2546199617426]}},{"properties":{"PRESERVE":"Bruce &amp; Kris Quick","CERVIDTYPE":"Deer","id":"a62c2ncrsofu","COUNTY":"RINGGOLD"},"type":"Feature","geometry":{"type":"Point","coordinates":[-94.1848914530327,40.8552192417615]}},{"properties":{"PRESERVE":"Bruce Hanson","CERVIDTYPE":"Elk","id":"a62c2n2svt1g","COUNTY":"KOSSUTH"},"type":"Feature","geometry":{"type":"Point","coordinates":[-94.0326779393072,43.0867136311231]}},{"properties":{"PRESERVE":"Bruce Hanson","CERVIDTYPE":null,"id":"a62c2nafyypj","COUNTY":"KOSSUTH"},"type":"Feature","geometry":{"type":"Point","coordinates":[-94.0324741556064,43.08681588024]}},{"properties":{"PRESERVE":"Bugle Ridge Elk Ranch","CERVIDTYPE":"Elk","id":"a62c2n47vxfn","COUNTY":"MONROE"},"type":"Feature","geometry":{"type":"Point","coordinates":[-92.6957481127075,40.9391643791801]}},{"properties":{"PRESERVE":"Carl J. Eddy","CERVIDTYPE":"Deer","id":"a62c2mznb3qp","COUNTY":"BUCHANAN"},"type":"Feature","geometry":{"type":"Point","coordinates":[-91.8208013642073,42.4327257386584]}},{"properties":{"PRESERVE":"Carroll County Coservation Board","CERVIDTYPE":"Deer","id":"a62c2n2bmbdb","COUNTY":"CARROLL"},"type":"Feature","geometry":{"type":"Point","coordinates":[-94.8573212423059,42.0856831673702]}},{"properties":{"PRESERVE":"Cedar River Elk Farm","CERVIDTYPE":"Elk","id":"a62c2n2olgpk","COUNTY":"BLACK HAWK"},"type":"Feature","geometry":{"type":"Point","coordinates":[-92.1412066078504,42.3257067168025]}},{"properties":{"PRESERVE":"Cedar View Elk Ranch","CERVIDTYPE":"Elk","id":"a62c2n0zhbn1","COUNTY":"CLAYTON"},"type":"Feature","geometry":{"type":"Point","coordinates":[-91.4496681096444,42.902942312654]}},{"properties":{"PRESERVE":"Chad Machart","CERVIDTYPE":"Deer","id":"a62c2n9w752t","COUNTY":"JONES"},"type":"Feature","geometry":{"type":"Point","coordinates":[-91.2854609412484,42.111291374037]}},{"properties":{"PRESERVE":"Charles Green","CERVIDTYPE":"Elk","id":"a62c2nch4n37","COUNTY":"ADAIR"},"type":"Feature","geometry":{"type":"Point","coordinates":[-94.3955465339829,41.2111817656903]}},{"properties":{"PRESERVE":"Charlotte Gaylord","CERVIDTYPE":"Deer","id":"a62c2nedfa7t","COUNTY":"LEE"},"type":"Feature","geometry":{"type":"Point","coordinates":[-91.3645608352783,40.630397485258]}},{"properties":{"PRESERVE":"Childers Farm","CERVIDTYPE":"Elk","id":"a62c2n760is1","COUNTY":"POLK"},"type":"Feature","geometry":{"type":"Point","coordinates":[-93.4826214728582,41.5840862326931]}},{"properties":{"PRESERVE":"Chuck Gross","CERVIDTYPE":"Elk","id":"a62c2na6eqpm","COUNTY":"POTTAWATTAMIE"},"type":"Feature","geometry":{"type":"Point","coordinates":[-95.203075897833,41.4391248787556]}},{"properties":{"PRESERVE":"Cindy Clingan","CERVIDTYPE":"Deer","id":"a62c2n9svxp4","COUNTY":"KEOKUK"},"type":"Feature","geometry":{"type":"Point","coordinates":[-92.3528452648453,41.3808884597977]}},{"properties":{"PRESERVE":"Clare Hoven","CERVIDTYPE":"Elk","id":"a62c2n2r63tr","COUNTY":"MONROE"},"type":"Feature","geometry":{"type":"Point","coordinates":[-92.6957688348621,40.9391644335288]}},{"properties":{"PRESERVE":"Clayton County Conservation Board","CERVIDTYPE":"Deer","id":"a62c2n4i0ywb","COUNTY":"CLAYTON"},"type":"Feature","geometry":{"type":"Point","coordinates":[-91.4408348354314,42.8387816739535]}},{"properties":{"PRESERVE":"Collora's Critters","CERVIDTYPE":"Deer","id":"a62c2n4td7hq","COUNTY":"HENRY"},"type":"Feature","geometry":{"type":"Point","coordinates":[-91.569113810597,40.9609360010298]}},{"properties":{"PRESERVE":"Crawford County Conservation Board","CERVIDTYPE":"Deer","id":"a62c2n0gwt61","COUNTY":"CRAWFORD"},"type":"Feature","geometry":{"type":"Point","coordinates":[-95.4414701679805,42.0283307916787]}},{"properties":{"PRESERVE":"D &amp; J Antlered Acres","CERVIDTYPE":"Deer","id":"a62c2nb9b5md","COUNTY":"LEE"},"type":"Feature","geometry":{"type":"Point","coordinates":[-91.3003334883875,40.7267686586387]}},{"properties":{"PRESERVE":"Dale &amp; Dean Olson","CERVIDTYPE":"Elk","id":"a62c2n2rkx3h","COUNTY":"WINNESHIEK"},"type":"Feature","geometry":{"type":"Point","coordinates":[-91.7035707330882,43.2978231489704]}},{"properties":{"PRESERVE":"Dale Helgeland","CERVIDTYPE":"Deer","id":"a62c2n9w93i2","COUNTY":"WINNEBAGO"},"type":"Feature","geometry":{"type":"Point","coordinates":[-93.7595563184345,43.3066854049948]}},{"properties":{"PRESERVE":"Dan Ferber/Sam Metzger","CERVIDTYPE":"Elk","id":"a62c2n5a8duf","COUNTY":"ADAIR"},"type":"Feature","geometry":{"type":"Point","coordinates":[-94.4126445466268,41.2039821826467]}},{"properties":{"PRESERVE":"Dan Lonneman","CERVIDTYPE":"Elk","id":"a62c2n3m8fub","COUNTY":"OSCEOLA"},"type":"Feature","geometry":{"type":"Point","coordinates":[-95.8415399546094,43.26536710827]}},{"properties":{"PRESERVE":"Dan Towers","CERVIDTYPE":null,"id":"a62c2n8k2ogg","COUNTY":"GREENE"},"type":"Feature","geometry":{"type":"Point","coordinates":[-94.5682443770269,41.984119027944]}},{"properties":{"PRESERVE":"Dan Towers","CERVIDTYPE":"Elk","id":"a62c2n73wcmi","COUNTY":"GREENE"},"type":"Feature","geometry":{"type":"Point","coordinates":[-94.5700813206275,42.1183972921591]}},{"properties":{"PRESERVE":"Dark Horse Elk Ranch","CERVIDTYPE":"Elk","id":"a62c2myztoad","COUNTY":"KOSSUTH"},"type":"Feature","geometry":{"type":"Point","coordinates":[-94.0083402486607,43.4302892759929]}},{"properties":{"PRESERVE":"Darrell Gutz","CERVIDTYPE":"Deer","id":"a62c2n1zglzh","COUNTY":"CALHOUN"},"type":"Feature","geometry":{"type":"Point","coordinates":[-94.6321259993265,42.5170116477905]}},{"properties":{"PRESERVE":"Darrell Rhoades","CERVIDTYPE":"Elk","id":"a62c2nbsls08","COUNTY":"WAPELLO"},"type":"Feature","geometry":{"type":"Point","coordinates":[-92.3490290616711,40.9409192753327]}},{"properties":{"PRESERVE":"Darwin Ruehlow","CERVIDTYPE":"Elk","id":"a62c2nc5h6cc","COUNTY":"MITCHELL"},"type":"Feature","geometry":{"type":"Point","coordinates":[-92.7910814395138,43.2982373009524]}},{"properties":{"PRESERVE":"Darwin Ruehlow","CERVIDTYPE":null,"id":"a62c2ncv5kni","COUNTY":"MITCHELL"},"type":"Feature","geometry":{"type":"Point","coordinates":[-92.7910544901264,43.2982568859076]}},{"properties":{"PRESERVE":"Dave Plotz","CERVIDTYPE":"Deer","id":"a62c2n1xze83","COUNTY":"IOWA"},"type":"Feature","geometry":{"type":"Point","coordinates":[-92.096138714486,41.7859224298497]}},{"properties":{"PRESERVE":"David Hill","CERVIDTYPE":"Deer","id":"a62c2n1boouu","COUNTY":"BUCHANAN"},"type":"Feature","geometry":{"type":"Point","coordinates":[-91.832908501284,42.4299918594901]}},{"properties":{"PRESERVE":"David Hosch","CERVIDTYPE":"Deer","id":"a62c2n2hqpm8","COUNTY":"JONES"},"type":"Feature","geometry":{"type":"Point","coordinates":[-91.1034216719819,42.2241871671016]}},{"properties":{"PRESERVE":"David King","CERVIDTYPE":"Elk","id":"a62c2n3zxkew","COUNTY":"FLOYD"},"type":"Feature","geometry":{"type":"Point","coordinates":[-92.7308991388404,43.1118553782038]}},{"properties":{"PRESERVE":"David L. Smith","CERVIDTYPE":"Elk","id":"a62c2nbld9s5","COUNTY":"HARDIN"},"type":"Feature","geometry":{"type":"Point","coordinates":[-93.2623592013285,42.5035854908439]}},{"properties":{"PRESERVE":"David Wilhelmi","CERVIDTYPE":"Deer","id":"a62c2nb1wguz","COUNTY":"LINN"},"type":"Feature","geometry":{"type":"Point","coordinates":[-91.7653538763705,42.1793861717475]}},{"properties":{"PRESERVE":"Dean Isaacson","CERVIDTYPE":"Elk","id":"a62c2mz2jmvg","COUNTY":"BOONE"},"type":"Feature","geometry":{"type":"Point","coordinates":[-93.8323671869749,41.8687639854019]}},{"properties":{"PRESERVE":"Dean Ryherd","CERVIDTYPE":"Deer","id":"a62c2n1l6sol","COUNTY":"TAMA"},"type":"Feature","geometry":{"type":"Point","coordinates":[-92.7072986748657,42.1668816066475]}},{"properties":{"PRESERVE":"Deb Bailey","CERVIDTYPE":"Deer","id":"a62c2n69rtbg","COUNTY":"CLAYTON"},"type":"Feature","geometry":{"type":"Point","coordinates":[-91.2841850639304,42.7480394323019]}},{"properties":{"PRESERVE":"Delaware County Conservation Board","CERVIDTYPE":"Deer","id":"a62c2n6xdmmy","COUNTY":"MADISON"},"type":"Feature","geometry":{"type":"Point","coordinates":[-93.844444704467,41.2056904604118]}},{"properties":{"PRESERVE":"Delbert  Lindstrom","CERVIDTYPE":null,"id":"a62c2n3os708","COUNTY":"HOWARD"},"type":"Feature","geometry":{"type":"Point","coordinates":[-92.1414523993232,43.3862399794075]}},{"properties":{"PRESERVE":"Delbert Lindstrom","CERVIDTYPE":"Elk","id":"a62c2n1wzc8x","COUNTY":"HOWARD"},"type":"Feature","geometry":{"type":"Point","coordinates":[-92.1414520370989,43.3862656086192]}},{"properties":{"PRESERVE":"Denise Smith","CERVIDTYPE":"Deer","id":"a62c2mzztw54","COUNTY":"MUSCATINE"},"type":"Feature","geometry":{"type":"Point","coordinates":[-91.3046730888091,41.4833444558618]}},{"properties":{"PRESERVE":"Dennis &amp; Nancy Osborn","CERVIDTYPE":"Deer","id":"a62c2n2dp53b","COUNTY":"BLACK HAWK"},"type":"Feature","geometry":{"type":"Point","coordinates":[-92.4934568808119,42.6349739792132]}},{"properties":{"PRESERVE":"Dennis Ciavarelli","CERVIDTYPE":"Elk","id":"a62c2n19eoie","COUNTY":"MITCHELL"},"type":"Feature","geometry":{"type":"Point","coordinates":[-92.7292634225625,43.4279493626955]}},{"properties":{"PRESERVE":"Dennis Ciaveralli","CERVIDTYPE":null,"id":"a62c2n9be1md","COUNTY":"MITCHELL"},"type":"Feature","geometry":{"type":"Point","coordinates":[-92.7293105851074,43.4279494748885]}},{"properties":{"PRESERVE":"Dennis Cooper","CERVIDTYPE":"Deer","id":"a62c2n3wm9g1","COUNTY":"MONTGOMERY"},"type":"Feature","geometry":{"type":"Point","coordinates":[-94.9847488665509,40.9906431978903]}},{"properties":{"PRESERVE":"Dennis Weaver","CERVIDTYPE":"Deer","id":"a62c2n60imu1","COUNTY":"FAYETTE"},"type":"Feature","geometry":{"type":"Point","coordinates":[-91.882690336963,42.7010793931958]}},{"properties":{"PRESERVE":"Deo Gloria Elk Ranch","CERVIDTYPE":"Elk","id":"a62c2nbylba4","COUNTY":"MAHASKA"},"type":"Feature","geometry":{"type":"Point","coordinates":[-92.6703936811581,41.48177743262]}},{"properties":{"PRESERVE":"Dick Heiken","CERVIDTYPE":"Deer","id":"a62c2napfwr9","COUNTY":"WARREN"},"type":"Feature","geometry":{"type":"Point","coordinates":[-93.5965310971597,41.4602601538847]}},{"properties":{"PRESERVE":"Don &amp; Phyllis Childers","CERVIDTYPE":null,"id":"a62c2ndaz6b8","COUNTY":"POLK"},"type":"Feature","geometry":{"type":"Point","coordinates":[-93.4826287438356,41.5840847528691]}},{"properties":{"PRESERVE":"Don Berg","CERVIDTYPE":"Elk","id":"a62c2n3607a5","COUNTY":"WAPELLO"},"type":"Feature","geometry":{"type":"Point","coordinates":[-92.3457637726905,41.0429977626228]}},{"properties":{"PRESERVE":"Don Childers","CERVIDTYPE":"Elk","id":"a62c2n0216ti","COUNTY":"POLK"},"type":"Feature","geometry":{"type":"Point","coordinates":[-93.4824840886164,41.5840868091308]}},{"properties":{"PRESERVE":"Donald &amp; Ronette Silver","CERVIDTYPE":"Deer","id":"a62c2naqwf7q","COUNTY":"LINN"},"type":"Feature","geometry":{"type":"Point","coordinates":[-91.4815218764891,42.170048654863]}},{"properties":{"PRESERVE":"Donald Huebner","CERVIDTYPE":"Deer","id":"a62c2n5fucyg","COUNTY":"LEE"},"type":"Feature","geometry":{"type":"Point","coordinates":[-91.3649993335525,40.6304036910257]}},{"properties":{"PRESERVE":"Donald Stevens","CERVIDTYPE":"Deer","id":"a62c2mz1h322","COUNTY":"JEFFERSON"},"type":"Feature","geometry":{"type":"Point","coordinates":[-92.0473535577737,40.9622194330912]}},{"properties":{"PRESERVE":"Douglas Pagel","CERVIDTYPE":"Deer","id":"a62c2n1n57s2","COUNTY":"FAYETTE"},"type":"Feature","geometry":{"type":"Point","coordinates":[-92.0221724984193,42.8207257463713]}},{"properties":{"PRESERVE":"Doyle Ruth","CERVIDTYPE":"Elk","id":"a62c2n3w76pj","COUNTY":"ADAIR"},"type":"Feature","geometry":{"type":"Point","coordinates":[-94.4167855172612,41.2032123640606]}},{"properties":{"PRESERVE":"Dwayne Eilers &amp; Karen Baethke","CERVIDTYPE":"Deer","id":"a62c2n55o156","COUNTY":"BLACK HAWK"},"type":"Feature","geometry":{"type":"Point","coordinates":[-92.2806143698859,42.5572676468087]}},{"properties":{"PRESERVE":"East Fork Elk Ranch","CERVIDTYPE":"Elk","id":"a62c2n20a9dw","COUNTY":"EMMET"},"type":"Feature","geometry":{"type":"Point","coordinates":[-94.5499336542565,43.4104761385338]}},{"properties":{"PRESERVE":"Eddie Schuver","CERVIDTYPE":"Deer","id":"a62c2myzj515","COUNTY":"HANCOCK"},"type":"Feature","geometry":{"type":"Point","coordinates":[-93.5561147455709,42.9516647562037]}},{"properties":{"PRESERVE":"Edward Brehm","CERVIDTYPE":"Deer","id":"a62c2n8tcmkl","COUNTY":"DUBUQUE"},"type":"Feature","geometry":{"type":"Point","coordinates":[-90.6648114678395,42.5009414144307]}},{"properties":{"PRESERVE":"Eric Aleksich","CERVIDTYPE":"Deer","id":"a62c2mzu20h5","COUNTY":"WEBSTER"},"type":"Feature","geometry":{"type":"Point","coordinates":[-93.9961249992733,42.3395152484999]}},{"properties":{"PRESERVE":"Fayette County Conservation Board","CERVIDTYPE":"Deer","id":"a62c2ndv087r","COUNTY":"FAYETTE"},"type":"Feature","geometry":{"type":"Point","coordinates":[-91.8388665481242,42.8639892524494]}},{"properties":{"PRESERVE":"Frank Abben","CERVIDTYPE":"Deer","id":"a62c2n3rl72i","COUNTY":"JONES"},"type":"Feature","geometry":{"type":"Point","coordinates":[-91.2820307144992,42.1109199670594]}},{"properties":{"PRESERVE":"Frank Blaine","CERVIDTYPE":"Elk","id":"a62c2neh0ahv","COUNTY":"KEOKUK"},"type":"Feature","geometry":{"type":"Point","coordinates":[-92.3484756173888,41.2157010947357]}},{"properties":{"PRESERVE":"Frank Reitsma","CERVIDTYPE":"Elk","id":"a62c2n5u7lsf","COUNTY":"MAHASKA"},"type":"Feature","geometry":{"type":"Point","coordinates":[-92.6787284203071,41.4915142021481]}},{"properties":{"PRESERVE":"Fred Huebner","CERVIDTYPE":"Deer","id":"a62c2ned5y5u","COUNTY":"KEOKUK"},"type":"Feature","geometry":{"type":"Point","coordinates":[-92.0371161194269,41.4965427116494]}},{"properties":{"PRESERVE":"Frederick C. Huebner","CERVIDTYPE":"Deer","id":"a62c2mztymb7","COUNTY":"KEOKUK"},"type":"Feature","geometry":{"type":"Point","coordinates":[-92.0371161194269,41.4965427116494]}},{"properties":{"PRESERVE":"Frederick Huebner","CERVIDTYPE":"Deer","id":"a62c2n5q7gsx","COUNTY":"KEOKUK"},"type":"Feature","geometry":{"type":"Point","coordinates":[-92.1195190523579,41.4714056846982]}},{"properties":{"PRESERVE":"Garrels Elk Farm","CERVIDTYPE":"Elk","id":"a62c2n0ninwu","COUNTY":"HENRY"},"type":"Feature","geometry":{"type":"Point","coordinates":[-91.5106392641647,40.9705736856358]}},{"properties":{"PRESERVE":"Gary Barrett","CERVIDTYPE":"Elk","id":"a62c2n2eqdg7","COUNTY":"EMMET"},"type":"Feature","geometry":{"type":"Point","coordinates":[-94.5505232349858,43.4104681446861]}},{"properties":{"PRESERVE":"Gary Blazek","CERVIDTYPE":null,"id":"a62c2n99gapy","COUNTY":"ADAMS"},"type":"Feature","geometry":{"type":"Point","coordinates":[-94.56965992787,41.0308829656034]}},{"properties":{"PRESERVE":"Gary Blazek","CERVIDTYPE":"Elk","id":"a62c2n3ecy70","COUNTY":"ADAMS"},"type":"Feature","geometry":{"type":"Point","coordinates":[-94.5702209636994,41.0305885564442]}},{"properties":{"PRESERVE":"Gary Meinders","CERVIDTYPE":"Elk","id":"a62c2n66d1i1","COUNTY":"KOSSUTH"},"type":"Feature","geometry":{"type":"Point","coordinates":[-94.0086767001616,43.2854716953461]}},{"properties":{"PRESERVE":"Gary Schnitzler","CERVIDTYPE":"Elk","id":"a62c2ncsc7js","COUNTY":"WINNESHIEK"},"type":"Feature","geometry":{"type":"Point","coordinates":[-91.8893701137789,43.4408796572679]}},{"properties":{"PRESERVE":"Gary Van Dyke","CERVIDTYPE":"Deer","id":"a62c2n6yw1x6","COUNTY":"KEOKUK"},"type":"Feature","geometry":{"type":"Point","coordinates":[-92.1191795301373,41.2034638956741]}},{"properties":{"PRESERVE":"Gary Yawn","CERVIDTYPE":"Elk","id":"a62c2nei98jr","COUNTY":"WARREN"},"type":"Feature","geometry":{"type":"Point","coordinates":[-93.7746095742738,41.1834613143187]}},{"properties":{"PRESERVE":"Gaylan D. Carpenter","CERVIDTYPE":"Deer","id":"a62c2nc7kq1a","COUNTY":"BREMER"},"type":"Feature","geometry":{"type":"Point","coordinates":[-92.4302448021175,42.7874270241717]}},{"properties":{"PRESERVE":"Gene Benischek","CERVIDTYPE":"Deer","id":"a62c2n24jkij","COUNTY":"JACKSON"},"type":"Feature","geometry":{"type":"Point","coordinates":[-90.8505557120237,42.079169281549]}},{"properties":{"PRESERVE":"George Burrell","CERVIDTYPE":"Deer","id":"a62c2nexa4i2","COUNTY":"IOWA"},"type":"Feature","geometry":{"type":"Point","coordinates":[-92.0956661272397,41.7859187195539]}},{"properties":{"PRESERVE":"Gerald Slessor","CERVIDTYPE":"Deer","id":"a62c2n125cef","COUNTY":"CHICKASAW"},"type":"Feature","geometry":{"type":"Point","coordinates":[-92.4934153444614,42.9505470072053]}},{"properties":{"PRESERVE":"Greg Kenyon","CERVIDTYPE":"Elk","id":"a62c2ndm7iys","COUNTY":"GUTHRIE"},"type":"Feature","geometry":{"type":"Point","coordinates":[-94.6293304260882,41.7209322410316]}},{"properties":{"PRESERVE":"Hanke's Elk R Us","CERVIDTYPE":"Elk","id":"a62c2n4kkpv0","COUNTY":"MITCHELL"},"type":"Feature","geometry":{"type":"Point","coordinates":[-92.6838975191197,43.417006615507]}},{"properties":{"PRESERVE":"Harold Bruns","CERVIDTYPE":"Deer","id":"a62c2ne7oz11","COUNTY":"LEE"},"type":"Feature","geometry":{"type":"Point","coordinates":[-91.1982359548496,40.6848312850825]}},{"properties":{"PRESERVE":"Harold Cubbage","CERVIDTYPE":"Elk","id":"a62c2mzjuzpk","COUNTY":"JEFFERSON"},"type":"Feature","geometry":{"type":"Point","coordinates":[-92.1325303136869,40.9230276964812]}},{"properties":{"PRESERVE":"Harold Lindaman","CERVIDTYPE":"Deer","id":"a62c2nccwons","COUNTY":"GRUNDY"},"type":"Feature","geometry":{"type":"Point","coordinates":[-92.9530364803204,42.469872497279]}},{"properties":{"PRESERVE":"Henry Bohlen","CERVIDTYPE":"Elk","id":"a62c2nerm44w","COUNTY":"DES MOINES"},"type":"Feature","geometry":{"type":"Point","coordinates":[-91.1971003382652,40.8364477756962]}},{"properties":{"PRESERVE":"Herb Dols","CERVIDTYPE":null,"id":"a62c2nc9wewg","COUNTY":"DALLAS"},"type":"Feature","geometry":{"type":"Point","coordinates":[-94.1887447629987,41.5806393296452]}},{"properties":{"PRESERVE":"Herb Dols","CERVIDTYPE":"Elk","id":"a62c2nd7bsjp","COUNTY":"DALLAS"},"type":"Feature","geometry":{"type":"Point","coordinates":[-94.1887299861434,41.5806178830872]}},{"properties":{"PRESERVE":"Herbert Wendling","CERVIDTYPE":"Deer","id":"a62c2n9u5u3h","COUNTY":"BUCHANAN"},"type":"Feature","geometry":{"type":"Point","coordinates":[-91.8314354918787,42.4314057902364]}},{"properties":{"PRESERVE":"Hitaga Winds Inc.","CERVIDTYPE":"Elk","id":"a62c2mz8iraj","COUNTY":"LINN"},"type":"Feature","geometry":{"type":"Point","coordinates":[-91.772544677191,42.2495685575106]}},{"properties":{"PRESERVE":"Hoven's Haven Elk Farm","CERVIDTYPE":"Elk","id":"a62c2n5kvi5r","COUNTY":"MONROE"},"type":"Feature","geometry":{"type":"Point","coordinates":[-92.6989338168406,40.9670975680835]}},{"properties":{"PRESERVE":"Howard &amp; Eric Myers","CERVIDTYPE":"Elk","id":"a62c2n2fmzfp","COUNTY":"HAMILTON"},"type":"Feature","geometry":{"type":"Point","coordinates":[-93.8140372974647,42.4771864232062]}},{"properties":{"PRESERVE":"Howard County Conservation Board","CERVIDTYPE":"Deer","id":"a62c2n5kmp7c","COUNTY":"HOWARD"},"type":"Feature","geometry":{"type":"Point","coordinates":[-92.1322123130275,43.3772350111664]}},{"properties":{"PRESERVE":"Howard Goettsch","CERVIDTYPE":"Deer","id":"a62c2n3gfpya","COUNTY":"SCOTT"},"type":"Feature","geometry":{"type":"Point","coordinates":[-90.6233638461917,41.7226229559494]}},{"properties":{"PRESERVE":"Irv Behnke","CERVIDTYPE":"Deer","id":"a62c2n9crvpq","COUNTY":"DUBUQUE"},"type":"Feature","geometry":{"type":"Point","coordinates":[-90.7023499759613,42.4619834795261]}},{"properties":{"PRESERVE":"Ivan Eden","CERVIDTYPE":"Deer","id":"a62c2n9nx4ol","COUNTY":"JONES"},"type":"Feature","geometry":{"type":"Point","coordinates":[-91.0728290250215,42.0804640956386]}},{"properties":{"PRESERVE":"JJ &amp; RR Farms","CERVIDTYPE":"Elk","id":"a62c2mzvevki","COUNTY":"TAYLOR"},"type":"Feature","geometry":{"type":"Point","coordinates":[-94.7526664302881,40.6345168687086]}},{"properties":{"PRESERVE":"James Becker","CERVIDTYPE":"Deer","id":"a62c2n4m71wx","COUNTY":"LINN"},"type":"Feature","geometry":{"type":"Point","coordinates":[-91.7649704152243,42.1807119976512]}},{"properties":{"PRESERVE":"James Carter","CERVIDTYPE":"Deer","id":"a62c2ndqyvi8","COUNTY":"KEOKUK"},"type":"Feature","geometry":{"type":"Point","coordinates":[-92.17920641718,41.333709012271]}},{"properties":{"PRESERVE":"James Jorgensen","CERVIDTYPE":"Deer","id":"a62c2n705n0c","COUNTY":"HANCOCK"},"type":"Feature","geometry":{"type":"Point","coordinates":[-93.5532303606942,43.1739972428827]}},{"properties":{"PRESERVE":"James Stauffer","CERVIDTYPE":"Deer","id":"a62c2nby08qd","COUNTY":"BUTLER"},"type":"Feature","geometry":{"type":"Point","coordinates":[-92.6413399629537,42.8442600343791]}},{"properties":{"PRESERVE":"Jason Hubbage","CERVIDTYPE":"Elk","id":"a62c2n73chsk","COUNTY":"JEFFERSON"},"type":"Feature","geometry":{"type":"Point","coordinates":[-91.880568811046,40.9047715944765]}},{"properties":{"PRESERVE":"Jason Wegner","CERVIDTYPE":"Deer","id":"a62c2n4a39dx","COUNTY":"CHICKASAW"},"type":"Feature","geometry":{"type":"Point","coordinates":[-92.3176603130036,43.0589786231066]}},{"properties":{"PRESERVE":"Jeff &amp; Linda Wilson","CERVIDTYPE":"Deer","id":"a62c2n0m0o22","COUNTY":"LINN"},"type":"Feature","geometry":{"type":"Point","coordinates":[-91.391444012671,41.9212535165533]}},{"properties":{"PRESERVE":"Jeff &amp; Peni Tussey","CERVIDTYPE":"Elk","id":"a62c2ncj5y5t","COUNTY":"ADAIR"},"type":"Feature","geometry":{"type":"Point","coordinates":[-94.2504284709345,41.1572365004265]}},{"properties":{"PRESERVE":"Jeff &amp; Penny Tussey","CERVIDTYPE":null,"id":"a62c2myjd9du","COUNTY":"ADAIR"},"type":"Feature","geometry":{"type":"Point","coordinates":[-94.2502198860238,41.1573987421464]}},{"properties":{"PRESERVE":"Jeff Brimeyer","CERVIDTYPE":"Deer","id":"a62c2nat8x1k","COUNTY":"SCOTT"},"type":"Feature","geometry":{"type":"Point","coordinates":[-90.3974979555767,41.6234219356944]}},{"properties":{"PRESERVE":"Jeff Fritz","CERVIDTYPE":"Deer","id":"a62c2nejhep8","COUNTY":"JEFFERSON"},"type":"Feature","geometry":{"type":"Point","coordinates":[-91.8169520275208,41.1373145789719]}},{"properties":{"PRESERVE":"Jeff Helvick","CERVIDTYPE":"Elk","id":"a62c2nb1dr98","COUNTY":"HUMBOLDT"},"type":"Feature","geometry":{"type":"Point","coordinates":[-94.1577659357079,42.8447434931376]}},{"properties":{"PRESERVE":"Jeff Shipley","CERVIDTYPE":"Elk","id":"a62c2neoqtnr","COUNTY":"KEOKUK"},"type":"Feature","geometry":{"type":"Point","coordinates":[-92.1726027168929,41.3251997929687]}},{"properties":{"PRESERVE":"Jeff Williams","CERVIDTYPE":"Deer","id":"a62c2nalxaua","COUNTY":"LINN"},"type":"Feature","geometry":{"type":"Point","coordinates":[-91.7739757834758,42.2523793683768]}},{"properties":{"PRESERVE":"Jerramy Paxton","CERVIDTYPE":"Elk","id":"a62c2ndzowx1","COUNTY":"KEOKUK"},"type":"Feature","geometry":{"type":"Point","coordinates":[-92.1590366583161,41.1990168907176]}},{"properties":{"PRESERVE":"Jerry Greiner","CERVIDTYPE":"Deer","id":"a62c2n93cql4","COUNTY":"WASHINGTON"},"type":"Feature","geometry":{"type":"Point","coordinates":[-91.7638836777664,41.3319589053491]}},{"properties":{"PRESERVE":"Jim &amp; Duane Bosier","CERVIDTYPE":"Elk","id":"a62c2n2oq6be","COUNTY":"BLACK HAWK"},"type":"Feature","geometry":{"type":"Point","coordinates":[-92.3563797647004,42.3810695351856]}},{"properties":{"PRESERVE":"Jim Conger","CERVIDTYPE":"Elk","id":"a62c2n7e10yy","COUNTY":"KEOKUK"},"type":"Feature","geometry":{"type":"Point","coordinates":[-92.1172215588333,41.2113711247761]}},{"properties":{"PRESERVE":"Jim Hoven","CERVIDTYPE":"Elk","id":"a62c2n2n2ddt","COUNTY":"MONROE"},"type":"Feature","geometry":{"type":"Point","coordinates":[-92.6989546192015,40.9670819083356]}},{"properties":{"PRESERVE":"Jim Keiser","CERVIDTYPE":"Elk","id":"a62c2n36vrvi","COUNTY":"IOWA"},"type":"Feature","geometry":{"type":"Point","coordinates":[-92.08588826067,41.7819019442232]}},{"properties":{"PRESERVE":"Jim Kerndt","CERVIDTYPE":"Deer","id":"a62c2ndvfn93","COUNTY":"ALLAMAKEE"},"type":"Feature","geometry":{"type":"Point","coordinates":[-91.3553514644633,43.3911136737011]}},{"properties":{"PRESERVE":"Jo Hull","CERVIDTYPE":"Elk","id":"a62c2nbyky0l","COUNTY":"BOONE"},"type":"Feature","geometry":{"type":"Point","coordinates":[-93.8207397148709,42.1273110212072]}},{"properties":{"PRESERVE":"Jody Grant","CERVIDTYPE":"Deer","id":"a62c2n8yhvim","COUNTY":"CERRO GORDO"},"type":"Feature","geometry":{"type":"Point","coordinates":[-93.4385405636897,42.9967625182144]}},{"properties":{"PRESERVE":"Joe Kramer","CERVIDTYPE":"Deer","id":"a62c2n22usbj","COUNTY":"SHELBY"},"type":"Feature","geometry":{"type":"Point","coordinates":[-95.2678036265763,41.6057331425258]}},{"properties":{"PRESERVE":"Joe Meder","CERVIDTYPE":"Deer","id":"a62c2n96p45g","COUNTY":"JOHNSON"},"type":"Feature","geometry":{"type":"Point","coordinates":[-91.4837841097834,41.8189561331643]}},{"properties":{"PRESERVE":"Joe Raschendorfer","CERVIDTYPE":"Deer","id":"a62c2n7oo5q9","COUNTY":"DES MOINES"},"type":"Feature","geometry":{"type":"Point","coordinates":[-91.1995937776119,40.8115918137636]}},{"properties":{"PRESERVE":"John B. DeMuth","CERVIDTYPE":"Deer","id":"a62c2mzwlx50","COUNTY":"BUCHANAN"},"type":"Feature","geometry":{"type":"Point","coordinates":[-91.8207946558474,42.4330829072467]}},{"properties":{"PRESERVE":"John Bauer","CERVIDTYPE":"Deer","id":"a62c2n7chlvo","COUNTY":"DUBUQUE"},"type":"Feature","geometry":{"type":"Point","coordinates":[-90.9578910721041,42.6019946041145]}},{"properties":{"PRESERVE":"John Duehr","CERVIDTYPE":"Deer","id":"a62c2myo6kr9","COUNTY":"ALLAMAKEE"},"type":"Feature","geometry":{"type":"Point","coordinates":[-91.3127176566457,43.1599577949688]}},{"properties":{"PRESERVE":"John Duehr","CERVIDTYPE":"Elk","id":"a62c2n94l7x6","COUNTY":"ALLAMAKEE"},"type":"Feature","geometry":{"type":"Point","coordinates":[-91.3125008549558,43.1599545984919]}},{"properties":{"PRESERVE":"Joseph Frederick","CERVIDTYPE":"Deer","id":"a62c2n14s7x9","COUNTY":"DUBUQUE"},"type":"Feature","geometry":{"type":"Point","coordinates":[-90.8377861375578,42.515669121098]}},{"properties":{"PRESERVE":"Joseph Loomis","CERVIDTYPE":"Deer","id":"a62c2ndw9h7h","COUNTY":"MONONA"},"type":"Feature","geometry":{"type":"Point","coordinates":[-95.7848075446439,41.9086122749955]}},{"properties":{"PRESERVE":"Judi &amp; Sam Collora","CERVIDTYPE":"Deer","id":"a62c2naqdb51","COUNTY":"HENRY"},"type":"Feature","geometry":{"type":"Point","coordinates":[-91.5872731941012,40.9583268951159]}},{"properties":{"PRESERVE":"K &amp; M Ranch, Inc","CERVIDTYPE":"Elk","id":"a62c2n160eav","COUNTY":"DECATUR"},"type":"Feature","geometry":{"type":"Point","coordinates":[-93.733228552593,40.6942678162556]}},{"properties":{"PRESERVE":"K M Ranch","CERVIDTYPE":null,"id":"a62c2n2b5mq6","COUNTY":"DECATUR"},"type":"Feature","geometry":{"type":"Point","coordinates":[-93.7332334372703,40.6942682387182]}},{"properties":{"PRESERVE":"Karl Lundgren","CERVIDTYPE":"Deer","id":"a62c2nbz9ntr","COUNTY":"MONTGOMERY"},"type":"Feature","geometry":{"type":"Point","coordinates":[-95.2505166650339,40.9832765616797]}},{"properties":{"PRESERVE":"Keiser Elk Farm","CERVIDTYPE":"Elk","id":"a62c2n8sfapp","COUNTY":"IOWA"},"type":"Feature","geometry":{"type":"Point","coordinates":[-92.0858244036495,41.7819014373072]}},{"properties":{"PRESERVE":"Ken Johanningmeier","CERVIDTYPE":"Deer","id":"a62c2ndruk2s","COUNTY":"CLAYTON"},"type":"Feature","geometry":{"type":"Point","coordinates":[-91.1995908708828,42.8885786035129]}},{"properties":{"PRESERVE":"Ken Paxton","CERVIDTYPE":"Elk","id":"a62c2n3q4n3m","COUNTY":"KEOKUK"},"type":"Feature","geometry":{"type":"Point","coordinates":[-92.1588616655542,41.198977741956]}},{"properties":{"PRESERVE":"Kendall Thedens","CERVIDTYPE":null,"id":"a62c2n7jw8z9","COUNTY":"BUCHANAN"},"type":"Feature","geometry":{"type":"Point","coordinates":[-91.869864639928,42.320991176371]}},{"properties":{"PRESERVE":"Kendall Thedens","CERVIDTYPE":"Elk","id":"a62c2mzhsv68","COUNTY":"BUCHANAN"},"type":"Feature","geometry":{"type":"Point","coordinates":[-91.8698657660681,42.3209283606486]}},{"properties":{"PRESERVE":"Kenneth Caylor","CERVIDTYPE":"Deer","id":"a62c2n7j4mct","COUNTY":"LUCAS"},"type":"Feature","geometry":{"type":"Point","coordinates":[-93.3109435630035,41.0224103114434]}},{"properties":{"PRESERVE":"Kenneth E. Caylor","CERVIDTYPE":"Deer","id":"a62c2n3hsm24","COUNTY":"LUCAS"},"type":"Feature","geometry":{"type":"Point","coordinates":[-93.3296504512422,41.0049984521096]}},{"properties":{"PRESERVE":"Kenneth McLaughlin","CERVIDTYPE":"Elk","id":"a62c2nbpmti0","COUNTY":"DECATUR"},"type":"Feature","geometry":{"type":"Point","coordinates":[-93.7332538924968,40.6942676549246]}},{"properties":{"PRESERVE":"Kenneth Pieper","CERVIDTYPE":"Deer","id":"a62c2nbggx5c","COUNTY":"ADAIR"},"type":"Feature","geometry":{"type":"Point","coordinates":[-94.3505273972214,41.4300777247524]}},{"properties":{"PRESERVE":"Kenny Johaningmier","CERVIDTYPE":"Elk","id":"a62c2n9u6jky","COUNTY":"CLAYTON"},"type":"Feature","geometry":{"type":"Point","coordinates":[-91.2381529122653,42.9269689978889]}},{"properties":{"PRESERVE":"Kevin Koster","CERVIDTYPE":"Elk","id":"a62c2n1sk97l","COUNTY":"MITCHELL"},"type":"Feature","geometry":{"type":"Point","coordinates":[-92.8497818222113,43.4196966799038]}},{"properties":{"PRESERVE":"Kevin Massmann","CERVIDTYPE":"Deer","id":"a62c2ncn5w9p","COUNTY":"OBRIEN"},"type":"Feature","geometry":{"type":"Point","coordinates":[-95.7435909404103,42.9566357217171]}},{"properties":{"PRESERVE":"Kim Culbertson","CERVIDTYPE":"Elk","id":"a62c2n0lnv10","COUNTY":"DUBUQUE"},"type":"Feature","geometry":{"type":"Point","coordinates":[-90.8018018879162,42.601247298914]}},{"properties":{"PRESERVE":"King's Nature Ranch","CERVIDTYPE":"Elk","id":"a62c2nb9osbe","COUNTY":"FLOYD"},"type":"Feature","geometry":{"type":"Point","coordinates":[-92.7308640385942,43.1118809296275]}},{"properties":{"PRESERVE":"LaVerne Westercamp","CERVIDTYPE":"Deer","id":"a62c2n4bra2e","COUNTY":"VAN BUREN"},"type":"Feature","geometry":{"type":"Point","coordinates":[-91.7204272046756,40.6196930159864]}},{"properties":{"PRESERVE":"Laboratory Animal Resources","CERVIDTYPE":"Deer","id":"a62c2mzc19ye","COUNTY":"STORY"},"type":"Feature","geometry":{"type":"Point","coordinates":[-93.6197078532725,42.035422334576]}},{"properties":{"PRESERVE":"Larry Baker","CERVIDTYPE":"Deer","id":"a62c2nasze09","COUNTY":"PALO ALTO"},"type":"Feature","geometry":{"type":"Point","coordinates":[-94.6414662359885,42.9553480761635]}},{"properties":{"PRESERVE":"Larry Bryan","CERVIDTYPE":"Deer","id":"a62c2n4cw43r","COUNTY":"ADAIR"},"type":"Feature","geometry":{"type":"Point","coordinates":[-94.3498170395703,41.4385276553064]}},{"properties":{"PRESERVE":"Larry Hamor, Jr.","CERVIDTYPE":"Deer","id":"a62c2nbbd5ky","COUNTY":"TAMA"},"type":"Feature","geometry":{"type":"Point","coordinates":[-92.5360495138134,41.9231143991136]}},{"properties":{"PRESERVE":"Larry Schwennen","CERVIDTYPE":"Deer","id":"a62c2nahbkig","COUNTY":"BUCHANAN"},"type":"Feature","geometry":{"type":"Point","coordinates":[-91.8314354918787,42.4314057902364]}},{"properties":{"PRESERVE":"Larry Stark","CERVIDTYPE":"Deer","id":"a62c2n0dnngl","COUNTY":"HAMILTON"},"type":"Feature","geometry":{"type":"Point","coordinates":[-93.8343441045315,42.4742856292757]}},{"properties":{"PRESERVE":"Larry Usher","CERVIDTYPE":null,"id":"a62c2n7fesgr","COUNTY":"CHICKASAW"},"type":"Feature","geometry":{"type":"Point","coordinates":[-92.4922376755053,43.0339467070451]}},{"properties":{"PRESERVE":"Larry Usher","CERVIDTYPE":"Elk","id":"a62c2nd7ud2x","COUNTY":"CHICKASAW"},"type":"Feature","geometry":{"type":"Point","coordinates":[-92.4922301079641,43.0339482568889]}},{"properties":{"PRESERVE":"Larry Usher","CERVIDTYPE":"Deer","id":"a62c2n5m88r2","COUNTY":"CHICKASAW"},"type":"Feature","geometry":{"type":"Point","coordinates":[-92.4922376769475,43.0339467003651]}},{"properties":{"PRESERVE":"Lawrence &amp; Karen Schminke","CERVIDTYPE":null,"id":"a62c2n86slho","COUNTY":"HAMILTON"},"type":"Feature","geometry":{"type":"Point","coordinates":[-93.8328246641662,42.2683042581568]}},{"properties":{"PRESERVE":"Lawrence Schminke","CERVIDTYPE":"Elk","id":"a62c2n35bizb","COUNTY":"HAMILTON"},"type":"Feature","geometry":{"type":"Point","coordinates":[-93.832341917479,42.2682535459245]}},{"properties":{"PRESERVE":"Layton Flower Elk Farm","CERVIDTYPE":"Elk","id":"a62c2nb7c8yx","COUNTY":"POTTAWATTAMIE"},"type":"Feature","geometry":{"type":"Point","coordinates":[-95.2024536734231,41.4394545364617]}},{"properties":{"PRESERVE":"Linda &amp; Edward Leslein","CERVIDTYPE":"Deer","id":"a62c2n5sn7dl","COUNTY":"DUBUQUE"},"type":"Feature","geometry":{"type":"Point","coordinates":[-90.8384410326508,42.5158444568615]}},{"properties":{"PRESERVE":"Linda Molyneux","CERVIDTYPE":"Deer","id":"a62c2n1do3l7","COUNTY":"WAYNE"},"type":"Feature","geometry":{"type":"Point","coordinates":[-93.1560391657911,40.7692347377358]}},{"properties":{"PRESERVE":"Lindstrom Farm","CERVIDTYPE":"Elk","id":"a62c2n6j5s1s","COUNTY":"WINNESHIEK"},"type":"Feature","geometry":{"type":"Point","coordinates":[-92.0547100569995,43.4586550252111]}},{"properties":{"PRESERVE":"Lizzard Creek Elk Farm","CERVIDTYPE":"Elk","id":"a62c2nf02lfi","COUNTY":"HUMBOLDT"},"type":"Feature","geometry":{"type":"Point","coordinates":[-94.4409814080058,42.6968663790001]}},{"properties":{"PRESERVE":"Lloyd Johaningmier","CERVIDTYPE":"Elk","id":"a62c2n97g25s","COUNTY":"ALLAMAKEE"},"type":"Feature","geometry":{"type":"Point","coordinates":[-91.3135931182214,43.1281809280736]}},{"properties":{"PRESERVE":"Lonesome Oak Elk Ranch","CERVIDTYPE":"Elk","id":"a62c2n6py3d6","COUNTY":"DUBUQUE"},"type":"Feature","geometry":{"type":"Point","coordinates":[-90.8017725253294,42.6012880038361]}},{"properties":{"PRESERVE":"Lonneman Wapiti Acres","CERVIDTYPE":"Elk","id":"a62c2nd65wdf","COUNTY":"OSCEOLA"},"type":"Feature","geometry":{"type":"Point","coordinates":[-95.8415049226847,43.2653679787583]}},{"properties":{"PRESERVE":"Lynn Pacovsky","CERVIDTYPE":"Deer","id":"a62c2n194zya","COUNTY":"CHICKASAW"},"type":"Feature","geometry":{"type":"Point","coordinates":[-92.3168872065065,43.0600896850571]}},{"properties":{"PRESERVE":"Marvin Engel","CERVIDTYPE":"Deer","id":"a62c2n2n7pn2","COUNTY":"BUENA VISTA"},"type":"Feature","geometry":{"type":"Point","coordinates":[-94.9732722902612,42.6530425835728]}},{"properties":{"PRESERVE":"Marvin Oyer","CERVIDTYPE":"Deer","id":"a62c2ncfngpc","COUNTY":"CLARKE"},"type":"Feature","geometry":{"type":"Point","coordinates":[-93.7050741726338,41.1357424400349]}},{"properties":{"PRESERVE":"Mary Shirazi","CERVIDTYPE":"Deer","id":"a62c2nalihoi","COUNTY":"JOHNSON"},"type":"Feature","geometry":{"type":"Point","coordinates":[-91.4834693693942,41.8189519841936]}},{"properties":{"PRESERVE":"McGrew Taxidermy, Whitetail Unlimited","CERVIDTYPE":"Deer","id":"a62c2n46no7n","COUNTY":"TAMA"},"type":"Feature","geometry":{"type":"Point","coordinates":[-92.3909885681708,41.8741207310262]}},{"properties":{"PRESERVE":"Meinders Elk Farm","CERVIDTYPE":"Elk","id":"a62c2nbxyztl","COUNTY":"KOSSUTH"},"type":"Feature","geometry":{"type":"Point","coordinates":[-94.0086416180087,43.2854720045561]}},{"properties":{"PRESERVE":"Mel Sampson","CERVIDTYPE":"Elk","id":"a62c2nf0w6d3","COUNTY":"WRIGHT"},"type":"Feature","geometry":{"type":"Point","coordinates":[-93.9031587423035,42.6252444770398]}},{"properties":{"PRESERVE":"Melvin Richards","CERVIDTYPE":"Elk","id":"a62c2nboulgt","COUNTY":"RINGGOLD"},"type":"Feature","geometry":{"type":"Point","coordinates":[-94.1837301860962,40.8461640672905]}},{"properties":{"PRESERVE":"Melvin Richards","CERVIDTYPE":null,"id":"a62c2ne210fo","COUNTY":"RINGGOLD"},"type":"Feature","geometry":{"type":"Point","coordinates":[-94.1859530167762,40.8555290546658]}},{"properties":{"PRESERVE":"Merle Tritch","CERVIDTYPE":"Elk","id":"a62c2n8w5bbc","COUNTY":"WORTH"},"type":"Feature","geometry":{"type":"Point","coordinates":[-93.3886994577262,43.364520533911]}},{"properties":{"PRESERVE":"Michael Escher","CERVIDTYPE":"Deer","id":"a62c2nb1g6ul","COUNTY":"WASHINGTON"},"type":"Feature","geometry":{"type":"Point","coordinates":[-91.7060238138308,41.4717062297084]}},{"properties":{"PRESERVE":"Michael Laabs","CERVIDTYPE":"Deer","id":"a62c2n9vv0ji","COUNTY":"GUTHRIE"},"type":"Feature","geometry":{"type":"Point","coordinates":[-94.3367900649271,41.8309091954071]}},{"properties":{"PRESERVE":"Mike Mikesh","CERVIDTYPE":"Elk","id":"a62c2ndodsm5","COUNTY":"BLACK HAWK"},"type":"Feature","geometry":{"type":"Point","coordinates":[-92.1412408035307,42.3257326094104]}},{"properties":{"PRESERVE":"Milt Ulfers","CERVIDTYPE":null,"id":"a62c2nezdm1g","COUNTY":"BUTLER"},"type":"Feature","geometry":{"type":"Point","coordinates":[-92.7936076647065,42.745696721011]}},{"properties":{"PRESERVE":"Milt Ulfers","CERVIDTYPE":"Elk","id":"a62c2n2g2sjf","COUNTY":"BUTLER"},"type":"Feature","geometry":{"type":"Point","coordinates":[-92.7936081978718,42.7455367872197]}},{"properties":{"PRESERVE":"Mitch Mueller","CERVIDTYPE":"Deer","id":"a62c2n5wi5ch","COUNTY":"BREMER"},"type":"Feature","geometry":{"type":"Point","coordinates":[-92.4302448021175,42.7874270241717]}},{"properties":{"PRESERVE":"Monroe County Conservation Board","CERVIDTYPE":"Deer","id":"a62c2n7s1ez4","COUNTY":"MONROE"},"type":"Feature","geometry":{"type":"Point","coordinates":[-92.7798202644951,41.0323135480445]}},{"properties":{"PRESERVE":"Monte Steinfeldt","CERVIDTYPE":"Elk","id":"a62c2n47tpb6","COUNTY":"WINNEBAGO"},"type":"Feature","geometry":{"type":"Point","coordinates":[-93.9103902831217,43.429325950535]}},{"properties":{"PRESERVE":"Monte Steinfeldt","CERVIDTYPE":null,"id":"a62c2n9ag02r","COUNTY":"WINNEBAGO"},"type":"Feature","geometry":{"type":"Point","coordinates":[-93.9103041012683,43.4293266355298]}},{"properties":{"PRESERVE":"Myron &amp; Jo Hull","CERVIDTYPE":null,"id":"a62c2n122z57","COUNTY":"BOONE"},"type":"Feature","geometry":{"type":"Point","coordinates":[-93.8206815820456,42.1272607228235]}},{"properties":{"PRESERVE":"Neil Bryan","CERVIDTYPE":"Deer","id":"a62c2nb7hc51","COUNTY":"ADAIR"},"type":"Feature","geometry":{"type":"Point","coordinates":[-94.350398101862,41.4380765399258]}},{"properties":{"PRESERVE":"North Ridge Elk Acres","CERVIDTYPE":"Elk","id":"a62c2n04xyw9","COUNTY":"KOSSUTH"},"type":"Feature","geometry":{"type":"Point","coordinates":[-94.215600865855,43.1955106334763]}},{"properties":{"PRESERVE":"North Star Hunting Preserve","CERVIDTYPE":"Deer","id":"a62c2n39cvqq","COUNTY":"TAMA"},"type":"Feature","geometry":{"type":"Point","coordinates":[-92.6995976234552,41.9967425803642]}},{"properties":{"PRESERVE":"Oak Creek Elk Ranch","CERVIDTYPE":"Elk","id":"a62c2n8i39yg","COUNTY":"WAPELLO"},"type":"Feature","geometry":{"type":"Point","coordinates":[-92.3459503079019,41.0432855891599]}},{"properties":{"PRESERVE":"Oakridge Elk Farm","CERVIDTYPE":"Elk","id":"a62c2n09i7c9","COUNTY":"BOONE"},"type":"Feature","geometry":{"type":"Point","coordinates":[-93.9289724203215,42.0065715149037]}},{"properties":{"PRESERVE":"Oakridge Elk Farm","CERVIDTYPE":"Elk","id":"a62c2n0wlt69","COUNTY":"MITCHELL"},"type":"Feature","geometry":{"type":"Point","coordinates":[-92.9331566401822,43.4127172714965]}},{"properties":{"PRESERVE":"Orville O'Connell","CERVIDTYPE":"Deer","id":"a62c2n1pd0jw","COUNTY":"WEBSTER"},"type":"Feature","geometry":{"type":"Point","coordinates":[-94.2018975651176,42.5241595786699]}},{"properties":{"PRESERVE":"Pagels Star Wind Exotics","CERVIDTYPE":"Deer","id":"a62c2nbzlsmf","COUNTY":"FAYETTE"},"type":"Feature","geometry":{"type":"Point","coordinates":[-92.021148141617,42.7839045422618]}},{"properties":{"PRESERVE":"Paxton's Elk &amp; Exotics","CERVIDTYPE":"Elk","id":"a62c2ne08w1s","COUNTY":"KEOKUK"},"type":"Feature","geometry":{"type":"Point","coordinates":[-92.1588454310933,41.198987349587]}},{"properties":{"PRESERVE":"Perry Fletcher","CERVIDTYPE":"Deer","id":"a62c2n8u6skr","COUNTY":"LOUISA"},"type":"Feature","geometry":{"type":"Point","coordinates":[-91.1846454661503,41.1812219735215]}},{"properties":{"PRESERVE":"Pete Marshall","CERVIDTYPE":"Deer","id":"a62c2n48o42c","COUNTY":"MONTGOMERY"},"type":"Feature","geometry":{"type":"Point","coordinates":[-95.0962912467953,40.9929380585074]}},{"properties":{"PRESERVE":"Pine Ridge Hunting Preserve","CERVIDTYPE":"Deer","id":"a62c2n1jzi1x","COUNTY":"DAVIS"},"type":"Feature","geometry":{"type":"Point","coordinates":[-92.4292677055934,40.8125990032348]}},{"properties":{"PRESERVE":"Ponderosa Farms","CERVIDTYPE":"Elk","id":"a62c2n70jo8s","COUNTY":"ADAIR"},"type":"Feature","geometry":{"type":"Point","coordinates":[-94.388266430672,41.1580174266096]}},{"properties":{"PRESERVE":"Quarry Creek Farms","CERVIDTYPE":"Elk","id":"a62c2n9kdfde","COUNTY":"DES MOINES"},"type":"Feature","geometry":{"type":"Point","coordinates":[-91.2075465728095,40.7366129757458]}},{"properties":{"PRESERVE":"R &amp; K Ranch","CERVIDTYPE":"Elk","id":"a62c2mynkpqn","COUNTY":"DES MOINES"},"type":"Feature","geometry":{"type":"Point","coordinates":[-91.1450637621617,41.0082720466069]}},{"properties":{"PRESERVE":"Raleigh Buckmaster","CERVIDTYPE":"Fallow Deer","id":"a62c2n3pyno8","COUNTY":"ALLAMAKEE"},"type":"Feature","geometry":{"type":"Point","coordinates":[-91.1200089714241,43.3116098565667]}},{"properties":{"PRESERVE":"Randy &amp; Denise Wiese","CERVIDTYPE":"Deer","id":"a62c2n66g3ri","COUNTY":"POLK"},"type":"Feature","geometry":{"type":"Point","coordinates":[-93.4655454241325,41.6375274461169]}},{"properties":{"PRESERVE":"Randy &amp; Diane Ruth","CERVIDTYPE":"Deer","id":"a62c2n5ckyqg","COUNTY":"BREMER"},"type":"Feature","geometry":{"type":"Point","coordinates":[-92.4952580989246,42.8627183184812]}},{"properties":{"PRESERVE":"Randy &amp; Mary Hanke","CERVIDTYPE":"Elk","id":"a62c2n0jfro7","COUNTY":"MITCHELL"},"type":"Feature","geometry":{"type":"Point","coordinates":[-92.6839663906407,43.4170068066891]}},{"properties":{"PRESERVE":"Raven Ridge Elk Ranch","CERVIDTYPE":"Elk","id":"a62c2nbpkqi8","COUNTY":"BOONE"},"type":"Feature","geometry":{"type":"Point","coordinates":[-93.831938850896,41.8690904161148]}},{"properties":{"PRESERVE":"Ray Patrilla","CERVIDTYPE":"Deer","id":"a62c2nc125ak","COUNTY":"BENTON"},"type":"Feature","geometry":{"type":"Point","coordinates":[-91.9487303912318,42.192897010576]}},{"properties":{"PRESERVE":"Raymond Eserhaut ,Jr.","CERVIDTYPE":"Deer","id":"a62c2n3acwd8","COUNTY":"MUSCATINE"},"type":"Feature","geometry":{"type":"Point","coordinates":[-91.0915017638782,41.4422992671247]}},{"properties":{"PRESERVE":"Renee Covington","CERVIDTYPE":"Deer","id":"a62c2nccoowe","COUNTY":"JONES"},"type":"Feature","geometry":{"type":"Point","coordinates":[-91.1109736600473,42.2247804490367]}},{"properties":{"PRESERVE":"Renee Kidman","CERVIDTYPE":"Deer","id":"a62c2n8ximao","COUNTY":"POLK"},"type":"Feature","geometry":{"type":"Point","coordinates":[-93.6703178774734,41.7389022011619]}},{"properties":{"PRESERVE":"Ribbon Rock Elk Farm","CERVIDTYPE":"Elk","id":"a62c2n14mcev","COUNTY":"GREENE"},"type":"Feature","geometry":{"type":"Point","coordinates":[-94.570082871343,42.1184600995437]}},{"properties":{"PRESERVE":"Richard Garrels","CERVIDTYPE":"Elk","id":"a62c2n0eespf","COUNTY":"HENRY"},"type":"Feature","geometry":{"type":"Point","coordinates":[-91.511430782057,40.9706301126872]}},{"properties":{"PRESERVE":"Richard Garrels","CERVIDTYPE":null,"id":"a62c2n9sqiv0","COUNTY":"HENRY"},"type":"Feature","geometry":{"type":"Point","coordinates":[-91.5106447409191,40.9705751207855]}},{"properties":{"PRESERVE":"Richard Tiffany","CERVIDTYPE":"Deer","id":"a62c2nc3zjg6","COUNTY":"LOUISA"},"type":"Feature","geometry":{"type":"Point","coordinates":[-91.3852846378328,41.2962982670049]}},{"properties":{"PRESERVE":"Richard Wiese","CERVIDTYPE":"Deer","id":"a62c2mzsd7na","COUNTY":"BUCHANAN"},"type":"Feature","geometry":{"type":"Point","coordinates":[-91.7783222861079,42.3433915413331]}},{"properties":{"PRESERVE":"Rick Brooks","CERVIDTYPE":"Deer","id":"a62c2n0avybu","COUNTY":"WRIGHT"},"type":"Feature","geometry":{"type":"Point","coordinates":[-93.6803001481206,42.8638155183634]}},{"properties":{"PRESERVE":"Rick Diemer","CERVIDTYPE":"Deer","id":"a62c2n8kbkhh","COUNTY":"POTTAWATTAMIE"},"type":"Feature","geometry":{"type":"Point","coordinates":[-95.325654537716,41.3764858018891]}},{"properties":{"PRESERVE":"Rick Rannels","CERVIDTYPE":null,"id":"a62c2nccrg0x","COUNTY":"HOWARD"},"type":"Feature","geometry":{"type":"Point","coordinates":[-92.4396182932943,43.4688043307659]}},{"properties":{"PRESERVE":"River Ridge Elk Ranch","CERVIDTYPE":"Elk","id":"a62c2n5xm2qb","COUNTY":"HUMBOLDT"},"type":"Feature","geometry":{"type":"Point","coordinates":[-94.1577213979169,42.8447439432719]}},{"properties":{"PRESERVE":"Roar N River Elk Ranch","CERVIDTYPE":"Elk","id":"a62c2n7t2jh9","COUNTY":"WRIGHT"},"type":"Feature","geometry":{"type":"Point","coordinates":[-93.9031594163472,42.6252911311551]}},{"properties":{"PRESERVE":"Robert Deegan","CERVIDTYPE":"Fallow Deer","id":"a62c2n6cgkbl","COUNTY":"JACKSON"},"type":"Feature","geometry":{"type":"Point","coordinates":[-90.7299970145414,42.1884627374413]}},{"properties":{"PRESERVE":"Robert E. West","CERVIDTYPE":"Deer","id":"a62c2n26d1j1","COUNTY":"SCOTT"},"type":"Feature","geometry":{"type":"Point","coordinates":[-90.6784158454864,41.4791618118967]}},{"properties":{"PRESERVE":"Robert Hitch","CERVIDTYPE":"Deer","id":"a62c2ncxm182","COUNTY":"TAYLOR"},"type":"Feature","geometry":{"type":"Point","coordinates":[-94.7506881717433,40.6611431554249]}},{"properties":{"PRESERVE":"Robert Mitchell","CERVIDTYPE":"Deer","id":"a62c2mz8blyg","COUNTY":"LOUISA"},"type":"Feature","geometry":{"type":"Point","coordinates":[-91.1846192017143,41.1821728579531]}},{"properties":{"PRESERVE":"Robert Schultz","CERVIDTYPE":null,"id":"a62c2n7943jn","COUNTY":"BUTLER"},"type":"Feature","geometry":{"type":"Point","coordinates":[-92.7802304796116,42.8986247616237]}},{"properties":{"PRESERVE":"Robert Schultz","CERVIDTYPE":"Elk","id":"a62c2n8ex7bm","COUNTY":"BUTLER"},"type":"Feature","geometry":{"type":"Point","coordinates":[-92.7802304796116,42.8986247616237]}},{"properties":{"PRESERVE":"Robert Thuerauf","CERVIDTYPE":"Elk","id":"a62c2n7n2kay","COUNTY":"LINN"},"type":"Feature","geometry":{"type":"Point","coordinates":[-91.5503076830279,41.8978307619318]}},{"properties":{"PRESERVE":"Robert West","CERVIDTYPE":"Deer","id":"a62c2nc8coz4","COUNTY":"SCOTT"},"type":"Feature","geometry":{"type":"Point","coordinates":[-90.6079330063987,41.5740023276173]}},{"properties":{"PRESERVE":"Robert, Marlene, Russell, &amp; Karla Hammes","CERVIDTYPE":"Elk","id":"a62c2nc325ii","COUNTY":"KEOKUK"},"type":"Feature","geometry":{"type":"Point","coordinates":[-92.3557313255828,41.301822258946]}},{"properties":{"PRESERVE":"Rock Creek Elk Farm","CERVIDTYPE":"Elk","id":"a62c2n2x3995","COUNTY":"KEOKUK"},"type":"Feature","geometry":{"type":"Point","coordinates":[-92.1174283427431,41.2113727092045]}},{"properties":{"PRESERVE":"Rod Schmidt","CERVIDTYPE":"Elk","id":"a62c2n4tm6ux","COUNTY":"WAYNE"},"type":"Feature","geometry":{"type":"Point","coordinates":[-93.4417300898883,40.6101002516825]}},{"properties":{"PRESERVE":"Rodney &amp; Janice Hess","CERVIDTYPE":"Deer","id":"a62c2n6mmqbc","COUNTY":"ALLAMAKEE"},"type":"Feature","geometry":{"type":"Point","coordinates":[-91.3517834102686,43.3910623171552]}},{"properties":{"PRESERVE":"Rodney Hess","CERVIDTYPE":"Elk","id":"a62c2n0q45du","COUNTY":"ALLAMAKEE"},"type":"Feature","geometry":{"type":"Point","coordinates":[-91.2606078647682,43.3731295270158]}},{"properties":{"PRESERVE":"Roger &amp; Pam Jagerson","CERVIDTYPE":null,"id":"a62c2n3xui23","COUNTY":"POLK"},"type":"Feature","geometry":{"type":"Point","coordinates":[-93.8149955016502,41.8621129117685]}},{"properties":{"PRESERVE":"Roger Ferriss","CERVIDTYPE":"Deer","id":"a62c2nc1nr9g","COUNTY":"TAMA"},"type":"Feature","geometry":{"type":"Point","coordinates":[-92.5344840859915,42.0535316562861]}},{"properties":{"PRESERVE":"Roger Jagerson","CERVIDTYPE":"Elk","id":"a62c2naxbj2o","COUNTY":"POLK"},"type":"Feature","geometry":{"type":"Point","coordinates":[-93.8153880971312,41.8621099501529]}},{"properties":{"PRESERVE":"Ronald &amp; Sarah Holst","CERVIDTYPE":"Deer","id":"a62c2n3vun36","COUNTY":"BUCHANAN"},"type":"Feature","geometry":{"type":"Point","coordinates":[-91.7838841173679,42.3431072321828]}},{"properties":{"PRESERVE":"Ronald Turner","CERVIDTYPE":"Deer","id":"a62c2nd0zvi9","COUNTY":"TAMA"},"type":"Feature","geometry":{"type":"Point","coordinates":[-92.3577164311544,42.2143670840646]}},{"properties":{"PRESERVE":"Ronnie Miller","CERVIDTYPE":"Deer","id":"a62c2ne9hosd","COUNTY":"CLAYTON"},"type":"Feature","geometry":{"type":"Point","coordinates":[-91.3699662251811,43.0495481075535]}},{"properties":{"PRESERVE":"Ross Copeland","CERVIDTYPE":"Elk","id":"a62c2navvpfo","COUNTY":"DES MOINES"},"type":"Feature","geometry":{"type":"Point","coordinates":[-91.144866455826,41.0079565413445]}},{"properties":{"PRESERVE":"Ryan Westercamp","CERVIDTYPE":"Deer","id":"a62c2nchkwv2","COUNTY":"VAN BUREN"},"type":"Feature","geometry":{"type":"Point","coordinates":[-91.9940141733738,40.7598012189956]}},{"properties":{"PRESERVE":"S &amp; K Elk Ranch","CERVIDTYPE":"Elk","id":"a62c2n4hnxlc","COUNTY":"ADAIR"},"type":"Feature","geometry":{"type":"Point","coordinates":[-94.4324847045709,41.2625254676542]}},{"properties":{"PRESERVE":"Sam Collora","CERVIDTYPE":"Deer","id":"a62c2n333rvv","COUNTY":"HENRY"},"type":"Feature","geometry":{"type":"Point","coordinates":[-91.5692513413684,40.9608689335696]}},{"properties":{"PRESERVE":"Sam Metzger","CERVIDTYPE":"Elk","id":"a62c2n860tc3","COUNTY":"KOSSUTH"},"type":"Feature","geometry":{"type":"Point","coordinates":[-94.0086767001616,43.2854716953461]}},{"properties":{"PRESERVE":"Sam Metzger Farm","CERVIDTYPE":"Elk","id":"a62c2n30ezkr","COUNTY":"ADAIR"},"type":"Feature","geometry":{"type":"Point","coordinates":[-94.4116665063852,41.204059605779]}},{"properties":{"PRESERVE":"Sid Moore","CERVIDTYPE":"Elk","id":"a62c2nf0b5s6","COUNTY":"KEOKUK"},"type":"Feature","geometry":{"type":"Point","coordinates":[-92.1193684462445,41.4716744742213]}},{"properties":{"PRESERVE":"Sid Moore, Little Creek Elk","CERVIDTYPE":null,"id":"a62c2n1v96zc","COUNTY":"KEOKUK"},"type":"Feature","geometry":{"type":"Point","coordinates":[-92.119302819661,41.4717228387995]}},{"properties":{"PRESERVE":"Southern Winds","CERVIDTYPE":"Deer","id":"a62c2n7nngy5","COUNTY":"DECATUR"},"type":"Feature","geometry":{"type":"Point","coordinates":[-93.7698273155516,40.6755930749556]}},{"properties":{"PRESERVE":"Stacy Fox","CERVIDTYPE":"Deer","id":"a62c2ncg05bu","COUNTY":"DES MOINES"},"type":"Feature","geometry":{"type":"Point","coordinates":[-91.3209815282072,40.8443802112766]}},{"properties":{"PRESERVE":"Stan Eimers","CERVIDTYPE":"Elk","id":"a62c2n6oj3p2","COUNTY":"KOSSUTH"},"type":"Feature","geometry":{"type":"Point","coordinates":[-94.2157620201756,43.1954295347441]}},{"properties":{"PRESERVE":"Stan Eimers","CERVIDTYPE":null,"id":"a62c2n80r1j9","COUNTY":"KOSSUTH"},"type":"Feature","geometry":{"type":"Point","coordinates":[-94.2156128234561,43.1955361733512]}},{"properties":{"PRESERVE":"Stephen Drake","CERVIDTYPE":"Deer","id":"a62c2n6nu16s","COUNTY":"CEDAR"},"type":"Feature","geometry":{"type":"Point","coordinates":[-91.2624065429814,41.6735919194886]}},{"properties":{"PRESERVE":"Steve Daugherty","CERVIDTYPE":"Elk","id":"a62c2ndf602v","COUNTY":"DES MOINES"},"type":"Feature","geometry":{"type":"Point","coordinates":[-91.2075748055382,40.7365721319484]}},{"properties":{"PRESERVE":"Steve Freiburger","CERVIDTYPE":"Deer","id":"a62c2n7nxqkp","COUNTY":"DUBUQUE"},"type":"Feature","geometry":{"type":"Point","coordinates":[-90.8373872344923,42.3414373756047]}},{"properties":{"PRESERVE":"Steve Neeley","CERVIDTYPE":"Elk","id":"a62c2n9ptz7h","COUNTY":"MITCHELL"},"type":"Feature","geometry":{"type":"Point","coordinates":[-92.933186204555,43.4127387918308]}},{"properties":{"PRESERVE":"Steve Steinmeyer","CERVIDTYPE":"Deer","id":"a62c2n9bs5sr","COUNTY":"GRUNDY"},"type":"Feature","geometry":{"type":"Point","coordinates":[-92.7915619149022,42.3764013794328]}},{"properties":{"PRESERVE":"Steven Jackson","CERVIDTYPE":"Deer","id":"a62c2n6a8go0","COUNTY":"CEDAR"},"type":"Feature","geometry":{"type":"Point","coordinates":[-91.2624065429814,41.6735919194886]}},{"properties":{"PRESERVE":"Sunset Ridge Ranch, Inc.","CERVIDTYPE":"Elk","id":"a62c2n13gdbs","COUNTY":"DECATUR"},"type":"Feature","geometry":{"type":"Point","coordinates":[-93.7328159335328,40.694270442485]}},{"properties":{"PRESERVE":"Teague Ranch","CERVIDTYPE":"Deer","id":"a62c2n8ndjzp","COUNTY":"DECATUR"},"type":"Feature","geometry":{"type":"Point","coordinates":[-93.8593481426918,40.7839563769644]}},{"properties":{"PRESERVE":"Ted Heimer","CERVIDTYPE":"Deer","id":"a62c2n52hm4i","COUNTY":"MITCHELL"},"type":"Feature","geometry":{"type":"Point","coordinates":[-92.729186235066,43.4280076143189]}},{"properties":{"PRESERVE":"Terrance O'Laughlin","CERVIDTYPE":"Deer","id":"a62c2n3j6mdu","COUNTY":"BUCHANAN"},"type":"Feature","geometry":{"type":"Point","coordinates":[-91.7275640874494,42.5146288508001]}},{"properties":{"PRESERVE":"Terry &amp; Wendy Webster","CERVIDTYPE":"Deer","id":"a62c2n6g1s1q","COUNTY":"BUCHANAN"},"type":"Feature","geometry":{"type":"Point","coordinates":[-91.8314354918787,42.4314057902364]}},{"properties":{"PRESERVE":"Thomas Bucknell","CERVIDTYPE":"Deer","id":"a62c2ndyo6qn","COUNTY":"FLOYD"},"type":"Feature","geometry":{"type":"Point","coordinates":[-92.7228046040282,43.0532104968345]}},{"properties":{"PRESERVE":"Thomas Lindecker","CERVIDTYPE":"Deer","id":"a62c2n8irv8v","COUNTY":"DUBUQUE"},"type":"Feature","geometry":{"type":"Point","coordinates":[-90.8382208611292,42.5158403049113]}},{"properties":{"PRESERVE":"Tic Ridge Elk","CERVIDTYPE":"Elk","id":"a62c2n48rf8v","COUNTY":"KEOKUK"},"type":"Feature","geometry":{"type":"Point","coordinates":[-92.1590364160161,41.1990358246157]}},{"properties":{"PRESERVE":"Tim Burres","CERVIDTYPE":"Deer","id":"a62c2n1car3n","COUNTY":"HUMBOLDT"},"type":"Feature","geometry":{"type":"Point","coordinates":[-94.029034911343,42.6900855675557]}},{"properties":{"PRESERVE":"Tim Garstang","CERVIDTYPE":"Deer","id":"a62c2n3wftja","COUNTY":"SCOTT"},"type":"Feature","geometry":{"type":"Point","coordinates":[-90.7007524293702,41.7132621230339]}},{"properties":{"PRESERVE":"Timber Dream Ranch","CERVIDTYPE":"Elk","id":"a62c2n2vmfwl","COUNTY":"POLK"},"type":"Feature","geometry":{"type":"Point","coordinates":[-93.8149556131612,41.8621130217568]}},{"properties":{"PRESERVE":"Timber Ghost","CERVIDTYPE":"Deer","id":"a62c2n46orjh","COUNTY":"DES MOINES"},"type":"Feature","geometry":{"type":"Point","coordinates":[-91.2372855304582,40.9398004449539]}},{"properties":{"PRESERVE":"Timothy Downs","CERVIDTYPE":"Deer","id":"a62c2n0cll9z","COUNTY":"BUTLER"},"type":"Feature","geometry":{"type":"Point","coordinates":[-92.6146818404396,42.688809506841]}},{"properties":{"PRESERVE":"Tom Brakke","CERVIDTYPE":"Deer","id":"a62c2n3odol7","COUNTY":"CERRO GORDO"},"type":"Feature","geometry":{"type":"Point","coordinates":[-93.3556752620919,43.1707496443062]}},{"properties":{"PRESERVE":"Tom Brakke","CERVIDTYPE":null,"id":"a62c2nb9637s","COUNTY":"CERRO GORDO"},"type":"Feature","geometry":{"type":"Point","coordinates":[-93.4058623257522,43.2137659357923]}},{"properties":{"PRESERVE":"Tom Kladivo","CERVIDTYPE":"Deer","id":"a62c2n4ur4en","COUNTY":"TAMA"},"type":"Feature","geometry":{"type":"Point","coordinates":[-92.5192037654799,42.1972297367472]}},{"properties":{"PRESERVE":"Tom Matuska","CERVIDTYPE":"Deer","id":"a62c2ne6vpxe","COUNTY":"DICKINSON"},"type":"Feature","geometry":{"type":"Point","coordinates":[-95.145588696653,43.4276229827647]}},{"properties":{"PRESERVE":"Tom R. Brakke","CERVIDTYPE":"Deer","id":"a62c2ndyujw1","COUNTY":"CERRO GORDO"},"type":"Feature","geometry":{"type":"Point","coordinates":[-93.4058513416661,43.2137669969849]}},{"properties":{"PRESERVE":"Tony &amp; Annette Thomas","CERVIDTYPE":"Deer","id":"a62c2n8pq7ai","COUNTY":"LOUISA"},"type":"Feature","geometry":{"type":"Point","coordinates":[-91.1852616476966,41.1817073291634]}},{"properties":{"PRESERVE":"Twin Oaks Elk Farm","CERVIDTYPE":"Elk","id":"a62c2n1jffz2","COUNTY":"GUTHRIE"},"type":"Feature","geometry":{"type":"Point","coordinates":[-94.6292666457374,41.7209331454421]}},{"properties":{"PRESERVE":"Ulfers Elk Ranch","CERVIDTYPE":"Elk","id":"a62c2n30ktvt","COUNTY":"BUTLER"},"type":"Feature","geometry":{"type":"Point","coordinates":[-92.8899275610733,42.7181474908431]}},{"properties":{"PRESERVE":"Valley Meadows Elk Ranch","CERVIDTYPE":"Elk","id":"a62c2mypxoly","COUNTY":"ALLAMAKEE"},"type":"Feature","geometry":{"type":"Point","coordinates":[-91.3548033966613,43.3910608607068]}},{"properties":{"PRESERVE":"Velvet Valley Elk Ranch","CERVIDTYPE":"Elk","id":"a62c2ncoj2c7","COUNTY":"KEOKUK"},"type":"Feature","geometry":{"type":"Point","coordinates":[-92.172458942562,41.3251987598736]}},{"properties":{"PRESERVE":"Vincent Jungers","CERVIDTYPE":"Deer","id":"a62c2n8te76x","COUNTY":"DUBUQUE"},"type":"Feature","geometry":{"type":"Point","coordinates":[-90.8386555871158,42.516011487131]}},{"properties":{"PRESERVE":"W. H. Jack, Jr.","CERVIDTYPE":"Deer","id":"a62c2nc8upa1","COUNTY":"TAMA"},"type":"Feature","geometry":{"type":"Point","coordinates":[-92.3557299913071,41.9085749575154]}},{"properties":{"PRESERVE":"Wallace Rhinehart","CERVIDTYPE":"Deer","id":"a62c2n2no5to","COUNTY":"POWESHIEK"},"type":"Feature","geometry":{"type":"Point","coordinates":[-92.4169910025141,41.7367427938934]}},{"properties":{"PRESERVE":"Wayne Volkl","CERVIDTYPE":"Elk","id":"a62c2n5lktzi","COUNTY":"LINN"},"type":"Feature","geometry":{"type":"Point","coordinates":[-91.6367834577463,42.246539944307]}},{"properties":{"PRESERVE":"Wild Life Lakes Elk Farm II","CERVIDTYPE":"Elk","id":"a62c2n0isxss","COUNTY":"DES MOINES"},"type":"Feature","geometry":{"type":"Point","coordinates":[-91.1967929488398,40.8365927562616]}},{"properties":{"PRESERVE":"Wild Rose Preserve","CERVIDTYPE":"Deer","id":"a62c2n9h8c6n","COUNTY":"WAYNE"},"type":"Feature","geometry":{"type":"Point","coordinates":[-93.5300728910692,40.7500420439418]}},{"properties":{"PRESERVE":"Willard Mourer","CERVIDTYPE":"Deer","id":"a62c2ncxyxgm","COUNTY":"JEFFERSON"},"type":"Feature","geometry":{"type":"Point","coordinates":[-92.1194872452426,41.0011222302299]}},{"properties":{"PRESERVE":"William Archer","CERVIDTYPE":"Deer","id":"a62c2nacla1m","COUNTY":"CLINTON"},"type":"Feature","geometry":{"type":"Point","coordinates":[-90.1889060575449,41.8450481347246]}},{"properties":{"PRESERVE":"William Colwell","CERVIDTYPE":"Deer","id":"a62c2n8o4whk","COUNTY":"BLACK HAWK"},"type":"Feature","geometry":{"type":"Point","coordinates":[-92.4872498250224,42.5166214067298]}},{"properties":{"PRESERVE":"William Hancock","CERVIDTYPE":"Elk","id":"a62c2naw5yj2","COUNTY":"WAPELLO"},"type":"Feature","geometry":{"type":"Point","coordinates":[-92.2923544550441,40.9430355636553]}},{"properties":{"PRESERVE":"William Wood","CERVIDTYPE":"Deer","id":"a62c2naeyr0d","COUNTY":"JOHNSON"},"type":"Feature","geometry":{"type":"Point","coordinates":[-91.7737489888044,41.653387875842]}},{"properties":{"PRESERVE":"Willis Ott","CERVIDTYPE":"Elk","id":"a62c2nd8akpg","COUNTY":"CLAYTON"},"type":"Feature","geometry":{"type":"Point","coordinates":[-91.4496685838654,42.9029233891116]}},{"properties":{"PRESERVE":"Windy Ridge Elk Farm","CERVIDTYPE":"Elk","id":"a62c2n5jaf0w","COUNTY":"RINGGOLD"},"type":"Feature","geometry":{"type":"Point","coordinates":[-94.1837043256316,40.8461643330174]}},{"properties":{"PRESERVE":"Windy Ridge Elk Ranch","CERVIDTYPE":"Elk","id":"a62c2n8apgdx","COUNTY":"HAMILTON"},"type":"Feature","geometry":{"type":"Point","coordinates":[-93.8323449372006,42.2684833262345]}}],"is_temporal":false,"author":{"url":"","metadata":"","contact_name":"","contact_address":"","source":"","contact_phone":""},"source":"","pagination":{"sort":null,"start":0,"total":326,"limit":1000000},"state":"complete","tags":"","published":"2014-08-10T16:30:09-04:00","id":23760}