{"type":"FeatureCollection","data_type":"Dataset","url_type":null,"permissions":[{"permissions":{"download":true,"view":true},"group_id":"everyone"}],"classification":null,"title":"Head_Start_Ad","count":31,"stream_id":237840,"contributor":{"url":"http://geocommons.com/users/45024","name":"GenevaHeadStart"},"data_attributes":null,"calculation_params":null,"icon_link":null,"link":"http://geocommons.com/overlays/237840.json","extent":[0.0,0.0,0.0,0.0],"geometry_types":[],"unique_name":null,"name":"Head_Start_Ad","feature_count":31,"description":"","next_feature":null,"is_raster":false,"short_classification":"Y","stats":{"column_4":{"max":14469,"mean":14427.0,"variance":125.8,"stdev":11.216059914248,"min":14424,"median":14424}},"features":[{"properties":{"column_4":14424,"city":"canandaigua","geo_score":0.0,"street address":"143 Telyea Street","id":"a633zfr4fz4e","geo_precision":"unmatched","state":"ny"},"type":"Feature","geometry":null},{"properties":{"column_4":14424,"city":"canandaigua","geo_score":0.0,"street address":"275 Jefferson Avenue","id":"a633zfr3vxlj","geo_precision":"unmatched","state":"ny"},"type":"Feature","geometry":null},{"properties":{"column_4":14424,"city":"canandaigua","geo_score":0.0,"street address":"346 West Ave","id":"a633zfpq1ncd","geo_precision":"unmatched","state":"ny"},"type":"Feature","geometry":null},{"properties":{"column_4":14424,"city":"canandaigua","geo_score":0.0,"street address":"2515 Andrews Road","id":"a633zfqrklbn","geo_precision":"unmatched","state":"ny"},"type":"Feature","geometry":null},{"properties":{"column_4":14424,"city":"canandaigua","geo_score":0.0,"street address":"65 Lisk Avenue","id":"a633zfo3yvtc","geo_precision":"unmatched","state":"ny"},"type":"Feature","geometry":null},{"properties":{"column_4":14424,"city":"canandaigua","geo_score":0.0,"street address":"348 Jefferson Avenue","id":"a633zg0up0lr","geo_precision":"unmatched","state":"ny"},"type":"Feature","geometry":null},{"properties":{"column_4":14424,"city":"canandaigua","geo_score":0.0,"street address":"4018 County Road 18","id":"a633zftgeabi","geo_precision":"unmatched","state":"ny"},"type":"Feature","geometry":null},{"properties":{"column_4":14424,"city":"canandaigua","geo_score":0.0,"street address":"81 Pleasant Street","id":"a633zg2nmuxk","geo_precision":"unmatched","state":"ny"},"type":"Feature","geometry":null},{"properties":{"column_4":14424,"city":"canandaigua","geo_score":0.0,"street address":"35254 East Lake Road","id":"a633zfuxcwtn","geo_precision":"unmatched","state":"ny"},"type":"Feature","geometry":null},{"properties":{"column_4":14424,"city":"canandaigua","geo_score":0.0,"street address":"275 Jefferson Avenue","id":"a633zfwor5dl","geo_precision":"unmatched","state":"ny"},"type":"Feature","geometry":null},{"properties":{"column_4":14424,"city":"canandaigua","geo_score":0.0,"street address":"5034 North Road","id":"a633zfzwcj8k","geo_precision":"unmatched","state":"ny"},"type":"Feature","geometry":null},{"properties":{"column_4":14424,"city":"canandaigua","geo_score":0.0,"street address":"308 Camelot Court","id":"a633zfxk46it","geo_precision":"unmatched","state":"ny"},"type":"Feature","geometry":null},{"properties":{"column_4":14424,"city":"canandaigua","geo_score":0.0,"street address":"275 Jefferson Ave","id":"a633zg0dt6zg","geo_precision":"unmatched","state":"ny"},"type":"Feature","geometry":null},{"properties":{"column_4":14424,"city":"canandaigua","geo_score":0.0,"street address":"129 Saltonstal Street","id":"a633zfr4nybj","geo_precision":"unmatched","state":"ny"},"type":"Feature","geometry":null},{"properties":{"column_4":14424,"city":"canandaigua","geo_score":0.0,"street address":"79 Saltonstal Street","id":"a633zfyilvcf","geo_precision":"unmatched","state":"ny"},"type":"Feature","geometry":null},{"properties":{"column_4":14424,"city":"canandaigua","geo_score":0.0,"street address":"43 Chapin Street","id":"a633zfsmrpd8","geo_precision":"unmatched","state":"ny"},"type":"Feature","geometry":null},{"properties":{"column_4":14424,"city":"canandaigua","geo_score":0.0,"street address":"53 Clark Street","id":"a633zg0hy89p","geo_precision":"unmatched","state":"ny"},"type":"Feature","geometry":null},{"properties":{"column_4":14424,"city":"canandaigua","geo_score":0.0,"street address":"3536 Hicox Road","id":"a633zfvgzyus","geo_precision":"unmatched","state":"ny"},"type":"Feature","geometry":null},{"properties":{"column_4":14424,"city":"canandaigua","geo_score":0.0,"street address":"2890 Conifer Drive","id":"a633zfq0d3ve","geo_precision":"unmatched","state":"ny"},"type":"Feature","geometry":null},{"properties":{"column_4":14424,"city":"canandaigua","geo_score":0.0,"street address":"80 Phoenix Street","id":"a633zg0kw4av","geo_precision":"unmatched","state":"ny"},"type":"Feature","geometry":null},{"properties":{"column_4":14425,"city":"canandaigua","geo_score":0.0,"street address":"6210 Maple Grove","id":"a633zfnvh1u4","geo_precision":"unmatched","state":"ny"},"type":"Feature","geometry":null},{"properties":{"column_4":14424,"city":"canandaigua","geo_score":0.0,"street address":"3660 Middle Cheshire Road","id":"a633zg0y6hgr","geo_precision":"unmatched","state":"ny"},"type":"Feature","geometry":null},{"properties":{"column_4":14425,"city":"farmington","geo_score":0.0,"street address":"1227 Lyman Way","id":"a633zfruc108","geo_precision":"unmatched","state":"ny"},"type":"Feature","geometry":null},{"properties":{"column_4":14469,"city":"canandaigua","geo_score":0.0,"street address":"14 Elm Street","id":"a633zfvzmvsq","geo_precision":"unmatched","state":"ny"},"type":"Feature","geometry":null},{"properties":{"column_4":14469,"city":"canandaigua","geo_score":0.0,"street address":"14 Elm Street","id":"a633zfowskim","geo_precision":"unmatched","state":"ny"},"type":"Feature","geometry":null},{"properties":{"column_4":14425,"city":"canandaigua","geo_score":0.0,"street address":"1263 Lyman Way","id":"a633zfu6q7bq","geo_precision":"unmatched","state":"ny"},"type":"Feature","geometry":null},{"properties":{"column_4":14424,"city":"canandaigua","geo_score":0.0,"street address":"170 Saltonstal Street","id":"a633zg0iw66j","geo_precision":"unmatched","state":"ny"},"type":"Feature","geometry":null},{"properties":{"column_4":14424,"city":"canandaigua","geo_score":0.0,"street address":"170 Saltonstal Street","id":"a633zg109u07","geo_precision":"unmatched","state":"ny"},"type":"Feature","geometry":null},{"properties":{"column_4":14424,"city":"canandaigua","geo_score":0.0,"street address":"2931 County Road 47","id":"a633zfscuv0y","geo_precision":"unmatched","state":"ny"},"type":"Feature","geometry":null},{"properties":{"column_4":14424,"city":"canandaigua","geo_score":0.0,"street address":"2890 Conifer Drive","id":"a633zfqxym01","geo_precision":"unmatched","state":"ny"},"type":"Feature","geometry":null},{"properties":{"column_4":14424,"city":"canandaigua","geo_score":0.0,"street address":"5001 Butler Road","id":"a633zfwrj9pz","geo_precision":"unmatched","state":"ny"},"type":"Feature","geometry":null}],"is_temporal":false,"author":{"url":"","metadata":null,"contact_name":null,"contact_address":null,"source":null,"contact_phone":null},"source":"","pagination":{"sort":null,"start":0,"total":31,"limit":1000000},"state":"complete","tags":"","published":"2014-08-15T02:38:46-04:00","id":237840}