{"type":"FeatureCollection","data_type":"Dataset","url_type":null,"permissions":[{"permissions":{"download":true,"view":true},"group_id":"everyone"}],"classification":null,"title":"zip 706","count":706,"stream_id":237921,"contributor":{"url":"http://geocommons.com/users/45049","name":"Mstimmler@mktgedge.com"},"data_attributes":null,"calculation_params":null,"icon_link":null,"link":"http://geocommons.com/overlays/237921.json","extent":[-157.829,20.8486,-69.1034,61.1958],"geometry_types":["point"],"unique_name":null,"name":"zip 706","feature_count":706,"description":"","next_feature":null,"is_raster":false,"short_classification":"Y","stats":{},"features":[{"properties":{"zip":"39157","geo_score":0.714,"id":"a633qd3erm17","geo_precision":"zip"},"type":"Feature","geometry":{"type":"Point","coordinates":[-90.13731,32.436064]}},{"properties":{"zip":"90027","geo_score":0.714,"id":"a633qd8esy2g","geo_precision":"zip"},"type":"Feature","geometry":{"type":"Point","coordinates":[-118.298662,33.786594]}},{"properties":{"zip":"94114","geo_score":0.714,"id":"a633qd4u5wzi","geo_precision":"zip"},"type":"Feature","geometry":{"type":"Point","coordinates":[-122.439332,37.758279]}},{"properties":{"zip":"55401","geo_score":0.714,"id":"a633qdblfyb1","geo_precision":"zip"},"type":"Feature","geometry":{"type":"Point","coordinates":[-93.273024,44.979265]}},{"properties":{"zip":"94110","geo_score":0.714,"id":"a633qdfaauvu","geo_precision":"zip"},"type":"Feature","geometry":{"type":"Point","coordinates":[-122.416281,37.748932]}},{"properties":{"zip":"60640","geo_score":0.714,"id":"a633qdc4k3eo","geo_precision":"zip"},"type":"Feature","geometry":{"type":"Point","coordinates":[-87.68732,41.811929]}},{"properties":{"zip":"2171","geo_score":0.714,"id":"a633qd5g0p9f","geo_precision":"zip"},"type":"Feature","geometry":{"type":"Point","coordinates":[-71.020327,42.272321]}},{"properties":{"zip":"11217","geo_score":0.714,"id":"a633qdeb35kq","geo_precision":"zip"},"type":"Feature","geometry":{"type":"Point","coordinates":[-73.980613,40.684948]}},{"properties":{"zip":"11101","geo_score":0.714,"id":"a633qd5jaoox","geo_precision":"zip"},"type":"Feature","geometry":{"type":"Point","coordinates":[-73.934502,40.744622]}},{"properties":{"zip":"19130","geo_score":0.714,"id":"a633qczk8zvr","geo_precision":"zip"},"type":"Feature","geometry":{"type":"Point","coordinates":[-75.169671,40.001161]}},{"properties":{"zip":"76155","geo_score":0.714,"id":"a633qd9e3adm","geo_precision":"zip"},"type":"Feature","geometry":{"type":"Point","coordinates":[-97.051969,32.831354]}},{"properties":{"zip":"11103","geo_score":0.714,"id":"a633qddsrzw0","geo_precision":"zip"},"type":"Feature","geometry":{"type":"Point","coordinates":[-73.903748,40.774546]}},{"properties":{"zip":"80033","geo_score":0.714,"id":"a633qd2j3nnv","geo_precision":"zip"},"type":"Feature","geometry":{"type":"Point","coordinates":[-105.108182,39.776986]}},{"properties":{"zip":"30096","geo_score":0.714,"id":"a633qd86vhtf","geo_precision":"zip"},"type":"Feature","geometry":{"type":"Point","coordinates":[-84.152915,33.984534]}},{"properties":{"zip":"6001","geo_score":0.714,"id":"a633qdesk3zd","geo_precision":"zip"},"type":"Feature","geometry":{"type":"Point","coordinates":[-72.863433,41.789821]}},{"properties":{"zip":"72211","geo_score":0.714,"id":"a633qd2t9ctz","geo_precision":"zip"},"type":"Feature","geometry":{"type":"Point","coordinates":[-92.430851,34.783664]}},{"properties":{"zip":"95120","geo_score":0.714,"id":"a633qd5cbjd3","geo_precision":"zip"},"type":"Feature","geometry":{"type":"Point","coordinates":[-121.895798,37.38478]}},{"properties":{"zip":"33559","geo_score":0.714,"id":"a633qd2xa0rw","geo_precision":"zip"},"type":"Feature","geometry":{"type":"Point","coordinates":[-82.364213,28.182035]}},{"properties":{"zip":"32205","geo_score":0.714,"id":"a633qdb2zm18","geo_precision":"zip"},"type":"Feature","geometry":{"type":"Point","coordinates":[-81.741489,30.365239]}},{"properties":{"zip":"80220","geo_score":0.714,"id":"a633qd5q5luc","geo_precision":"zip"},"type":"Feature","geometry":{"type":"Point","coordinates":[-104.910843,39.732436]}},{"properties":{"zip":"45208","geo_score":0.714,"id":"a633qd8o5lym","geo_precision":"zip"},"type":"Feature","geometry":{"type":"Point","coordinates":[-84.43383,39.142004]}},{"properties":{"zip":"98133","geo_score":0.714,"id":"a633qd0lb2mj","geo_precision":"zip"},"type":"Feature","geometry":{"type":"Point","coordinates":[-122.341518,47.755653]}},{"properties":{"zip":"48152","geo_score":0.714,"id":"a633qd26njez","geo_precision":"zip"},"type":"Feature","geometry":{"type":"Point","coordinates":[-83.370682,42.426235]}},{"properties":{"zip":"89121","geo_score":0.714,"id":"a633qdc8u2mu","geo_precision":"zip"},"type":"Feature","geometry":{"type":"Point","coordinates":[-115.09153,36.122271]}},{"properties":{"zip":"7020","geo_score":0.714,"id":"a633qd87q96g","geo_precision":"zip"},"type":"Feature","geometry":{"type":"Point","coordinates":[-73.940693,40.888155]}},{"properties":{"zip":"7060","geo_score":0.714,"id":"a633qd5lsbwr","geo_precision":"zip"},"type":"Feature","geometry":{"type":"Point","coordinates":[-74.47821,40.655935]}},{"properties":{"zip":"7506","geo_score":0.714,"id":"a633qdeyrpez","geo_precision":"zip"},"type":"Feature","geometry":{"type":"Point","coordinates":[-74.161788,40.954375]}},{"properties":{"zip":"90067","geo_score":0.714,"id":"a633qdd93ev9","geo_precision":"zip"},"type":"Feature","geometry":{"type":"Point","coordinates":[-118.417857,34.055565]}},{"properties":{"zip":"92128","geo_score":0.714,"id":"a633qd6qnuj6","geo_precision":"zip"},"type":"Feature","geometry":{"type":"Point","coordinates":[-117.060866,33.018655]}},{"properties":{"zip":"77018","geo_score":0.714,"id":"a633qdeddr7f","geo_precision":"zip"},"type":"Feature","geometry":{"type":"Point","coordinates":[-95.515219,29.925501]}},{"properties":{"zip":"21122","geo_score":0.714,"id":"a633qdffodee","geo_precision":"zip"},"type":"Feature","geometry":{"type":"Point","coordinates":[-76.479128,39.155387]}},{"properties":{"zip":"2143","geo_score":0.714,"id":"a633qd8q0alb","geo_precision":"zip"},"type":"Feature","geometry":{"type":"Point","coordinates":[-71.086997,42.396763]}},{"properties":{"zip":"87501","geo_score":0.714,"id":"a633qd7hiebc","geo_precision":"zip"},"type":"Feature","geometry":{"type":"Point","coordinates":[-105.975578,35.802528]}},{"properties":{"zip":"55406","geo_score":0.714,"id":"a633qdaxqmvg","geo_precision":"zip"},"type":"Feature","geometry":{"type":"Point","coordinates":[-93.278975,44.976015]}},{"properties":{"zip":"89510","geo_score":0.714,"id":"a633qd7tr2ah","geo_precision":"zip"},"type":"Feature","geometry":{"type":"Point","coordinates":[-119.600464,39.950185]}},{"properties":{"zip":"2420","geo_score":0.714,"id":"a633qdc18iiu","geo_precision":"zip"},"type":"Feature","geometry":{"type":"Point","coordinates":[-71.21665,42.45631]}},{"properties":{"zip":"94901","geo_score":0.714,"id":"a633qdbgderr","geo_precision":"zip"},"type":"Feature","geometry":{"type":"Point","coordinates":[-122.504286,37.970948]}},{"properties":{"zip":"77007","geo_score":0.714,"id":"a633qd97u40e","geo_precision":"zip"},"type":"Feature","geometry":{"type":"Point","coordinates":[-95.434241,29.83399]}},{"properties":{"zip":"33542","geo_score":0.714,"id":"a633qd8wqe4o","geo_precision":"zip"},"type":"Feature","geometry":{"type":"Point","coordinates":[-82.176294,28.236744]}},{"properties":{"zip":"22315","geo_score":0.714,"id":"a633qd9trt6x","geo_precision":"zip"},"type":"Feature","geometry":{"type":"Point","coordinates":[-77.147646,38.756466]}},{"properties":{"zip":"80203","geo_score":0.714,"id":"a633qdc5ek5x","geo_precision":"zip"},"type":"Feature","geometry":{"type":"Point","coordinates":[-104.970331,39.729205]}},{"properties":{"zip":"85716","geo_score":0.714,"id":"a633qd094qn0","geo_precision":"zip"},"type":"Feature","geometry":{"type":"Point","coordinates":[-110.92318,32.24425]}},{"properties":{"zip":"19038","geo_score":0.714,"id":"a633qd0x2ug3","geo_precision":"zip"},"type":"Feature","geometry":{"type":"Point","coordinates":[-75.144619,40.11011]}},{"properties":{"zip":"2130","geo_score":0.714,"id":"a633qd6p1edd","geo_precision":"zip"},"type":"Feature","geometry":{"type":"Point","coordinates":[-71.121097,42.309661]}},{"properties":{"zip":"85003","geo_score":0.714,"id":"a633qd2etny7","geo_precision":"zip"},"type":"Feature","geometry":{"type":"Point","coordinates":[-112.18717,33.276539]}},{"properties":{"zip":"32504","geo_score":0.714,"id":"a633qd943spv","geo_precision":"zip"},"type":"Feature","geometry":{"type":"Point","coordinates":[-87.316364,30.51964]}},{"properties":{"zip":"19118","geo_score":0.714,"id":"a633qd7nz1hv","geo_precision":"zip"},"type":"Feature","geometry":{"type":"Point","coordinates":[-75.189344,40.081222]}},{"properties":{"zip":"15238","geo_score":0.714,"id":"a633qd9opdck","geo_precision":"zip"},"type":"Feature","geometry":{"type":"Point","coordinates":[-79.931163,40.501735]}},{"properties":{"zip":"27278","geo_score":0.714,"id":"a633qdc3fm5a","geo_precision":"zip"},"type":"Feature","geometry":{"type":"Point","coordinates":[-79.119458,36.074585]}},{"properties":{"zip":"28801","geo_score":0.714,"id":"a633qdcmqpg7","geo_precision":"zip"},"type":"Feature","geometry":{"type":"Point","coordinates":[-82.567281,35.602711]}},{"properties":{"zip":"77006","geo_score":0.714,"id":"a633qczmwku0","geo_precision":"zip"},"type":"Feature","geometry":{"type":"Point","coordinates":[-95.434241,29.83399]}},{"properties":{"zip":"60654","geo_score":0.714,"id":"a633qddfcw52","geo_precision":"zip"},"type":"Feature","geometry":{"type":"Point","coordinates":[-87.68732,41.811929]}},{"properties":{"zip":"76103","geo_score":0.714,"id":"a633qd0s88ke","geo_precision":"zip"},"type":"Feature","geometry":{"type":"Point","coordinates":[-97.274093,32.756715]}},{"properties":{"zip":"33458","geo_score":0.714,"id":"a633qczwj5y6","geo_precision":"zip"},"type":"Feature","geometry":{"type":"Point","coordinates":[-80.430269,26.645895]}},{"properties":{"zip":"45402","geo_score":0.714,"id":"a633qd19du49","geo_precision":"zip"},"type":"Feature","geometry":{"type":"Point","coordinates":[-84.181639,39.756658]}},{"properties":{"zip":"10002","geo_score":0.714,"id":"a633qd6d3u5m","geo_precision":"zip"},"type":"Feature","geometry":{"type":"Point","coordinates":[-73.986427,40.718758]}},{"properties":{"zip":"43004","geo_score":0.714,"id":"a633qd92ydui","geo_precision":"zip"},"type":"Feature","geometry":{"type":"Point","coordinates":[-82.815453,40.018953]}},{"properties":{"zip":"19446","geo_score":0.714,"id":"a633qd6en94o","geo_precision":"zip"},"type":"Feature","geometry":{"type":"Point","coordinates":[-75.302953,40.245106]}},{"properties":{"zip":"23455","geo_score":0.714,"id":"a633qd39r529","geo_precision":"zip"},"type":"Feature","geometry":{"type":"Point","coordinates":[-76.129102,36.891814]}},{"properties":{"zip":"45385","geo_score":0.714,"id":"a633qd7wz3ia","geo_precision":"zip"},"type":"Feature","geometry":{"type":"Point","coordinates":[-83.98521,39.705615]}},{"properties":{"zip":"79118","geo_score":0.714,"id":"a633qd5auo1x","geo_precision":"zip"},"type":"Feature","geometry":{"type":"Point","coordinates":[-101.817965,35.05311]}},{"properties":{"zip":"22193","geo_score":0.714,"id":"a633qczlt699","geo_precision":"zip"},"type":"Feature","geometry":{"type":"Point","coordinates":[-77.352206,38.635952]}},{"properties":{"zip":"14534","geo_score":0.714,"id":"a633qd75xpxn","geo_precision":"zip"},"type":"Feature","geometry":{"type":"Point","coordinates":[-77.474161,43.059508]}},{"properties":{"zip":"75006","geo_score":0.714,"id":"a633qd003c2g","geo_precision":"zip"},"type":"Feature","geometry":{"type":"Point","coordinates":[-96.927505,32.981512]}},{"properties":{"zip":"8742","geo_score":0.714,"id":"a633qde5v93x","geo_precision":"zip"},"type":"Feature","geometry":{"type":"Point","coordinates":[-74.060693,40.090671]}},{"properties":{"zip":"6412","geo_score":0.714,"id":"a633qd2dfrl2","geo_precision":"zip"},"type":"Feature","geometry":{"type":"Point","coordinates":[-72.461805,41.39027]}},{"properties":{"zip":"22204","geo_score":0.714,"id":"a633qd3h6h9q","geo_precision":"zip"},"type":"Feature","geometry":{"type":"Point","coordinates":[-77.100868,38.860335]}},{"properties":{"zip":"22044","geo_score":0.714,"id":"a633qdbuz8r9","geo_precision":"zip"},"type":"Feature","geometry":{"type":"Point","coordinates":[-77.171091,38.882334]}},{"properties":{"zip":"5452","geo_score":0.714,"id":"a633qdeulu5c","geo_precision":"zip"},"type":"Feature","geometry":{"type":"Point","coordinates":[-73.025271,44.485558]}},{"properties":{"zip":"35205","geo_score":0.714,"id":"a633qd56hs8i","geo_precision":"zip"},"type":"Feature","geometry":{"type":"Point","coordinates":[-86.713044,33.569826]}},{"properties":{"zip":"11222","geo_score":0.714,"id":"a633qd5jkn5o","geo_precision":"zip"},"type":"Feature","geometry":{"type":"Point","coordinates":[-73.950971,40.723713]}},{"properties":{"zip":"4021","geo_score":0.714,"id":"a633qdbs6nju","geo_precision":"zip"},"type":"Feature","geometry":{"type":"Point","coordinates":[-70.314218,43.815634]}},{"properties":{"zip":"92101","geo_score":0.714,"id":"a633qdd9lbu6","geo_precision":"zip"},"type":"Feature","geometry":{"type":"Point","coordinates":[-117.174366,32.7211]}},{"properties":{"zip":"90066","geo_score":0.714,"id":"a633qda14m5d","geo_precision":"zip"},"type":"Feature","geometry":{"type":"Point","coordinates":[-118.430912,34.004734]}},{"properties":{"zip":"10024","geo_score":0.714,"id":"a633qd8cpzox","geo_precision":"zip"},"type":"Feature","geometry":{"type":"Point","coordinates":[-73.965653,40.80813]}},{"properties":{"zip":"7724","geo_score":0.714,"id":"a633qdftyowb","geo_precision":"zip"},"type":"Feature","geometry":{"type":"Point","coordinates":[-74.095418,40.280667]}},{"properties":{"zip":"98177","geo_score":0.714,"id":"a633qddrjnd5","geo_precision":"zip"},"type":"Feature","geometry":{"type":"Point","coordinates":[-122.369574,47.743709]}},{"properties":{"zip":"27529","geo_score":0.714,"id":"a633qd9qwul8","geo_precision":"zip"},"type":"Feature","geometry":{"type":"Point","coordinates":[-78.60056,35.692932]}},{"properties":{"zip":"77005","geo_score":0.714,"id":"a633qd8tshbz","geo_precision":"zip"},"type":"Feature","geometry":{"type":"Point","coordinates":[-95.433829,29.718008]}},{"properties":{"zip":"19046","geo_score":0.714,"id":"a633qde7r9kb","geo_precision":"zip"},"type":"Feature","geometry":{"type":"Point","coordinates":[-75.089618,40.081222]}},{"properties":{"zip":"32210","geo_score":0.714,"id":"a633qdebii61","geo_precision":"zip"},"type":"Feature","geometry":{"type":"Point","coordinates":[-81.715375,30.283851]}},{"properties":{"zip":"85748","geo_score":0.714,"id":"a633qd7uoriz","geo_precision":"zip"},"type":"Feature","geometry":{"type":"Point","coordinates":[-110.738517,32.213246]}},{"properties":{"zip":"98119","geo_score":0.714,"id":"a633qddncg6m","geo_precision":"zip"},"type":"Feature","geometry":{"type":"Point","coordinates":[-122.395962,47.641209]}},{"properties":{"zip":"75219","geo_score":0.714,"id":"a633qd60c6d4","geo_precision":"zip"},"type":"Feature","geometry":{"type":"Point","coordinates":[-96.777626,32.767268]}},{"properties":{"zip":"20904","geo_score":0.714,"id":"a633qd787emp","geo_precision":"zip"},"type":"Feature","geometry":{"type":"Point","coordinates":[-76.996366,39.061776]}},{"properties":{"zip":"13027","geo_score":0.714,"id":"a633qd3doaqt","geo_precision":"zip"},"type":"Feature","geometry":{"type":"Point","coordinates":[-76.302152,43.113678]}},{"properties":{"zip":"11946","geo_score":0.714,"id":"a633qd9o2f1w","geo_precision":"zip"},"type":"Feature","geometry":{"type":"Point","coordinates":[-72.543702,40.859822]}},{"properties":{"zip":"11215","geo_score":0.714,"id":"a633qdfc23fa","geo_precision":"zip"},"type":"Feature","geometry":{"type":"Point","coordinates":[-73.985972,40.670103]}},{"properties":{"zip":"92651","geo_score":0.714,"id":"a633qczo15os","geo_precision":"zip"},"type":"Feature","geometry":{"type":"Point","coordinates":[-117.754221,33.548359]}},{"properties":{"zip":"15233","geo_score":0.714,"id":"a633qd4u1pgr","geo_precision":"zip"},"type":"Feature","geometry":{"type":"Point","coordinates":[-80.024817,40.434436]}},{"properties":{"zip":"45230","geo_score":0.714,"id":"a633qd44ikus","geo_precision":"zip"},"type":"Feature","geometry":{"type":"Point","coordinates":[-84.364384,39.075617]}},{"properties":{"zip":"20815","geo_score":0.714,"id":"a633qd31ojm6","geo_precision":"zip"},"type":"Feature","geometry":{"type":"Point","coordinates":[-77.096089,38.965944]}},{"properties":{"zip":"19146","geo_score":0.714,"id":"a633qd2qye0y","geo_precision":"zip"},"type":"Feature","geometry":{"type":"Point","coordinates":[-75.175822,39.945112]}},{"properties":{"zip":"80118","geo_score":0.714,"id":"a633qdcgdhf1","geo_precision":"zip"},"type":"Feature","geometry":{"type":"Point","coordinates":[-104.855258,39.182491]}},{"properties":{"zip":"78758","geo_score":0.714,"id":"a633qdbhsyxi","geo_precision":"zip"},"type":"Feature","geometry":{"type":"Point","coordinates":[-97.708233,30.383637]}},{"properties":{"zip":"80209","geo_score":0.714,"id":"a633qd8gr9fd","geo_precision":"zip"},"type":"Feature","geometry":{"type":"Point","coordinates":[-104.964236,39.707332]}},{"properties":{"zip":"8096","geo_score":0.714,"id":"a633qd40y4zm","geo_precision":"zip"},"type":"Feature","geometry":{"type":"Point","coordinates":[-75.137121,39.84178]}},{"properties":{"zip":"21771","geo_score":0.714,"id":"a633qd3ciegk","geo_precision":"zip"},"type":"Feature","geometry":{"type":"Point","coordinates":[-77.17776,39.410103]}},{"properties":{"zip":"80220","geo_score":0.714,"id":"a633qdcrovlh","geo_precision":"zip"},"type":"Feature","geometry":{"type":"Point","coordinates":[-104.910843,39.732436]}},{"properties":{"zip":"21032","geo_score":0.714,"id":"a633qdfl0fgo","geo_precision":"zip"},"type":"Feature","geometry":{"type":"Point","coordinates":[-76.626632,39.04761]}},{"properties":{"zip":"15201","geo_score":0.714,"id":"a633qd17jg17","geo_precision":"zip"},"type":"Feature","geometry":{"type":"Point","coordinates":[-80.024817,40.434436]}},{"properties":{"zip":"98122","geo_score":0.714,"id":"a633qda607qq","geo_precision":"zip"},"type":"Feature","geometry":{"type":"Point","coordinates":[-121.803388,47.432251]}},{"properties":{"zip":"78249","geo_score":0.714,"id":"a633qdc2qaqu","geo_precision":"zip"},"type":"Feature","geometry":{"type":"Point","coordinates":[-98.461582,29.437532]}},{"properties":{"zip":"1013","geo_score":0.714,"id":"a633qd79uc53","geo_precision":"zip"},"type":"Feature","geometry":{"type":"Point","coordinates":[-72.667341,42.161492]}},{"properties":{"zip":"21044","geo_score":0.714,"id":"a633qd1mblww","geo_precision":"zip"},"type":"Feature","geometry":{"type":"Point","coordinates":[-76.886642,39.234828]}},{"properties":{"zip":"95014","geo_score":0.714,"id":"a633qdamegof","geo_precision":"zip"},"type":"Feature","geometry":{"type":"Point","coordinates":[-122.003015,37.314942]}},{"properties":{"zip":"98026","geo_score":0.714,"id":"a633qd6lagy5","geo_precision":"zip"},"type":"Feature","geometry":{"type":"Point","coordinates":[-122.326981,47.835318]}},{"properties":{"zip":"92124","geo_score":0.714,"id":"a633qd3rq9a4","geo_precision":"zip"},"type":"Feature","geometry":{"type":"Point","coordinates":[-117.082387,32.818733]}},{"properties":{"zip":"35216","geo_score":0.714,"id":"a633qd4k6cw7","geo_precision":"zip"},"type":"Feature","geometry":{"type":"Point","coordinates":[-86.798045,33.394276]}},{"properties":{"zip":"98506","geo_score":0.714,"id":"a633qd08wvxl","geo_precision":"zip"},"type":"Feature","geometry":{"type":"Point","coordinates":[-122.870043,47.104227]}},{"properties":{"zip":"10304","geo_score":0.714,"id":"a633qddv76s6","geo_precision":"zip"},"type":"Feature","geometry":{"type":"Point","coordinates":[-74.084308,40.60816]}},{"properties":{"zip":"15232","geo_score":0.714,"id":"a633qdc7pd5h","geo_precision":"zip"},"type":"Feature","geometry":{"type":"Point","coordinates":[-79.940885,40.451458]}},{"properties":{"zip":"2113","geo_score":0.714,"id":"a633qddo2inf","geo_precision":"zip"},"type":"Feature","geometry":{"type":"Point","coordinates":[-71.055001,42.365398]}},{"properties":{"zip":"97221","geo_score":0.714,"id":"a633qd4q2gx5","geo_precision":"zip"},"type":"Feature","geometry":{"type":"Point","coordinates":[-122.733888,45.50655]}},{"properties":{"zip":"92866","geo_score":0.714,"id":"a633qdc13sbp","geo_precision":"zip"},"type":"Feature","geometry":{"type":"Point","coordinates":[-117.769442,33.640302]}},{"properties":{"zip":"55410","geo_score":0.714,"id":"a633qdeqc7bi","geo_precision":"zip"},"type":"Feature","geometry":{"type":"Point","coordinates":[-93.318825,44.912364]}},{"properties":{"zip":"94103","geo_score":0.714,"id":"a633qdf7q9o8","geo_precision":"zip"},"type":"Feature","geometry":{"type":"Point","coordinates":[-122.412131,37.775678]}},{"properties":{"zip":"94965","geo_score":0.714,"id":"a633qdbgfzcf","geo_precision":"zip"},"type":"Feature","geometry":{"type":"Point","coordinates":[-122.581367,37.862149]}},{"properties":{"zip":"53202","geo_score":0.714,"id":"a633qd6on36r","geo_precision":"zip"},"type":"Feature","geometry":{"type":"Point","coordinates":[-87.894734,43.043213]}},{"properties":{"zip":"80033","geo_score":0.714,"id":"a633qd0nnh4v","geo_precision":"zip"},"type":"Feature","geometry":{"type":"Point","coordinates":[-105.108182,39.776986]}},{"properties":{"zip":"6069","geo_score":0.714,"id":"a633qd5bb3w0","geo_precision":"zip"},"type":"Feature","geometry":{"type":"Point","coordinates":[-73.474846,41.809261]}},{"properties":{"zip":"85003","geo_score":0.714,"id":"a633qd3i4fzd","geo_precision":"zip"},"type":"Feature","geometry":{"type":"Point","coordinates":[-112.18717,33.276539]}},{"properties":{"zip":"46077","geo_score":0.714,"id":"a633qdaeaqu7","geo_precision":"zip"},"type":"Feature","geometry":{"type":"Point","coordinates":[-86.301661,39.948652]}},{"properties":{"zip":"20874","geo_score":0.714,"id":"a633qd4zxmcu","geo_precision":"zip"},"type":"Feature","geometry":{"type":"Point","coordinates":[-77.243872,39.195384]}},{"properties":{"zip":"60654","geo_score":0.714,"id":"a633qd128g10","geo_precision":"zip"},"type":"Feature","geometry":{"type":"Point","coordinates":[-87.68732,41.811929]}},{"properties":{"zip":"64113","geo_score":0.714,"id":"a633qd3fje7w","geo_precision":"zip"},"type":"Feature","geometry":{"type":"Point","coordinates":[-94.525243,39.013805]}},{"properties":{"zip":"63119","geo_score":0.714,"id":"a633qd6j3zkt","geo_precision":"zip"},"type":"Feature","geometry":{"type":"Point","coordinates":[-90.336783,38.59033]}},{"properties":{"zip":"64111","geo_score":0.714,"id":"a633qd1lvzph","geo_precision":"zip"},"type":"Feature","geometry":{"type":"Point","coordinates":[-94.580234,39.05445]}},{"properties":{"zip":"78704","geo_score":0.714,"id":"a633qdehrsez","geo_precision":"zip"},"type":"Feature","geometry":{"type":"Point","coordinates":[-97.768832,30.240685]}},{"properties":{"zip":"22314","geo_score":0.714,"id":"a633qdefdx59","geo_precision":"zip"},"type":"Feature","geometry":{"type":"Point","coordinates":[-77.063587,38.811436]}},{"properties":{"zip":"80203","geo_score":0.714,"id":"a633qd3u3oov","geo_precision":"zip"},"type":"Feature","geometry":{"type":"Point","coordinates":[-104.970331,39.729205]}},{"properties":{"zip":"92672","geo_score":0.714,"id":"a633qd611qvb","geo_precision":"zip"},"type":"Feature","geometry":{"type":"Point","coordinates":[-117.573102,33.381141]}},{"properties":{"zip":"18372","geo_score":0.714,"id":"a633qd80f22q","geo_precision":"zip"},"type":"Feature","geometry":{"type":"Point","coordinates":[-75.323654,41.095823]}},{"properties":{"zip":"20105","geo_score":0.714,"id":"a633qd3qzg89","geo_precision":"zip"},"type":"Feature","geometry":{"type":"Point","coordinates":[-77.60375,38.957718]}},{"properties":{"zip":"40229","geo_score":0.714,"id":"a633qdbttuiw","geo_precision":"zip"},"type":"Feature","geometry":{"type":"Point","coordinates":[-85.685515,38.069789]}},{"properties":{"zip":"10021","geo_score":0.714,"id":"a633qd5wqjp9","geo_precision":"zip"},"type":"Feature","geometry":{"type":"Point","coordinates":[-73.960257,40.768823]}},{"properties":{"zip":"96825","geo_score":0.714,"id":"a633qdbyhy7v","geo_precision":"zip"},"type":"Feature","geometry":{"type":"Point","coordinates":[-157.705278,21.282778]}},{"properties":{"zip":"94123","geo_score":0.714,"id":"a633qd2cijhg","geo_precision":"zip"},"type":"Feature","geometry":{"type":"Point","coordinates":[-122.435732,37.79967]}},{"properties":{"zip":"90034","geo_score":0.714,"id":"a633qd3stmz3","geo_precision":"zip"},"type":"Feature","geometry":{"type":"Point","coordinates":[-118.405633,34.022789]}},{"properties":{"zip":"19063","geo_score":0.714,"id":"a633qd4bfvww","geo_precision":"zip"},"type":"Feature","geometry":{"type":"Point","coordinates":[-75.421029,39.945944]}},{"properties":{"zip":"11354","geo_score":0.714,"id":"a633qdf9z3t4","geo_precision":"zip"},"type":"Feature","geometry":{"type":"Point","coordinates":[-73.923471,40.715658]}},{"properties":{"zip":"10010","geo_score":0.714,"id":"a633qd7jh688","geo_precision":"zip"},"type":"Feature","geometry":{"type":"Point","coordinates":[-73.983542,40.739024]}},{"properties":{"zip":"7040","geo_score":0.714,"id":"a633qd9tf1w8","geo_precision":"zip"},"type":"Feature","geometry":{"type":"Point","coordinates":[-74.257925,40.722601]}},{"properties":{"zip":"7205","geo_score":0.714,"id":"a633qd4jmczk","geo_precision":"zip"},"type":"Feature","geometry":{"type":"Point","coordinates":[-74.229889,40.693823]}},{"properties":{"zip":"92110","geo_score":0.714,"id":"a633qd7l0wr6","geo_precision":"zip"},"type":"Feature","geometry":{"type":"Point","coordinates":[-117.207965,32.775849]}},{"properties":{"zip":"98177","geo_score":0.714,"id":"a633qd7l5amy","geo_precision":"zip"},"type":"Feature","geometry":{"type":"Point","coordinates":[-122.369574,47.743709]}},{"properties":{"zip":"91106","geo_score":0.714,"id":"a633qddv6gjl","geo_precision":"zip"},"type":"Feature","geometry":{"type":"Point","coordinates":[-118.298662,33.786594]}},{"properties":{"zip":"19010","geo_score":0.714,"id":"a633qd05hv8l","geo_precision":"zip"},"type":"Feature","geometry":{"type":"Point","coordinates":[-75.323798,40.025666]}},{"properties":{"zip":"20852","geo_score":0.714,"id":"a633qda0hvuw","geo_precision":"zip"},"type":"Feature","geometry":{"type":"Point","coordinates":[-77.108034,39.037331]}},{"properties":{"zip":"46227","geo_score":0.714,"id":"a633qdcxcu0i","geo_precision":"zip"},"type":"Feature","geometry":{"type":"Point","coordinates":[-86.13443,39.704767]}},{"properties":{"zip":"14607","geo_score":0.714,"id":"a633qd8twh4a","geo_precision":"zip"},"type":"Feature","geometry":{"type":"Point","coordinates":[-77.584888,43.152013]}},{"properties":{"zip":"97209","geo_score":0.714,"id":"a633qd56c1fk","geo_precision":"zip"},"type":"Feature","geometry":{"type":"Point","coordinates":[-122.683826,45.53199]}},{"properties":{"zip":"84010","geo_score":0.714,"id":"a633qddlwhqa","geo_precision":"zip"},"type":"Feature","geometry":{"type":"Point","coordinates":[-111.892993,40.855501]}},{"properties":{"zip":"28270","geo_score":0.714,"id":"a633qddtq5e1","geo_precision":"zip"},"type":"Feature","geometry":{"type":"Point","coordinates":[-80.762565,35.112999]}},{"properties":{"zip":"75165","geo_score":0.714,"id":"a633qdekhy0e","geo_precision":"zip"},"type":"Feature","geometry":{"type":"Point","coordinates":[-96.831387,32.474028]}},{"properties":{"zip":"7853","geo_score":0.714,"id":"a633qd5h10h8","geo_precision":"zip"},"type":"Feature","geometry":{"type":"Point","coordinates":[-74.850722,40.779822]}},{"properties":{"zip":"60645","geo_score":0.714,"id":"a633qd21b36o","geo_precision":"zip"},"type":"Feature","geometry":{"type":"Point","coordinates":[-87.730059,42.004476]}},{"properties":{"zip":"90290","geo_score":0.714,"id":"a633qd27o4uq","geo_precision":"zip"},"type":"Feature","geometry":{"type":"Point","coordinates":[-118.629252,34.107507]}},{"properties":{"zip":"60634","geo_score":0.714,"id":"a633qd3byghf","geo_precision":"zip"},"type":"Feature","geometry":{"type":"Point","coordinates":[-87.796449,41.952809]}},{"properties":{"zip":"10009","geo_score":0.714,"id":"a633qd14hjpj","geo_precision":"zip"},"type":"Feature","geometry":{"type":"Point","coordinates":[-73.980396,40.72775]}},{"properties":{"zip":"1776","geo_score":0.714,"id":"a633qd8ug9bs","geo_precision":"zip"},"type":"Feature","geometry":{"type":"Point","coordinates":[-71.437006,42.388983]}},{"properties":{"zip":"75238","geo_score":0.714,"id":"a633qd5p7un8","geo_precision":"zip"},"type":"Feature","geometry":{"type":"Point","coordinates":[-96.704725,32.878923]}},{"properties":{"zip":"12443","geo_score":0.714,"id":"a633qdd3lmmd","geo_precision":"zip"},"type":"Feature","geometry":{"type":"Point","coordinates":[-74.115476,41.853723]}},{"properties":{"zip":"7843","geo_score":0.714,"id":"a633qd035fib","geo_precision":"zip"},"type":"Feature","geometry":{"type":"Point","coordinates":[-74.648495,40.955654]}},{"properties":{"zip":"75224","geo_score":0.714,"id":"a633qde7o5iy","geo_precision":"zip"},"type":"Feature","geometry":{"type":"Point","coordinates":[-96.82623,32.710281]}},{"properties":{"zip":"33324","geo_score":0.714,"id":"a633qd39jk91","geo_precision":"zip"},"type":"Feature","geometry":{"type":"Point","coordinates":[-80.264371,26.125463]}},{"properties":{"zip":"97214","geo_score":0.714,"id":"a633qd5wmk7z","geo_precision":"zip"},"type":"Feature","geometry":{"type":"Point","coordinates":[-122.660373,45.515396]}},{"properties":{"zip":"91601","geo_score":0.714,"id":"a633qd6ccew7","geo_precision":"zip"},"type":"Feature","geometry":{"type":"Point","coordinates":[-118.298662,33.786594]}},{"properties":{"zip":"92705","geo_score":0.714,"id":"a633qdfeqejo","geo_precision":"zip"},"type":"Feature","geometry":{"type":"Point","coordinates":[-117.79811,33.777795]}},{"properties":{"zip":"20105","geo_score":0.714,"id":"a633qd8y8r0s","geo_precision":"zip"},"type":"Feature","geometry":{"type":"Point","coordinates":[-77.60375,38.957718]}},{"properties":{"zip":"94123","geo_score":0.714,"id":"a633qddyycln","geo_precision":"zip"},"type":"Feature","geometry":{"type":"Point","coordinates":[-122.435732,37.79967]}},{"properties":{"zip":"90064","geo_score":0.714,"id":"a633qd9cp5vl","geo_precision":"zip"},"type":"Feature","geometry":{"type":"Point","coordinates":[-118.298662,33.786594]}},{"properties":{"zip":"90046","geo_score":0.714,"id":"a633qdfm6140","geo_precision":"zip"},"type":"Feature","geometry":{"type":"Point","coordinates":[-118.298662,33.786594]}},{"properties":{"zip":"94705","geo_score":0.714,"id":"a633qdfw9jq8","geo_precision":"zip"},"type":"Feature","geometry":{"type":"Point","coordinates":[-122.242029,37.85983]}},{"properties":{"zip":"94705","geo_score":0.714,"id":"a633qdceh188","geo_precision":"zip"},"type":"Feature","geometry":{"type":"Point","coordinates":[-122.242029,37.85983]}},{"properties":{"zip":"6813","geo_score":0.714,"id":"a633qd4p3rmo","geo_precision":"zip"},"type":"Feature","geometry":{"type":"Point","coordinates":[-73.363661,41.308873]}},{"properties":{"zip":"55119","geo_score":0.714,"id":"a633qd06y775","geo_precision":"zip"},"type":"Feature","geometry":{"type":"Point","coordinates":[-92.976603,44.950799]}},{"properties":{"zip":"98133","geo_score":0.714,"id":"a633qd9zqp3n","geo_precision":"zip"},"type":"Feature","geometry":{"type":"Point","coordinates":[-122.341518,47.755653]}},{"properties":{"zip":"3801","geo_score":0.714,"id":"a633qd85x6rd","geo_precision":"zip"},"type":"Feature","geometry":{"type":"Point","coordinates":[-70.801165,43.064533]}},{"properties":{"zip":"7981","geo_score":0.714,"id":"a633qczklw1p","geo_precision":"zip"},"type":"Feature","geometry":{"type":"Point","coordinates":[-74.442376,40.812878]}},{"properties":{"zip":"1890","geo_score":0.714,"id":"a633qd5n79pu","geo_precision":"zip"},"type":"Feature","geometry":{"type":"Point","coordinates":[-71.125887,42.466762]}},{"properties":{"zip":"10010","geo_score":0.714,"id":"a633qczolu70","geo_precision":"zip"},"type":"Feature","geometry":{"type":"Point","coordinates":[-73.983542,40.739024]}},{"properties":{"zip":"85283","geo_score":0.714,"id":"a633qde0lm9t","geo_precision":"zip"},"type":"Feature","geometry":{"type":"Point","coordinates":[-111.962922,33.37088]}},{"properties":{"zip":"19128","geo_score":0.714,"id":"a633qddjtpqr","geo_precision":"zip"},"type":"Feature","geometry":{"type":"Point","coordinates":[-75.222402,40.038167]}},{"properties":{"zip":"90039","geo_score":0.714,"id":"a633qd2ycq6a","geo_precision":"zip"},"type":"Feature","geometry":{"type":"Point","coordinates":[-118.298662,33.786594]}},{"properties":{"zip":"33181","geo_score":0.714,"id":"a633qd2fyiax","geo_precision":"zip"},"type":"Feature","geometry":{"type":"Point","coordinates":[-80.155363,25.900437]}},{"properties":{"zip":"19030","geo_score":0.714,"id":"a633qddk3ncy","geo_precision":"zip"},"type":"Feature","geometry":{"type":"Point","coordinates":[-74.829107,40.177087]}},{"properties":{"zip":"48082","geo_score":0.714,"id":"a633qd8x8ac1","geo_precision":"zip"},"type":"Feature","geometry":{"type":"Point","coordinates":[-82.884117,42.526935]}},{"properties":{"zip":"10025","geo_score":0.714,"id":"a633qdch7kov","geo_precision":"zip"},"type":"Feature","geometry":{"type":"Point","coordinates":[-73.967778,40.798664]}},{"properties":{"zip":"70420","geo_score":0.714,"id":"a633qd262dx6","geo_precision":"zip"},"type":"Feature","geometry":{"type":"Point","coordinates":[-89.955328,30.477483]}},{"properties":{"zip":"62031","geo_score":0.714,"id":"a633qdd8wefd","geo_precision":"zip"},"type":"Feature","geometry":{"type":"Point","coordinates":[-90.548175,39.044215]}},{"properties":{"zip":"63111","geo_score":0.714,"id":"a633qd26fsq2","geo_precision":"zip"},"type":"Feature","geometry":{"type":"Point","coordinates":[-90.265947,38.556164]}},{"properties":{"zip":"21211","geo_score":0.714,"id":"a633qd67q544","geo_precision":"zip"},"type":"Feature","geometry":{"type":"Point","coordinates":[-76.649414,39.331773]}},{"properties":{"zip":"6489","geo_score":0.714,"id":"a633qdex3jy1","geo_precision":"zip"},"type":"Feature","geometry":{"type":"Point","coordinates":[-72.864268,41.562598]}},{"properties":{"zip":"33178","geo_score":0.714,"id":"a633qd9l05xu","geo_precision":"zip"},"type":"Feature","geometry":{"type":"Point","coordinates":[-80.381857,25.859963]}},{"properties":{"zip":"96815","geo_score":0.714,"id":"a633qd0pcjjt","geo_precision":"zip"},"type":"Feature","geometry":{"type":"Point","coordinates":[-157.829444,21.282778]}},{"properties":{"zip":"90046","geo_score":0.714,"id":"a633qd6tfscc","geo_precision":"zip"},"type":"Feature","geometry":{"type":"Point","coordinates":[-118.298662,33.786594]}},{"properties":{"zip":"95014","geo_score":0.714,"id":"a633qd9o0efj","geo_precision":"zip"},"type":"Feature","geometry":{"type":"Point","coordinates":[-122.003015,37.314942]}},{"properties":{"zip":"98101","geo_score":0.714,"id":"a633qd2ep88z","geo_precision":"zip"},"type":"Feature","geometry":{"type":"Point","coordinates":[-121.803388,47.432251]}},{"properties":{"zip":"94107","geo_score":0.714,"id":"a633qd8mh5pc","geo_precision":"zip"},"type":"Feature","geometry":{"type":"Point","coordinates":[-122.393681,37.769029]}},{"properties":{"zip":"10708","geo_score":0.714,"id":"a633qddzqebn","geo_precision":"zip"},"type":"Feature","geometry":{"type":"Point","coordinates":[-73.829978,40.938448]}},{"properties":{"zip":"92103","geo_score":0.714,"id":"a633qdd7rk3o","geo_precision":"zip"},"type":"Feature","geometry":{"type":"Point","coordinates":[-117.170517,32.746085]}},{"properties":{"zip":"35205","geo_score":0.714,"id":"a633qd0kyonp","geo_precision":"zip"},"type":"Feature","geometry":{"type":"Point","coordinates":[-86.713044,33.569826]}},{"properties":{"zip":"15202","geo_score":0.714,"id":"a633qdbitdro","geo_precision":"zip"},"type":"Feature","geometry":{"type":"Point","coordinates":[-80.094501,40.510068]}},{"properties":{"zip":"75070","geo_score":0.714,"id":"a633qdaeua1v","geo_precision":"zip"},"type":"Feature","geometry":{"type":"Point","coordinates":[-96.627018,33.230381]}},{"properties":{"zip":"97520","geo_score":0.714,"id":"a633qdd10mhj","geo_precision":"zip"},"type":"Feature","geometry":{"type":"Point","coordinates":[-122.384188,42.112083]}},{"properties":{"zip":"80130","geo_score":0.714,"id":"a633qd3cmbfb","geo_precision":"zip"},"type":"Feature","geometry":{"type":"Point","coordinates":[-104.920445,39.541893]}},{"properties":{"zip":"32608","geo_score":0.714,"id":"a633qde8lva3","geo_precision":"zip"},"type":"Feature","geometry":{"type":"Point","coordinates":[-82.407395,29.575246]}},{"properties":{"zip":"59911","geo_score":0.714,"id":"a633qd2nbvzb","geo_precision":"zip"},"type":"Feature","geometry":{"type":"Point","coordinates":[-114.050388,48.001617]}},{"properties":{"zip":"98115","geo_score":0.714,"id":"a633qda7jmg0","geo_precision":"zip"},"type":"Feature","geometry":{"type":"Point","coordinates":[-122.295682,47.686765]}},{"properties":{"zip":"11230","geo_score":0.714,"id":"a633qdei6wbv","geo_precision":"zip"},"type":"Feature","geometry":{"type":"Point","coordinates":[-73.966109,40.62251]}},{"properties":{"zip":"7940","geo_score":0.714,"id":"a633qddgjmtk","geo_precision":"zip"},"type":"Feature","geometry":{"type":"Point","coordinates":[-74.423019,40.7582]}},{"properties":{"zip":"92115","geo_score":0.714,"id":"a633qd99iiob","geo_precision":"zip"},"type":"Feature","geometry":{"type":"Point","coordinates":[-117.070688,32.7576]}},{"properties":{"zip":"78758","geo_score":0.714,"id":"a633qd77mg2l","geo_precision":"zip"},"type":"Feature","geometry":{"type":"Point","coordinates":[-97.708233,30.383637]}},{"properties":{"zip":"2446","geo_score":0.714,"id":"a633qd2k52xp","geo_precision":"zip"},"type":"Feature","geometry":{"type":"Point","coordinates":[-71.123046,42.343097]}},{"properties":{"zip":"2118","geo_score":0.714,"id":"a633qd7aavdj","geo_precision":"zip"},"type":"Feature","geometry":{"type":"Point","coordinates":[-71.072854,42.336162]}},{"properties":{"zip":"92614","geo_score":0.714,"id":"a633qd0ub2sf","geo_precision":"zip"},"type":"Feature","geometry":{"type":"Point","coordinates":[-117.827913,33.685319]}},{"properties":{"zip":"19319","geo_score":0.714,"id":"a633qdfzxqbe","geo_precision":"zip"},"type":"Feature","geometry":{"type":"Point","coordinates":[-75.522168,39.920918]}},{"properties":{"zip":"43201","geo_score":0.714,"id":"a633qdc2pth0","geo_precision":"zip"},"type":"Feature","geometry":{"type":"Point","coordinates":[-83.011389,39.969036]}},{"properties":{"zip":"46032","geo_score":0.714,"id":"a633qd1gjsbn","geo_precision":"zip"},"type":"Feature","geometry":{"type":"Point","coordinates":[-86.061652,39.961427]}},{"properties":{"zip":"2143","geo_score":0.714,"id":"a633qczyn86o","geo_precision":"zip"},"type":"Feature","geometry":{"type":"Point","coordinates":[-71.086997,42.396763]}},{"properties":{"zip":"90048","geo_score":0.714,"id":"a633qd02ly2b","geo_precision":"zip"},"type":"Feature","geometry":{"type":"Point","coordinates":[-118.298662,33.786594]}},{"properties":{"zip":"94114","geo_score":0.714,"id":"a633qd3doh6s","geo_precision":"zip"},"type":"Feature","geometry":{"type":"Point","coordinates":[-122.439332,37.758279]}},{"properties":{"zip":"97214","geo_score":0.714,"id":"a633qdee48ls","geo_precision":"zip"},"type":"Feature","geometry":{"type":"Point","coordinates":[-122.660373,45.515396]}},{"properties":{"zip":"25425","geo_score":0.714,"id":"a633qd4qu6v3","geo_precision":"zip"},"type":"Feature","geometry":{"type":"Point","coordinates":[-77.75166,39.299546]}},{"properties":{"zip":"92110","geo_score":0.714,"id":"a633qdfts0pn","geo_precision":"zip"},"type":"Feature","geometry":{"type":"Point","coordinates":[-117.207965,32.775849]}},{"properties":{"zip":"14624","geo_score":0.714,"id":"a633qdcrxsc8","geo_precision":"zip"},"type":"Feature","geometry":{"type":"Point","coordinates":[-77.735283,43.135895]}},{"properties":{"zip":"63119","geo_score":0.714,"id":"a633qd5az8t3","geo_precision":"zip"},"type":"Feature","geometry":{"type":"Point","coordinates":[-90.336783,38.59033]}},{"properties":{"zip":"48104","geo_score":0.714,"id":"a633qd18apsd","geo_precision":"zip"},"type":"Feature","geometry":{"type":"Point","coordinates":[-83.727826,42.270903]}},{"properties":{"zip":"34652","geo_score":0.714,"id":"a633qdbv10kk","geo_precision":"zip"},"type":"Feature","geometry":{"type":"Point","coordinates":[-82.758157,28.23501]}},{"properties":{"zip":"92126","geo_score":0.714,"id":"a633qddkkuiu","geo_precision":"zip"},"type":"Feature","geometry":{"type":"Point","coordinates":[-117.143923,32.915602]}},{"properties":{"zip":"44114","geo_score":0.714,"id":"a633qddv06tn","geo_precision":"zip"},"type":"Feature","geometry":{"type":"Point","coordinates":[-81.677302,41.5145]}},{"properties":{"zip":"20850","geo_score":0.714,"id":"a633qd9onr9q","geo_precision":"zip"},"type":"Feature","geometry":{"type":"Point","coordinates":[-77.204425,39.080664]}},{"properties":{"zip":"5753","geo_score":0.714,"id":"a633qd6x8tu6","geo_precision":"zip"},"type":"Feature","geometry":{"type":"Point","coordinates":[-73.213175,44.038392]}},{"properties":{"zip":"10301","geo_score":0.714,"id":"a633qd8jqiu3","geo_precision":"zip"},"type":"Feature","geometry":{"type":"Point","coordinates":[-74.138476,40.60316]}},{"properties":{"zip":"54404","geo_score":0.714,"id":"a633qd3prqkh","geo_precision":"zip"},"type":"Feature","geometry":{"type":"Point","coordinates":[-90.02136,44.466554]}},{"properties":{"zip":"92780","geo_score":0.714,"id":"a633qd7p17cs","geo_precision":"zip"},"type":"Feature","geometry":{"type":"Point","coordinates":[-117.731534,33.579122]}},{"properties":{"zip":"97211","geo_score":0.714,"id":"a633qd9qcsni","geo_precision":"zip"},"type":"Feature","geometry":{"type":"Point","coordinates":[-122.668152,45.565118]}},{"properties":{"zip":"70124","geo_score":0.714,"id":"a633qd33zf0j","geo_precision":"zip"},"type":"Feature","geometry":{"type":"Point","coordinates":[-90.108128,30.004647]}},{"properties":{"zip":"94402","geo_score":0.714,"id":"a633qd4t5sik","geo_precision":"zip"},"type":"Feature","geometry":{"type":"Point","coordinates":[-122.33063,37.541886]}},{"properties":{"zip":"94609","geo_score":0.714,"id":"a633qdctptqx","geo_precision":"zip"},"type":"Feature","geometry":{"type":"Point","coordinates":[-122.26328,37.834776]}},{"properties":{"zip":"14534","geo_score":0.714,"id":"a633qd8u36cl","geo_precision":"zip"},"type":"Feature","geometry":{"type":"Point","coordinates":[-77.474161,43.059508]}},{"properties":{"zip":"77056","geo_score":0.714,"id":"a633qdcjugjj","geo_precision":"zip"},"type":"Feature","geometry":{"type":"Point","coordinates":[-95.207161,29.698579]}},{"properties":{"zip":"59802","geo_score":0.714,"id":"a633qd7hjj4g","geo_precision":"zip"},"type":"Feature","geometry":{"type":"Point","coordinates":[-113.954788,46.989689]}},{"properties":{"zip":"20008","geo_score":0.714,"id":"a633qd81qvz3","geo_precision":"zip"},"type":"Feature","geometry":{"type":"Point","coordinates":[-77.065533,38.936222]}},{"properties":{"zip":"33469","geo_score":0.714,"id":"a633qd7vn3hk","geo_precision":"zip"},"type":"Feature","geometry":{"type":"Point","coordinates":[-80.128654,26.968112]}},{"properties":{"zip":"55413","geo_score":0.714,"id":"a633qdfb07a2","geo_precision":"zip"},"type":"Feature","geometry":{"type":"Point","coordinates":[-93.240774,44.994365]}},{"properties":{"zip":"98004","geo_score":0.714,"id":"a633qd9mmuyh","geo_precision":"zip"},"type":"Feature","geometry":{"type":"Point","coordinates":[-122.217346,47.64621]}},{"properties":{"zip":"95814","geo_score":0.714,"id":"a633qd2ptkpc","geo_precision":"zip"},"type":"Feature","geometry":{"type":"Point","coordinates":[-121.480905,38.579055]}},{"properties":{"zip":"60645","geo_score":0.714,"id":"a633qd5utf3n","geo_precision":"zip"},"type":"Feature","geometry":{"type":"Point","coordinates":[-87.730059,42.004476]}},{"properties":{"zip":"55408","geo_score":0.714,"id":"a633qd4ux34j","geo_precision":"zip"},"type":"Feature","geometry":{"type":"Point","coordinates":[-93.288975,44.947515]}},{"properties":{"zip":"55401","geo_score":0.714,"id":"a633qd7tag4i","geo_precision":"zip"},"type":"Feature","geometry":{"type":"Point","coordinates":[-93.273024,44.979265]}},{"properties":{"zip":"10001","geo_score":0.714,"id":"a633qd3hvrm5","geo_precision":"zip"},"type":"Feature","geometry":{"type":"Point","coordinates":[-73.996328,40.750422]}},{"properties":{"zip":"68512","geo_score":0.714,"id":"a633qd3c40ps","geo_precision":"zip"},"type":"Feature","geometry":{"type":"Point","coordinates":[-96.686643,40.785689]}},{"properties":{"zip":"48910","geo_score":0.714,"id":"a633qdcx2wjk","geo_precision":"zip"},"type":"Feature","geometry":{"type":"Point","coordinates":[-84.518543,42.703435]}},{"properties":{"zip":"29710","geo_score":0.714,"id":"a633qd5qj2o1","geo_precision":"zip"},"type":"Feature","geometry":{"type":"Point","coordinates":[-81.042854,35.108476]}},{"properties":{"zip":"60014","geo_score":0.714,"id":"a633qdenre3i","geo_precision":"zip"},"type":"Feature","geometry":{"type":"Point","coordinates":[-88.300642,42.281689]}},{"properties":{"zip":"32806","geo_score":0.714,"id":"a633qd6t3arb","geo_precision":"zip"},"type":"Feature","geometry":{"type":"Point","coordinates":[-81.357841,28.51103]}},{"properties":{"zip":"91210","geo_score":0.714,"id":"a633qd4enarz","geo_precision":"zip"},"type":"Feature","geometry":{"type":"Point","coordinates":[-118.298662,33.786594]}},{"properties":{"zip":"75219","geo_score":0.714,"id":"a633qd8per3o","geo_precision":"zip"},"type":"Feature","geometry":{"type":"Point","coordinates":[-96.777626,32.767268]}},{"properties":{"zip":"70115","geo_score":0.714,"id":"a633qddpbp5a","geo_precision":"zip"},"type":"Feature","geometry":{"type":"Point","coordinates":[-90.100773,29.938343]}},{"properties":{"zip":"24401","geo_score":0.714,"id":"a633qdapkkkh","geo_precision":"zip"},"type":"Feature","geometry":{"type":"Point","coordinates":[-79.057807,38.166243]}},{"properties":{"zip":"37211","geo_score":0.714,"id":"a633qd5xoi3v","geo_precision":"zip"},"type":"Feature","geometry":{"type":"Point","coordinates":[-86.703609,36.012562]}},{"properties":{"zip":"6518","geo_score":0.714,"id":"a633qd1oqt09","geo_precision":"zip"},"type":"Feature","geometry":{"type":"Point","coordinates":[-72.90538,41.424264]}},{"properties":{"zip":"37912","geo_score":0.714,"id":"a633qd842bgo","geo_precision":"zip"},"type":"Feature","geometry":{"type":"Point","coordinates":[-84.011578,36.012859]}},{"properties":{"zip":"80477","geo_score":0.714,"id":"a633qdebalsn","geo_precision":"zip"},"type":"Feature","geometry":{"type":"Point","coordinates":[-106.92691,40.348242]}},{"properties":{"zip":"62246","geo_score":0.714,"id":"a633qd9twjop","geo_precision":"zip"},"type":"Feature","geometry":{"type":"Point","coordinates":[-89.346466,38.958657]}},{"properties":{"zip":"92116","geo_score":0.714,"id":"a633qd0bpktj","geo_precision":"zip"},"type":"Feature","geometry":{"type":"Point","coordinates":[-117.127894,32.7654]}},{"properties":{"zip":"22042","geo_score":0.714,"id":"a633qdecvkok","geo_precision":"zip"},"type":"Feature","geometry":{"type":"Point","coordinates":[-77.180258,38.865668]}},{"properties":{"zip":"7726","geo_score":0.714,"id":"a633qd8cyaxb","geo_precision":"zip"},"type":"Feature","geometry":{"type":"Point","coordinates":[-74.383483,40.302887]}},{"properties":{"zip":"78717","geo_score":0.714,"id":"a633qd4oq2s4","geo_precision":"zip"},"type":"Feature","geometry":{"type":"Point","coordinates":[-97.739731,30.513532]}},{"properties":{"zip":"2151","geo_score":0.714,"id":"a633qdeuosug","geo_precision":"zip"},"type":"Feature","geometry":{"type":"Point","coordinates":[-70.966161,42.440097]}},{"properties":{"zip":"85016","geo_score":0.714,"id":"a633qd4jcezr","geo_precision":"zip"},"type":"Feature","geometry":{"type":"Point","coordinates":[-112.18717,33.276539]}},{"properties":{"zip":"7083","geo_score":0.714,"id":"a633qdcim0ag","geo_precision":"zip"},"type":"Feature","geometry":{"type":"Point","coordinates":[-74.269841,40.692651]}},{"properties":{"zip":"80231","geo_score":0.714,"id":"a633qd41dfsr","geo_precision":"zip"},"type":"Feature","geometry":{"type":"Point","coordinates":[-104.886785,39.68493]}},{"properties":{"zip":"94403","geo_score":0.714,"id":"a633qd3h2bge","geo_precision":"zip"},"type":"Feature","geometry":{"type":"Point","coordinates":[-122.304079,37.541486]}},{"properties":{"zip":"80226","geo_score":0.714,"id":"a633qd08vb8u","geo_precision":"zip"},"type":"Feature","geometry":{"type":"Point","coordinates":[-105.091502,39.710884]}},{"properties":{"zip":"20175","geo_score":0.714,"id":"a633qd3pfefb","geo_precision":"zip"},"type":"Feature","geometry":{"type":"Point","coordinates":[-77.605404,39.041987]}},{"properties":{"zip":"19041","geo_score":0.714,"id":"a633qd1ttlop","geo_precision":"zip"},"type":"Feature","geometry":{"type":"Point","coordinates":[-75.321632,40.002911]}},{"properties":{"zip":"20903","geo_score":0.714,"id":"a633qde2herj","geo_precision":"zip"},"type":"Feature","geometry":{"type":"Point","coordinates":[-76.980809,39.016221]}},{"properties":{"zip":"32217","geo_score":0.714,"id":"a633qd5kmpfc","geo_precision":"zip"},"type":"Feature","geometry":{"type":"Point","coordinates":[-81.615926,30.242741]}},{"properties":{"zip":"56301","geo_score":0.714,"id":"a633qd7httpg","geo_precision":"zip"},"type":"Feature","geometry":{"type":"Point","coordinates":[-94.154155,45.478576]}},{"properties":{"zip":"21043","geo_score":0.714,"id":"a633qd5zaeio","geo_precision":"zip"},"type":"Feature","geometry":{"type":"Point","coordinates":[-76.829974,39.269273]}},{"properties":{"zip":"65109","geo_score":0.714,"id":"a633qd8trnhs","geo_precision":"zip"},"type":"Feature","geometry":{"type":"Point","coordinates":[-92.299267,38.550219]}},{"properties":{"zip":"22205","geo_score":0.714,"id":"a633qd6thjxp","geo_precision":"zip"},"type":"Feature","geometry":{"type":"Point","coordinates":[-77.140021,38.875811]}},{"properties":{"zip":"11238","geo_score":0.714,"id":"a633qdeb65vs","geo_precision":"zip"},"type":"Feature","geometry":{"type":"Point","coordinates":[-73.964583,40.680936]}},{"properties":{"zip":"75218","geo_score":0.714,"id":"a633qczvjarg","geo_precision":"zip"},"type":"Feature","geometry":{"type":"Point","coordinates":[-96.680552,32.875403]}},{"properties":{"zip":"97212","geo_score":0.714,"id":"a633qd1qia2v","geo_precision":"zip"},"type":"Feature","geometry":{"type":"Point","coordinates":[-122.643106,45.54374]}},{"properties":{"zip":"93108","geo_score":0.714,"id":"a633qd0777hy","geo_precision":"zip"},"type":"Feature","geometry":{"type":"Point","coordinates":[-119.632075,34.436663]}},{"properties":{"zip":"95037","geo_score":0.714,"id":"a633qd6yrq2p","geo_precision":"zip"},"type":"Feature","geometry":{"type":"Point","coordinates":[-121.706337,37.183556]}},{"properties":{"zip":"59802","geo_score":0.714,"id":"a633qddz5pwt","geo_precision":"zip"},"type":"Feature","geometry":{"type":"Point","coordinates":[-113.954788,46.989689]}},{"properties":{"zip":"94102","geo_score":0.714,"id":"a633qd9ibp89","geo_precision":"zip"},"type":"Feature","geometry":{"type":"Point","coordinates":[-122.416582,37.779278]}},{"properties":{"zip":"6516","geo_score":0.714,"id":"a633qd6rvk0x","geo_precision":"zip"},"type":"Feature","geometry":{"type":"Point","coordinates":[-72.970659,41.242319]}},{"properties":{"zip":"94110","geo_score":0.714,"id":"a633qd0znc9c","geo_precision":"zip"},"type":"Feature","geometry":{"type":"Point","coordinates":[-122.416281,37.748932]}},{"properties":{"zip":"11215","geo_score":0.714,"id":"a633qdafqfin","geo_precision":"zip"},"type":"Feature","geometry":{"type":"Point","coordinates":[-73.985972,40.670103]}},{"properties":{"zip":"18901","geo_score":0.714,"id":"a633qd5jy70l","geo_precision":"zip"},"type":"Feature","geometry":{"type":"Point","coordinates":[-75.081282,40.317051]}},{"properties":{"zip":"55401","geo_score":0.714,"id":"a633qdcmfavo","geo_precision":"zip"},"type":"Feature","geometry":{"type":"Point","coordinates":[-93.273024,44.979265]}},{"properties":{"zip":"96708","geo_score":0.714,"id":"a633qd4wpvug","geo_precision":"zip"},"type":"Feature","geometry":{"type":"Point","coordinates":[-156.136389,20.848611]}},{"properties":{"zip":"2575","geo_score":0.714,"id":"a633qd4qrz2b","geo_precision":"zip"},"type":"Feature","geometry":{"type":"Point","coordinates":[-70.642806,41.42125]}},{"properties":{"zip":"12561","geo_score":0.714,"id":"a633qd7inztt","geo_precision":"zip"},"type":"Feature","geometry":{"type":"Point","coordinates":[-74.086809,41.782315]}},{"properties":{"zip":"21037","geo_score":0.714,"id":"a633qdc0z0rq","geo_precision":"zip"},"type":"Feature","geometry":{"type":"Point","coordinates":[-76.496348,38.906225]}},{"properties":{"zip":"87508","geo_score":0.714,"id":"a633qd9rsfob","geo_precision":"zip"},"type":"Feature","geometry":{"type":"Point","coordinates":[-106.014164,35.534288]}},{"properties":{"zip":"97209","geo_score":0.714,"id":"a633qdfjv8dn","geo_precision":"zip"},"type":"Feature","geometry":{"type":"Point","coordinates":[-122.683826,45.53199]}},{"properties":{"zip":"98245","geo_score":0.714,"id":"a633qdfqil3c","geo_precision":"zip"},"type":"Feature","geometry":{"type":"Point","coordinates":[-122.956294,48.631214]}},{"properties":{"zip":"33617","geo_score":0.714,"id":"a633qd4xzj60","geo_precision":"zip"},"type":"Feature","geometry":{"type":"Point","coordinates":[-82.399816,28.009187]}},{"properties":{"zip":"21047","geo_score":0.714,"id":"a633qd5s9c82","geo_precision":"zip"},"type":"Feature","geometry":{"type":"Point","coordinates":[-76.474131,39.542329]}},{"properties":{"zip":"11231","geo_score":0.714,"id":"a633qda5xdrm","geo_precision":"zip"},"type":"Feature","geometry":{"type":"Point","coordinates":[-74.009584,40.675103]}},{"properties":{"zip":"80130","geo_score":0.714,"id":"a633qd8wktvn","geo_precision":"zip"},"type":"Feature","geometry":{"type":"Point","coordinates":[-104.920445,39.541893]}},{"properties":{"zip":"95821","geo_score":0.714,"id":"a633qd6b307s","geo_precision":"zip"},"type":"Feature","geometry":{"type":"Point","coordinates":[-121.383092,38.610452]}},{"properties":{"zip":"85224","geo_score":0.714,"id":"a633qde3erc6","geo_precision":"zip"},"type":"Feature","geometry":{"type":"Point","coordinates":[-111.945698,33.305326]}},{"properties":{"zip":"94122","geo_score":0.714,"id":"a633qd7c7yvt","geo_precision":"zip"},"type":"Feature","geometry":{"type":"Point","coordinates":[-122.475732,37.761179]}},{"properties":{"zip":"8530","geo_score":0.714,"id":"a633qd4cb6gc","geo_precision":"zip"},"type":"Feature","geometry":{"type":"Point","coordinates":[-74.907111,40.398717]}},{"properties":{"zip":"33629","geo_score":0.714,"id":"a633qdeeohbj","geo_precision":"zip"},"type":"Feature","geometry":{"type":"Point","coordinates":[-82.495373,27.920856]}},{"properties":{"zip":"10014","geo_score":0.714,"id":"a633qdfts8fm","geo_precision":"zip"},"type":"Feature","geometry":{"type":"Point","coordinates":[-74.005095,40.738088]}},{"properties":{"zip":"55419","geo_score":0.714,"id":"a633qddl39gj","geo_precision":"zip"},"type":"Feature","geometry":{"type":"Point","coordinates":[-93.282724,44.890914]}},{"properties":{"zip":"10001","geo_score":0.714,"id":"a633qd5pjooy","geo_precision":"zip"},"type":"Feature","geometry":{"type":"Point","coordinates":[-73.996328,40.750422]}},{"properties":{"zip":"98106","geo_score":0.714,"id":"a633qd1zba7s","geo_precision":"zip"},"type":"Feature","geometry":{"type":"Point","coordinates":[-122.354848,47.517321]}},{"properties":{"zip":"75207","geo_score":0.714,"id":"a633qdc8poad","geo_precision":"zip"},"type":"Feature","geometry":{"type":"Point","coordinates":[-96.798372,32.76313]}},{"properties":{"zip":"23224","geo_score":0.714,"id":"a633qd7an02w","geo_precision":"zip"},"type":"Feature","geometry":{"type":"Point","coordinates":[-77.46726,37.497796]}},{"properties":{"zip":"48823","geo_score":0.714,"id":"a633qd63c24j","geo_precision":"zip"},"type":"Feature","geometry":{"type":"Point","coordinates":[-84.503527,42.737334]}},{"properties":{"zip":"32812","geo_score":0.714,"id":"a633qd05jcc0","geo_precision":"zip"},"type":"Feature","geometry":{"type":"Point","coordinates":[-81.386077,28.470392]}},{"properties":{"zip":"11215","geo_score":0.714,"id":"a633qdf1f8ge","geo_precision":"zip"},"type":"Feature","geometry":{"type":"Point","coordinates":[-73.985972,40.670103]}},{"properties":{"zip":"19736","geo_score":0.714,"id":"a633qdewhkwm","geo_precision":"zip"},"type":"Feature","geometry":{"type":"Point","coordinates":[-75.660413,39.797126]}},{"properties":{"zip":"21401","geo_score":0.714,"id":"a633qd0ejal7","geo_precision":"zip"},"type":"Feature","geometry":{"type":"Point","coordinates":[-76.462738,39.020945]}},{"properties":{"zip":"14624","geo_score":0.714,"id":"a633qdc7iifg","geo_precision":"zip"},"type":"Feature","geometry":{"type":"Point","coordinates":[-77.735283,43.135895]}},{"properties":{"zip":"75219","geo_score":0.714,"id":"a633qdbx8qt5","geo_precision":"zip"},"type":"Feature","geometry":{"type":"Point","coordinates":[-96.777626,32.767268]}},{"properties":{"zip":"21043","geo_score":0.714,"id":"a633qd8vi3do","geo_precision":"zip"},"type":"Feature","geometry":{"type":"Point","coordinates":[-76.829974,39.269273]}},{"properties":{"zip":"98110","geo_score":0.714,"id":"a633qd3v7xzi","geo_precision":"zip"},"type":"Feature","geometry":{"type":"Point","coordinates":[-122.575693,47.618985]}},{"properties":{"zip":"88301","geo_score":0.714,"id":"a633qdbjzjqb","geo_precision":"zip"},"type":"Feature","geometry":{"type":"Point","coordinates":[-105.736374,33.747574]}},{"properties":{"zip":"98059","geo_score":0.714,"id":"a633qd7dmjw6","geo_precision":"zip"},"type":"Feature","geometry":{"type":"Point","coordinates":[-122.155677,47.538989]}},{"properties":{"zip":"21211","geo_score":0.714,"id":"a633qdeybwcu","geo_precision":"zip"},"type":"Feature","geometry":{"type":"Point","coordinates":[-76.649414,39.331773]}},{"properties":{"zip":"97004","geo_score":0.714,"id":"a633qd45dapw","geo_precision":"zip"},"type":"Feature","geometry":{"type":"Point","coordinates":[-122.430086,45.235678]}},{"properties":{"zip":"89145","geo_score":0.714,"id":"a633qd3vo8wc","geo_precision":"zip"},"type":"Feature","geometry":{"type":"Point","coordinates":[-115.282751,36.169273]}},{"properties":{"zip":"8108","geo_score":0.714,"id":"a633qdc419qv","geo_precision":"zip"},"type":"Feature","geometry":{"type":"Point","coordinates":[-75.047949,39.909835]}},{"properties":{"zip":"44122","geo_score":0.714,"id":"a633qddcwgjc","geo_precision":"zip"},"type":"Feature","geometry":{"type":"Point","coordinates":[-81.480675,41.462276]}},{"properties":{"zip":"19446","geo_score":0.714,"id":"a633qdednv8h","geo_precision":"zip"},"type":"Feature","geometry":{"type":"Point","coordinates":[-75.302953,40.245106]}},{"properties":{"zip":"10803","geo_score":0.714,"id":"a633qd7nk7nz","geo_precision":"zip"},"type":"Feature","geometry":{"type":"Point","coordinates":[-73.807078,40.895377]}},{"properties":{"zip":"70460","geo_score":0.714,"id":"a633qdd6trvj","geo_precision":"zip"},"type":"Feature","geometry":{"type":"Point","coordinates":[-89.89507,30.394083]}},{"properties":{"zip":"7042","geo_score":0.714,"id":"a633qd3yv4ia","geo_precision":"zip"},"type":"Feature","geometry":{"type":"Point","coordinates":[-74.202368,40.8576]}},{"properties":{"zip":"30005","geo_score":0.714,"id":"a633qd2s64re","geo_precision":"zip"},"type":"Feature","geometry":{"type":"Point","coordinates":[-84.228131,34.078229]}},{"properties":{"zip":"11201","geo_score":0.714,"id":"a633qdf3j8ao","geo_precision":"zip"},"type":"Feature","geometry":{"type":"Point","coordinates":[-73.989319,40.694481]}},{"properties":{"zip":"87508","geo_score":0.714,"id":"a633qd8mhxdv","geo_precision":"zip"},"type":"Feature","geometry":{"type":"Point","coordinates":[-106.014164,35.534288]}},{"properties":{"zip":"21211","geo_score":0.714,"id":"a633qd2p45vg","geo_precision":"zip"},"type":"Feature","geometry":{"type":"Point","coordinates":[-76.649414,39.331773]}},{"properties":{"zip":"2143","geo_score":0.714,"id":"a633qd74wz61","geo_precision":"zip"},"type":"Feature","geometry":{"type":"Point","coordinates":[-71.086997,42.396763]}},{"properties":{"zip":"60661","geo_score":0.714,"id":"a633qd8mkg20","geo_precision":"zip"},"type":"Feature","geometry":{"type":"Point","coordinates":[-87.68732,41.811929]}},{"properties":{"zip":"33311","geo_score":0.714,"id":"a633qczqaaoq","geo_precision":"zip"},"type":"Feature","geometry":{"type":"Point","coordinates":[-80.192547,26.128697]}},{"properties":{"zip":"90230","geo_score":0.714,"id":"a633qdenazpt","geo_precision":"zip"},"type":"Feature","geometry":{"type":"Point","coordinates":[-118.298662,33.786594]}},{"properties":{"zip":"66103","geo_score":0.714,"id":"a633qda9biek","geo_precision":"zip"},"type":"Feature","geometry":{"type":"Point","coordinates":[-94.628184,39.066804]}},{"properties":{"zip":"21804","geo_score":0.714,"id":"a633qdd6kzk7","geo_precision":"zip"},"type":"Feature","geometry":{"type":"Point","coordinates":[-75.533782,38.350793]}},{"properties":{"zip":"1970","geo_score":0.714,"id":"a633qd5loaay","geo_precision":"zip"},"type":"Feature","geometry":{"type":"Point","coordinates":[-70.892549,42.511207]}},{"properties":{"zip":"19126","geo_score":0.714,"id":"a633qdfb3sn2","geo_precision":"zip"},"type":"Feature","geometry":{"type":"Point","coordinates":[-75.180732,40.094555]}},{"properties":{"zip":"93041","geo_score":0.714,"id":"a633qd270h3v","geo_precision":"zip"},"type":"Feature","geometry":{"type":"Point","coordinates":[-119.15458,34.148893]}},{"properties":{"zip":"98168","geo_score":0.714,"id":"a633qdf7ouqr","geo_precision":"zip"},"type":"Feature","geometry":{"type":"Point","coordinates":[-122.301513,47.468988]}},{"properties":{"zip":"98296","geo_score":0.714,"id":"a633qdezpqyl","geo_precision":"zip"},"type":"Feature","geometry":{"type":"Point","coordinates":[-122.092025,47.857915]}},{"properties":{"zip":"92651","geo_score":0.714,"id":"a633qddl3okx","geo_precision":"zip"},"type":"Feature","geometry":{"type":"Point","coordinates":[-117.754221,33.548359]}},{"properties":{"zip":"30077","geo_score":0.714,"id":"a633qdc1ykd7","geo_precision":"zip"},"type":"Feature","geometry":{"type":"Point","coordinates":[-84.47405,33.844371]}},{"properties":{"zip":"90020","geo_score":0.714,"id":"a633qd67kigp","geo_precision":"zip"},"type":"Feature","geometry":{"type":"Point","coordinates":[-118.298662,33.786594]}},{"properties":{"zip":"97225","geo_score":0.714,"id":"a633qczj01zw","geo_precision":"zip"},"type":"Feature","geometry":{"type":"Point","coordinates":[-122.764543,45.498729]}},{"properties":{"zip":"5401","geo_score":0.714,"id":"a633qd9c3wef","geo_precision":"zip"},"type":"Feature","geometry":{"type":"Point","coordinates":[-73.17096,44.466994]}},{"properties":{"zip":"98109","geo_score":0.714,"id":"a633qdbmux1v","geo_precision":"zip"},"type":"Feature","geometry":{"type":"Point","coordinates":[-122.366239,47.635931]}},{"properties":{"zip":"70118","geo_score":0.714,"id":"a633qdc23176","geo_precision":"zip"},"type":"Feature","geometry":{"type":"Point","coordinates":[-90.130074,29.947427]}},{"properties":{"zip":"78251","geo_score":0.714,"id":"a633qdche3pp","geo_precision":"zip"},"type":"Feature","geometry":{"type":"Point","coordinates":[-98.671774,29.464885]}},{"properties":{"zip":"64111","geo_score":0.714,"id":"a633qd7udnqf","geo_precision":"zip"},"type":"Feature","geometry":{"type":"Point","coordinates":[-94.580234,39.05445]}},{"properties":{"zip":"6492","geo_score":0.714,"id":"a633qdcdclyi","geo_precision":"zip"},"type":"Feature","geometry":{"type":"Point","coordinates":[-72.81892,41.449868]}},{"properties":{"zip":"92081","geo_score":0.0,"id":"a633qd3w2jg6","geo_precision":"unmatched"},"type":"Feature","geometry":null},{"properties":{"zip":"6040","geo_score":0.714,"id":"a633qd8t346r","geo_precision":"zip"},"type":"Feature","geometry":{"type":"Point","coordinates":[-72.421195,41.864542]}},{"properties":{"zip":"97006","geo_score":0.714,"id":"a633qcztfwn2","geo_precision":"zip"},"type":"Feature","geometry":{"type":"Point","coordinates":[-122.860376,45.52013]}},{"properties":{"zip":"98108","geo_score":0.714,"id":"a633qd0lav0p","geo_precision":"zip"},"type":"Feature","geometry":{"type":"Point","coordinates":[-122.329015,47.551765]}},{"properties":{"zip":"93015","geo_score":0.714,"id":"a633qd04ubtv","geo_precision":"zip"},"type":"Feature","geometry":{"type":"Point","coordinates":[-118.950378,34.399997]}},{"properties":{"zip":"90013","geo_score":0.714,"id":"a633qd8t4bm4","geo_precision":"zip"},"type":"Feature","geometry":{"type":"Point","coordinates":[-118.298662,33.786594]}},{"properties":{"zip":"19147","geo_score":0.714,"id":"a633qdc5dz3x","geo_precision":"zip"},"type":"Feature","geometry":{"type":"Point","coordinates":[-75.155973,39.936212]}},{"properties":{"zip":"4101","geo_score":0.714,"id":"a633qd7ho7q0","geo_precision":"zip"},"type":"Feature","geometry":{"type":"Point","coordinates":[-70.281438,43.673415]}},{"properties":{"zip":"94402","geo_score":0.714,"id":"a633qd7fq3qv","geo_precision":"zip"},"type":"Feature","geometry":{"type":"Point","coordinates":[-122.33063,37.541886]}},{"properties":{"zip":"88011","geo_score":0.714,"id":"a633qd5nbceb","geo_precision":"zip"},"type":"Feature","geometry":{"type":"Point","coordinates":[-106.668287,32.324407]}},{"properties":{"zip":"64111","geo_score":0.714,"id":"a633qdcssb4j","geo_precision":"zip"},"type":"Feature","geometry":{"type":"Point","coordinates":[-94.580234,39.05445]}},{"properties":{"zip":"90036","geo_score":0.714,"id":"a633qdfhhgw8","geo_precision":"zip"},"type":"Feature","geometry":{"type":"Point","coordinates":[-118.298662,33.786594]}},{"properties":{"zip":"90069","geo_score":0.714,"id":"a633qd9dzs55","geo_precision":"zip"},"type":"Feature","geometry":{"type":"Point","coordinates":[-118.298662,33.786594]}},{"properties":{"zip":"10001","geo_score":0.714,"id":"a633qd1qger7","geo_precision":"zip"},"type":"Feature","geometry":{"type":"Point","coordinates":[-73.996328,40.750422]}},{"properties":{"zip":"98260","geo_score":0.714,"id":"a633qddd7ap9","geo_precision":"zip"},"type":"Feature","geometry":{"type":"Point","coordinates":[-122.521543,48.096206]}},{"properties":{"zip":"98103","geo_score":0.714,"id":"a633qdcydjjj","geo_precision":"zip"},"type":"Feature","geometry":{"type":"Point","coordinates":[-122.327627,47.655654]}},{"properties":{"zip":"83467","geo_score":0.714,"id":"a633qd6twp01","geo_precision":"zip"},"type":"Feature","geometry":{"type":"Point","coordinates":[-113.734506,45.094646]}},{"properties":{"zip":"63301","geo_score":0.714,"id":"a633qdajy5wo","geo_precision":"zip"},"type":"Feature","geometry":{"type":"Point","coordinates":[-90.523175,38.865328]}},{"properties":{"zip":"29412","geo_score":0.714,"id":"a633qd7uwj0n","geo_precision":"zip"},"type":"Feature","geometry":{"type":"Point","coordinates":[-79.98009,32.77601]}},{"properties":{"zip":"98107","geo_score":0.714,"id":"a633qdaqsw4x","geo_precision":"zip"},"type":"Feature","geometry":{"type":"Point","coordinates":[-122.387351,47.675931]}},{"properties":{"zip":"10013","geo_score":0.714,"id":"a633qde8bnh0","geo_precision":"zip"},"type":"Feature","geometry":{"type":"Point","coordinates":[-73.99625,40.716491]}},{"properties":{"zip":"14094","geo_score":0.714,"id":"a633qddmrkiv","geo_precision":"zip"},"type":"Feature","geometry":{"type":"Point","coordinates":[-78.676977,43.222557]}},{"properties":{"zip":"78705","geo_score":0.714,"id":"a633qdfrw0do","geo_precision":"zip"},"type":"Feature","geometry":{"type":"Point","coordinates":[-97.736932,30.293057]}},{"properties":{"zip":"20902","geo_score":0.714,"id":"a633qd1whydm","geo_precision":"zip"},"type":"Feature","geometry":{"type":"Point","coordinates":[-77.060256,39.045665]}},{"properties":{"zip":"10280","geo_score":0.714,"id":"a633qd6etr64","geo_precision":"zip"},"type":"Feature","geometry":{"type":"Point","coordinates":[-74.016217,40.708857]}},{"properties":{"zip":"10002","geo_score":0.714,"id":"a633qd5kyyok","geo_precision":"zip"},"type":"Feature","geometry":{"type":"Point","coordinates":[-73.986427,40.718758]}},{"properties":{"zip":"30033","geo_score":0.714,"id":"a633qd69lykc","geo_precision":"zip"},"type":"Feature","geometry":{"type":"Point","coordinates":[-84.264644,33.824271]}},{"properties":{"zip":"33704","geo_score":0.714,"id":"a633qd9mhchq","geo_precision":"zip"},"type":"Feature","geometry":{"type":"Point","coordinates":[-82.63077,27.798053]}},{"properties":{"zip":"46062","geo_score":0.0,"id":"a633qd2toug1","geo_precision":"unmatched"},"type":"Feature","geometry":null},{"properties":{"zip":"5401","geo_score":0.714,"id":"a633qde3zfxi","geo_precision":"zip"},"type":"Feature","geometry":{"type":"Point","coordinates":[-73.17096,44.466994]}},{"properties":{"zip":"7652","geo_score":0.714,"id":"a633qd6w4vve","geo_precision":"zip"},"type":"Feature","geometry":{"type":"Point","coordinates":[-74.068964,40.944997]}},{"properties":{"zip":"66203","geo_score":0.714,"id":"a633qdbmuvq6","geo_precision":"zip"},"type":"Feature","geometry":{"type":"Point","coordinates":[-94.720238,39.041672]}},{"properties":{"zip":"19707","geo_score":0.714,"id":"a633qd1dwv08","geo_precision":"zip"},"type":"Feature","geometry":{"type":"Point","coordinates":[-75.689655,39.777056]}},{"properties":{"zip":"46268","geo_score":0.714,"id":"a633qdamjs1f","geo_precision":"zip"},"type":"Feature","geometry":{"type":"Point","coordinates":[-86.212212,39.890041]}},{"properties":{"zip":"77098","geo_score":0.714,"id":"a633qdcf5p04","geo_precision":"zip"},"type":"Feature","geometry":{"type":"Point","coordinates":[-95.434241,29.83399]}},{"properties":{"zip":"98145","geo_score":0.714,"id":"a633qdfvdlmi","geo_precision":"zip"},"type":"Feature","geometry":{"type":"Point","coordinates":[-121.803388,47.432251]}},{"properties":{"zip":"30030","geo_score":0.714,"id":"a633qd94a7rm","geo_precision":"zip"},"type":"Feature","geometry":{"type":"Point","coordinates":[-84.291723,33.772554]}},{"properties":{"zip":"10463","geo_score":0.714,"id":"a633qdbe8qit","geo_precision":"zip"},"type":"Feature","geometry":{"type":"Point","coordinates":[-73.917359,40.881211]}},{"properties":{"zip":"90404","geo_score":0.714,"id":"a633qd323ddf","geo_precision":"zip"},"type":"Feature","geometry":{"type":"Point","coordinates":[-118.298662,33.786594]}},{"properties":{"zip":"90402","geo_score":0.714,"id":"a633qdcu3zhs","geo_precision":"zip"},"type":"Feature","geometry":{"type":"Point","coordinates":[-118.298662,33.786594]}},{"properties":{"zip":"14201","geo_score":0.714,"id":"a633qd0duzea","geo_precision":"zip"},"type":"Feature","geometry":{"type":"Point","coordinates":[-78.832706,42.929303]}},{"properties":{"zip":"19125","geo_score":0.714,"id":"a633qdcheun5","geo_precision":"zip"},"type":"Feature","geometry":{"type":"Point","coordinates":[-75.131843,39.985946]}},{"properties":{"zip":"66212","geo_score":0.714,"id":"a633qde761ip","geo_precision":"zip"},"type":"Feature","geometry":{"type":"Point","coordinates":[-94.683236,38.956806]}},{"properties":{"zip":"11778","geo_score":0.714,"id":"a633qd4huhfe","geo_precision":"zip"},"type":"Feature","geometry":{"type":"Point","coordinates":[-72.637078,40.922326]}},{"properties":{"zip":"2118","geo_score":0.714,"id":"a633qdelmp5x","geo_precision":"zip"},"type":"Feature","geometry":{"type":"Point","coordinates":[-71.072854,42.336162]}},{"properties":{"zip":"2906","geo_score":0.714,"id":"a633qd5s64zt","geo_precision":"zip"},"type":"Feature","geometry":{"type":"Point","coordinates":[-71.394717,41.8374]}},{"properties":{"zip":"37214","geo_score":0.714,"id":"a633qdbikucj","geo_precision":"zip"},"type":"Feature","geometry":{"type":"Point","coordinates":[-86.603885,36.087559]}},{"properties":{"zip":"78704","geo_score":0.714,"id":"a633qdchxd4p","geo_precision":"zip"},"type":"Feature","geometry":{"type":"Point","coordinates":[-97.768832,30.240685]}},{"properties":{"zip":"80202","geo_score":0.714,"id":"a633qdepokw2","geo_precision":"zip"},"type":"Feature","geometry":{"type":"Point","coordinates":[-104.996553,39.760189]}},{"properties":{"zip":"36580","geo_score":0.714,"id":"a633qdag8pgd","geo_precision":"zip"},"type":"Feature","geometry":{"type":"Point","coordinates":[-87.799157,30.461029]}},{"properties":{"zip":"95124","geo_score":0.714,"id":"a633qd2mwc6z","geo_precision":"zip"},"type":"Feature","geometry":{"type":"Point","coordinates":[-121.930789,37.256888]}},{"properties":{"zip":"97201","geo_score":0.714,"id":"a633qddh5cf0","geo_precision":"zip"},"type":"Feature","geometry":{"type":"Point","coordinates":[-122.693157,45.498931]}},{"properties":{"zip":"80203","geo_score":0.714,"id":"a633qd1go8x1","geo_precision":"zip"},"type":"Feature","geometry":{"type":"Point","coordinates":[-104.970331,39.729205]}},{"properties":{"zip":"66210","geo_score":0.714,"id":"a633qdbomnsu","geo_precision":"zip"},"type":"Feature","geometry":{"type":"Point","coordinates":[-94.714336,38.927256]}},{"properties":{"zip":"85719","geo_score":0.714,"id":"a633qdbird5b","geo_precision":"zip"},"type":"Feature","geometry":{"type":"Point","coordinates":[-110.947541,32.247175]}},{"properties":{"zip":"34242","geo_score":0.714,"id":"a633qd5zg4el","geo_precision":"zip"},"type":"Feature","geometry":{"type":"Point","coordinates":[-82.539819,27.256626]}},{"properties":{"zip":"14150","geo_score":0.714,"id":"a633qdaqmjp1","geo_precision":"zip"},"type":"Feature","geometry":{"type":"Point","coordinates":[-78.809201,43.011724]}},{"properties":{"zip":"80831","geo_score":0.714,"id":"a633qdcfniog","geo_precision":"zip"},"type":"Feature","geometry":{"type":"Point","coordinates":[-104.608583,38.933049]}},{"properties":{"zip":"23508","geo_score":0.714,"id":"a633qda0euth","geo_precision":"zip"},"type":"Feature","geometry":{"type":"Point","coordinates":[-76.299963,36.884447]}},{"properties":{"zip":"60189","geo_score":0.714,"id":"a633qd27wgw5","geo_precision":"zip"},"type":"Feature","geometry":{"type":"Point","coordinates":[-88.088716,41.839679]}},{"properties":{"zip":"80017","geo_score":0.714,"id":"a633qd5ho63r","geo_precision":"zip"},"type":"Feature","geometry":{"type":"Point","coordinates":[-104.80667,39.702142]}},{"properties":{"zip":"80122","geo_score":0.714,"id":"a633qd6z6b7a","geo_precision":"zip"},"type":"Feature","geometry":{"type":"Point","coordinates":[-104.952759,39.58721]}},{"properties":{"zip":"94925","geo_score":0.714,"id":"a633qddmkeac","geo_precision":"zip"},"type":"Feature","geometry":{"type":"Point","coordinates":[-122.509419,37.922981]}},{"properties":{"zip":"98070","geo_score":0.714,"id":"a633qde4ap7p","geo_precision":"zip"},"type":"Feature","geometry":{"type":"Point","coordinates":[-122.465407,47.505654]}},{"properties":{"zip":"98072","geo_score":0.714,"id":"a633qd7huh55","geo_precision":"zip"},"type":"Feature","geometry":{"type":"Point","coordinates":[-122.129291,47.730932]}},{"properties":{"zip":"64108","geo_score":0.714,"id":"a633qd4boeln","geo_precision":"zip"},"type":"Feature","geometry":{"type":"Point","coordinates":[-94.584133,39.083804]}},{"properties":{"zip":"63021","geo_score":0.714,"id":"a633qczyd7sx","geo_precision":"zip"},"type":"Feature","geometry":{"type":"Point","coordinates":[-90.49651,38.564776]}},{"properties":{"zip":"10514","geo_score":0.714,"id":"a633qdcn6019","geo_precision":"zip"},"type":"Feature","geometry":{"type":"Point","coordinates":[-73.775547,41.078957]}},{"properties":{"zip":"10025","geo_score":0.714,"id":"a633qdbutuuu","geo_precision":"zip"},"type":"Feature","geometry":{"type":"Point","coordinates":[-73.967778,40.798664]}},{"properties":{"zip":"32250","geo_score":0.714,"id":"a633qd6bb2pl","geo_precision":"zip"},"type":"Feature","geometry":{"type":"Point","coordinates":[-81.437586,30.295519]}},{"properties":{"zip":"43015","geo_score":0.714,"id":"a633qd238ahx","geo_precision":"zip"},"type":"Feature","geometry":{"type":"Point","coordinates":[-83.012685,40.255618]}},{"properties":{"zip":"98074","geo_score":0.714,"id":"a633qd5ulhlk","geo_precision":"zip"},"type":"Feature","geometry":{"type":"Point","coordinates":[-122.023898,47.619112]}},{"properties":{"zip":"95694","geo_score":0.714,"id":"a633qd3edjjk","geo_precision":"zip"},"type":"Feature","geometry":{"type":"Point","coordinates":[-121.944134,38.534629]}},{"properties":{"zip":"68106","geo_score":0.714,"id":"a633qdbn7vpo","geo_precision":"zip"},"type":"Feature","geometry":{"type":"Point","coordinates":[-95.999367,41.239005]}},{"properties":{"zip":"19734","geo_score":0.714,"id":"a633qd5h56oo","geo_precision":"zip"},"type":"Feature","geometry":{"type":"Point","coordinates":[-75.66493,39.377056]}},{"properties":{"zip":"18901","geo_score":0.714,"id":"a633qd0wm4rp","geo_precision":"zip"},"type":"Feature","geometry":{"type":"Point","coordinates":[-75.081282,40.317051]}},{"properties":{"zip":"97405","geo_score":0.714,"id":"a633qdfmtlra","geo_precision":"zip"},"type":"Feature","geometry":{"type":"Point","coordinates":[-123.011472,43.995403]}},{"properties":{"zip":"60647","geo_score":0.714,"id":"a633qd85ey0z","geo_precision":"zip"},"type":"Feature","geometry":{"type":"Point","coordinates":[-87.68732,41.811929]}},{"properties":{"zip":"90024","geo_score":0.714,"id":"a633qd9vq9qz","geo_precision":"zip"},"type":"Feature","geometry":{"type":"Point","coordinates":[-118.298662,33.786594]}},{"properties":{"zip":"94954","geo_score":0.714,"id":"a633qd298get","geo_precision":"zip"},"type":"Feature","geometry":{"type":"Point","coordinates":[-122.574526,38.225816]}},{"properties":{"zip":"90405","geo_score":0.714,"id":"a633qd3exp8w","geo_precision":"zip"},"type":"Feature","geometry":{"type":"Point","coordinates":[-118.483691,34.002233]}},{"properties":{"zip":"97212","geo_score":0.714,"id":"a633qczy0jzx","geo_precision":"zip"},"type":"Feature","geometry":{"type":"Point","coordinates":[-122.643106,45.54374]}},{"properties":{"zip":"98225","geo_score":0.714,"id":"a633qd04r3li","geo_precision":"zip"},"type":"Feature","geometry":{"type":"Point","coordinates":[-122.489892,48.718997]}},{"properties":{"zip":"22205","geo_score":0.714,"id":"a633qdd2buth","geo_precision":"zip"},"type":"Feature","geometry":{"type":"Point","coordinates":[-77.140021,38.875811]}},{"properties":{"zip":"10025","geo_score":0.714,"id":"a633qd2c50l4","geo_precision":"zip"},"type":"Feature","geometry":{"type":"Point","coordinates":[-73.967778,40.798664]}},{"properties":{"zip":"80218","geo_score":0.714,"id":"a633qdfrumj5","geo_precision":"zip"},"type":"Feature","geometry":{"type":"Point","coordinates":[-104.968759,39.720236]}},{"properties":{"zip":"4843","geo_score":0.714,"id":"a633qdejegwd","geo_precision":"zip"},"type":"Feature","geometry":{"type":"Point","coordinates":[-69.103372,44.195912]}},{"properties":{"zip":"22555","geo_score":0.714,"id":"a633qd5uexre","geo_precision":"zip"},"type":"Feature","geometry":{"type":"Point","coordinates":[-77.460814,38.417273]}},{"properties":{"zip":"71961","geo_score":0.714,"id":"a633qd32rjwl","geo_precision":"zip"},"type":"Feature","geometry":{"type":"Point","coordinates":[-93.745197,34.629821]}},{"properties":{"zip":"10034","geo_score":0.714,"id":"a633qd47a4mc","geo_precision":"zip"},"type":"Feature","geometry":{"type":"Point","coordinates":[-73.926804,40.865656]}},{"properties":{"zip":"21218","geo_score":0.714,"id":"a633qd29cuss","geo_precision":"zip"},"type":"Feature","geometry":{"type":"Point","coordinates":[-76.618023,39.334829]}},{"properties":{"zip":"88130","geo_score":0.714,"id":"a633qd1b7xin","geo_precision":"zip"},"type":"Feature","geometry":{"type":"Point","coordinates":[-103.142448,34.113416]}},{"properties":{"zip":"99212","geo_score":0.714,"id":"a633qd20iexd","geo_precision":"zip"},"type":"Feature","geometry":{"type":"Point","coordinates":[-117.28271,47.681283]}},{"properties":{"zip":"43215","geo_score":0.714,"id":"a633qd0dv6nj","geo_precision":"zip"},"type":"Feature","geometry":{"type":"Point","coordinates":[-82.877131,39.891745]}},{"properties":{"zip":"90024","geo_score":0.714,"id":"a633qd5cprnv","geo_precision":"zip"},"type":"Feature","geometry":{"type":"Point","coordinates":[-118.298662,33.786594]}},{"properties":{"zip":"19142","geo_score":0.714,"id":"a633qd8bg282","geo_precision":"zip"},"type":"Feature","geometry":{"type":"Point","coordinates":[-75.161672,39.963339]}},{"properties":{"zip":"8812","geo_score":0.714,"id":"a633qd438fc3","geo_precision":"zip"},"type":"Feature","geometry":{"type":"Point","coordinates":[-74.463947,40.589702]}},{"properties":{"zip":"77027","geo_score":0.714,"id":"a633qdfl4j71","geo_precision":"zip"},"type":"Feature","geometry":{"type":"Point","coordinates":[-95.303129,29.688374]}},{"properties":{"zip":"85212","geo_score":0.714,"id":"a633qd9u8grt","geo_precision":"zip"},"type":"Feature","geometry":{"type":"Point","coordinates":[-111.635307,33.342476]}},{"properties":{"zip":"2445","geo_score":0.714,"id":"a633qd0i2kqb","geo_precision":"zip"},"type":"Feature","geometry":{"type":"Point","coordinates":[-71.143697,42.318097]}},{"properties":{"zip":"87505","geo_score":0.714,"id":"a633qd7fuhll","geo_precision":"zip"},"type":"Feature","geometry":{"type":"Point","coordinates":[-105.946155,35.656638]}},{"properties":{"zip":"37830","geo_score":0.714,"id":"a633qddc0c5t","geo_precision":"zip"},"type":"Feature","geometry":{"type":"Point","coordinates":[-84.222143,36.023134]}},{"properties":{"zip":"7646","geo_score":0.714,"id":"a633qdclv1ca","geo_precision":"zip"},"type":"Feature","geometry":{"type":"Point","coordinates":[-74.028195,40.916766]}},{"properties":{"zip":"14216","geo_score":0.714,"id":"a633qd2bo3mc","geo_precision":"zip"},"type":"Feature","geometry":{"type":"Point","coordinates":[-78.860407,42.946407]}},{"properties":{"zip":"33156","geo_score":0.714,"id":"a633qd19bxm2","geo_precision":"zip"},"type":"Feature","geometry":{"type":"Point","coordinates":[-80.193659,25.774266]}},{"properties":{"zip":"23058","geo_score":0.714,"id":"a633qd9uxknu","geo_precision":"zip"},"type":"Feature","geometry":{"type":"Point","coordinates":[-77.416103,37.531296]}},{"properties":{"zip":"91107","geo_score":0.714,"id":"a633qdfnqz5w","geo_precision":"zip"},"type":"Feature","geometry":{"type":"Point","coordinates":[-118.094236,34.146118]}},{"properties":{"zip":"37215","geo_score":0.714,"id":"a633qdcfhi80","geo_precision":"zip"},"type":"Feature","geometry":{"type":"Point","coordinates":[-86.973892,36.034506]}},{"properties":{"zip":"98074","geo_score":0.714,"id":"a633qd4k5iar","geo_precision":"zip"},"type":"Feature","geometry":{"type":"Point","coordinates":[-122.023898,47.619112]}},{"properties":{"zip":"53058","geo_score":0.714,"id":"a633qdfqx92t","geo_precision":"zip"},"type":"Feature","geometry":{"type":"Point","coordinates":[-88.40248,43.109127]}},{"properties":{"zip":"92821","geo_score":0.714,"id":"a633qd1ofao9","geo_precision":"zip"},"type":"Feature","geometry":{"type":"Point","coordinates":[-117.769442,33.640302]}},{"properties":{"zip":"77025","geo_score":0.714,"id":"a633qd3lut3g","geo_precision":"zip"},"type":"Feature","geometry":{"type":"Point","coordinates":[-95.434241,29.83399]}},{"properties":{"zip":"60626","geo_score":0.714,"id":"a633qd7gpt2k","geo_precision":"zip"},"type":"Feature","geometry":{"type":"Point","coordinates":[-87.68732,41.811929]}},{"properties":{"zip":"75229","geo_score":0.714,"id":"a633qdcl7018","geo_precision":"zip"},"type":"Feature","geometry":{"type":"Point","coordinates":[-96.777626,32.767268]}},{"properties":{"zip":"33435","geo_score":0.714,"id":"a633qd7al9nz","geo_precision":"zip"},"type":"Feature","geometry":{"type":"Point","coordinates":[-80.048375,26.527016]}},{"properties":{"zip":"53532","geo_score":0.714,"id":"a633qczmp6cz","geo_precision":"zip"},"type":"Feature","geometry":{"type":"Point","coordinates":[-89.402618,43.248603]}},{"properties":{"zip":"33133","geo_score":0.714,"id":"a633qd2lpmzn","geo_precision":"zip"},"type":"Feature","geometry":{"type":"Point","coordinates":[-80.193659,25.774266]}},{"properties":{"zip":"23223","geo_score":0.714,"id":"a633qdcweu8u","geo_precision":"zip"},"type":"Feature","geometry":{"type":"Point","coordinates":[-77.399148,37.562924]}},{"properties":{"zip":"91602","geo_score":0.714,"id":"a633qd7d4hzo","geo_precision":"zip"},"type":"Feature","geometry":{"type":"Point","coordinates":[-118.298662,33.786594]}},{"properties":{"zip":"10010","geo_score":0.714,"id":"a633qd3izpa0","geo_precision":"zip"},"type":"Feature","geometry":{"type":"Point","coordinates":[-73.983542,40.739024]}},{"properties":{"zip":"75207","geo_score":0.714,"id":"a633qd1tvn8e","geo_precision":"zip"},"type":"Feature","geometry":{"type":"Point","coordinates":[-96.798372,32.76313]}},{"properties":{"zip":"97103","geo_score":0.714,"id":"a633qdbjkcxu","geo_precision":"zip"},"type":"Feature","geometry":{"type":"Point","coordinates":[-123.765974,46.205107]}},{"properties":{"zip":"33309","geo_score":0.714,"id":"a633qczjvgx3","geo_precision":"zip"},"type":"Feature","geometry":{"type":"Point","coordinates":[-80.249771,26.212861]}},{"properties":{"zip":"45202","geo_score":0.714,"id":"a633qdfqlg0t","geo_precision":"zip"},"type":"Feature","geometry":{"type":"Point","coordinates":[-84.486142,39.11026]}},{"properties":{"zip":"30144","geo_score":0.714,"id":"a633qd7l4xwp","geo_precision":"zip"},"type":"Feature","geometry":{"type":"Point","coordinates":[-84.597433,34.03384]}},{"properties":{"zip":"7470","geo_score":0.714,"id":"a633qd70j5vd","geo_precision":"zip"},"type":"Feature","geometry":{"type":"Point","coordinates":[-74.262092,40.991764]}},{"properties":{"zip":"13760","geo_score":0.714,"id":"a633qdchifbb","geo_precision":"zip"},"type":"Feature","geometry":{"type":"Point","coordinates":[-76.069092,42.151464]}},{"properties":{"zip":"94563","geo_score":0.714,"id":"a633qd42nf39","geo_precision":"zip"},"type":"Feature","geometry":{"type":"Point","coordinates":[-122.195523,37.887425]}},{"properties":{"zip":"85733","geo_score":0.714,"id":"a633qddt5wrj","geo_precision":"zip"},"type":"Feature","geometry":{"type":"Point","coordinates":[-111.890713,31.970131]}},{"properties":{"zip":"20037","geo_score":0.714,"id":"a633qdcclstu","geo_precision":"zip"},"type":"Feature","geometry":{"type":"Point","coordinates":[-77.061781,38.918903]}},{"properties":{"zip":"59802","geo_score":0.714,"id":"a633qdetldiv","geo_precision":"zip"},"type":"Feature","geometry":{"type":"Point","coordinates":[-113.954788,46.989689]}},{"properties":{"zip":"78757","geo_score":0.714,"id":"a633qd8v9xhv","geo_precision":"zip"},"type":"Feature","geometry":{"type":"Point","coordinates":[-97.601444,30.348567]}},{"properties":{"zip":"98125","geo_score":0.714,"id":"a633qd8wlrq2","geo_precision":"zip"},"type":"Feature","geometry":{"type":"Point","coordinates":[-122.283737,47.717598]}},{"properties":{"zip":"98249","geo_score":0.714,"id":"a633qdf0tue5","geo_precision":"zip"},"type":"Feature","geometry":{"type":"Point","coordinates":[-122.524872,48.008704]}},{"properties":{"zip":"77081","geo_score":0.714,"id":"a633qd2fw95j","geo_precision":"zip"},"type":"Feature","geometry":{"type":"Point","coordinates":[-95.306914,29.68193]}},{"properties":{"zip":"90266","geo_score":0.714,"id":"a633qd6e6d1p","geo_precision":"zip"},"type":"Feature","geometry":{"type":"Point","coordinates":[-118.298662,33.786594]}},{"properties":{"zip":"3846","geo_score":0.714,"id":"a633qd115py5","geo_precision":"zip"},"type":"Feature","geometry":{"type":"Point","coordinates":[-71.189517,44.128124]}},{"properties":{"zip":"90034","geo_score":0.714,"id":"a633qd9421ez","geo_precision":"zip"},"type":"Feature","geometry":{"type":"Point","coordinates":[-118.405633,34.022789]}},{"properties":{"zip":"15642","geo_score":0.714,"id":"a633qd3uzuim","geo_precision":"zip"},"type":"Feature","geometry":{"type":"Point","coordinates":[-79.739211,40.305348]}},{"properties":{"zip":"98006","geo_score":0.714,"id":"a633qdavbolp","geo_precision":"zip"},"type":"Feature","geometry":{"type":"Point","coordinates":[-122.192345,47.570655]}},{"properties":{"zip":"84321","geo_score":0.714,"id":"a633qd26tz0p","geo_precision":"zip"},"type":"Feature","geometry":{"type":"Point","coordinates":[-111.821332,41.721598]}},{"properties":{"zip":"99503","geo_score":0.714,"id":"a633qddq1yb8","geo_precision":"zip"},"type":"Feature","geometry":{"type":"Point","coordinates":[-149.941389,61.195833]}},{"properties":{"zip":"19123","geo_score":0.714,"id":"a633qdefxjwh","geo_precision":"zip"},"type":"Feature","geometry":{"type":"Point","coordinates":[-75.115369,39.98238]}},{"properties":{"zip":"22043","geo_score":0.714,"id":"a633qdae2403","geo_precision":"zip"},"type":"Feature","geometry":{"type":"Point","coordinates":[-77.200814,38.912889]}},{"properties":{"zip":"44114","geo_score":0.714,"id":"a633qd8op7en","geo_precision":"zip"},"type":"Feature","geometry":{"type":"Point","coordinates":[-81.677302,41.5145]}},{"properties":{"zip":"48012","geo_score":0.714,"id":"a633qd15x9t1","geo_precision":"zip"},"type":"Feature","geometry":{"type":"Point","coordinates":[-83.292382,42.604425]}},{"properties":{"zip":"80524","geo_score":0.714,"id":"a633qddadpa9","geo_precision":"zip"},"type":"Feature","geometry":{"type":"Point","coordinates":[-105.252751,40.59889]}},{"properties":{"zip":"94019","geo_score":0.714,"id":"a633qd0c3590","geo_precision":"zip"},"type":"Feature","geometry":{"type":"Point","coordinates":[-122.40803,37.374942]}},{"properties":{"zip":"18901","geo_score":0.714,"id":"a633qdasjflk","geo_precision":"zip"},"type":"Feature","geometry":{"type":"Point","coordinates":[-75.081282,40.317051]}},{"properties":{"zip":"60102","geo_score":0.714,"id":"a633qdb5n9nk","geo_precision":"zip"},"type":"Feature","geometry":{"type":"Point","coordinates":[-88.260638,42.188913]}},{"properties":{"zip":"92054","geo_score":0.714,"id":"a633qd7ofc4h","geo_precision":"zip"},"type":"Feature","geometry":{"type":"Point","coordinates":[-117.36865,33.181704]}},{"properties":{"zip":"46901","geo_score":0.714,"id":"a633qd4meqpd","geo_precision":"zip"},"type":"Feature","geometry":{"type":"Point","coordinates":[-86.042212,40.578373]}},{"properties":{"zip":"2111","geo_score":0.714,"id":"a633qdfo5grh","geo_precision":"zip"},"type":"Feature","geometry":{"type":"Point","coordinates":[-71.059365,42.351047]}},{"properties":{"zip":"94109","geo_score":0.714,"id":"a633qd8kezcs","geo_precision":"zip"},"type":"Feature","geometry":{"type":"Point","coordinates":[-122.420782,37.795219]}},{"properties":{"zip":"11209","geo_score":0.714,"id":"a633qd66ymhi","geo_precision":"zip"},"type":"Feature","geometry":{"type":"Point","coordinates":[-74.033196,40.618715]}},{"properties":{"zip":"55057","geo_score":0.714,"id":"a633qdc0f885","geo_precision":"zip"},"type":"Feature","geometry":{"type":"Point","coordinates":[-93.142993,44.483854]}},{"properties":{"zip":"94536","geo_score":0.714,"id":"a633qdetqe0s","geo_precision":"zip"},"type":"Feature","geometry":{"type":"Point","coordinates":[-121.982721,37.565285]}},{"properties":{"zip":"94117","geo_score":0.714,"id":"a633qd8xagoz","geo_precision":"zip"},"type":"Feature","geometry":{"type":"Point","coordinates":[-122.443882,37.769079]}},{"properties":{"zip":"60148","geo_score":0.714,"id":"a633qdcln3mr","geo_precision":"zip"},"type":"Feature","geometry":{"type":"Point","coordinates":[-87.987842,41.856974]}},{"properties":{"zip":"33018","geo_score":0.714,"id":"a633qd7qzghu","geo_precision":"zip"},"type":"Feature","geometry":{"type":"Point","coordinates":[-80.388874,25.909809]}},{"properties":{"zip":"28734","geo_score":0.714,"id":"a633qd8ktuw1","geo_precision":"zip"},"type":"Feature","geometry":{"type":"Point","coordinates":[-83.395988,35.117871]}},{"properties":{"zip":"32807","geo_score":0.714,"id":"a633qdc6s04a","geo_precision":"zip"},"type":"Feature","geometry":{"type":"Point","coordinates":[-81.300624,28.541113]}},{"properties":{"zip":"92314","geo_score":0.714,"id":"a633qdcx7uu2","geo_precision":"zip"},"type":"Feature","geometry":{"type":"Point","coordinates":[-116.110086,34.50514]}},{"properties":{"zip":"6107","geo_score":0.714,"id":"a633qd4sr5ou","geo_precision":"zip"},"type":"Feature","geometry":{"type":"Point","coordinates":[-72.685093,41.763711]}},{"properties":{"zip":"59715","geo_score":0.714,"id":"a633qddly6mt","geo_precision":"zip"},"type":"Feature","geometry":{"type":"Point","coordinates":[-111.168212,45.809998]}},{"properties":{"zip":"38138","geo_score":0.714,"id":"a633qd1zdau7","geo_precision":"zip"},"type":"Feature","geometry":{"type":"Point","coordinates":[-89.759251,35.063147]}},{"properties":{"zip":"6794","geo_score":0.714,"id":"a633qd1pr39o","geo_precision":"zip"},"type":"Feature","geometry":{"type":"Point","coordinates":[-73.316951,41.646347]}},{"properties":{"zip":"98074","geo_score":0.714,"id":"a633qd7rzlau","geo_precision":"zip"},"type":"Feature","geometry":{"type":"Point","coordinates":[-122.023898,47.619112]}},{"properties":{"zip":"48067","geo_score":0.714,"id":"a633qdfdoai7","geo_precision":"zip"},"type":"Feature","geometry":{"type":"Point","coordinates":[-83.145375,42.492485]}},{"properties":{"zip":"55119","geo_score":0.714,"id":"a633qd2iywkp","geo_precision":"zip"},"type":"Feature","geometry":{"type":"Point","coordinates":[-92.976603,44.950799]}},{"properties":{"zip":"92656","geo_score":0.714,"id":"a633qd9rag78","geo_precision":"zip"},"type":"Feature","geometry":{"type":"Point","coordinates":[-117.751341,33.603459]}},{"properties":{"zip":"80210","geo_score":0.714,"id":"a633qczyrd71","geo_precision":"zip"},"type":"Feature","geometry":{"type":"Point","coordinates":[-104.964186,39.701677]}},{"properties":{"zip":"97224","geo_score":0.714,"id":"a633qddp9was","geo_precision":"zip"},"type":"Feature","geometry":{"type":"Point","coordinates":[-122.758986,45.446507]}},{"properties":{"zip":"33484","geo_score":0.714,"id":"a633qd6ljomy","geo_precision":"zip"},"type":"Feature","geometry":{"type":"Point","coordinates":[-80.13473,26.454218]}},{"properties":{"zip":"39047","geo_score":0.714,"id":"a633qd1zfkeb","geo_precision":"zip"},"type":"Feature","geometry":{"type":"Point","coordinates":[-89.958406,32.388633]}},{"properties":{"zip":"10185","geo_score":0.714,"id":"a633qdfw61o1","geo_precision":"zip"},"type":"Feature","geometry":{"type":"Point","coordinates":[-73.977182,40.780751]}},{"properties":{"zip":"90064","geo_score":0.714,"id":"a633qd7nz6vl","geo_precision":"zip"},"type":"Feature","geometry":{"type":"Point","coordinates":[-118.298662,33.786594]}},{"properties":{"zip":"92009","geo_score":0.714,"id":"a633qd9qke3u","geo_precision":"zip"},"type":"Feature","geometry":{"type":"Point","coordinates":[-117.267169,33.082192]}},{"properties":{"zip":"29205","geo_score":0.714,"id":"a633qdax0utq","geo_precision":"zip"},"type":"Feature","geometry":{"type":"Point","coordinates":[-81.000013,33.987555]}},{"properties":{"zip":"98404","geo_score":0.714,"id":"a633qda6si2c","geo_precision":"zip"},"type":"Feature","geometry":{"type":"Point","coordinates":[-122.397929,47.209131]}},{"properties":{"zip":"98201","geo_score":0.714,"id":"a633qd0d2l8p","geo_precision":"zip"},"type":"Feature","geometry":{"type":"Point","coordinates":[-122.199795,47.988661]}},{"properties":{"zip":"28793","geo_score":0.714,"id":"a633qdcd0yl2","geo_precision":"zip"},"type":"Feature","geometry":{"type":"Point","coordinates":[-82.503611,35.292714]}},{"properties":{"zip":"95030","geo_score":0.714,"id":"a633qczjr1qq","geo_precision":"zip"},"type":"Feature","geometry":{"type":"Point","coordinates":[-121.966348,37.116614]}},{"properties":{"zip":"30306","geo_score":0.714,"id":"a633qczkrcbe","geo_precision":"zip"},"type":"Feature","geometry":{"type":"Point","coordinates":[-84.359775,33.787804]}},{"properties":{"zip":"93004","geo_score":0.714,"id":"a633qd6dtsft","geo_precision":"zip"},"type":"Feature","geometry":{"type":"Point","coordinates":[-119.149829,34.283058]}},{"properties":{"zip":"98115","geo_score":0.714,"id":"a633qd6novdc","geo_precision":"zip"},"type":"Feature","geometry":{"type":"Point","coordinates":[-122.295682,47.686765]}},{"properties":{"zip":"1537","geo_score":0.714,"id":"a633qd0wk8ov","geo_precision":"zip"},"type":"Feature","geometry":{"type":"Point","coordinates":[-71.892295,42.165372]}},{"properties":{"zip":"89431","geo_score":0.714,"id":"a633qd9f0jnb","geo_precision":"zip"},"type":"Feature","geometry":{"type":"Point","coordinates":[-119.700742,39.526301]}},{"properties":{"zip":"7871","geo_score":0.714,"id":"a633qd3tm9ou","geo_precision":"zip"},"type":"Feature","geometry":{"type":"Point","coordinates":[-74.663218,41.031209]}},{"properties":{"zip":"91423","geo_score":0.714,"id":"a633qd05ravi","geo_precision":"zip"},"type":"Feature","geometry":{"type":"Point","coordinates":[-118.298662,33.786594]}},{"properties":{"zip":"97203","geo_score":0.714,"id":"a633qd929b43","geo_precision":"zip"},"type":"Feature","geometry":{"type":"Point","coordinates":[-122.728709,45.576228]}},{"properties":{"zip":"92119","geo_score":0.714,"id":"a633qd67qyq7","geo_precision":"zip"},"type":"Feature","geometry":{"type":"Point","coordinates":[-117.033162,32.815849]}},{"properties":{"zip":"67209","geo_score":0.714,"id":"a633qdbjx9vx","geo_precision":"zip"},"type":"Feature","geometry":{"type":"Point","coordinates":[-97.461435,37.675014]}},{"properties":{"zip":"59047","geo_score":0.714,"id":"a633qdfxe3ap","geo_precision":"zip"},"type":"Feature","geometry":{"type":"Point","coordinates":[-110.564094,45.507437]}},{"properties":{"zip":"85331","geo_score":0.714,"id":"a633qd3pkdua","geo_precision":"zip"},"type":"Feature","geometry":{"type":"Point","coordinates":[-111.816813,33.911706]}},{"properties":{"zip":"11103","geo_score":0.714,"id":"a633qd0b92we","geo_precision":"zip"},"type":"Feature","geometry":{"type":"Point","coordinates":[-73.903748,40.774546]}},{"properties":{"zip":"59718","geo_score":0.714,"id":"a633qd2b9ycu","geo_precision":"zip"},"type":"Feature","geometry":{"type":"Point","coordinates":[-111.240393,45.66812]}},{"properties":{"zip":"55401","geo_score":0.714,"id":"a633qd7ogy7d","geo_precision":"zip"},"type":"Feature","geometry":{"type":"Point","coordinates":[-93.273024,44.979265]}},{"properties":{"zip":"90277","geo_score":0.714,"id":"a633qd8wtjdj","geo_precision":"zip"},"type":"Feature","geometry":{"type":"Point","coordinates":[-118.379796,33.827515]}},{"properties":{"zip":"1754","geo_score":0.714,"id":"a633qd1irxvn","geo_precision":"zip"},"type":"Feature","geometry":{"type":"Point","coordinates":[-71.459405,42.446396]}},{"properties":{"zip":"84103","geo_score":0.714,"id":"a633qczwxo0w","geo_precision":"zip"},"type":"Feature","geometry":{"type":"Point","coordinates":[-111.869485,40.785847]}},{"properties":{"zip":"98146","geo_score":0.714,"id":"a633qd6q6rt4","geo_precision":"zip"},"type":"Feature","geometry":{"type":"Point","coordinates":[-121.803388,47.432251]}},{"properties":{"zip":"64055","geo_score":0.714,"id":"a633qd7tso1t","geo_precision":"zip"},"type":"Feature","geometry":{"type":"Point","coordinates":[-94.415628,39.048523]}},{"properties":{"zip":"85020","geo_score":0.714,"id":"a633qdf5m6bt","geo_precision":"zip"},"type":"Feature","geometry":{"type":"Point","coordinates":[-112.065149,33.565875]}},{"properties":{"zip":"10010","geo_score":0.714,"id":"a633qdcdnwnr","geo_precision":"zip"},"type":"Feature","geometry":{"type":"Point","coordinates":[-73.983542,40.739024]}},{"properties":{"zip":"33071","geo_score":0.714,"id":"a633qd1rer6u","geo_precision":"zip"},"type":"Feature","geometry":{"type":"Point","coordinates":[-80.399775,26.100365]}},{"properties":{"zip":"22304","geo_score":0.714,"id":"a633qd9wsgbp","geo_precision":"zip"},"type":"Feature","geometry":{"type":"Point","coordinates":[-77.109146,38.815391]}},{"properties":{"zip":"94118","geo_score":0.714,"id":"a633qd5tcrax","geo_precision":"zip"},"type":"Feature","geometry":{"type":"Point","coordinates":[-122.459982,37.778779]}},{"properties":{"zip":"95642","geo_score":0.714,"id":"a633qd6d59ta","geo_precision":"zip"},"type":"Feature","geometry":{"type":"Point","coordinates":[-120.668265,38.376024]}},{"properties":{"zip":"94403","geo_score":0.714,"id":"a633qd9nj5r9","geo_precision":"zip"},"type":"Feature","geometry":{"type":"Point","coordinates":[-122.304079,37.541486]}},{"properties":{"zip":"60647","geo_score":0.714,"id":"a633qdbuzrpx","geo_precision":"zip"},"type":"Feature","geometry":{"type":"Point","coordinates":[-87.68732,41.811929]}},{"properties":{"zip":"95448","geo_score":0.714,"id":"a633qdbwlg4c","geo_precision":"zip"},"type":"Feature","geometry":{"type":"Point","coordinates":[-122.871662,38.659354]}},{"properties":{"zip":"18018","geo_score":0.714,"id":"a633qd9lxu8e","geo_precision":"zip"},"type":"Feature","geometry":{"type":"Point","coordinates":[-75.40157,40.635931]}},{"properties":{"zip":"98103","geo_score":0.714,"id":"a633qd87eqxg","geo_precision":"zip"},"type":"Feature","geometry":{"type":"Point","coordinates":[-122.327627,47.655654]}},{"properties":{"zip":"83703","geo_score":0.714,"id":"a633qdev5z37","geo_precision":"zip"},"type":"Feature","geometry":{"type":"Point","coordinates":[-116.248664,43.680432]}},{"properties":{"zip":"33764","geo_score":0.714,"id":"a633qd64wcbi","geo_precision":"zip"},"type":"Feature","geometry":{"type":"Point","coordinates":[-82.734299,27.916038]}},{"properties":{"zip":"20120","geo_score":0.714,"id":"a633qdb1kyli","geo_precision":"zip"},"type":"Feature","geometry":{"type":"Point","coordinates":[-77.46701,38.84479]}},{"properties":{"zip":"85250","geo_score":0.714,"id":"a633qddodyeo","geo_precision":"zip"},"type":"Feature","geometry":{"type":"Point","coordinates":[-111.874248,33.524143]}},{"properties":{"zip":"95020","geo_score":0.714,"id":"a633qd524hjo","geo_precision":"zip"},"type":"Feature","geometry":{"type":"Point","coordinates":[-121.592165,37.054114]}},{"properties":{"zip":"93101","geo_score":0.714,"id":"a633qd6x720z","geo_precision":"zip"},"type":"Feature","geometry":{"type":"Point","coordinates":[-119.990975,34.5861]}},{"properties":{"zip":"11211","geo_score":0.714,"id":"a633qdb7ot1r","geo_precision":"zip"},"type":"Feature","geometry":{"type":"Point","coordinates":[-73.953471,40.714269]}},{"properties":{"zip":"77339","geo_score":0.714,"id":"a633qdchpfc8","geo_precision":"zip"},"type":"Feature","geometry":{"type":"Point","coordinates":[-95.434241,29.83399]}},{"properties":{"zip":"18102","geo_score":0.714,"id":"a633qd90jzjj","geo_precision":"zip"},"type":"Feature","geometry":{"type":"Point","coordinates":[-75.577686,40.648707]}},{"properties":{"zip":"78207","geo_score":0.714,"id":"a633qd83j3e2","geo_precision":"zip"},"type":"Feature","geometry":{"type":"Point","coordinates":[-98.439943,29.348816]}},{"properties":{"zip":"33139","geo_score":0.714,"id":"a633qd609n22","geo_precision":"zip"},"type":"Feature","geometry":{"type":"Point","coordinates":[-80.193659,25.774266]}},{"properties":{"zip":"22303","geo_score":0.714,"id":"a633qdd5s3pv","geo_precision":"zip"},"type":"Feature","geometry":{"type":"Point","coordinates":[-77.046921,38.804836]}},{"properties":{"zip":"11231","geo_score":0.714,"id":"a633qd75uyg4","geo_precision":"zip"},"type":"Feature","geometry":{"type":"Point","coordinates":[-74.009584,40.675103]}},{"properties":{"zip":"33062","geo_score":0.714,"id":"a633qd0kkzyb","geo_precision":"zip"},"type":"Feature","geometry":{"type":"Point","coordinates":[-80.078932,26.293969]}},{"properties":{"zip":"80439","geo_score":0.714,"id":"a633qd3cx8g9","geo_precision":"zip"},"type":"Feature","geometry":{"type":"Point","coordinates":[-105.340548,39.660266]}},{"properties":{"zip":"20763","geo_score":0.714,"id":"a633qd2xc8cw","geo_precision":"zip"},"type":"Feature","geometry":{"type":"Point","coordinates":[-76.815044,39.136189]}},{"properties":{"zip":"20132","geo_score":0.714,"id":"a633qdbuqvem","geo_precision":"zip"},"type":"Feature","geometry":{"type":"Point","coordinates":[-77.734232,39.143614]}},{"properties":{"zip":"32308","geo_score":0.714,"id":"a633qd3w3v12","geo_precision":"zip"},"type":"Feature","geometry":{"type":"Point","coordinates":[-84.216286,30.427979]}},{"properties":{"zip":"33629","geo_score":0.714,"id":"a633qdckraj8","geo_precision":"zip"},"type":"Feature","geometry":{"type":"Point","coordinates":[-82.495373,27.920856]}},{"properties":{"zip":"94513","geo_score":0.714,"id":"a633qd1ntmsk","geo_precision":"zip"},"type":"Feature","geometry":{"type":"Point","coordinates":[-121.843071,37.912274]}},{"properties":{"zip":"92071","geo_score":0.714,"id":"a633qd1lypgw","geo_precision":"zip"},"type":"Feature","geometry":{"type":"Point","coordinates":[-116.994511,32.843956]}},{"properties":{"zip":"15217","geo_score":0.714,"id":"a633qde9dp5o","geo_precision":"zip"},"type":"Feature","geometry":{"type":"Point","coordinates":[-79.919218,40.438125]}},{"properties":{"zip":"2852","geo_score":0.714,"id":"a633qd6xcc6r","geo_precision":"zip"},"type":"Feature","geometry":{"type":"Point","coordinates":[-71.461447,41.57399]}},{"properties":{"zip":"21014","geo_score":0.714,"id":"a633qdams3qp","geo_precision":"zip"},"type":"Feature","geometry":{"type":"Point","coordinates":[-76.339404,39.520941]}},{"properties":{"zip":"11220","geo_score":0.714,"id":"a633qd18wqf7","geo_precision":"zip"},"type":"Feature","geometry":{"type":"Point","coordinates":[-74.014584,40.633993]}},{"properties":{"zip":"7926","geo_score":0.714,"id":"a633qdaj2lku","geo_precision":"zip"},"type":"Feature","geometry":{"type":"Point","coordinates":[-74.571785,40.800353]}},{"properties":{"zip":"20769","geo_score":0.714,"id":"a633qd3710bz","geo_precision":"zip"},"type":"Feature","geometry":{"type":"Point","coordinates":[-76.794415,38.984555]}},{"properties":{"zip":"33304","geo_score":0.714,"id":"a633qdboypx2","geo_precision":"zip"},"type":"Feature","geometry":{"type":"Point","coordinates":[-80.120216,26.124513]}},{"properties":{"zip":"14222","geo_score":0.714,"id":"a633qddpq27w","geo_precision":"zip"},"type":"Feature","geometry":{"type":"Point","coordinates":[-78.875007,42.918207]}},{"properties":{"zip":"10128","geo_score":0.714,"id":"a633qcznfo3w","geo_precision":"zip"},"type":"Feature","geometry":{"type":"Point","coordinates":[-73.95158,40.780989]}},{"properties":{"zip":"44313","geo_score":0.714,"id":"a633qdahvokc","geo_precision":"zip"},"type":"Feature","geometry":{"type":"Point","coordinates":[-81.440946,41.037834]}},{"properties":{"zip":"22936","geo_score":0.714,"id":"a633qddg8c28","geo_precision":"zip"},"type":"Feature","geometry":{"type":"Point","coordinates":[-78.506832,38.166565]}},{"properties":{"zip":"91941","geo_score":0.714,"id":"a633qd3wyal7","geo_precision":"zip"},"type":"Feature","geometry":{"type":"Point","coordinates":[-116.998102,32.76105]}},{"properties":{"zip":"80033","geo_score":0.714,"id":"a633qd6pipms","geo_precision":"zip"},"type":"Feature","geometry":{"type":"Point","coordinates":[-105.108182,39.776986]}},{"properties":{"zip":"19083","geo_score":0.714,"id":"a633qd0ssj2b","geo_precision":"zip"},"type":"Feature","geometry":{"type":"Point","coordinates":[-75.326577,39.973167]}},{"properties":{"zip":"19083","geo_score":0.714,"id":"a633qd5w1ovo","geo_precision":"zip"},"type":"Feature","geometry":{"type":"Point","coordinates":[-75.326577,39.973167]}},{"properties":{"zip":"86001","geo_score":0.714,"id":"a633qdfbu679","geo_precision":"zip"},"type":"Feature","geometry":{"type":"Point","coordinates":[-111.40821,35.205012]}},{"properties":{"zip":"37138","geo_score":0.714,"id":"a633qd3vizo4","geo_precision":"zip"},"type":"Feature","geometry":{"type":"Point","coordinates":[-86.635552,36.243109]}},{"properties":{"zip":"6517","geo_score":0.714,"id":"a633qd26wbyj","geo_precision":"zip"},"type":"Feature","geometry":{"type":"Point","coordinates":[-72.912324,41.344264]}},{"properties":{"zip":"20817","geo_score":0.714,"id":"a633qd0jy5lf","geo_precision":"zip"},"type":"Feature","geometry":{"type":"Point","coordinates":[-77.149702,39.019276]}},{"properties":{"zip":"30741","geo_score":0.714,"id":"a633qd9eivvk","geo_precision":"zip"},"type":"Feature","geometry":{"type":"Point","coordinates":[-85.312735,34.979242]}},{"properties":{"zip":"2916","geo_score":0.714,"id":"a633qd8yjc7y","geo_precision":"zip"},"type":"Feature","geometry":{"type":"Point","coordinates":[-71.355798,41.842727]}},{"properties":{"zip":"59854","geo_score":0.714,"id":"a633qd44i308","geo_precision":"zip"},"type":"Feature","geometry":{"type":"Point","coordinates":[-113.097461,47.035882]}},{"properties":{"zip":"60611","geo_score":0.714,"id":"a633qd0lg6vc","geo_precision":"zip"},"type":"Feature","geometry":{"type":"Point","coordinates":[-87.68732,41.811929]}},{"properties":{"zip":"2134","geo_score":0.714,"id":"a633qd9avvq9","geo_precision":"zip"},"type":"Feature","geometry":{"type":"Point","coordinates":[-71.112646,42.357169]}},{"properties":{"zip":"94041","geo_score":0.714,"id":"a633qd9h39gy","geo_precision":"zip"},"type":"Feature","geometry":{"type":"Point","coordinates":[-121.705327,37.189396]}},{"properties":{"zip":"48124","geo_score":0.714,"id":"a633qd5lojm4","geo_precision":"zip"},"type":"Feature","geometry":{"type":"Point","coordinates":[-83.242577,42.299302]}},{"properties":{"zip":"90039","geo_score":0.714,"id":"a633qde3iagf","geo_precision":"zip"},"type":"Feature","geometry":{"type":"Point","coordinates":[-118.298662,33.786594]}},{"properties":{"zip":"90031","geo_score":0.714,"id":"a633qd6f9lf1","geo_precision":"zip"},"type":"Feature","geometry":{"type":"Point","coordinates":[-118.205073,34.070566]}},{"properties":{"zip":"59718","geo_score":0.714,"id":"a633qdaofaa8","geo_precision":"zip"},"type":"Feature","geometry":{"type":"Point","coordinates":[-111.240393,45.66812]}},{"properties":{"zip":"8611","geo_score":0.714,"id":"a633qdd063uc","geo_precision":"zip"},"type":"Feature","geometry":{"type":"Point","coordinates":[-74.741554,40.196658]}},{"properties":{"zip":"68010","geo_score":0.714,"id":"a633qd1ovy5b","geo_precision":"zip"},"type":"Feature","geometry":{"type":"Point","coordinates":[-96.133047,41.2587]}},{"properties":{"zip":"65810","geo_score":0.714,"id":"a633qd0d4gtc","geo_precision":"zip"},"type":"Feature","geometry":{"type":"Point","coordinates":[-93.31318,37.122249]}},{"properties":{"zip":"1890","geo_score":0.714,"id":"a633qd4btuii","geo_precision":"zip"},"type":"Feature","geometry":{"type":"Point","coordinates":[-71.125887,42.466762]}},{"properties":{"zip":"29910","geo_score":0.714,"id":"a633qdfhnszw","geo_precision":"zip"},"type":"Feature","geometry":{"type":"Point","coordinates":[-80.964277,32.237978]}},{"properties":{"zip":"6416","geo_score":0.714,"id":"a633qdds7pgz","geo_precision":"zip"},"type":"Feature","geometry":{"type":"Point","coordinates":[-72.667807,41.608529]}},{"properties":{"zip":"1862","geo_score":0.714,"id":"a633qd0np2gw","geo_precision":"zip"},"type":"Feature","geometry":{"type":"Point","coordinates":[-71.305059,42.543149]}},{"properties":{"zip":"94122","geo_score":0.714,"id":"a633qd99ttew","geo_precision":"zip"},"type":"Feature","geometry":{"type":"Point","coordinates":[-122.475732,37.761179]}},{"properties":{"zip":"33444","geo_score":0.714,"id":"a633qdcg1a36","geo_precision":"zip"},"type":"Feature","geometry":{"type":"Point","coordinates":[-80.06782,26.435352]}},{"properties":{"zip":"19119","geo_score":0.714,"id":"a633qd6rby31","geo_precision":"zip"},"type":"Feature","geometry":{"type":"Point","coordinates":[-75.186566,40.064]}},{"properties":{"zip":"10282","geo_score":0.714,"id":"a633qdevyo4k","geo_precision":"zip"},"type":"Feature","geometry":{"type":"Point","coordinates":[-74.01459,40.716597]}},{"properties":{"zip":"21403","geo_score":0.714,"id":"a633qd6yhj6a","geo_precision":"zip"},"type":"Feature","geometry":{"type":"Point","coordinates":[-76.49496,38.940113]}},{"properties":{"zip":"8807","geo_score":0.714,"id":"a633qdcd29oo","geo_precision":"zip"},"type":"Feature","geometry":{"type":"Point","coordinates":[-74.607518,40.598702]}},{"properties":{"zip":"30066","geo_score":0.714,"id":"a633qd2kgprf","geo_precision":"zip"},"type":"Feature","geometry":{"type":"Point","coordinates":[-84.498365,34.024849]}},{"properties":{"zip":"30341","geo_score":0.714,"id":"a633qdcy6q4i","geo_precision":"zip"},"type":"Feature","geometry":{"type":"Point","coordinates":[-84.255755,33.881492]}},{"properties":{"zip":"7307","geo_score":0.714,"id":"a633qd6spnfa","geo_precision":"zip"},"type":"Feature","geometry":{"type":"Point","coordinates":[-74.054285,40.749801]}},{"properties":{"zip":"93953","geo_score":0.714,"id":"a633qd9veyxo","geo_precision":"zip"},"type":"Feature","geometry":{"type":"Point","coordinates":[-121.947456,36.586349]}},{"properties":{"zip":"80235","geo_score":0.714,"id":"a633qddlqwu7","geo_precision":"zip"},"type":"Feature","geometry":{"type":"Point","coordinates":[-105.065003,39.645837]}},{"properties":{"zip":"22207","geo_score":0.714,"id":"a633qd8eahcq","geo_precision":"zip"},"type":"Feature","geometry":{"type":"Point","coordinates":[-77.122344,38.907416]}},{"properties":{"zip":"3079","geo_score":0.714,"id":"a633qddlbfxg","geo_precision":"zip"},"type":"Feature","geometry":{"type":"Point","coordinates":[-71.226449,42.786756]}},{"properties":{"zip":"66218","geo_score":0.714,"id":"a633qd4y7zs2","geo_precision":"zip"},"type":"Feature","geometry":{"type":"Point","coordinates":[-94.808018,39.038338]}},{"properties":{"zip":"77379","geo_score":0.714,"id":"a633qd3ugqxr","geo_precision":"zip"},"type":"Feature","geometry":{"type":"Point","coordinates":[-95.427994,30.127439]}},{"properties":{"zip":"10019","geo_score":0.714,"id":"a633qdatzzu1","geo_precision":"zip"},"type":"Feature","geometry":{"type":"Point","coordinates":[-73.985443,40.765926]}},{"properties":{"zip":"55416","geo_score":0.714,"id":"a633qd7bp630","geo_precision":"zip"},"type":"Feature","geometry":{"type":"Point","coordinates":[-93.337326,44.949714]}},{"properties":{"zip":"33161","geo_score":0.714,"id":"a633qd4c890g","geo_precision":"zip"},"type":"Feature","geometry":{"type":"Point","coordinates":[-80.193659,25.774266]}},{"properties":{"zip":"30324","geo_score":0.714,"id":"a633qde7edzy","geo_precision":"zip"},"type":"Feature","geometry":{"type":"Point","coordinates":[-84.366475,33.820104]}},{"properties":{"zip":"66103","geo_score":0.714,"id":"a633qdbwwt1m","geo_precision":"zip"},"type":"Feature","geometry":{"type":"Point","coordinates":[-94.628184,39.066804]}},{"properties":{"zip":"1760","geo_score":0.714,"id":"a633qd6qqbrf","geo_precision":"zip"},"type":"Feature","geometry":{"type":"Point","coordinates":[-71.378671,42.277874]}},{"properties":{"zip":"72774","geo_score":0.714,"id":"a633qd8ta5yo","geo_precision":"zip"},"type":"Feature","geometry":{"type":"Point","coordinates":[-94.168538,35.885359]}},{"properties":{"zip":"37221","geo_score":0.714,"id":"a633qd2yis9f","geo_precision":"zip"},"type":"Feature","geometry":{"type":"Point","coordinates":[-86.939446,36.064783]}},{"properties":{"zip":"44094","geo_score":0.714,"id":"a633qd6kwx3d","geo_precision":"zip"},"type":"Feature","geometry":{"type":"Point","coordinates":[-81.418447,41.598382]}},{"properties":{"zip":"10001","geo_score":0.714,"id":"a633qd4vg107","geo_precision":"zip"},"type":"Feature","geometry":{"type":"Point","coordinates":[-73.996328,40.750422]}},{"properties":{"zip":"70733","geo_score":0.714,"id":"a633qd7n6hhq","geo_precision":"zip"},"type":"Feature","geometry":{"type":"Point","coordinates":[-90.779704,30.30657]}},{"properties":{"zip":"59718","geo_score":0.714,"id":"a633qd6kbkcm","geo_precision":"zip"},"type":"Feature","geometry":{"type":"Point","coordinates":[-111.240393,45.66812]}},{"properties":{"zip":"33180","geo_score":0.714,"id":"a633qd466z6j","geo_precision":"zip"},"type":"Feature","geometry":{"type":"Point","coordinates":[-80.193659,25.774266]}},{"properties":{"zip":"10013","geo_score":0.714,"id":"a633qdfyevqn","geo_precision":"zip"},"type":"Feature","geometry":{"type":"Point","coordinates":[-73.99625,40.716491]}},{"properties":{"zip":"80017","geo_score":0.714,"id":"a633qdb8hcjg","geo_precision":"zip"},"type":"Feature","geometry":{"type":"Point","coordinates":[-104.80667,39.702142]}},{"properties":{"zip":"99202","geo_score":0.714,"id":"a633qd1t0zx5","geo_precision":"zip"},"type":"Feature","geometry":{"type":"Point","coordinates":[-117.515897,47.613475]}},{"properties":{"zip":"10150","geo_score":0.714,"id":"a633qd4mjqse","geo_precision":"zip"},"type":"Feature","geometry":{"type":"Point","coordinates":[-73.977182,40.780751]}},{"properties":{"zip":"19147","geo_score":0.714,"id":"a633qd5py4jx","geo_precision":"zip"},"type":"Feature","geometry":{"type":"Point","coordinates":[-75.155973,39.936212]}},{"properties":{"zip":"92657","geo_score":0.714,"id":"a633qd61ogwo","geo_precision":"zip"},"type":"Feature","geometry":{"type":"Point","coordinates":[-117.928947,33.61891]}},{"properties":{"zip":"7960","geo_score":0.714,"id":"a633qd0vyl2b","geo_precision":"zip"},"type":"Feature","geometry":{"type":"Point","coordinates":[-74.527101,40.805656]}},{"properties":{"zip":"45225","geo_score":0.714,"id":"a633qd0ksm6p","geo_precision":"zip"},"type":"Feature","geometry":{"type":"Point","coordinates":[-84.536888,39.13617]}},{"properties":{"zip":"10004","geo_score":0.714,"id":"a633qd2l6lcj","geo_precision":"zip"},"type":"Feature","geometry":{"type":"Point","coordinates":[-74.016389,40.691111]}},{"properties":{"zip":"1950","geo_score":0.714,"id":"a633qdck3kb9","geo_precision":"zip"},"type":"Feature","geometry":{"type":"Point","coordinates":[-70.882831,42.869535]}},{"properties":{"zip":"11217","geo_score":0.714,"id":"a633qdam3zrm","geo_precision":"zip"},"type":"Feature","geometry":{"type":"Point","coordinates":[-73.980613,40.684948]}},{"properties":{"zip":"10019","geo_score":0.714,"id":"a633qdf312nc","geo_precision":"zip"},"type":"Feature","geometry":{"type":"Point","coordinates":[-73.985443,40.765926]}},{"properties":{"zip":"7981","geo_score":0.714,"id":"a633qdbqs524","geo_precision":"zip"},"type":"Feature","geometry":{"type":"Point","coordinates":[-74.442376,40.812878]}},{"properties":{"zip":"22044","geo_score":0.714,"id":"a633qd8o4lfx","geo_precision":"zip"},"type":"Feature","geometry":{"type":"Point","coordinates":[-77.171091,38.882334]}},{"properties":{"zip":"70116","geo_score":0.714,"id":"a633qdesfarj","geo_precision":"zip"},"type":"Feature","geometry":{"type":"Point","coordinates":[-90.067122,29.968504]}},{"properties":{"zip":"50310","geo_score":0.714,"id":"a633qd0bs84t","geo_precision":"zip"},"type":"Feature","geometry":{"type":"Point","coordinates":[-93.680954,41.623438]}},{"properties":{"zip":"13057","geo_score":0.714,"id":"a633qdcnkx6m","geo_precision":"zip"},"type":"Feature","geometry":{"type":"Point","coordinates":[-76.030198,43.064511]}},{"properties":{"zip":"30084","geo_score":0.714,"id":"a633qczyitzw","geo_precision":"zip"},"type":"Feature","geometry":{"type":"Point","coordinates":[-84.219365,33.880659]}},{"properties":{"zip":"6515","geo_score":0.714,"id":"a633qde4od7e","geo_precision":"zip"},"type":"Feature","geometry":{"type":"Point","coordinates":[-72.97177,41.330653]}},{"properties":{"zip":"10019","geo_score":0.714,"id":"a633qd120nzt","geo_precision":"zip"},"type":"Feature","geometry":{"type":"Point","coordinates":[-73.985443,40.765926]}},{"properties":{"zip":"80026","geo_score":0.714,"id":"a633qd1vojo1","geo_precision":"zip"},"type":"Feature","geometry":{"type":"Point","coordinates":[-105.074705,40.053596]}},{"properties":{"zip":"28804","geo_score":0.714,"id":"a633qd4mgwx5","geo_precision":"zip"},"type":"Feature","geometry":{"type":"Point","coordinates":[-82.582073,35.633444]}},{"properties":{"zip":"7302","geo_score":0.714,"id":"a633qd4x67ug","geo_precision":"zip"},"type":"Feature","geometry":{"type":"Point","coordinates":[-74.047304,40.726001]}},{"properties":{"zip":"1930","geo_score":0.714,"id":"a633qdfimvsi","geo_precision":"zip"},"type":"Feature","geometry":{"type":"Point","coordinates":[-70.710601,42.613428]}},{"properties":{"zip":"20110","geo_score":0.714,"id":"a633qd2ib8j3","geo_precision":"zip"},"type":"Feature","geometry":{"type":"Point","coordinates":[-77.487762,38.749207]}},{"properties":{"zip":"29730","geo_score":0.714,"id":"a633qd9vc1g1","geo_precision":"zip"},"type":"Feature","geometry":{"type":"Point","coordinates":[-81.11536,34.821251]}},{"properties":{"zip":"23451","geo_score":0.714,"id":"a633qd6ltknw","geo_precision":"zip"},"type":"Feature","geometry":{"type":"Point","coordinates":[-75.996319,36.841538]}},{"properties":{"zip":"33410","geo_score":0.714,"id":"a633qd4o93ac","geo_precision":"zip"},"type":"Feature","geometry":{"type":"Point","coordinates":[-80.138655,26.823395]}},{"properties":{"zip":"27103","geo_score":0.714,"id":"a633qd4auizz","geo_precision":"zip"},"type":"Feature","geometry":{"type":"Point","coordinates":[-80.343664,36.027081]}},{"properties":{"zip":"85260","geo_score":0.714,"id":"a633qdee673r","geo_precision":"zip"},"type":"Feature","geometry":{"type":"Point","coordinates":[-112.18717,33.276539]}},{"properties":{"zip":"78737","geo_score":0.714,"id":"a633qd1essce","geo_precision":"zip"},"type":"Feature","geometry":{"type":"Point","coordinates":[-97.931042,30.203952]}},{"properties":{"zip":"33458","geo_score":0.714,"id":"a633qd1snwyf","geo_precision":"zip"},"type":"Feature","geometry":{"type":"Point","coordinates":[-80.430269,26.645895]}},{"properties":{"zip":"10011","geo_score":0.714,"id":"a633qde9z76t","geo_precision":"zip"},"type":"Feature","geometry":{"type":"Point","coordinates":[-73.999769,40.740916]}},{"properties":{"zip":"2543","geo_score":0.714,"id":"a633qd7zymy5","geo_precision":"zip"},"type":"Feature","geometry":{"type":"Point","coordinates":[-70.646442,41.593809]}},{"properties":{"zip":"2111","geo_score":0.714,"id":"a633qd2ybo0e","geo_precision":"zip"},"type":"Feature","geometry":{"type":"Point","coordinates":[-71.059365,42.351047]}},{"properties":{"zip":"33155","geo_score":0.714,"id":"a633qdbbmo61","geo_precision":"zip"},"type":"Feature","geometry":{"type":"Point","coordinates":[-80.327274,25.743434]}},{"properties":{"zip":"2118","geo_score":0.714,"id":"a633qdcqx52q","geo_precision":"zip"},"type":"Feature","geometry":{"type":"Point","coordinates":[-71.072854,42.336162]}},{"properties":{"zip":"91411","geo_score":0.714,"id":"a633qd7vzas3","geo_precision":"zip"},"type":"Feature","geometry":{"type":"Point","coordinates":[-118.298662,33.786594]}},{"properties":{"zip":"6419","geo_score":0.714,"id":"a633qd1y3s11","geo_precision":"zip"},"type":"Feature","geometry":{"type":"Point","coordinates":[-72.493446,41.417962]}},{"properties":{"zip":"34139","geo_score":0.714,"id":"a633qd4242rk","geo_precision":"zip"},"type":"Feature","geometry":{"type":"Point","coordinates":[-81.377791,25.856971]}},{"properties":{"zip":"6901","geo_score":0.714,"id":"a633qd4tp5tr","geo_precision":"zip"},"type":"Feature","geometry":{"type":"Point","coordinates":[-73.531234,41.107041]}},{"properties":{"zip":"10003","geo_score":0.714,"id":"a633qdejquvx","geo_precision":"zip"},"type":"Feature","geometry":{"type":"Point","coordinates":[-73.988564,40.730223]}},{"properties":{"zip":"91504","geo_score":0.714,"id":"a633qde5pkyk","geo_precision":"zip"},"type":"Feature","geometry":{"type":"Point","coordinates":[-118.298662,33.786594]}}],"is_temporal":false,"author":{"url":"","metadata":"","contact_name":"","contact_address":"","source":"","contact_phone":""},"source":"","pagination":{"sort":null,"start":0,"total":706,"limit":1000000},"state":"complete","tags":"","published":"2014-08-15T02:45:31-04:00","id":237921}