{"type":"FeatureCollection","data_type":"Dataset","url_type":null,"permissions":[{"permissions":{"download":true,"view":true},"group_id":"everyone"}],"classification":null,"title":"Post Office Locations","count":345,"stream_id":237925,"contributor":{"url":"http://geocommons.com/users/44028","name":"aprah29"},"data_attributes":null,"calculation_params":null,"icon_link":null,"link":"http://geocommons.com/overlays/237925.json","extent":[-86.4113,36.6087,-82.0937,39.09],"geometry_types":["point"],"unique_name":null,"name":"Post Office Locations","feature_count":345,"description":"The address of post offices across Appalachian Kentucky with data about their status(existing/proposed to be closed/closed), and hyperlinks to images associated with the post offices. ","next_feature":null,"is_raster":false,"short_classification":"Y","stats":{},"features":[{"properties":{"status":"Proposed to be Closed","city":"BREEDING","county":"Adair","geo_score":0.562,"zip code":"42715","hyperlink":null,"street":"35 POST OFFICE LN","id":"a636yeb3dpw3","geo_precision":"street","state":"KY"},"type":"Feature","geometry":{"type":"Point","coordinates":[-85.367142,36.70287]}},{"properties":{"status":"Existing Location","city":"COLUMBIA","county":"Adair","geo_score":0.902,"zip code":"42728","hyperlink":null,"street":"800 BURKESVILLE ST","id":"a636yeol47qz","geo_precision":"range","state":"KY"},"type":"Feature","geometry":{"type":"Point","coordinates":[-85.316116,37.094898]}},{"properties":{"status":"Proposed to be Closed","city":"GRADYVILLE","county":"Adair","geo_score":0.902,"zip code":"42742","hyperlink":null,"street":"280 OLD GRADYVILLE RD","id":"a636yehvrr5f","geo_precision":"range","state":"KY"},"type":"Feature","geometry":{"type":"Point","coordinates":[-85.426386,37.06368]}},{"properties":{"status":"Existing Location","city":"OLYMPIA","county":"Bath","geo_score":0.834,"zip code":"40358","hyperlink":null,"street":"5724 E HIGHWAY 36","id":"a636yehj2u0z","geo_precision":"range","state":"KY"},"type":"Feature","geometry":{"type":"Point","coordinates":[-83.695656,38.099127]}},{"properties":{"status":"Existing Location","city":"SALT LICK","county":"Bath","geo_score":0.729,"zip code":"40371","hyperlink":null,"street":"91 MAIN ST","id":"a636yel2hux9","geo_precision":"street","state":"KY"},"type":"Feature","geometry":{"type":"Point","coordinates":[-83.614976,38.12055]}},{"properties":{"status":"Existing Location","city":"SHARPSBURG","county":"Bath","geo_score":0.91,"zip code":"40374","hyperlink":null,"street":"581 MAIN ST","id":"a636yebbz4xa","geo_precision":"range","state":"KY"},"type":"Feature","geometry":{"type":"Point","coordinates":[-83.928755,38.201511]}},{"properties":{"status":"Existing Location","city":"BEVERLY","county":"Bell","geo_score":0.463,"zip code":"40913","hyperlink":null,"street":"16464 HIGHWAY 66","id":"a636yem4s0uj","geo_precision":"street","state":"KY"},"type":"Feature","geometry":{"type":"Point","coordinates":[-83.532304,37.034718]}},{"properties":{"status":"Existing Location","city":"CALVIN","county":"Bell","geo_score":0.683,"zip code":"40813","hyperlink":null,"street":"5501 US HIGHWAY 119","id":"a636yei8f2n1","geo_precision":"range","state":"KY"},"type":"Feature","geometry":{"type":"Point","coordinates":[-82.799006,37.064369]}},{"properties":{"status":"Existing Location","city":"FOURMILE","county":"Bell","geo_score":0.573,"zip code":"40939","hyperlink":null,"street":"16073 US HIGHWAY 25","id":"a636ye9tz3mv","geo_precision":"street","state":"KY"},"type":"Feature","geometry":{"type":"Point","coordinates":[-83.704102,36.763567]}},{"properties":{"status":"Existing Location","city":"FRAKES","county":"Bell","geo_score":0.462,"zip code":"40940","hyperlink":null,"street":"17170 HIGHWAY 190","id":"a636yei6ub93","geo_precision":"street","state":"KY"},"type":"Feature","geometry":{"type":"Point","coordinates":[-83.922828,36.643693]}},{"properties":{"status":"Proposed to be Closed","city":"INGRAM","county":"Bell","geo_score":0.342,"zip code":"40955","hyperlink":null,"street":"3449 HIGHWAY 92","id":"a636yeii3k4i","geo_precision":"street","state":"KY"},"type":"Feature","geometry":{"type":"Point","coordinates":[-83.755444,36.789287]}},{"properties":{"status":"Existing Location","city":"MIDDLESBORO","county":"Bell","geo_score":0.703,"zip code":"40965","hyperlink":null,"street":"201 N 20TH ST","id":"a636yedw04m3","geo_precision":"range","state":"KY"},"type":"Feature","geometry":{"type":"Point","coordinates":[-83.714424,36.608711]}},{"properties":{"status":"Proposed to be Closed","city":"MIRACLE","county":"Bell","geo_score":0.672,"zip code":"40856","hyperlink":null,"street":"10845 HIGHWAY 987","id":"a636yedbygkf","geo_precision":"range","state":"KY"},"type":"Feature","geometry":{"type":"Point","coordinates":[-83.313059,36.722872]}},{"properties":{"status":"Existing Location","city":"PINEVILLE","county":"Bell","geo_score":0.881,"zip code":"40977","hyperlink":"<a href=\"http://www.wpamurals.com/pinevill.htm/\">Pineville</a>","street":"111 S WALNUT ST","id":"a636yekbl726","geo_precision":"range","state":"KY"},"type":"Feature","geometry":{"type":"Point","coordinates":[-83.695104,36.763468]}},{"properties":{"status":"Proposed to be Closed","city":"STONEY FORK","county":"Bell","geo_score":0.805,"zip code":"40988","hyperlink":null,"street":"HWY 221","id":"a636yef2wqo6","geo_precision":"street","state":"KY"},"type":"Feature","geometry":{"type":"Point","coordinates":[-83.468815,36.856671]}},{"properties":{"status":"Existing Location","city":"ASHLAND","county":"Boyd","geo_score":0.919,"zip code":"41101","hyperlink":null,"street":"1140 CARTER AVE","id":"a636yeh93bml","geo_precision":"range","state":"KY"},"type":"Feature","geometry":{"type":"Point","coordinates":[-82.645575,38.480343]}},{"properties":{"status":"Existing Location","city":"CATLETTSBURG","county":"Boyd","geo_score":0.465,"zip code":"41129","hyperlink":null,"street":"3514 COURT ST","id":"a636yeicbmal","geo_precision":"street","state":"KY"},"type":"Feature","geometry":{"type":"Point","coordinates":[-82.583474,38.258562]}},{"properties":{"status":"Existing Location","city":"CLAYHOLE","county":"Breathitt","geo_score":0.696,"zip code":"41317","hyperlink":"<a href=\"https://appalachiancenter.as.uky.edu/sites/default/files/webform/DSC03550.JPG/\">Clayhole</a>","street":"3757 HIGHWAY 476","id":"a636yeb1ahgc","geo_precision":"range","state":"KY"},"type":"Feature","geometry":{"type":"Point","coordinates":[-83.296902,37.466003]}},{"properties":{"status":"Existing Location","city":"JACKSON","county":"Breathitt","geo_score":0.756,"zip code":"41339","hyperlink":"<a href=\"http://appalachiancenter.as.uky.edu/sites/default/files/webform/Jackson.JPG/\">Jackson</a>","street":"790 HIGHWAY 15","id":"a636yemy5rzx","geo_precision":"range","state":"KY"},"type":"Feature","geometry":{"type":"Point","coordinates":[-83.398847,37.562586]}},{"properties":{"status":"Existing Location","city":"LOST CREEK","county":"Breathitt","geo_score":0.596,"zip code":"41348","hyperlink":null,"street":"9950 HIGHWAY 15","id":"a636yejxjwez","geo_precision":"street","state":"KY"},"type":"Feature","geometry":{"type":"Point","coordinates":[-83.304624,37.440883]}},{"properties":{"status":"Existing Location","city":"VANCLEVE","county":"Breathitt","geo_score":0.561,"zip code":"41385","hyperlink":null,"street":"6857 HIGHWAY 15","id":"a636yeaf5cf3","geo_precision":"street","state":"KY"},"type":"Feature","geometry":{"type":"Point","coordinates":[-83.415692,37.626332]}},{"properties":{"status":"Proposed to be Closed","city":"GRAHN","county":"Carter","geo_score":0.605,"zip code":"41142","hyperlink":"<a href=\"https://appalachiancenter.as.uky.edu/sites/default/files/webform/DSCF2460.JPG/\">Grahn</a>","street":"61 POST OFFICE AVE","id":"a636yecffjyz","geo_precision":"zip","state":"KY"},"type":"Feature","geometry":{"type":"Point","coordinates":[-83.047116,38.279526]}},{"properties":{"status":"Existing Location","city":"GRAYSON","county":"Carter","geo_score":0.734,"zip code":"41143","hyperlink":null,"street":"390 S CAROL MALONE BLVD","id":"a636yen4pd51","geo_precision":"street","state":"KY"},"type":"Feature","geometry":{"type":"Point","coordinates":[-82.947516,38.326375]}},{"properties":{"status":"Existing Location","city":"HITCHINS","county":"Carter","geo_score":0.703,"zip code":"41146","hyperlink":null,"street":"3625 S STATE HIGHWAY 1","id":"a636yemjgez4","geo_precision":"street","state":"KY"},"type":"Feature","geometry":{"type":"Point","coordinates":[-82.9242,38.297391]}},{"properties":{"status":"Existing Location","city":"OLIVE HILL","county":"Carter","geo_score":0.636,"zip code":"41164","hyperlink":null,"street":"215 W TOM T HALL BLVD","id":"a636yekk16gw","geo_precision":"range","state":"KY"},"type":"Feature","geometry":{"type":"Point","coordinates":[-83.198448,38.305353]}},{"properties":{"status":"Proposed to be Closed","city":"SOLDIER","county":"Carter","geo_score":0.61,"zip code":"41173","hyperlink":"<a href=\"https://appalachiancenter.as.uky.edu/sites/default/files/webform/DSCF2456.JPG/\">Soldier</a>","street":"8337 STATE HIGHWAY 174","id":"a636yed8jtko","geo_precision":"street","state":"KY"},"type":"Feature","geometry":{"type":"Point","coordinates":[-83.311279,38.256184]}},{"properties":{"status":"Existing Location","city":"WILLARD","county":"Carter","geo_score":0.776,"zip code":"41181","hyperlink":null,"street":"8679 S STATE HIGHWAY 1","id":"a636yefecf46","geo_precision":"street","state":"KY"},"type":"Feature","geometry":{"type":"Point","coordinates":[-82.883825,38.191319]}},{"properties":{"status":"Existing Location","city":"DUNNVILLE","county":"Casey","geo_score":0.756,"zip code":"42528","hyperlink":null,"street":"10765 S US 127","id":"a636yel77k6r","geo_precision":"range","state":"KY"},"type":"Feature","geometry":{"type":"Point","coordinates":[-85.009295,37.198702]}},{"properties":{"status":"Existing Location","city":"LIBERTY","county":"Casey","geo_score":0.736,"zip code":"42539","hyperlink":null,"street":"56 HUSTONVILLE ST","id":"a636yea9voqi","geo_precision":"street","state":"KY"},"type":"Feature","geometry":{"type":"Point","coordinates":[-84.937899,37.320259]}},{"properties":{"status":"Existing Location","city":"MIDDLEBURG","county":"Casey","geo_score":0.971,"zip code":"42541","hyperlink":null,"street":"77 S COLLEGE ST","id":"a636yem7ay0t","geo_precision":"range","state":"KY"},"type":"Feature","geometry":{"type":"Point","coordinates":[-84.8213,37.356599]}},{"properties":{"status":"Existing Location","city":"WINDSOR","county":"Casey","geo_score":0.805,"zip code":"42565","hyperlink":null,"street":"3593 KY 80","id":"a636ye94sg6b","geo_precision":"street","state":"KY"},"type":"Feature","geometry":{"type":"Point","coordinates":[-84.913414,37.127037]}},{"properties":{"status":"Existing Location","city":"WINCHESTER","county":"Clark","geo_score":0.919,"zip code":"40391","hyperlink":null,"street":"120 N MAIN ST","id":"a636yemxv3ge","geo_precision":"range","state":"KY"},"type":"Feature","geometry":{"type":"Point","coordinates":[-84.175795,37.995706]}},{"properties":{"status":"Existing Location","city":"BIG CREEK","county":"Clay","geo_score":0.573,"zip code":"40914","hyperlink":null,"street":"17231 S HIGHWAY 421","id":"a636yecmx2ez","geo_precision":"street","state":"KY"},"type":"Feature","geometry":{"type":"Point","coordinates":[-83.766188,37.159972]}},{"properties":{"status":"Existing Location","city":"FALL ROCK","county":"Clay","geo_score":0.439,"zip code":"40932","hyperlink":null,"street":"4833 N HIGHWAY 421 UNIT 2","id":"a636yeh3awe3","geo_precision":"street","state":"KY"},"type":"Feature","geometry":{"type":"Point","coordinates":[-83.766188,37.159972]}},{"properties":{"status":"Existing Location","city":"GARRARD","county":"Clay","geo_score":0.573,"zip code":"40941","hyperlink":null,"street":"2816 S HIGHWAY 421","id":"a636yekw5r5d","geo_precision":"street","state":"KY"},"type":"Feature","geometry":{"type":"Point","coordinates":[-83.766418,37.161215]}},{"properties":{"status":"Existing Location","city":"GOOSE ROCK","county":"Clay","geo_score":0.607,"zip code":"40944","hyperlink":null,"street":"73 HIGHWAY 1524","id":"a636yee647zz","geo_precision":"zip","state":"KY"},"type":"Feature","geometry":{"type":"Point","coordinates":[-83.677139,37.087312]}},{"properties":{"status":"Proposed to be Closed","city":"HIMA","county":"Clay","geo_score":0.5,"zip code":"40951","hyperlink":null,"street":"HIGHWAY 80","id":"a636yejubnry","geo_precision":"street","state":"KY"},"type":"Feature","geometry":{"type":"Point","coordinates":[-83.763498,37.136683]}},{"properties":{"status":"Existing Location","city":"MANCHESTER","county":"Clay","geo_score":0.481,"zip code":"40962","hyperlink":null,"street":"309 CLAY COUNTY SHOPPING CTR","id":"a636yeojetn8","geo_precision":"street","state":"KY"},"type":"Feature","geometry":{"type":"Point","coordinates":[-83.760742,37.156858]}},{"properties":{"status":"Existing Location","city":"ONEIDA","county":"Clay","geo_score":0.463,"zip code":"40972","hyperlink":null,"street":"14963 N HIGHWAY 66","id":"a636yekcvgrd","geo_precision":"street","state":"KY"},"type":"Feature","geometry":{"type":"Point","coordinates":[-83.690786,36.765529]}},{"properties":{"status":"Proposed to be Closed","city":"SEXTONS CREEK","county":"Clay","geo_score":0.683,"zip code":"40983","hyperlink":null,"street":"4067 HIGHWAY 1350","id":"a636yea2xjmy","geo_precision":"zip","state":"KY"},"type":"Feature","geometry":{"type":"Point","coordinates":[-83.737014,37.147687]}},{"properties":{"status":"Existing Location","city":"ALBANY","county":"Clinton","geo_score":0.758,"zip code":"42602","hyperlink":null,"street":"401 N CROSS ST","id":"a636yecp5ksx","geo_precision":"range","state":"KY"},"type":"Feature","geometry":{"type":"Point","coordinates":[-85.135266,36.694052]}},{"properties":{"status":"Proposed to be Closed","city":"ALPHA","county":"Clinton","geo_score":0.605,"zip code":"42603","hyperlink":null,"street":"234 OLD HAPPY TOP RD","id":"a636yelk8qlk","geo_precision":"zip","state":"KY"},"type":"Feature","geometry":{"type":"Point","coordinates":[-84.979395,36.767291]}},{"properties":{"status":"Existing Location","city":"BURKESVILLE","county":"Cumberland","geo_score":0.938,"zip code":"42717","hyperlink":null,"street":"120 N MAIN ST","id":"a636yeo9vhk9","geo_precision":"range","state":"KY"},"type":"Feature","geometry":{"type":"Point","coordinates":[-85.369781,36.790984]}},{"properties":{"status":"Existing Location","city":"MARROWBONE","county":"Cumberland","geo_score":0.683,"zip code":"42759","hyperlink":null,"street":"9573 GLASGOW RD","id":"a636yel8mj8x","geo_precision":"range","state":"KY"},"type":"Feature","geometry":{"type":"Point","coordinates":[-85.502783,36.828672]}},{"properties":{"status":"Existing Location","city":"BEE SPRING","county":"Edmonson","geo_score":0.808,"zip code":"42207","hyperlink":null,"street":"7535 KY HIGHWAY 259","id":"a636yelg9wkq","geo_precision":"range","state":"KY"},"type":"Feature","geometry":{"type":"Point","coordinates":[-86.27892,37.28756]}},{"properties":{"status":"Existing Location","city":"BROWNSVILLE","county":"Edmonson","geo_score":0.947,"zip code":"42210","hyperlink":null,"street":"535 S MAIN ST","id":"a636yeh6f7wl","geo_precision":"range","state":"KY"},"type":"Feature","geometry":{"type":"Point","coordinates":[-86.261341,37.191032]}},{"properties":{"status":"Existing Location","city":"MAMMOTH CAVE","county":"Edmonson","geo_score":0.683,"zip code":"42259","hyperlink":null,"street":"2811 ENTRANCE RD","id":"a636yefq0l2g","geo_precision":"zip","state":"KY"},"type":"Feature","geometry":{"type":"Point","coordinates":[-86.168796,37.280199]}},{"properties":{"status":"Existing Location","city":"ROCKY HILL","county":"Edmonson","geo_score":0.878,"zip code":"42163","hyperlink":null,"street":"1793 ROCKY HILL RD","id":"a636ye9zg2x4","geo_precision":"range","state":"KY"},"type":"Feature","geometry":{"type":"Point","coordinates":[-86.137269,37.069144]}},{"properties":{"status":"Existing Location","city":"ROUNDHILL","county":"Edmonson","geo_score":0.715,"zip code":"42275","hyperlink":null,"street":"9645 MORGANTOWN RD","id":"a636yeb1fz9q","geo_precision":"street","state":"KY"},"type":"Feature","geometry":{"type":"Point","coordinates":[-86.41127,37.23468]}},{"properties":{"status":"Existing Location","city":"SWEEDEN","county":"Edmonson","geo_score":0.647,"zip code":"42285","hyperlink":null,"street":"4960 KY HIGHWAY 259","id":"a636yectod1w","geo_precision":"range","state":"KY"},"type":"Feature","geometry":{"type":"Point","coordinates":[-86.282728,37.24487]}},{"properties":{"status":"Existing Location","city":"SANDY HOOK","county":"Elliott","geo_score":0.714,"zip code":"41171","hyperlink":null,"street":"MAIN ST","id":"a636yen16di2","geo_precision":"street","state":"KY"},"type":"Feature","geometry":{"type":"Point","coordinates":[-83.316711,38.602592]}},{"properties":{"status":"Closed","city":"IRVINE","county":"Estill","geo_score":0.896,"zip code":"40336","hyperlink":"<a href=\"http://appalachiancenter.as.uky.edu/sites/default/files/Irvine%20KY%20old%20PO.jpg/\">Irvine</a>","street":null,"id":"a636yen8g0um","geo_precision":"zip","state":"KY"},"type":"Feature","geometry":{"type":"Point","coordinates":[-84.029092,37.729804]}},{"properties":{"status":"Existing Location","city":"IRVINE","county":"Estill","geo_score":0.929,"zip code":"40336","hyperlink":null,"street":"230 MAIN ST","id":"a636yemsclou","geo_precision":"range","state":"KY"},"type":"Feature","geometry":{"type":"Point","coordinates":[-83.975497,37.701986]}},{"properties":{"status":"Proposed to be Closed","city":"ELIZAVILLE","county":"Fleming","geo_score":0.61,"zip code":"41037","hyperlink":null,"street":"5035 ELIZAVILLE RD","id":"a636yeaeb9z5","geo_precision":"street","state":"KY"},"type":"Feature","geometry":{"type":"Point","coordinates":[-83.785259,38.493719]}},{"properties":{"status":"Existing Location","city":"EWING","county":"Fleming","geo_score":0.61,"zip code":"41039","hyperlink":null,"street":"1533 EWING RD","id":"a636yeokgt5b","geo_precision":"street","state":"KY"},"type":"Feature","geometry":{"type":"Point","coordinates":[-83.85886,38.481338]}},{"properties":{"status":"Existing Location","city":"FLEMINGSBURG","county":"Fleming","geo_score":0.789,"zip code":"41041","hyperlink":null,"street":"131 E WATER ST","id":"a636yeof63qo","geo_precision":"range","state":"KY"},"type":"Feature","geometry":{"type":"Point","coordinates":[-83.732792,38.421428]}},{"properties":{"status":"Existing Location","city":"HILLSBORO","county":"Fleming","geo_score":0.5,"zip code":"41049","hyperlink":null,"street":"5 SOUDER DR","id":"a636ye9ol3up","geo_precision":"street","state":"KY"},"type":"Feature","geometry":{"type":"Point","coordinates":[-84.557447,39.001824]}},{"properties":{"status":"Proposed to be Closed","city":"PLUMMERS LANDING","county":"Fleming","geo_score":0.533,"zip code":"41081","hyperlink":null,"street":"591 PLUMMERS LANDING RD","id":"a636yel94q0j","geo_precision":"range","state":"KY"},"type":"Feature","geometry":{"type":"Point","coordinates":[-84.462713,39.090026]}},{"properties":{"status":"Proposed to be Closed","city":"MUSES MILLS","county":"Fleming","geo_score":0.513,"zip code":"41065","hyperlink":null,"street":"6 RYAN RD","id":"a636yeeepbz4","geo_precision":"street","state":"KY"},"type":"Feature","geometry":{"type":"Point","coordinates":[-84.627793,38.946465]}},{"properties":{"status":"Existing Location","city":"ALLEN","county":"Floyd","geo_score":0.465,"zip code":"41601","hyperlink":null,"street":"137 COURT ST","id":"a636yeamnc8d","geo_precision":"street","state":"KY"},"type":"Feature","geometry":{"type":"Point","coordinates":[-82.772297,37.668437]}},{"properties":{"status":"Existing Location","city":"AUXIER","county":"Floyd","geo_score":0.683,"zip code":"41602","hyperlink":null,"street":"11 W MARKET ST","id":"a636yenv26s1","geo_precision":"zip","state":"KY"},"type":"Feature","geometry":{"type":"Point","coordinates":[-82.695892,37.715759]}},{"properties":{"status":"Existing Location","city":"BANNER","county":"Floyd","geo_score":0.512,"zip code":"41603","hyperlink":null,"street":"54 HALL ADDITION","id":"a636yenu5pua","geo_precision":"range","state":"KY"},"type":"Feature","geometry":{"type":"Point","coordinates":[-82.724067,37.616052]}},{"properties":{"status":"Existing Location","city":"BEAVER","county":"Floyd","geo_score":0.548,"zip code":"41604","hyperlink":null,"street":"13429 KY ROUTE 979","id":"a636yentc6lt","geo_precision":"street","state":"KY"},"type":"Feature","geometry":{"type":"Point","coordinates":[-82.666893,37.390736]}},{"properties":{"status":"Existing Location","city":"BETSY LAYNE","county":"Floyd","geo_score":0.592,"zip code":"41605","hyperlink":null,"street":"11105 US HIGHWAY 23 S STE 101","id":"a636yep1gx9j","geo_precision":"street","state":"KY"},"type":"Feature","geometry":{"type":"Point","coordinates":[-82.632949,37.549341]}},{"properties":{"status":"Proposed to be Closed","city":"BEVINSVILLE","county":"Floyd","geo_score":0.648,"zip code":"41606","hyperlink":null,"street":"20311 KY ROUTE 122","id":"a636yemmq0wd","geo_precision":"street","state":"KY"},"type":"Feature","geometry":{"type":"Point","coordinates":[-82.743817,37.368921]}},{"properties":{"status":"Proposed to be Closed","city":"BLUE RIVER","county":"Floyd","geo_score":0.58,"zip code":"41607","hyperlink":null,"street":"3563 KY ROUTE 404 STE 2","id":"a636yegqzuhd","geo_precision":"street","state":"KY"},"type":"Feature","geometry":{"type":"Point","coordinates":[-82.825147,37.637254]}},{"properties":{"status":"Proposed to be Closed","city":"DAVID","county":"Floyd","geo_score":0.45,"zip code":"41616","hyperlink":null,"street":"6693 KY ROUTE 404","id":"a636yeh27se9","geo_precision":"street","state":"KY"},"type":"Feature","geometry":{"type":"Point","coordinates":[-82.877282,37.602987]}},{"properties":{"status":"Proposed to be Closed","city":"DWALE","county":"Floyd","geo_score":0.808,"zip code":"41621","hyperlink":null,"street":"310 BEAVER JUNCTION RD","id":"a636yedgh1tr","geo_precision":"range","state":"KY"},"type":"Feature","geometry":{"type":"Point","coordinates":[-82.725248,37.623548]}},{"properties":{"status":"Existing Location","city":"EASTERN","county":"Floyd","geo_score":0.84,"zip code":"41622","hyperlink":null,"street":"356 KY ROUTE 550","id":"a636yec8lh8j","geo_precision":"range","state":"KY"},"type":"Feature","geometry":{"type":"Point","coordinates":[-82.827032,37.51852]}},{"properties":{"status":"Existing Location","city":"GARRETT","county":"Floyd","geo_score":0.686,"zip code":"41630","hyperlink":null,"street":"430 FRONT ST","id":"a636yeoxp572","geo_precision":"street","state":"KY"},"type":"Feature","geometry":{"type":"Point","coordinates":[-82.834104,37.4779]}},{"properties":{"status":"Existing Location","city":"GRETHEL","county":"Floyd","geo_score":0.646,"zip code":"41631","hyperlink":null,"street":"6789 KY ROUTE 979","id":"a636yek4huw8","geo_precision":"street","state":"KY"},"type":"Feature","geometry":{"type":"Point","coordinates":[-82.656448,37.46206]}},{"properties":{"status":"Existing Location","city":"HAROLD","county":"Floyd","geo_score":0.602,"zip code":"41635","hyperlink":null,"street":"107 LAYNESVILLE RD","id":"a636yegw519n","geo_precision":"zip","state":"KY"},"type":"Feature","geometry":{"type":"Point","coordinates":[-82.612655,37.476767]}},{"properties":{"status":"Existing Location","city":"HI HAT","county":"Floyd","geo_score":0.548,"zip code":"41636","hyperlink":null,"street":"17460 KY ROUTE 122","id":"a636yego5a0g","geo_precision":"street","state":"KY"},"type":"Feature","geometry":{"type":"Point","coordinates":[-82.744497,37.395365]}},{"properties":{"status":"Proposed to be Closed","city":"HUEYSVILLE","county":"Floyd","geo_score":0.373,"zip code":"41640","hyperlink":null,"street":"85 SALT LICK CRK","id":"a636yek8ry6z","geo_precision":"street","state":"KY"},"type":"Feature","geometry":{"type":"Point","coordinates":[-82.720728,37.614213]}},{"properties":{"status":"Existing Location","city":"IVEL","county":"Floyd","geo_score":0.484,"zip code":"41642","hyperlink":null,"street":"6367 US HIGHWAY 23 S STE 101","id":"a636yehpdwyz","geo_precision":"street","state":"KY"},"type":"Feature","geometry":{"type":"Point","coordinates":[-82.628234,37.536103]}},{"properties":{"status":"Proposed to be Closed","city":"LACKEY","county":"Floyd","geo_score":0.512,"zip code":"41643","hyperlink":null,"street":"235 KY ROUTE 7","id":"a636yea4zwcy","geo_precision":"street","state":"KY"},"type":"Feature","geometry":{"type":"Point","coordinates":[-82.830269,37.468173]}},{"properties":{"status":"Existing Location","city":"MARTIN","county":"Floyd","geo_score":0.732,"zip code":"41649","hyperlink":null,"street":"11561 MAIN ST","id":"a636yec687pl","geo_precision":"street","state":"KY"},"type":"Feature","geometry":{"type":"Point","coordinates":[-82.752924,37.571993]}},{"properties":{"status":"Existing Location","city":"MC DOWELL","county":"Floyd","geo_score":0.657,"zip code":"41647","hyperlink":null,"street":"9571 KY ROUTE 122","id":"a636yeej4syn","geo_precision":"range","state":"KY"},"type":"Feature","geometry":{"type":"Point","coordinates":[-82.752944,37.459354]}},{"properties":{"status":"Existing Location","city":"MELVIN","county":"Floyd","geo_score":0.645,"zip code":"41650","hyperlink":null,"street":"22944 KY ROUTE 122","id":"a636yehvhsfm","geo_precision":"street","state":"KY"},"type":"Feature","geometry":{"type":"Point","coordinates":[-82.691982,37.351347]}},{"properties":{"status":"Proposed to be Closed","city":"MINNIE","county":"Floyd","geo_score":0.548,"zip code":"41651","hyperlink":null,"street":"8586 KY ROUTE 122","id":"a636yenke4sm","geo_precision":"street","state":"KY"},"type":"Feature","geometry":{"type":"Point","coordinates":[-82.754886,37.460999]}},{"properties":{"status":"Existing Location","city":"PRESTONSBURG","county":"Floyd","geo_score":0.494,"zip code":"41653","hyperlink":null,"street":"119 FRANKLIN COR","id":"a636yenljfgl","geo_precision":"street","state":"KY"},"type":"Feature","geometry":{"type":"Point","coordinates":[-82.809231,37.66992]}},{"properties":{"status":"Existing Location","city":"PRINTER","county":"Floyd","geo_score":0.489,"zip code":"41655","hyperlink":null,"street":"2928 KY ROUTE 122 STE 2","id":"a636yegry4le","geo_precision":"street","state":"KY"},"type":"Feature","geometry":{"type":"Point","coordinates":[-82.745909,37.528054]}},{"properties":{"status":"Existing Location","city":"STANVILLE","county":"Floyd","geo_score":0.641,"zip code":"41659","hyperlink":null,"street":"185 E MAIN ST","id":"a636yeoqpjae","geo_precision":"range","state":"KY"},"type":"Feature","geometry":{"type":"Point","coordinates":[-82.727314,37.611538]}},{"properties":{"status":"Existing Location","city":"TEABERRY","county":"Floyd","geo_score":0.646,"zip code":"41660","hyperlink":null,"street":"11136 KY ROUTE 979","id":"a636yebp17ke","geo_precision":"street","state":"KY"},"type":"Feature","geometry":{"type":"Point","coordinates":[-82.654705,37.444168]}},{"properties":{"status":"Existing Location","city":"TRAM","county":"Floyd","geo_score":0.683,"zip code":"41663","hyperlink":null,"street":"6 LONA ST","id":"a636yeiap44k","geo_precision":"zip","state":"KY"},"type":"Feature","geometry":{"type":"Point","coordinates":[-82.645206,37.572499]}},{"properties":{"status":"Existing Location","city":"WAYLAND","county":"Floyd","geo_score":0.475,"zip code":"41666","hyperlink":null,"street":"2617 KING KELLY COLEMAN HWY","id":"a636yephntrw","geo_precision":"street","state":"KY"},"type":"Feature","geometry":{"type":"Point","coordinates":[-82.815283,37.45371]}},{"properties":{"status":"Existing Location","city":"WHEELWRIGHT","county":"Floyd","geo_score":0.777,"zip code":"41669","hyperlink":null,"street":"80 SHOP FORK ST","id":"a636yebpt3md","geo_precision":"street","state":"KY"},"type":"Feature","geometry":{"type":"Point","coordinates":[-82.714467,37.329792]}},{"properties":{"status":"Existing Location","city":"BRYANTSVILLE","county":"Garrard","geo_score":0.721,"zip code":"40410","hyperlink":null,"street":"302 BRYANTSVILLE RD","id":"a636yeifi2kz","geo_precision":"range","state":"KY"},"type":"Feature","geometry":{"type":"Point","coordinates":[-84.478699,37.392785]}},{"properties":{"status":"Existing Location","city":"LANCASTER","county":"Garrard","geo_score":0.844,"zip code":"40444","hyperlink":null,"street":"107 DANVILLE ST","id":"a636yeim4lma","geo_precision":"range","state":"KY"},"type":"Feature","geometry":{"type":"Point","coordinates":[-84.579524,37.619447]}},{"properties":{"status":"Existing Location","city":"PAINT LICK","county":"Garrard","geo_score":0.719,"zip code":"40461","hyperlink":null,"street":"11642 RICHMOND RD","id":"a636yecgb8rr","geo_precision":"street","state":"KY"},"type":"Feature","geometry":{"type":"Point","coordinates":[-84.409345,37.616423]}},{"properties":{"status":"Existing Location","city":"GREENSBURG","county":"Green","geo_score":0.902,"zip code":"42743","hyperlink":null,"street":"201 S MAIN ST","id":"a636yen4oujn","geo_precision":"range","state":"KY"},"type":"Feature","geometry":{"type":"Point","coordinates":[-85.50321,37.257783]}},{"properties":{"status":"Existing Location","city":"SUMMERSVILLE","county":"Green","geo_score":0.726,"zip code":"42782","hyperlink":null,"street":"5160 HODGENVILLE RD","id":"a636yed5kml2","geo_precision":"street","state":"KY"},"type":"Feature","geometry":{"type":"Point","coordinates":[-85.5534,37.333231]}},{"properties":{"status":"Existing Location","city":"ARGILLITE","county":"Greenup","geo_score":0.512,"zip code":"41121","hyperlink":null,"street":"5470 STATE ROUTE 1","id":"a636yeclfbe6","geo_precision":"street","state":"KY"},"type":"Feature","geometry":{"type":"Point","coordinates":[-82.919309,38.274895]}},{"properties":{"status":"Existing Location","city":"FLATWOODS","county":"Greenup","geo_score":1.0,"zip code":"41139","hyperlink":null,"street":"2125 ARGILLITE RD","id":"a636yefau5fk","geo_precision":"range","state":"KY"},"type":"Feature","geometry":{"type":"Point","coordinates":[-82.719862,38.520139]}},{"properties":{"status":"Existing Location","city":"GREENUP","county":"Greenup","geo_score":0.708,"zip code":"41144","hyperlink":null,"street":"1312 ASHLAND RD","id":"a636ye9g0gu3","geo_precision":"street","state":"KY"},"type":"Feature","geometry":{"type":"Point","coordinates":[-82.806902,38.561574]}},{"properties":{"status":"Existing Location","city":"RUSSELL","county":"Greenup","geo_score":0.965,"zip code":"41169","hyperlink":null,"street":"517 BOYD ST","id":"a636yems8o6a","geo_precision":"range","state":"KY"},"type":"Feature","geometry":{"type":"Point","coordinates":[-82.695301,38.531565]}},{"properties":{"status":"Existing Location","city":"SOUTH PORTSMOUTH","county":"Greenup","geo_score":0.707,"zip code":"41174","hyperlink":null,"street":"2246 STATE ROUTE 8","id":"a636yejhtyhs","geo_precision":"range","state":"KY"},"type":"Feature","geometry":{"type":"Point","coordinates":[-82.639678,38.455045]}},{"properties":{"status":"Existing Location","city":"SOUTH SHORE","county":"Greenup","geo_score":0.634,"zip code":"41175","hyperlink":null,"street":"11 NARCO DR","id":"a636yef10f1b","geo_precision":"zip","state":"KY"},"type":"Feature","geometry":{"type":"Point","coordinates":[-82.948506,38.707577]}},{"properties":{"status":"Existing Location","city":"WORTHINGTON","county":"Greenup","geo_score":0.878,"zip code":"41183","hyperlink":null,"street":"605 FERRY AVE","id":"a636yemnermp","geo_precision":"range","state":"KY"},"type":"Feature","geometry":{"type":"Point","coordinates":[-82.728236,38.548468]}},{"properties":{"status":"Existing Location","city":"AGES BROOKSIDE","county":"Harlan","geo_score":0.593,"zip code":"40801","hyperlink":null,"street":"4893 HIGHWAY 38","id":"a636yegdphvp","geo_precision":"street","state":"KY"},"type":"Feature","geometry":{"type":"Point","coordinates":[-83.247693,36.857699]}},{"properties":{"status":"Existing Location","city":"BAXTER","county":"Harlan","geo_score":0.796,"zip code":"40806","hyperlink":null,"street":"295 S HIGHWAY 413","id":"a636yeo1x2or","geo_precision":"range","state":"KY"},"type":"Feature","geometry":{"type":"Point","coordinates":[-83.325952,36.863189]}},{"properties":{"status":"Existing Location","city":"BENHAM","county":"Harlan","geo_score":0.663,"zip code":"40807","hyperlink":null,"street":"229 MAIN ST STE 1","id":"a636yellu126","geo_precision":"range","state":"KY"},"type":"Feature","geometry":{"type":"Point","coordinates":[-82.950774,36.964111]}},{"properties":{"status":"Proposed to be Closed","city":"BIG LAUREL","county":"Harlan","geo_score":0.772,"zip code":"40808","hyperlink":null,"street":"12564 E HIGHWAY 221","id":"a636yecs3myu","geo_precision":"range","state":"KY"},"type":"Feature","geometry":{"type":"Point","coordinates":[-83.174453,37.009818]}},{"properties":{"status":"Existing Location","city":"BLEDSOE","county":"Harlan","geo_score":0.583,"zip code":"40810","hyperlink":null,"street":"33 W HIGHWAY 221","id":"a636yek0tncm","geo_precision":"street","state":"KY"},"type":"Feature","geometry":{"type":"Point","coordinates":[-83.337628,36.910331]}},{"properties":{"status":"Existing Location","city":"CAWOOD","county":"Harlan","geo_score":0.595,"zip code":"40815","hyperlink":null,"street":"3679 S HIGHWAY 3001","id":"a636yelcgtr7","geo_precision":"zip","state":"KY"},"type":"Feature","geometry":{"type":"Point","coordinates":[-83.260179,36.763421]}},{"properties":{"status":"Proposed to be Closed","city":"CLOSPLINT","county":"Harlan","geo_score":0.685,"zip code":"40927","hyperlink":null,"street":"17857 HIGHWAY 38","id":"a636yeasp8la","geo_precision":"range","state":"KY"},"type":"Feature","geometry":{"type":"Point","coordinates":[-83.075272,36.906143]}},{"properties":{"status":"Existing Location","city":"COLDIRON","county":"Harlan","geo_score":0.683,"zip code":"40819","hyperlink":null,"street":"329 HIGHWAY 2007","id":"a636yebn7dxs","geo_precision":"range","state":"KY"},"type":"Feature","geometry":{"type":"Point","coordinates":[-83.45237,36.825789]}},{"properties":{"status":"Proposed to be Closed","city":"CRANKS","county":"Harlan","geo_score":0.967,"zip code":"40820","hyperlink":null,"street":"14869 S US HIGHWAY 421","id":"a636yeej5c9g","geo_precision":"range","state":"KY"},"type":"Feature","geometry":{"type":"Point","coordinates":[-83.193733,36.762071]}},{"properties":{"status":"Existing Location","city":"CUMBERLAND","county":"Harlan","geo_score":0.719,"zip code":"40823","hyperlink":null,"street":"1312 E MAIN ST","id":"a636yelavwar","geo_precision":"street","state":"KY"},"type":"Feature","geometry":{"type":"Point","coordinates":[-82.982941,36.97535]}},{"properties":{"status":"Proposed to be Closed","city":"DAYHOIT","county":"Harlan","geo_score":0.797,"zip code":"40824","hyperlink":null,"street":"39 SUTTON DR","id":"a636yeh80z9q","geo_precision":"range","state":"KY"},"type":"Feature","geometry":{"type":"Point","coordinates":[-83.377402,36.840706]}},{"properties":{"status":"Existing Location","city":"EVARTS","county":"Harlan","geo_score":0.919,"zip code":"40828","hyperlink":null,"street":"138 S MAIN ST","id":"a636yefjeofc","geo_precision":"range","state":"KY"},"type":"Feature","geometry":{"type":"Point","coordinates":[-83.190498,36.862724]}},{"properties":{"status":"Existing Location","city":"GRAYS KNOB","county":"Harlan","geo_score":0.683,"zip code":"40829","hyperlink":null,"street":"63 JUDY DR","id":"a636yebod6zj","geo_precision":"range","state":"KY"},"type":"Feature","geometry":{"type":"Point","coordinates":[-83.310216,36.81167]}},{"properties":{"status":"Existing Location","city":"HARLAN","county":"Harlan","geo_score":0.724,"zip code":"40831","hyperlink":null,"street":"111 N 1ST ST","id":"a636yepb8lys","geo_precision":"street","state":"KY"},"type":"Feature","geometry":{"type":"Point","coordinates":[-83.321713,36.847649]}},{"properties":{"status":"Existing Location","city":"KENVIR","county":"Harlan","geo_score":0.686,"zip code":"40847","hyperlink":null,"street":"139 POST OFFICE DR","id":"a636yebcfdvp","geo_precision":"street","state":"KY"},"type":"Feature","geometry":{"type":"Point","coordinates":[-83.157981,36.852601]}},{"properties":{"status":"Proposed to be Closed","city":"LEJUNIOR","county":"Harlan","geo_score":0.671,"zip code":"40849","hyperlink":null,"street":"13161 HIGHWAY 38","id":"a636yemmc2c8","geo_precision":"range","state":"KY"},"type":"Feature","geometry":{"type":"Point","coordinates":[-83.145477,36.884917]}},{"properties":{"status":"Existing Location","city":"LOYALL","county":"Harlan","geo_score":0.915,"zip code":"40854","hyperlink":null,"street":"106 BAILEY ST","id":"a636yenjbxj1","geo_precision":"range","state":"KY"},"type":"Feature","geometry":{"type":"Point","coordinates":[-83.352895,36.852905]}},{"properties":{"status":"Existing Location","city":"LYNCH","county":"Harlan","geo_score":0.807,"zip code":"40855","hyperlink":null,"street":"10 E MAIN ST","id":"a636yepddsns","geo_precision":"street","state":"KY"},"type":"Feature","geometry":{"type":"Point","coordinates":[-82.908923,36.964105]}},{"properties":{"status":"Proposed to be Closed","city":"PATHFORK","county":"Harlan","geo_score":0.915,"zip code":"40863","hyperlink":null,"street":"63 BUNCH ST","id":"a636yenpvuol","geo_precision":"range","state":"KY"},"type":"Feature","geometry":{"type":"Point","coordinates":[-83.463124,36.755733]}},{"properties":{"status":"Proposed to be Closed","city":"PUTNEY","county":"Harlan","geo_score":0.664,"zip code":"40865","hyperlink":null,"street":"4416 HIGHWAY 522","id":"a636yenabzmf","geo_precision":"street","state":"KY"},"type":"Feature","geometry":{"type":"Point","coordinates":[-83.28332,36.888284]}},{"properties":{"status":"Proposed to be Closed","city":"TOTZ","county":"Harlan","geo_score":0.588,"zip code":"40870","hyperlink":null,"street":"11036 HIGHWAY 522","id":"a636yeaairne","geo_precision":"street","state":"KY"},"type":"Feature","geometry":{"type":"Point","coordinates":[-83.112299,36.946602]}},{"properties":{"status":"Existing Location","city":"WALLINS CREEK","county":"Harlan","geo_score":0.591,"zip code":"40873","hyperlink":null,"street":"854 HIGHWAY 219","id":"a636ye94pn3o","geo_precision":"street","state":"KY"},"type":"Feature","geometry":{"type":"Point","coordinates":[-83.412784,36.823465]}},{"properties":{"status":"Existing Location","city":"BONNIEVILLE","county":"Hart","geo_score":0.929,"zip code":"42713","hyperlink":null,"street":"7692 N DIXIE HWY","id":"a636yej9armo","geo_precision":"range","state":"KY"},"type":"Feature","geometry":{"type":"Point","coordinates":[-85.902983,37.378489]}},{"properties":{"status":"Existing Location","city":"CUB RUN","county":"Hart","geo_score":0.915,"zip code":"42729","hyperlink":null,"street":"12753 CUB RUN HWY","id":"a636yelkojbw","geo_precision":"range","state":"KY"},"type":"Feature","geometry":{"type":"Point","coordinates":[-86.057851,37.30552]}},{"properties":{"status":"Existing Location","city":"HARDYVILLE","county":"Hart","geo_score":0.951,"zip code":"42746","hyperlink":null,"street":"62 N JACKSON HWY","id":"a636yeoppgnu","geo_precision":"range","state":"KY"},"type":"Feature","geometry":{"type":"Point","coordinates":[-85.786133,37.254416]}},{"properties":{"status":"Existing Location","city":"HORSE CAVE","county":"Hart","geo_score":0.927,"zip code":"42749","hyperlink":null,"street":"117 WATER ST","id":"a636yeedxvku","geo_precision":"range","state":"KY"},"type":"Feature","geometry":{"type":"Point","coordinates":[-85.9067,37.179638]}},{"properties":{"status":"Existing Location","city":"MUNFORDVILLE","county":"Hart","geo_score":0.728,"zip code":"42765","hyperlink":null,"street":"215 S WASHINGTON ST","id":"a636yeb7778a","geo_precision":"street","state":"KY"},"type":"Feature","geometry":{"type":"Point","coordinates":[-85.891609,37.271108]}},{"properties":{"status":"Existing Location","city":"ANNVILLE","county":"Jackson","geo_score":0.585,"zip code":"40402","hyperlink":null,"street":"3560 HIGHWAY 3630","id":"a636yemcz34o","geo_precision":"zip","state":"KY"},"type":"Feature","geometry":{"type":"Point","coordinates":[-83.942983,37.2637]}},{"properties":{"status":"Existing Location","city":"GRAY HAWK","county":"Jackson","geo_score":0.634,"zip code":"40434","hyperlink":null,"street":"811 US HIGHWAY 421","id":"a636yeiyvmk2","geo_precision":"street","state":"KY"},"type":"Feature","geometry":{"type":"Point","coordinates":[-83.936647,37.392784]}},{"properties":{"status":"Existing Location","city":"MCKEE","county":"Jackson","geo_score":0.805,"zip code":"40447","hyperlink":null,"street":"320 MAIN ST","id":"a636yejihtze","geo_precision":"range","state":"KY"},"type":"Feature","geometry":{"type":"Point","coordinates":[-84.81526,37.472588]}},{"properties":{"status":"Existing Location","city":"SANDGAP","county":"Jackson","geo_score":0.709,"zip code":"40481","hyperlink":null,"street":"955 US HIGHWAY 421","id":"a636yemggbj7","geo_precision":"street","state":"KY"},"type":"Feature","geometry":{"type":"Point","coordinates":[-84.072366,37.486838]}},{"properties":{"status":"Existing Location","city":"TYNER","county":"Jackson","geo_score":0.597,"zip code":"40486","hyperlink":null,"street":"11535 US HIGHWAY 421","id":"a636yep2j9b5","geo_precision":"street","state":"KY"},"type":"Feature","geometry":{"type":"Point","coordinates":[-83.908516,37.356014]}},{"properties":{"status":"Proposed to be Closed","city":"BOONS CAMP","county":"Johnson","geo_score":0.702,"zip code":"41204","hyperlink":"<a href=\"https://appalachiancenter.as.uky.edu/sites/default/files/webform/DSC03550.JPG/\">Boons Camp</a>","street":"10061 KY ROUTE 40","id":"a636yebatqkh","geo_precision":"range","state":"KY"},"type":"Feature","geometry":{"type":"Point","coordinates":[-82.705351,37.83612]}},{"properties":{"status":"Existing Location","city":"FLATGAP","county":"Johnson","geo_score":0.743,"zip code":"41219","hyperlink":null,"street":"1145 KY ROUTE 689","id":"a636yeaprjog","geo_precision":"range","state":"KY"},"type":"Feature","geometry":{"type":"Point","coordinates":[-82.905521,37.907637]}},{"properties":{"status":"Existing Location","city":"HAGERHILL","county":"Johnson","geo_score":0.643,"zip code":"41222","hyperlink":null,"street":"1344 KY ROUTE 1428","id":"a636yedtme4q","geo_precision":"street","state":"KY"},"type":"Feature","geometry":{"type":"Point","coordinates":[-82.788307,37.74546]}},{"properties":{"status":"Existing Location","city":"MEALLY","county":"Johnson","geo_score":0.599,"zip code":"41234","hyperlink":null,"street":"3699 KY ROUTE 40","id":"a636yelrzzml","geo_precision":"range","state":"KY"},"type":"Feature","geometry":{"type":"Point","coordinates":[-82.888746,37.820013]}},{"properties":{"status":"Proposed to be Closed","city":"OIL SPRINGS","county":"Johnson","geo_score":0.829,"zip code":"41238","hyperlink":"<a href=\"https://appalachiancenter.as.uky.edu/sites/default/files/webform/DSC03557.JPG/\">Boons Camp</a>","street":"8895 KY ROUTE 40","id":"a636yeaowd6d","geo_precision":"range","state":"KY"},"type":"Feature","geometry":{"type":"Point","coordinates":[-82.953286,37.805387]}},{"properties":{"status":"Existing Location","city":"PAINTSVILLE","county":"Johnson","geo_score":0.603,"zip code":"41240","hyperlink":null,"street":"100 FEDERAL DR","id":"a636yef84y6h","geo_precision":"zip","state":"KY"},"type":"Feature","geometry":{"type":"Point","coordinates":[-82.788771,37.822039]}},{"properties":{"status":"Proposed to be Closed","city":"SITKA","county":"Johnson","geo_score":0.587,"zip code":"41255","hyperlink":"<a href=\"https://appalachiancenter.as.uky.edu/sites/default/files/webform/DSC03561.JPG/\">Sitka</a>","street":"2474 KY ROUTE 201","id":"a636yeos32u0","geo_precision":"street","state":"KY"},"type":"Feature","geometry":{"type":"Point","coordinates":[-82.839351,37.881157]}},{"properties":{"status":"Existing Location","city":"STAFFORDSVILLE","county":"Johnson","geo_score":0.711,"zip code":"41256","hyperlink":null,"street":"1100 KY ROUTE 40","id":"a636yena0o9l","geo_precision":"street","state":"KY"},"type":"Feature","geometry":{"type":"Point","coordinates":[-82.844507,37.827982]}},{"properties":{"status":"Existing Location","city":"THELMA","county":"Johnson","geo_score":0.684,"zip code":"41260","hyperlink":null,"street":"5490 MAIN ST","id":"a636yei33adx","geo_precision":"street","state":"KY"},"type":"Feature","geometry":{"type":"Point","coordinates":[-82.76575,37.818379]}},{"properties":{"status":"Existing Location","city":"VAN LEAR","county":"Johnson","geo_score":0.661,"zip code":"41265","hyperlink":null,"street":"55 MILLERS CRK","id":"a636yeebtepp","geo_precision":"street","state":"KY"},"type":"Feature","geometry":{"type":"Point","coordinates":[-82.75302,37.769404]}},{"properties":{"status":"Existing Location","city":"WEST VAN LEAR","county":"Johnson","geo_score":0.718,"zip code":"41268","hyperlink":null,"street":"797 KY ROUTE 302","id":"a636yekvatrp","geo_precision":"range","state":"KY"},"type":"Feature","geometry":{"type":"Point","coordinates":[-82.779382,37.784537]}},{"properties":{"status":"Proposed to be Closed","city":"WILLIAMSPORT","county":"Johnson","geo_score":0.629,"zip code":"41271","hyperlink":null,"street":"7540 KY ROUTE 40","id":"a636yeoj7f16","geo_precision":"street","state":"KY"},"type":"Feature","geometry":{"type":"Point","coordinates":[-82.732182,37.808493]}},{"properties":{"status":"Existing Location","city":"WITTENSVILLE","county":"Johnson","geo_score":0.683,"zip code":"41274","hyperlink":null,"street":"3027 N US HIGHWAY 23","id":"a636yehxwig1","geo_precision":"street","state":"KY"},"type":"Feature","geometry":{"type":"Point","coordinates":[-82.778044,37.877148]}},{"properties":{"status":"Proposed to be Closed","city":"CARRIE","county":"Knott","geo_score":0.55,"zip code":"41725","hyperlink":null,"street":"4357 HIGHWAY 550","id":"a636yeeqxeg0","geo_precision":"street","state":"KY"},"type":"Feature","geometry":{"type":"Point","coordinates":[-82.930485,37.354285]}},{"properties":{"status":"Proposed to be Closed","city":"EMMALENA","county":"Knott","geo_score":0.794,"zip code":"41740","hyperlink":null,"street":"8334 HIGHWAY 550","id":"a636yeecpyqq","geo_precision":"range","state":"KY"},"type":"Feature","geometry":{"type":"Point","coordinates":[-83.111486,37.341881]}},{"properties":{"status":"Proposed to be Closed","city":"FISTY","county":"Knott","geo_score":0.647,"zip code":"41743","hyperlink":null,"street":"10573 HIGHWAY 550","id":"a636ye96vimo","geo_precision":"range","state":"KY"},"type":"Feature","geometry":{"type":"Point","coordinates":[-83.111469,37.34163]}},{"properties":{"status":"Existing Location","city":"HINDMAN","county":"Knott","geo_score":0.765,"zip code":"41822","hyperlink":null,"street":"27 MAIN ST","id":"a636yeo8iqj9","geo_precision":"street","state":"KY"},"type":"Feature","geometry":{"type":"Point","coordinates":[-82.987175,37.330957]}},{"properties":{"status":"Existing Location","city":"KITE","county":"Knott","geo_score":0.752,"zip code":"41828","hyperlink":null,"street":"9069 HIGHWAY 7","id":"a636yeo7z0bm","geo_precision":"range","state":"KY"},"type":"Feature","geometry":{"type":"Point","coordinates":[-82.812632,37.337659]}},{"properties":{"status":"Existing Location","city":"LEBURN","county":"Knott","geo_score":0.579,"zip code":"41831","hyperlink":null,"street":"2028 HIGHWAY 550","id":"a636yem0ftnm","geo_precision":"street","state":"KY"},"type":"Feature","geometry":{"type":"Point","coordinates":[-82.956043,37.34803]}},{"properties":{"status":"Existing Location","city":"LITTCARR","county":"Knott","geo_score":0.769,"zip code":"41834","hyperlink":null,"street":"7351 HIGHWAY 160","id":"a636yembf6ag","geo_precision":"range","state":"KY"},"type":"Feature","geometry":{"type":"Point","coordinates":[-82.942691,37.215849]}},{"properties":{"status":"Existing Location","city":"MALLIE","county":"Knott","geo_score":0.724,"zip code":"41836","hyperlink":null,"street":"22 BRANHAMS CREEK RD","id":"a636yebzb58g","geo_precision":"street","state":"KY"},"type":"Feature","geometry":{"type":"Point","coordinates":[-82.906302,37.300336]}},{"properties":{"status":"Existing Location","city":"MOUSIE","county":"Knott","geo_score":0.867,"zip code":"41839","hyperlink":null,"street":"9479 HIGHWAY 550","id":"a636yel8714t","geo_precision":"range","state":"KY"},"type":"Feature","geometry":{"type":"Point","coordinates":[-82.875077,37.400524]}},{"properties":{"status":"Existing Location","city":"PINE TOP","county":"Knott","geo_score":0.797,"zip code":"41843","hyperlink":null,"street":"3880 HIGHWAY 582","id":"a636yeh9zbjz","geo_precision":"range","state":"KY"},"type":"Feature","geometry":{"type":"Point","coordinates":[-82.898413,37.275428]}},{"properties":{"status":"Existing Location","city":"PIPPA PASSES","county":"Knott","geo_score":0.867,"zip code":"41844","hyperlink":null,"street":"4982 HIGHWAY 899","id":"a636yeel1bq7","geo_precision":"range","state":"KY"},"type":"Feature","geometry":{"type":"Point","coordinates":[-82.882335,37.328308]}},{"properties":{"status":"Existing Location","city":"REDFOX","county":"Knott","geo_score":0.913,"zip code":"41847","hyperlink":null,"street":"1915 REDFOX RD","id":"a636yed3d9re","geo_precision":"range","state":"KY"},"type":"Feature","geometry":{"type":"Point","coordinates":[-82.943186,37.215828]}},{"properties":{"status":"Proposed to be Closed","city":"SASSAFRAS","county":"Knott","geo_score":0.722,"zip code":"41759","hyperlink":null,"street":"315 MAIN ST","id":"a636yengrcux","geo_precision":"street","state":"KY"},"type":"Feature","geometry":{"type":"Point","coordinates":[-83.052147,37.219231]}},{"properties":{"status":"Existing Location","city":"TOPMOST","county":"Knott","geo_score":0.74,"zip code":"41862","hyperlink":null,"street":"6100 HIGHWAY 7","id":"a636yeoqeeq1","geo_precision":"range","state":"KY"},"type":"Feature","geometry":{"type":"Point","coordinates":[-82.790772,37.369466]}},{"properties":{"status":"Proposed to be Closed","city":"VEST","county":"Knott","geo_score":1.0,"zip code":"41772","hyperlink":null,"street":"47 VEST TALCUM RD","id":"a636yei5y0fz","geo_precision":"range","state":"KY"},"type":"Feature","geometry":{"type":"Point","coordinates":[-83.014942,37.40012]}},{"properties":{"status":"Existing Location","city":"ARTEMUS","county":"Knox","geo_score":0.434,"zip code":"40903","hyperlink":null,"street":"3214 KY 225","id":"a636yeg52mze","geo_precision":"street","state":"KY"},"type":"Feature","geometry":{"type":"Point","coordinates":[-83.532304,37.034718]}},{"properties":{"status":"Existing Location","city":"BARBOURVILLE","county":"Knox","geo_score":0.911,"zip code":"40906","hyperlink":null,"street":"122 N ALLISON AVE","id":"a636yemi3le4","geo_precision":"range","state":"KY"},"type":"Feature","geometry":{"type":"Point","coordinates":[-83.883033,36.868654]}},{"properties":{"status":"Existing Location","city":"BIMBLE","county":"Knox","geo_score":0.293,"zip code":"40915","hyperlink":null,"street":"187 KY 1304","id":"a636yeedvstg","geo_precision":"street","state":"KY"},"type":"Feature","geometry":{"type":"Point","coordinates":[-83.531364,37.032026]}},{"properties":{"status":"Proposed to be Closed","city":"BRYANTS STORE","county":"Knox","geo_score":0.439,"zip code":"40921","hyperlink":null,"street":"2001 KY 1809","id":"a636yekp4b28","geo_precision":"street","state":"KY"},"type":"Feature","geometry":{"type":"Point","coordinates":[-83.961053,36.711207]}},{"properties":{"status":"Existing Location","city":"CANNON","county":"Knox","geo_score":0.312,"zip code":"40923","hyperlink":null,"street":"3387 N KY 11","id":"a636yehych4z","geo_precision":"street","state":"KY"},"type":"Feature","geometry":{"type":"Point","coordinates":[-83.532304,37.034718]}},{"properties":{"status":"Proposed to be Closed","city":"DEWITT","county":"Knox","geo_score":0.434,"zip code":"40930","hyperlink":null,"street":"2956 KY 223","id":"a636yee1tt3a","geo_precision":"street","state":"KY"},"type":"Feature","geometry":{"type":"Point","coordinates":[-83.532304,37.034718]}},{"properties":{"status":"Existing Location","city":"FLAT LICK","county":"Knox","geo_score":0.293,"zip code":"40935","hyperlink":null,"street":"1131 KY 3085","id":"a636yegcmjir","geo_precision":"street","state":"KY"},"type":"Feature","geometry":{"type":"Point","coordinates":[-83.532304,37.034718]}},{"properties":{"status":"Existing Location","city":"GIRDLER","county":"Knox","geo_score":0.434,"zip code":"40943","hyperlink":null,"street":"5792 N KY 11","id":"a636yejwwqi3","geo_precision":"street","state":"KY"},"type":"Feature","geometry":{"type":"Point","coordinates":[-83.532304,37.034718]}},{"properties":{"status":"Existing Location","city":"GRAY","county":"Knox","geo_score":0.621,"zip code":"40734","hyperlink":null,"street":"280 S KY 233","id":"a636ye9f9b9a","geo_precision":"range","state":"KY"},"type":"Feature","geometry":{"type":"Point","coordinates":[-84.000827,36.981053]}},{"properties":{"status":"Existing Location","city":"HEIDRICK","county":"Knox","geo_score":0.262,"zip code":"40949","hyperlink":null,"street":"215 N KY 11 STE A","id":"a636yeazw6zy","geo_precision":"street","state":"KY"},"type":"Feature","geometry":{"type":"Point","coordinates":[-83.700291,36.609007]}},{"properties":{"status":"Proposed to be Closed","city":"HINKLE","county":"Knox","geo_score":0.683,"zip code":"40953","hyperlink":null,"street":"85 PAYNES CREEK RD","id":"a636yehef2ae","geo_precision":"zip","state":"KY"},"type":"Feature","geometry":{"type":"Point","coordinates":[-83.829985,36.871254]}},{"properties":{"status":"Proposed to be Closed","city":"SCALF","county":"Knox","geo_score":0.312,"zip code":"40982","hyperlink":null,"street":"15581 KY 223","id":"a636yej9yqmz","geo_precision":"street","state":"KY"},"type":"Feature","geometry":{"type":"Point","coordinates":[-83.532304,37.034718]}},{"properties":{"status":"Proposed to be Closed","city":"TROSPER","county":"Knox","geo_score":0.434,"zip code":"40995","hyperlink":null,"street":"7814 KY 225","id":"a636yekbh4ua","geo_precision":"street","state":"KY"},"type":"Feature","geometry":{"type":"Point","coordinates":[-83.532304,37.034718]}},{"properties":{"status":"Existing Location","city":"EAST BERNSTADT","county":"Laurel","geo_score":0.59,"zip code":"40729","hyperlink":null,"street":"1066 HIGHWAY 490","id":"a636ye9ojbyy","geo_precision":"street","state":"KY"},"type":"Feature","geometry":{"type":"Point","coordinates":[-84.126635,37.175211]}},{"properties":{"status":"Existing Location","city":"KEAVY","county":"Laurel","geo_score":0.676,"zip code":"40737","hyperlink":null,"street":"356 W HIGHWAY 312","id":"a636yeip9m59","geo_precision":"street","state":"KY"},"type":"Feature","geometry":{"type":"Point","coordinates":[-84.160698,37.002738]}},{"properties":{"status":"Existing Location","city":"LILY","county":"Laurel","geo_score":0.561,"zip code":"40740","hyperlink":null,"street":"4048 E HIGHWAY 552","id":"a636yehbhufj","geo_precision":"range","state":"KY"},"type":"Feature","geometry":{"type":"Point","coordinates":[-84.083109,37.023705]}},{"properties":{"status":"Existing Location","city":"LONDON","county":"Laurel","geo_score":0.777,"zip code":"40741","hyperlink":null,"street":"1760 HIGHWAY 192","id":"a636yen18ksc","geo_precision":"range","state":"KY"},"type":"Feature","geometry":{"type":"Point","coordinates":[-84.132741,37.082509]}},{"properties":{"status":"Existing Location","city":"PITTSBURG","county":"Laurel","geo_score":0.805,"zip code":"40755","hyperlink":null,"street":"741 N LAUREL RD","id":"a636yea8l0hl","geo_precision":"range","state":"KY"},"type":"Feature","geometry":{"type":"Point","coordinates":[-84.011921,37.076466]}},{"properties":{"status":"Existing Location","city":"BLAINE","county":"Lawrence","geo_score":0.585,"zip code":"41124","hyperlink":null,"street":"30 S HIGHWAY 201","id":"a636ye9gy6k0","geo_precision":"zip","state":"KY"},"type":"Feature","geometry":{"type":"Point","coordinates":[-82.784604,37.986202]}},{"properties":{"status":"Existing Location","city":"LOUISA","county":"Lawrence","geo_score":0.808,"zip code":"41230","hyperlink":null,"street":"108 E MADISON ST","id":"a636yeksr5rv","geo_precision":"range","state":"KY"},"type":"Feature","geometry":{"type":"Point","coordinates":[-82.603769,38.114248]}},{"properties":{"status":"Existing Location","city":"LOWMANSVILLE","county":"Lawrence","geo_score":0.683,"zip code":"41232","hyperlink":null,"street":"48 MAY LN","id":"a636yeo2ttgg","geo_precision":"zip","state":"KY"},"type":"Feature","geometry":{"type":"Point","coordinates":[-82.744663,38.074113]}},{"properties":{"status":"Proposed to be Closed","city":"MARTHA","county":"Lawrence","geo_score":0.595,"zip code":"41159","hyperlink":null,"street":"247 HIGHWAY 469","id":"a636yeegqjgl","geo_precision":"zip","state":"KY"},"type":"Feature","geometry":{"type":"Point","coordinates":[-82.98743,37.989811]}},{"properties":{"status":"Existing Location","city":"BEATTYVILLE","county":"Lee","geo_score":0.729,"zip code":"41311","hyperlink":null,"street":"301 MAIN ST","id":"a636yeghx3kg","geo_precision":"street","state":"KY"},"type":"Feature","geometry":{"type":"Point","coordinates":[-83.711001,37.573639]}},{"properties":{"status":"Proposed to be Closed","city":"LONE","county":"Lee","geo_score":0.745,"zip code":"41347","hyperlink":null,"street":"2297 HIGHWAY 708","id":"a636yedqgl5x","geo_precision":"range","state":"KY"},"type":"Feature","geometry":{"type":"Point","coordinates":[-83.598962,37.549704]}},{"properties":{"status":"Proposed to be Closed","city":"SAINT HELENS","county":"Lee","geo_score":0.585,"zip code":"41368","hyperlink":null,"street":"92 HIGHWAY 2016","id":"a636yen3zxv9","geo_precision":"street","state":"KY"},"type":"Feature","geometry":{"type":"Point","coordinates":[-83.634261,37.650895]}},{"properties":{"status":"Existing Location","city":"ZOE","county":"Lee","geo_score":0.605,"zip code":"41397","hyperlink":null,"street":"73 ZOE POST OFFICE RD","id":"a636yenaygat","geo_precision":"zip","state":"KY"},"type":"Feature","geometry":{"type":"Point","coordinates":[-83.718248,37.678141]}},{"properties":{"status":"Proposed to be Closed","city":"ASHER","county":"Leslie","geo_score":0.902,"zip code":"40803","hyperlink":null,"street":"25 MIDDLEFORK RD","id":"a636yeb1nl1t","geo_precision":"range","state":"KY"},"type":"Feature","geometry":{"type":"Point","coordinates":[-83.42849,37.014844]}},{"properties":{"status":"Existing Location","city":"BEAR BRANCH","county":"Leslie","geo_score":0.849,"zip code":"41714","hyperlink":null,"street":"35137 HIGHWAY 421","id":"a636yel0ckab","geo_precision":"range","state":"KY"},"type":"Feature","geometry":{"type":"Point","coordinates":[-83.519227,37.164016]}},{"properties":{"status":"Existing Location","city":"ESSIE","county":"Leslie","geo_score":0.769,"zip code":"40827","hyperlink":null,"street":"5425 HIGHWAY 406","id":"a636yeihk51n","geo_precision":"range","state":"KY"},"type":"Feature","geometry":{"type":"Point","coordinates":[-83.455882,37.067922]}},{"properties":{"status":"Proposed to be Closed","city":"HOSKINSTON","county":"Leslie","geo_score":0.927,"zip code":"40844","hyperlink":null,"street":"13464 HIGHWAY 421","id":"a636yengki3n","geo_precision":"range","state":"KY"},"type":"Feature","geometry":{"type":"Point","coordinates":[-83.397591,37.06102]}},{"properties":{"status":"Existing Location","city":"HYDEN","county":"Leslie","geo_score":0.574,"zip code":"41749","hyperlink":null,"street":"140 HIGHWAY 80","id":"a636yek3cpk6","geo_precision":"street","state":"KY"},"type":"Feature","geometry":{"type":"Point","coordinates":[-83.356755,37.152065]}},{"properties":{"status":"Proposed to be Closed","city":"ROARK","county":"Leslie","geo_score":0.769,"zip code":"40979","hyperlink":null,"street":"13060 HIGHWAY 406","id":"a636yeevf5hk","geo_precision":"range","state":"KY"},"type":"Feature","geometry":{"type":"Point","coordinates":[-83.520396,37.025513]}},{"properties":{"status":"Existing Location","city":"SMILAX","county":"Leslie","geo_score":0.602,"zip code":"41764","hyperlink":null,"street":"3624 CUTSHIN RD","id":"a636yek1yzkw","geo_precision":"street","state":"KY"},"type":"Feature","geometry":{"type":"Point","coordinates":[-83.260451,37.090224]}},{"properties":{"status":"Existing Location","city":"STINNETT","county":"Leslie","geo_score":0.672,"zip code":"40868","hyperlink":null,"street":"25 HIGHWAY 406","id":"a636yebmq0mu","geo_precision":"street","state":"KY"},"type":"Feature","geometry":{"type":"Point","coordinates":[-83.405459,37.093139]}},{"properties":{"status":"Proposed to be Closed","city":"WARBRANCH","county":"Leslie","geo_score":0.781,"zip code":"40874","hyperlink":null,"street":"6983 MIDDLE FORK RD","id":"a636yeexlsli","geo_precision":"street","state":"KY"},"type":"Feature","geometry":{"type":"Point","coordinates":[-83.429136,37.014534]}},{"properties":{"status":"Existing Location","city":"WOOTON","county":"Leslie","geo_score":0.756,"zip code":"41776","hyperlink":null,"street":"5275 HIGHWAY 80","id":"a636ye9l6q8t","geo_precision":"range","state":"KY"},"type":"Feature","geometry":{"type":"Point","coordinates":[-83.30758,37.166258]}},{"properties":{"status":"Existing Location","city":"YEADDISS","county":"Leslie","geo_score":0.74,"zip code":"41777","hyperlink":null,"street":"11545 CUTSHIN RD","id":"a636yebfb4lh","geo_precision":"street","state":"KY"},"type":"Feature","geometry":{"type":"Point","coordinates":[-83.216152,37.067608]}},{"properties":{"status":"Existing Location","city":"BLACKEY","county":"Letcher","geo_score":0.749,"zip code":"41804","hyperlink":null,"street":"8271 HIGHWAY 7","id":"a636yeczasm1","geo_precision":"range","state":"KY"},"type":"Feature","geometry":{"type":"Point","coordinates":[-82.988712,37.138428]}},{"properties":{"status":"Proposed to be Closed","city":"BURDINE","county":"Letcher","geo_score":0.574,"zip code":"41517","hyperlink":null,"street":"11872 HIGHWAY 805","id":"a636yebp3inc","geo_precision":"street","state":"KY"},"type":"Feature","geometry":{"type":"Point","coordinates":[-82.591617,37.195113]}},{"properties":{"status":"Existing Location","city":"CROMONA","county":"Letcher","geo_score":0.587,"zip code":"41810","hyperlink":null,"street":"4761 HIGHWAY 805","id":"a636yeiakzdp","geo_precision":"street","state":"KY"},"type":"Feature","geometry":{"type":"Point","coordinates":[-82.677512,37.178837]}},{"properties":{"status":"Proposed to be Closed","city":"DEANE","county":"Letcher","geo_score":0.659,"zip code":"41812","hyperlink":null,"street":"11125 HIGHWAY 7","id":"a636yee69xol","geo_precision":"street","state":"KY"},"type":"Feature","geometry":{"type":"Point","coordinates":[-82.763983,37.254687]}},{"properties":{"status":"Proposed to be Closed","city":"EOLIA","county":"Letcher","geo_score":0.672,"zip code":"40826","hyperlink":null,"street":"1364 HIGHWAY 806","id":"a636ye9bxcud","geo_precision":"street","state":"KY"},"type":"Feature","geometry":{"type":"Point","coordinates":[-82.803553,37.055963]}},{"properties":{"status":"Proposed to be Closed","city":"HALLIE","county":"Letcher","geo_score":0.822,"zip code":"41821","hyperlink":null,"street":"3996 HIGHWAY 1103","id":"a636yepdg5td","geo_precision":"range","state":"KY"},"type":"Feature","geometry":{"type":"Point","coordinates":[-83.021943,37.100711]}},{"properties":{"status":"Existing Location","city":"ISOM","county":"Letcher","geo_score":0.691,"zip code":"41824","hyperlink":null,"street":"9305 HIGHWAY 15","id":"a636yedb9m7o","geo_precision":"street","state":"KY"},"type":"Feature","geometry":{"type":"Point","coordinates":[-82.89641,37.189004]}},{"properties":{"status":"Proposed to be Closed","city":"JACKHORN","county":"Letcher","geo_score":0.676,"zip code":"41825","hyperlink":null,"street":"2636 HIGHWAY 317","id":"a636yedtehm9","geo_precision":"street","state":"KY"},"type":"Feature","geometry":{"type":"Point","coordinates":[-82.706892,37.211048]}},{"properties":{"status":"Existing Location","city":"JENKINS","county":"Letcher","geo_score":0.477,"zip code":"41537","hyperlink":"<a href=\"http://www.wpamurals.com/Jenkins.htm&lt;/body&gt;&lt;/html&gt;\"></a>","street":"9382 HIGHWAY 805 STE A","id":"a636yec93fjv","geo_precision":"street","state":"KY"},"type":"Feature","geometry":{"type":"Point","coordinates":[-82.656465,37.190031]}},{"properties":{"status":"Existing Location","city":"JEREMIAH","county":"Letcher","geo_score":0.61,"zip code":"41826","hyperlink":null,"street":"2563 HIGHWAY 7 S","id":"a636yej02lj1","geo_precision":"street","state":"KY"},"type":"Feature","geometry":{"type":"Point","coordinates":[-82.918617,37.175048]}},{"properties":{"status":"Existing Location","city":"MAYKING","county":"Letcher","geo_score":0.805,"zip code":"41837","hyperlink":null,"street":"3397 HIGHWAY 119","id":"a636yejjwy4q","geo_precision":"range","state":"KY"},"type":"Feature","geometry":{"type":"Point","coordinates":[-82.765143,37.137339]}},{"properties":{"status":"Existing Location","city":"MC ROBERTS","county":"Letcher","geo_score":0.672,"zip code":"41835","hyperlink":null,"street":"2461 HIGHWAY 343","id":"a636yebik4ye","geo_precision":"street","state":"KY"},"type":"Feature","geometry":{"type":"Point","coordinates":[-82.676654,37.203969]}},{"properties":{"status":"Existing Location","city":"NEON","county":"Letcher","geo_score":0.608,"zip code":"41840","hyperlink":null,"street":"71 HIGHWAY 343","id":"a636yegugnpl","geo_precision":"street","state":"KY"},"type":"Feature","geometry":{"type":"Point","coordinates":[-82.709449,37.19141]}},{"properties":{"status":"Proposed to be Closed","city":"PARTRIDGE","county":"Letcher","geo_score":0.683,"zip code":"40862","hyperlink":null,"street":"469 HIGHWAY 3073","id":"a636yen351mo","geo_precision":"street","state":"KY"},"type":"Feature","geometry":{"type":"Point","coordinates":[-82.89867,37.008153]}},{"properties":{"status":"Proposed to be Closed","city":"PREMIUM","county":"Letcher","geo_score":0.867,"zip code":"41845","hyperlink":null,"street":"3752 HIGHWAY 160","id":"a636yefniiwa","geo_precision":"range","state":"KY"},"type":"Feature","geometry":{"type":"Point","coordinates":[-82.918729,37.123246]}},{"properties":{"status":"Proposed to be Closed","city":"ROXANA","county":"Letcher","geo_score":0.683,"zip code":"41848","hyperlink":null,"street":"4115 HIGHWAY 2036","id":"a636yeid65rx","geo_precision":"street","state":"KY"},"type":"Feature","geometry":{"type":"Point","coordinates":[-82.940753,37.130551]}},{"properties":{"status":"Proposed to be Closed","city":"SECO","county":"Letcher","geo_score":0.756,"zip code":"41849","hyperlink":null,"street":"131 SECO DR","id":"a636yea8urj3","geo_precision":"street","state":"KY"},"type":"Feature","geometry":{"type":"Point","coordinates":[-82.731171,37.171552]}},{"properties":{"status":"Existing Location","city":"WHITESBURG","county":"Letcher","geo_score":0.674,"zip code":"41858","hyperlink":null,"street":"71 HIGHWAY 119","id":"a636yem19kjy","geo_precision":"street","state":"KY"},"type":"Feature","geometry":{"type":"Point","coordinates":[-82.792362,37.119719]}},{"properties":{"status":"Existing Location","city":"GARRISON","county":"Lewis","geo_score":0.415,"zip code":"41141","hyperlink":null,"street":"9102 E KY 8","id":"a636yeo8xpgz","geo_precision":"street","state":"KY"},"type":"Feature","geometry":{"type":"Point","coordinates":[-83.312373,38.597394]}},{"properties":{"status":"Proposed to be Closed","city":"QUINCY","county":"Lewis","geo_score":0.293,"zip code":"41166","hyperlink":null,"street":"11977 E KY 8","id":"a636yeetez3u","geo_precision":"street","state":"KY"},"type":"Feature","geometry":{"type":"Point","coordinates":[-83.312373,38.597394]}},{"properties":{"status":"Existing Location","city":"TOLLESBORO","county":"Lewis","geo_score":0.268,"zip code":"41189","hyperlink":null,"street":"3900 W KY 10","id":"a636yecmmb3u","geo_precision":"street","state":"KY"},"type":"Feature","geometry":{"type":"Point","coordinates":[-83.486007,38.590754]}},{"properties":{"status":"Existing Location","city":"VANCEBURG","county":"Lewis","geo_score":0.471,"zip code":"41179","hyperlink":null,"street":"15 THIRD ST","id":"a636yehd6wk2","geo_precision":"street","state":"KY"},"type":"Feature","geometry":{"type":"Point","coordinates":[-83.320095,38.602928]}},{"properties":{"status":"Existing Location","city":"CRAB ORCHARD","county":"Lincoln","geo_score":0.902,"zip code":"40419","hyperlink":null,"street":"209 MAIN ST","id":"a636yehhyv9e","geo_precision":"range","state":"KY"},"type":"Feature","geometry":{"type":"Point","coordinates":[-84.506126,37.462154]}},{"properties":{"status":"Existing Location","city":"HUSTONVILLE","county":"Lincoln","geo_score":0.529,"zip code":"40437","hyperlink":null,"street":"7831 KY HIGHWAY 2141","id":"a636yef7eydi","geo_precision":"street","state":"KY"},"type":"Feature","geometry":{"type":"Point","coordinates":[-84.81379,37.498906]}},{"properties":{"status":"Existing Location","city":"KINGS MOUNTAIN","county":"Lincoln","geo_score":0.823,"zip code":"40442","hyperlink":null,"street":"2705 KY HIGHWAY 501","id":"a636yec1rbn2","geo_precision":"range","state":"KY"},"type":"Feature","geometry":{"type":"Point","coordinates":[-84.78193,37.343153]}},{"properties":{"status":"Existing Location","city":"MCKINNEY","county":"Lincoln","geo_score":0.683,"zip code":"40448","hyperlink":null,"street":"70 BUSY BEE ST","id":"a636yeonb95s","geo_precision":"zip","state":"KY"},"type":"Feature","geometry":{"type":"Point","coordinates":[-84.699802,37.445989]}},{"properties":{"status":"Existing Location","city":"STANFORD","county":"Lincoln","geo_score":0.789,"zip code":"40484","hyperlink":null,"street":"113 CANE RUN RD","id":"a636yed2nyge","geo_precision":"street","state":"KY"},"type":"Feature","geometry":{"type":"Point","coordinates":[-84.673513,37.549093]}},{"properties":{"status":"Existing Location","city":"WAYNESBURG","county":"Lincoln","geo_score":0.683,"zip code":"40489","hyperlink":null,"street":"10 MAIN ST","id":"a636yefbqe4y","geo_precision":"range","state":"KY"},"type":"Feature","geometry":{"type":"Point","coordinates":[-84.757143,37.453813]}},{"properties":{"status":"Existing Location","city":"BEREA","county":"Madison","geo_score":0.919,"zip code":"40403","hyperlink":null,"street":"222 GLADES RD","id":"a636yenoimuh","geo_precision":"range","state":"KY"},"type":"Feature","geometry":{"type":"Point","coordinates":[-84.294499,37.586738]}},{"properties":{"status":"Existing Location","city":"BIGHILL","county":"Madison","geo_score":0.477,"zip code":"40405","hyperlink":null,"street":"10050 BATTLEFIELD MEMORIAL HWY","id":"a636yeoug1el","geo_precision":"street","state":"KY"},"type":"Feature","geometry":{"type":"Point","coordinates":[-84.977228,37.683007]}},{"properties":{"status":"Existing Location","city":"RICHMOND","county":"Madison","geo_score":0.902,"zip code":"40475","hyperlink":null,"street":"140 N MADISON AVE","id":"a636yegui0h1","geo_precision":"range","state":"KY"},"type":"Feature","geometry":{"type":"Point","coordinates":[-84.292666,37.747365]}},{"properties":{"status":"Existing Location","city":"RICHMOND","county":"Madison","geo_score":0.902,"zip code":"40475","hyperlink":null,"street":"120 E WATER ST","id":"a636yemmp51s","geo_precision":"range","state":"KY"},"type":"Feature","geometry":{"type":"Point","coordinates":[-84.294489,37.7464]}},{"properties":{"status":"Existing Location","city":"WACO","county":"Madison","geo_score":0.714,"zip code":"40385","hyperlink":null,"street":"4045 NEW IRVINE RD","id":"a636yea43g8p","geo_precision":"street","state":"KY"},"type":"Feature","geometry":{"type":"Point","coordinates":[-84.102916,37.718436]}},{"properties":{"status":"Proposed to be Closed","city":"FALCON","county":"Magoffin","geo_score":0.611,"zip code":"41426","hyperlink":"<a href=\"https://appalachiancenter.as.uky.edu/sites/default/files/webform/Falcon.JPG/\">Falcon</a>","street":"4000 FALCON RD","id":"a636yel8z9a3","geo_precision":"street","state":"KY"},"type":"Feature","geometry":{"type":"Point","coordinates":[-83.012442,37.782764]}},{"properties":{"status":"Existing Location","city":"SALYERSVILLE","county":"Magoffin","geo_score":0.703,"zip code":"41465","hyperlink":"<a href=\"https://appalachiancenter.as.uky.edu/sites/default/files/webform/Salyersville.JPG/\">Salyersville</a>","street":"330 E MAPLE ST","id":"a636yemy35jh","geo_precision":"street","state":"KY"},"type":"Feature","geometry":{"type":"Point","coordinates":[-83.06886,37.752469]}},{"properties":{"status":"Proposed to be Closed","city":"TOMAHAWK","county":"Martin","geo_score":0.598,"zip code":"41262","hyperlink":null,"street":"4001 TOMAHAWK RD","id":"a636yehzueuf","geo_precision":"zip","state":"KY"},"type":"Feature","geometry":{"type":"Point","coordinates":[-82.57682,37.916482]}},{"properties":{"status":"Existing Location","city":"BEAUTY","county":"Martin","geo_score":0.354,"zip code":"41203","hyperlink":null,"street":"7815 BEAUTY RD","id":"a636yei2019o","geo_precision":"street","state":"KY"},"type":"Feature","geometry":{"type":"Point","coordinates":[-82.793398,37.8114]}},{"properties":{"status":"Existing Location","city":"INEZ","county":"Martin","geo_score":0.485,"zip code":"41224","hyperlink":null,"street":"33 PARK PL","id":"a636yeh47x5t","geo_precision":"street","state":"KY"},"type":"Feature","geometry":{"type":"Point","coordinates":[-82.805771,37.807642]}},{"properties":{"status":"Existing Location","city":"LOVELY","county":"Martin","geo_score":0.354,"zip code":"41231","hyperlink":null,"street":"1423 RIVER FRONT RD STE 100","id":"a636yefu4mau","geo_precision":"street","state":"KY"},"type":"Feature","geometry":{"type":"Point","coordinates":[-82.765411,37.827537]}},{"properties":{"status":"Proposed to be Closed","city":"PILGRIM","county":"Martin","geo_score":0.599,"zip code":"41250","hyperlink":null,"street":"75 EMILY CRK","id":"a636yealo5f8","geo_precision":"zip","state":"KY"},"type":"Feature","geometry":{"type":"Point","coordinates":[-82.504317,37.718987]}},{"properties":{"status":"Existing Location","city":"WARFIELD","county":"Martin","geo_score":0.598,"zip code":"41267","hyperlink":null,"street":"82 FIREHOUSE LN","id":"a636yen8d5m1","geo_precision":"zip","state":"KY"},"type":"Feature","geometry":{"type":"Point","coordinates":[-82.425704,37.885651]}},{"properties":{"status":"Proposed to be Closed","city":"DENNISTON","county":"Menifee","geo_score":0.805,"zip code":"40316","hyperlink":null,"street":"6969 US HIGHWAY 460","id":"a636ye9ftto8","geo_precision":"range","state":"KY"},"type":"Feature","geometry":{"type":"Point","coordinates":[-84.068457,38.12395]}},{"properties":{"status":"Existing Location","city":"FRENCHBURG","county":"Menifee","geo_score":0.805,"zip code":"40322","hyperlink":null,"street":"835 MAIN ST","id":"a636yem9e0yw","geo_precision":"range","state":"KY"},"type":"Feature","geometry":{"type":"Point","coordinates":[-84.252478,38.209285]}},{"properties":{"status":"Existing Location","city":"MEANS","county":"Menifee","geo_score":0.878,"zip code":"40346","hyperlink":null,"street":"8422 US HIGHWAY 460","id":"a636yeg6lnjp","geo_precision":"range","state":"KY"},"type":"Feature","geometry":{"type":"Point","coordinates":[-83.763565,37.94835]}},{"properties":{"status":"Existing Location","city":"WELLINGTON","county":"Menifee","geo_score":0.805,"zip code":"40387","hyperlink":null,"street":"8483 US HIGHWAY 460","id":"a636yegk7xa2","geo_precision":"range","state":"KY"},"type":"Feature","geometry":{"type":"Point","coordinates":[-83.795859,37.958986]}},{"properties":{"status":"Existing Location","city":"CENTER","county":"Metcalfe","geo_score":0.912,"zip code":"42214","hyperlink":null,"street":"102 MAIN ST","id":"a636yefhdevw","geo_precision":"range","state":"KY"},"type":"Feature","geometry":{"type":"Point","coordinates":[-85.695264,37.141381]}},{"properties":{"status":"Existing Location","city":"EDMONTON","county":"Metcalfe","geo_score":0.766,"zip code":"42129","hyperlink":null,"street":"202 HAMILTON ST","id":"a636yenm5ysn","geo_precision":"range","state":"KY"},"type":"Feature","geometry":{"type":"Point","coordinates":[-85.61227,36.978625]}},{"properties":{"status":"Proposed to be Closed","city":"KNOB LICK","county":"Metcalfe","geo_score":0.712,"zip code":"42154","hyperlink":null,"street":"5260 SULPHUR WELL KNOB LICK RD","id":"a636yek957ue","geo_precision":"street","state":"KY"},"type":"Feature","geometry":{"type":"Point","coordinates":[-85.696354,37.07855]}},{"properties":{"status":"Existing Location","city":"SUMMER SHADE","county":"Metcalfe","geo_score":0.902,"zip code":"42166","hyperlink":null,"street":"2653 SUMMER SHADE RD","id":"a636yegy33oq","geo_precision":"range","state":"KY"},"type":"Feature","geometry":{"type":"Point","coordinates":[-85.700451,36.883808]}},{"properties":{"status":"Existing Location","city":"FOUNTAIN RUN","county":"Monroe","geo_score":0.911,"zip code":"42133","hyperlink":null,"street":"200 MAIN ST","id":"a636yec1jiae","geo_precision":"range","state":"KY"},"type":"Feature","geometry":{"type":"Point","coordinates":[-85.967613,36.721791]}},{"properties":{"status":"Existing Location","city":"GAMALIEL","county":"Monroe","geo_score":0.709,"zip code":"42140","hyperlink":null,"street":"106 FOUNTAIN RUN RD","id":"a636ye9bqvwt","geo_precision":"street","state":"KY"},"type":"Feature","geometry":{"type":"Point","coordinates":[-85.793652,36.64325]}},{"properties":{"status":"Proposed to be Closed","city":"MOUNT HERMON","county":"Monroe","geo_score":0.911,"zip code":"42157","hyperlink":null,"street":"11440 OLD GLASGOW RD","id":"a636yea1icnl","geo_precision":"range","state":"KY"},"type":"Feature","geometry":{"type":"Point","coordinates":[-85.820812,36.807368]}},{"properties":{"status":"Existing Location","city":"TOMPKINSVILLE","county":"Monroe","geo_score":0.881,"zip code":"42167","hyperlink":null,"street":"203 W PAIGE ST","id":"a636yeg0ao5q","geo_precision":"range","state":"KY"},"type":"Feature","geometry":{"type":"Point","coordinates":[-85.688947,36.710179]}},{"properties":{"status":"Existing Location","city":"JEFFERSONVILLE","county":"Montgomery","geo_score":0.909,"zip code":"40337","hyperlink":null,"street":"8000 MAIN ST","id":"a636yeljgys7","geo_precision":"range","state":"KY"},"type":"Feature","geometry":{"type":"Point","coordinates":[-83.786011,37.954776]}},{"properties":{"status":"Existing Location","city":"MOUNT STERLING","county":"Montgomery","geo_score":0.917,"zip code":"40353","hyperlink":null,"street":"108 W LOCUST ST","id":"a636yeo6l2y4","geo_precision":"range","state":"KY"},"type":"Feature","geometry":{"type":"Point","coordinates":[-83.942981,38.054931]}},{"properties":{"status":"Proposed to be Closed","city":"CANNEL CITY","county":"Morgan","geo_score":0.683,"zip code":"41408","hyperlink":null,"street":"9519 HIGHWAY 191","id":"a636yeeyv5oz","geo_precision":"zip","state":"KY"},"type":"Feature","geometry":{"type":"Point","coordinates":[-83.233761,37.914002]}},{"properties":{"status":"Existing Location","city":"CROCKETT","county":"Morgan","geo_score":0.355,"zip code":"41413","hyperlink":null,"street":"18 HIGHWAY 706","id":"a636yea0zf87","geo_precision":"street","state":"KY"},"type":"Feature","geometry":{"type":"Point","coordinates":[-83.081936,37.996142]}},{"properties":{"status":"Existing Location","city":"EZEL","county":"Morgan","geo_score":0.537,"zip code":"41425","hyperlink":null,"street":"14269 HIGHWAY 460","id":"a636yencorpa","geo_precision":"street","state":"KY"},"type":"Feature","geometry":{"type":"Point","coordinates":[-82.984208,37.761978]}},{"properties":{"status":"Proposed to be Closed","city":"MALONE","county":"Morgan","geo_score":0.683,"zip code":"41451","hyperlink":null,"street":"2570 HIGHWAY 191","id":"a636yedvr59k","geo_precision":"zip","state":"KY"},"type":"Feature","geometry":{"type":"Point","coordinates":[-83.233761,37.914002]}},{"properties":{"status":"Proposed to be Closed","city":"MIZE","county":"Morgan","geo_score":0.683,"zip code":"41352","hyperlink":null,"street":"8447 HIGHWAY 460","id":"a636yeair80u","geo_precision":"zip","state":"KY"},"type":"Feature","geometry":{"type":"Point","coordinates":[-83.233761,37.914002]}},{"properties":{"status":"Existing Location","city":"WEST LIBERTY","county":"Morgan","geo_score":0.902,"zip code":"41472","hyperlink":null,"street":"398 GLENN AVE","id":"a636yeczwjm3","geo_precision":"range","state":"KY"},"type":"Feature","geometry":{"type":"Point","coordinates":[-83.257224,37.919962]}},{"properties":{"status":"Existing Location","city":"CARLISLE","county":"Nicholas","geo_score":0.915,"zip code":"40311","hyperlink":null,"street":"231 W MAIN ST","id":"a636yedv60jv","geo_precision":"range","state":"KY"},"type":"Feature","geometry":{"type":"Point","coordinates":[-84.030245,38.31269]}},{"properties":{"status":"Existing Location","city":"BOONEVILLE","county":"Owsley","geo_score":0.5,"zip code":"41314","hyperlink":null,"street":"HIGHWAY 11","id":"a636yeh6cozc","geo_precision":"street","state":"KY"},"type":"Feature","geometry":{"type":"Point","coordinates":[-83.681502,37.705133]}},{"properties":{"status":"Proposed to be Closed","city":"VINCENT","county":"Owsley","geo_score":0.586,"zip code":"41386","hyperlink":null,"street":"STATE ROUTE 30","id":"a636yed9tvb8","geo_precision":"street","state":"KY"},"type":"Feature","geometry":{"type":"Point","coordinates":[-83.418712,37.530747]}},{"properties":{"status":"Proposed to be Closed","city":"ARY","county":"Perry","geo_score":0.575,"zip code":"41712","hyperlink":null,"street":"14065 KY HIGHWAY 476 STE 102","id":"a636yeoswdm9","geo_precision":"street","state":"KY"},"type":"Feature","geometry":{"type":"Point","coordinates":[-83.148587,37.376118]}},{"properties":{"status":"Existing Location","city":"AVAWAM","county":"Perry","geo_score":0.562,"zip code":"41713","hyperlink":null,"street":"7201 W KY HIGHWAY 80","id":"a636yeltsj6p","geo_precision":"street","state":"KY"},"type":"Feature","geometry":{"type":"Point","coordinates":[-83.275893,37.22325]}},{"properties":{"status":"Existing Location","city":"BONNYMAN","county":"Perry","geo_score":0.722,"zip code":"41719","hyperlink":null,"street":"112 BONNYMAN CIR","id":"a636yeja8244","geo_precision":"street","state":"KY"},"type":"Feature","geometry":{"type":"Point","coordinates":[-83.242145,37.29568]}},{"properties":{"status":"Existing Location","city":"BUCKHORN","county":"Perry","geo_score":0.407,"zip code":"41721","hyperlink":null,"street":"18540 KY HIGHWAY 28 STE 102","id":"a636yeghw4bg","geo_precision":"street","state":"KY"},"type":"Feature","geometry":{"type":"Point","coordinates":[-83.294852,37.204839]}},{"properties":{"status":"Existing Location","city":"BULAN","county":"Perry","geo_score":0.575,"zip code":"41722","hyperlink":null,"street":"4672 KY HIGHWAY 476","id":"a636yeojuk3d","geo_precision":"street","state":"KY"},"type":"Feature","geometry":{"type":"Point","coordinates":[-83.176816,37.292727]}},{"properties":{"status":"Existing Location","city":"CHAVIES","county":"Perry","geo_score":0.453,"zip code":"41727","hyperlink":null,"street":"5876 KY HIGHWAY 28","id":"a636yenlw2ps","geo_precision":"street","state":"KY"},"type":"Feature","geometry":{"type":"Point","coordinates":[-83.377428,37.335756]}},{"properties":{"status":"Existing Location","city":"COMBS","county":"Perry","geo_score":0.577,"zip code":"41729","hyperlink":null,"street":"526 W KY HIGHWAY 80 STE 102","id":"a636yeclmqiq","geo_precision":"street","state":"KY"},"type":"Feature","geometry":{"type":"Point","coordinates":[-83.213326,37.265488]}},{"properties":{"status":"Existing Location","city":"CORNETTSVILLE","county":"Perry","geo_score":0.755,"zip code":"41731","hyperlink":null,"street":"11571 KY HIGHWAY 7","id":"a636yell7oxv","geo_precision":"range","state":"KY"},"type":"Feature","geometry":{"type":"Point","coordinates":[-83.052725,37.128168]}},{"properties":{"status":"Proposed to be Closed","city":"DELPHIA","county":"Perry","geo_score":0.492,"zip code":"41735","hyperlink":null,"street":"3946 KY HIGHWAY 463 STE 102","id":"a636yecimwva","geo_precision":"street","state":"KY"},"type":"Feature","geometry":{"type":"Point","coordinates":[-83.097354,37.037171]}},{"properties":{"status":"Proposed to be Closed","city":"DICE","county":"Perry","geo_score":0.378,"zip code":"41736","hyperlink":null,"street":"4188 SIXTEENMILE CREEK RD STE 102","id":"a636yenlqinn","geo_precision":"street","state":"KY"},"type":"Feature","geometry":{"type":"Point","coordinates":[-83.165526,37.315826]}},{"properties":{"status":"Proposed to be Closed","city":"DWARF","county":"Perry","geo_score":0.684,"zip code":"41739","hyperlink":null,"street":"9325 KY HIGHWAY 476","id":"a636yeewwc2s","geo_precision":"street","state":"KY"},"type":"Feature","geometry":{"type":"Point","coordinates":[-83.128279,37.337257]}},{"properties":{"status":"Existing Location","city":"HAPPY","county":"Perry","geo_score":0.647,"zip code":"41746","hyperlink":null,"street":"10028 S KY HIGHWAY 15","id":"a636yenrfb3z","geo_precision":"street","state":"KY"},"type":"Feature","geometry":{"type":"Point","coordinates":[-83.122556,37.211041]}},{"properties":{"status":"Proposed to be Closed","city":"HAZARD","county":"Perry","geo_score":0.544,"zip code":"41701","hyperlink":null,"street":"201 BLACK GOLD BLVD","id":"a636yeg7aoco","geo_precision":"street","state":"KY"},"type":"Feature","geometry":{"type":"Point","coordinates":[-83.348091,37.112322]}},{"properties":{"status":"Existing Location","city":"JEFF","county":"Perry","geo_score":0.585,"zip code":"41751","hyperlink":null,"street":"136 KY HIGHWAY 7 STE 101","id":"a636yehwljke","geo_precision":"range","state":"KY"},"type":"Feature","geometry":{"type":"Point","coordinates":[-83.374285,37.164319]}},{"properties":{"status":"Proposed to be Closed","city":"KRYPTON","county":"Perry","geo_score":0.808,"zip code":"41754","hyperlink":null,"street":"239 KRYPTON NAPFOR RD","id":"a636yek2cozg","geo_precision":"range","state":"KY"},"type":"Feature","geometry":{"type":"Point","coordinates":[-83.338554,37.310988]}},{"properties":{"status":"Closed","city":"ROWDY","county":"Perry","geo_score":0.857,"zip code":"41727","hyperlink":"<a href=\"http://appalachiancenter.as.uky.edu/sites/default/files/webform/Rowdy.JPG/\">Rowdy</a>","street":null,"id":"a636yeby0sdy","geo_precision":"zip","state":"KY"},"type":"Feature","geometry":{"type":"Point","coordinates":[-83.270454,37.386204]}},{"properties":{"status":"Proposed to be Closed","city":"SLEMP","county":"Perry","geo_score":0.683,"zip code":"41763","hyperlink":null,"street":"45 OWENS BRANCH RD","id":"a636yehmkpmh","geo_precision":"zip","state":"KY"},"type":"Feature","geometry":{"type":"Point","coordinates":[-83.113638,37.070492]}},{"properties":{"status":"Existing Location","city":"VICCO","county":"Perry","geo_score":0.902,"zip code":"41773","hyperlink":null,"street":"301 MAIN ST","id":"a636ye9a9e7k","geo_precision":"range","state":"KY"},"type":"Feature","geometry":{"type":"Point","coordinates":[-83.061657,37.215306]}},{"properties":{"status":"Proposed to be Closed","city":"YERKES","county":"Perry","geo_score":0.574,"zip code":"41778","hyperlink":null,"street":"8550 KY HIGHWAY 451","id":"a636yefal46q","geo_precision":"street","state":"KY"},"type":"Feature","geometry":{"type":"Point","coordinates":[-83.31082,37.279843]}},{"properties":{"status":"Existing Location","city":"ASHCAMP","county":"Pike","geo_score":0.829,"zip code":"41512","hyperlink":null,"street":"6804 ELKHORN CRK","id":"a636yef1yhc4","geo_precision":"range","state":"KY"},"type":"Feature","geometry":{"type":"Point","coordinates":[-82.434792,37.265846]}},{"properties":{"status":"Existing Location","city":"BELCHER","county":"Pike","geo_score":0.613,"zip code":"41513","hyperlink":null,"street":"14857 REGINA BELCHER HWY","id":"a636yeiylcsw","geo_precision":"street","state":"KY"},"type":"Feature","geometry":{"type":"Point","coordinates":[-82.379022,37.341091]}},{"properties":{"status":"Existing Location","city":"BELFRY","county":"Pike","geo_score":0.572,"zip code":"41514","hyperlink":null,"street":"25320 US HIGHWAY 119 N STE 100","id":"a636yegb6x0a","geo_precision":"street","state":"KY"},"type":"Feature","geometry":{"type":"Point","coordinates":[-82.268383,37.621778]}},{"properties":{"status":"Existing Location","city":"CANADA","county":"Pike","geo_score":1.0,"zip code":"41519","hyperlink":null,"street":"19245 E BIG CREEK RD","id":"a636yectumdm","geo_precision":"range","state":"KY"},"type":"Feature","geometry":{"type":"Point","coordinates":[-82.318069,37.60696]}},{"properties":{"status":"Existing Location","city":"DORTON","county":"Pike","geo_score":0.64,"zip code":"41520","hyperlink":null,"street":"87 DORTON JENKINS HWY","id":"a636yecokd8c","geo_precision":"range","state":"KY"},"type":"Feature","geometry":{"type":"Point","coordinates":[-82.580677,37.278481]}},{"properties":{"status":"Existing Location","city":"ELKHORN CITY","county":"Pike","geo_score":0.807,"zip code":"41522","hyperlink":null,"street":"145 W RUSSELL ST","id":"a636yee5ou25","geo_precision":"range","state":"KY"},"type":"Feature","geometry":{"type":"Point","coordinates":[-82.351314,37.303959]}},{"properties":{"status":"Existing Location","city":"FEDSCREEK","county":"Pike","geo_score":0.709,"zip code":"41524","hyperlink":null,"street":"500 FEDSCREEK RD","id":"a636yeazuob0","geo_precision":"street","state":"KY"},"type":"Feature","geometry":{"type":"Point","coordinates":[-82.239638,37.401054]}},{"properties":{"status":"Proposed to be Closed","city":"FORDS BRANCH","county":"Pike","geo_score":0.62,"zip code":"41526","hyperlink":null,"street":"2730 KEWANEE RD","id":"a636ye9vsqsl","geo_precision":"street","state":"KY"},"type":"Feature","geometry":{"type":"Point","coordinates":[-82.513263,37.435976]}},{"properties":{"status":"Existing Location","city":"FOREST HILLS","county":"Pike","geo_score":1.0,"zip code":"41527","hyperlink":null,"street":"1320 FOREST HILLS RD","id":"a636yemwoufz","geo_precision":"range","state":"KY"},"type":"Feature","geometry":{"type":"Point","coordinates":[-82.291514,37.639809]}},{"properties":{"status":"Existing Location","city":"FREEBURN","county":"Pike","geo_score":0.913,"zip code":"41528","hyperlink":null,"street":"43903 STATE HIGHWAY 194","id":"a636yeblga7n","geo_precision":"range","state":"KY"},"type":"Feature","geometry":{"type":"Point","coordinates":[-82.137182,37.563402]}},{"properties":{"status":"Existing Location","city":"HARDY","county":"Pike","geo_score":1.0,"zip code":"41531","hyperlink":null,"street":"2240 STATE HIGHWAY 319","id":"a636yemwc1x9","geo_precision":"range","state":"KY"},"type":"Feature","geometry":{"type":"Point","coordinates":[-82.242412,37.616391]}},{"properties":{"status":"Existing Location","city":"HELLIER","county":"Pike","geo_score":0.935,"zip code":"41534","hyperlink":null,"street":"126 ALLEGHENY RD","id":"a636yeheicfu","geo_precision":"range","state":"KY"},"type":"Feature","geometry":{"type":"Point","coordinates":[-82.471636,37.289334]}},{"properties":{"status":"Existing Location","city":"JONANCY","county":"Pike","geo_score":0.39,"zip code":"41538","hyperlink":null,"street":"3440 KY HIGHWAY 610","id":"a636yeji0xp3","geo_precision":"street","state":"KY"},"type":"Feature","geometry":{"type":"Point","coordinates":[-82.609554,37.302893]}},{"properties":{"status":"Existing Location","city":"KIMPER","county":"Pike","geo_score":1.0,"zip code":"41539","hyperlink":null,"street":"9414 STATE HIGHWAY 194","id":"a636yep2lrdz","geo_precision":"range","state":"KY"},"type":"Feature","geometry":{"type":"Point","coordinates":[-82.355751,37.501267]}},{"properties":{"status":"Proposed to be Closed","city":"LICK CREEK","county":"Pike","geo_score":0.947,"zip code":"41540","hyperlink":null,"street":"1651 LICK CREEK RD","id":"a636yearetgy","geo_precision":"range","state":"KY"},"type":"Feature","geometry":{"type":"Point","coordinates":[-82.30288,37.397671]}},{"properties":{"status":"Existing Location","city":"MAJESTIC","county":"Pike","geo_score":1.0,"zip code":"41547","hyperlink":null,"street":"48789 STATE HIGHWAY 194","id":"a636yej9dw1k","geo_precision":"range","state":"KY"},"type":"Feature","geometry":{"type":"Point","coordinates":[-82.100821,37.538698]}},{"properties":{"status":"Existing Location","city":"MC ANDREWS","county":"Pike","geo_score":0.897,"zip code":"41543","hyperlink":null,"street":"2330 POND CREEK RD STE 105","id":"a636yeolx9sa","geo_precision":"range","state":"KY"},"type":"Feature","geometry":{"type":"Point","coordinates":[-82.267675,37.572259]}},{"properties":{"status":"Existing Location","city":"MC CARR","county":"Pike","geo_score":0.916,"zip code":"41544","hyperlink":null,"street":"6884 STATE HIGHWAY 319","id":"a636yei1zv9c","geo_precision":"range","state":"KY"},"type":"Feature","geometry":{"type":"Point","coordinates":[-82.180637,37.580409]}},{"properties":{"status":"Existing Location","city":"MOUTHCARD","county":"Pike","geo_score":0.717,"zip code":"41548","hyperlink":null,"street":"23590 S LEVISA RD","id":"a636yep17c0e","geo_precision":"street","state":"KY"},"type":"Feature","geometry":{"type":"Point","coordinates":[-82.254869,37.382129]}},{"properties":{"status":"Proposed to be Closed","city":"MYRA","county":"Pike","geo_score":0.488,"zip code":"41549","hyperlink":null,"street":"7282 HIGHWAY 610 W","id":"a636yenbqiin","geo_precision":"street","state":"KY"},"type":"Feature","geometry":{"type":"Point","coordinates":[-82.599196,37.289421]}},{"properties":{"status":"Existing Location","city":"PHELPS","county":"Pike","geo_score":0.916,"zip code":"41553","hyperlink":null,"street":"37719 STATE HIGHWAY 194","id":"a636yef7hz20","geo_precision":"range","state":"KY"},"type":"Feature","geometry":{"type":"Point","coordinates":[-82.145593,37.509769]}},{"properties":{"status":"Existing Location","city":"PHYLLIS","county":"Pike","geo_score":1.0,"zip code":"41554","hyperlink":null,"street":"16240 GRAPEVINE RD","id":"a636yeji1uas","geo_precision":"range","state":"KY"},"type":"Feature","geometry":{"type":"Point","coordinates":[-82.337203,37.441476]}},{"properties":{"status":"Existing Location","city":"PIKEVILLE","county":"Pike","geo_score":0.924,"zip code":"41501","hyperlink":null,"street":"305 THOMPSON RD","id":"a636ye9505gw","geo_precision":"range","state":"KY"},"type":"Feature","geometry":{"type":"Point","coordinates":[-82.545029,37.506389]}},{"properties":{"status":"Existing Location","city":"PINSONFORK","county":"Pike","geo_score":1.0,"zip code":"41555","hyperlink":null,"street":"3903 POND CREEK RD","id":"a636yecbw76y","geo_precision":"range","state":"KY"},"type":"Feature","geometry":{"type":"Point","coordinates":[-82.262729,37.55354]}},{"properties":{"status":"Existing Location","city":"RACCOON","county":"Pike","geo_score":0.902,"zip code":"41557","hyperlink":null,"street":"68 GRASSY BR","id":"a636yegsdw4v","geo_precision":"range","state":"KY"},"type":"Feature","geometry":{"type":"Point","coordinates":[-82.447291,37.512275]}},{"properties":{"status":"Existing Location","city":"REGINA","county":"Pike","geo_score":0.611,"zip code":"41559","hyperlink":null,"street":"10051 REGINA BELCHER HWY","id":"a636ye97iizw","geo_precision":"street","state":"KY"},"type":"Feature","geometry":{"type":"Point","coordinates":[-82.412182,37.367853]}},{"properties":{"status":"Existing Location","city":"ROBINSON CREEK","county":"Pike","geo_score":0.91,"zip code":"41560","hyperlink":null,"street":"6500 ROBINSON CREEK RD","id":"a636yemfxclm","geo_precision":"range","state":"KY"},"type":"Feature","geometry":{"type":"Point","coordinates":[-82.558968,37.390588]}},{"properties":{"status":"Existing Location","city":"ROCKHOUSE","county":"Pike","geo_score":0.805,"zip code":"41561","hyperlink":null,"street":"4535 MARROWBONE CREEK RD","id":"a636yejjiw2z","geo_precision":"range","state":"KY"},"type":"Feature","geometry":{"type":"Point","coordinates":[-82.449764,37.328457]}},{"properties":{"status":"Existing Location","city":"SHELBIANA","county":"Pike","geo_score":0.805,"zip code":"41562","hyperlink":null,"street":"147 LONGVIEW DR","id":"a636yep3s47r","geo_precision":"range","state":"KY"},"type":"Feature","geometry":{"type":"Point","coordinates":[-82.517614,37.425832]}},{"properties":{"status":"Existing Location","city":"SIDNEY","county":"Pike","geo_score":1.0,"zip code":"41564","hyperlink":null,"street":"17340 E BIG CREEK RD","id":"a636yenneuw4","geo_precision":"range","state":"KY"},"type":"Feature","geometry":{"type":"Point","coordinates":[-82.354118,37.620789]}},{"properties":{"status":"Existing Location","city":"STEELE","county":"Pike","geo_score":1.0,"zip code":"41566","hyperlink":null,"street":"2308 FEDSCREEK RD","id":"a636yendqxxb","geo_precision":"range","state":"KY"},"type":"Feature","geometry":{"type":"Point","coordinates":[-82.21166,37.392136]}},{"properties":{"status":"Existing Location","city":"STOPOVER","county":"Pike","geo_score":0.723,"zip code":"41568","hyperlink":null,"street":"50351 STATE HIGHWAY 194","id":"a636yegonl12","geo_precision":"street","state":"KY"},"type":"Feature","geometry":{"type":"Point","coordinates":[-82.093732,37.516186]}},{"properties":{"status":"Existing Location","city":"VIRGIE","county":"Pike","geo_score":0.488,"zip code":"41572","hyperlink":null,"street":"1070 KY HIGHWAY 610","id":"a636yebxjblq","geo_precision":"street","state":"KY"},"type":"Feature","geometry":{"type":"Point","coordinates":[-82.609554,37.302893]}},{"properties":{"status":"Existing Location","city":"CLAY CITY","county":"Powell","geo_score":0.835,"zip code":"40312","hyperlink":null,"street":"70 RIVER ST","id":"a636yebdplun","geo_precision":"range","state":"KY"},"type":"Feature","geometry":{"type":"Point","coordinates":[-83.933997,37.863894]}},{"properties":{"status":"Existing Location","city":"STANTON","county":"Powell","geo_score":0.727,"zip code":"40380","hyperlink":null,"street":"165 S SIPPLE ST","id":"a636yemyq6at","geo_precision":"street","state":"KY"},"type":"Feature","geometry":{"type":"Point","coordinates":[-83.859751,37.845628]}},{"properties":{"status":"Existing Location","city":"BRONSTON","county":"Pulaski","geo_score":0.805,"zip code":"42518","hyperlink":null,"street":"1801 HIGHWAY 90","id":"a636yebq39aa","geo_precision":"range","state":"KY"},"type":"Feature","geometry":{"type":"Point","coordinates":[-84.673815,36.974701]}},{"properties":{"status":"Existing Location","city":"BURNSIDE","county":"Pulaski","geo_score":0.885,"zip code":"42519","hyperlink":null,"street":"8250 S HIGHWAY 27","id":"a636yeb14zn3","geo_precision":"range","state":"KY"},"type":"Feature","geometry":{"type":"Point","coordinates":[-84.595662,36.986539]}},{"properties":{"status":"Existing Location","city":"EUBANK","county":"Pulaski","geo_score":0.592,"zip code":"42567","hyperlink":null,"street":"15058 N HIGHWAY 1247","id":"a636yejv3v48","geo_precision":"street","state":"KY"},"type":"Feature","geometry":{"type":"Point","coordinates":[-84.658209,37.279539]}},{"properties":{"status":"Existing Location","city":"FERGUSON","county":"Pulaski","geo_score":1.0,"zip code":"42533","hyperlink":null,"street":"522 JACKSBORO ST","id":"a636yem4dqbk","geo_precision":"range","state":"KY"},"type":"Feature","geometry":{"type":"Point","coordinates":[-84.603781,37.067895]}},{"properties":{"status":"Existing Location","city":"NANCY","county":"Pulaski","geo_score":0.707,"zip code":"42544","hyperlink":null,"street":"9150 W HIGHWAY 80","id":"a636yec39z29","geo_precision":"street","state":"KY"},"type":"Feature","geometry":{"type":"Point","coordinates":[-84.811518,37.106033]}},{"properties":{"status":"Existing Location","city":"SCIENCE HILL","county":"Pulaski","geo_score":0.789,"zip code":"42553","hyperlink":null,"street":"735 CENTRAL AVE","id":"a636yebpb0ec","geo_precision":"street","state":"KY"},"type":"Feature","geometry":{"type":"Point","coordinates":[-84.635201,37.176921]}},{"properties":{"status":"Existing Location","city":"SOMERSET","county":"Pulaski","geo_score":0.913,"zip code":"42501","hyperlink":null,"street":"119 N MAPLE ST","id":"a636yeboemm2","geo_precision":"range","state":"KY"},"type":"Feature","geometry":{"type":"Point","coordinates":[-84.603923,37.093468]}},{"properties":{"status":"Existing Location","city":"MOUNT OLIVET","county":"Robertson","geo_score":0.718,"zip code":"41064","hyperlink":null,"street":"7 N MAIN ST","id":"a636yepk9dso","geo_precision":"street","state":"KY"},"type":"Feature","geometry":{"type":"Point","coordinates":[-84.037087,38.531898]}},{"properties":{"status":"Existing Location","city":"BRODHEAD","county":"Rockcastle","geo_score":0.545,"zip code":"40409","hyperlink":null,"street":"170 W MAIN ST","id":"a636yepldanc","geo_precision":"street","state":"KY"},"type":"Feature","geometry":{"type":"Point","coordinates":[-84.41711,37.394833]}},{"properties":{"status":"Existing Location","city":"LIVINGSTON","county":"Rockcastle","geo_score":0.805,"zip code":"40445","hyperlink":null,"street":"9121 MAIN ST","id":"a636yee7f19v","geo_precision":"street","state":"KY"},"type":"Feature","geometry":{"type":"Point","coordinates":[-84.214292,37.295698]}},{"properties":{"status":"Existing Location","city":"MOUNT VERNON","county":"Rockcastle","geo_score":0.78,"zip code":"40456","hyperlink":null,"street":"380 RICHMOND ST","id":"a636yejrokha","geo_precision":"range","state":"KY"},"type":"Feature","geometry":{"type":"Point","coordinates":[-84.339824,37.35649]}},{"properties":{"status":"Proposed to be Closed","city":"WILDIE","county":"Rockcastle","geo_score":0.585,"zip code":"40492","hyperlink":null,"street":"1419 WILDIE RD","id":"a636yeaf77tj","geo_precision":"zip","state":"KY"},"type":"Feature","geometry":{"type":"Point","coordinates":[-84.28549,37.396473]}},{"properties":{"status":"Existing Location","city":"CLEARFIELD","county":"Rowan","geo_score":0.672,"zip code":"40313","hyperlink":null,"street":"519 KY HIGHWAY 519","id":"a636yea7jnj7","geo_precision":"street","state":"KY"},"type":"Feature","geometry":{"type":"Point","coordinates":[-83.427989,38.160644]}},{"properties":{"status":"Existing Location","city":"ELLIOTTVILLE","county":"Rowan","geo_score":0.611,"zip code":"40317","hyperlink":null,"street":"8061 CHRISTY CREEK RD","id":"a636yei263ir","geo_precision":"street","state":"KY"},"type":"Feature","geometry":{"type":"Point","coordinates":[-83.275414,38.182652]}},{"properties":{"status":"Existing Location","city":"FARMERS","county":"Rowan","geo_score":0.805,"zip code":"40319","hyperlink":null,"street":"7355 US HIGHWAY 60","id":"a636yekvlqxa","geo_precision":"street","state":"KY"},"type":"Feature","geometry":{"type":"Point","coordinates":[-83.578634,38.132639]}},{"properties":{"status":"Existing Location","city":"MOREHEAD","county":"Rowan","geo_score":0.621,"zip code":"40351","hyperlink":null,"street":"700 W 1ST ST","id":"a636yeo1ggix","geo_precision":"street","state":"KY"},"type":"Feature","geometry":{"type":"Point","coordinates":[-83.439407,38.171465]}},{"properties":{"status":"Existing Location","city":"JAMESTOWN","county":"Russell","geo_score":0.813,"zip code":"42629","hyperlink":null,"street":"66 FAIR OAKS DR","id":"a636yeluel56","geo_precision":"range","state":"KY"},"type":"Feature","geometry":{"type":"Point","coordinates":[-85.069124,36.993305]}},{"properties":{"status":"Existing Location","city":"RUSSELL SPRINGS","county":"Russell","geo_score":0.719,"zip code":"42642","hyperlink":null,"street":"414 MAIN ST","id":"a636yeiwe8xu","geo_precision":"street","state":"KY"},"type":"Feature","geometry":{"type":"Point","coordinates":[-85.082272,37.060767]}},{"properties":{"status":"Existing Location","city":"MONTICELLO","county":"Wayne","geo_score":0.585,"zip code":"42633","hyperlink":null,"street":"65 BARNES DR","id":"a636yenf1kcr","geo_precision":"zip","state":"KY"},"type":"Feature","geometry":{"type":"Point","coordinates":[-84.851612,36.788127]}},{"properties":{"status":"Existing Location","city":"CORBIN","county":"Whitley","geo_score":0.434,"zip code":"40701","hyperlink":null,"street":"301 ROY KIDD AVE","id":"a636yeix7tem","geo_precision":"street","state":"KY"},"type":"Feature","geometry":{"type":"Point","coordinates":[-84.320574,36.71418]}},{"properties":{"status":"Existing Location","city":"EMLYN","county":"Whitley","geo_score":0.841,"zip code":"40730","hyperlink":null,"street":"3052 US HIGHWAY 25","id":"a636yeakrdkd","geo_precision":"range","state":"KY"},"type":"Feature","geometry":{"type":"Point","coordinates":[-84.146869,36.705364]}},{"properties":{"status":"Existing Location","city":"ROCKHOLDS","county":"Whitley","geo_score":0.789,"zip code":"40759","hyperlink":null,"street":"31 TYES FERRY RD","id":"a636yekclru3","geo_precision":"street","state":"KY"},"type":"Feature","geometry":{"type":"Point","coordinates":[-84.098097,36.829125]}},{"properties":{"status":"Proposed to be Closed","city":"SILER","county":"Whitley","geo_score":0.769,"zip code":"40763","hyperlink":null,"street":"15654 E HIGHWAY 92","id":"a636yep9goec","geo_precision":"range","state":"KY"},"type":"Feature","geometry":{"type":"Point","coordinates":[-83.964383,36.699566]}},{"properties":{"status":"Existing Location","city":"WILLIAMSBURG","county":"Whitley","geo_score":0.671,"zip code":"40769","hyperlink":null,"street":"1000 N HIGHWAY 25","id":"a636yemsdqog","geo_precision":"range","state":"KY"},"type":"Feature","geometry":{"type":"Point","coordinates":[-84.156685,36.760899]}},{"properties":{"status":"Existing Location","city":"WOODBINE","county":"Whitley","geo_score":0.733,"zip code":"40771","hyperlink":null,"street":"34 N ARCHER ST","id":"a636yelf0n0o","geo_precision":"street","state":"KY"},"type":"Feature","geometry":{"type":"Point","coordinates":[-84.087565,36.90581]}},{"properties":{"status":"Existing Location","city":"CAMPTON","county":"Wolfe","geo_score":0.599,"zip code":"41301","hyperlink":null,"street":"175 MOUNTAIN PARKWAY SPUR","id":"a636yem5ma6e","geo_precision":"zip","state":"KY"},"type":"Feature","geometry":{"type":"Point","coordinates":[-83.52713,37.697309]}},{"properties":{"status":"Existing Location","city":"HAZEL GREEN","county":"Wolfe","geo_score":0.594,"zip code":"41332","hyperlink":null,"street":"10491 KY HIGHWAY 191","id":"a636yejb0v2w","geo_precision":"street","state":"KY"},"type":"Feature","geometry":{"type":"Point","coordinates":[-83.376108,37.793426]}},{"properties":{"status":"Proposed to be Closed","city":"ROGERS","county":"Wolfe","geo_score":0.498,"zip code":"41365","hyperlink":"<a href=\"http://appalachiancenter.as.uky.edu/sites/default/files/webform/Elishu%20Rogers%2C%20first%20postmaster.JPG/\">Elishu Rogers</a>","street":"1660 KY 715","id":"a636yegmuukk","geo_precision":"street","state":"KY"},"type":"Feature","geometry":{"type":"Point","coordinates":[-83.646018,37.730703]}},{"properties":{"status":"Existing Location","city":"STRUNK","county":"McCreary","geo_score":0.605,"zip code":"42649","hyperlink":null,"street":"271 STRUNK HWY","id":"a636yenvtu3o","geo_precision":"zip","state":"KY"},"type":"Feature","geometry":{"type":"Point","coordinates":[-84.435215,36.626746]}},{"properties":{"status":"Existing Location","city":"REVELO","county":"McCreary","geo_score":0.683,"zip code":"42638","hyperlink":null,"street":"3715 S HIGHWAY 1651","id":"a636yeooy67d","geo_precision":"zip","state":"KY"},"type":"Feature","geometry":{"type":"Point","coordinates":[-84.502512,36.777331]}},{"properties":{"status":"Existing Location","city":"MARSHES SIDING","county":"McCreary","geo_score":0.445,"zip code":"42631","hyperlink":null,"street":"23 ALUN RD","id":"a636yefsm0wt","geo_precision":"street","state":"KY"},"type":"Feature","geometry":{"type":"Point","coordinates":[-85.129083,36.690591]}}],"is_temporal":false,"author":{"url":"","metadata":"","contact_name":"University of Kentucky Appalachian Center","contact_address":"","source":"","contact_phone":""},"source":"","pagination":{"sort":null,"start":0,"total":345,"limit":1000000},"state":"complete","tags":"appalachian,kentucky,offices,post","published":"2012-05-03T01:13:16Z","id":237925}