{"type":"FeatureCollection","data_type":"Dataset","url_type":null,"permissions":[{"permissions":{"download":true,"view":true},"group_id":"everyone"}],"classification":null,"title":"FFK School Locations - East Region","count":37,"stream_id":239075,"contributor":{"url":"http://geocommons.com/users/45183","name":"eck74"},"data_attributes":null,"calculation_params":null,"icon_link":null,"link":"http://geocommons.com/overlays/239075.json","extent":[-97.2761,34.7505,-96.0369,35.8971],"geometry_types":["point"],"unique_name":null,"name":"FFK School Locations - East Region","feature_count":37,"description":"","next_feature":null,"is_raster":false,"short_classification":"Y","stats":{"november":{"max":90,"mean":18.6756756756757,"variance":408.225225225225,"stdev":20.2045842626179,"min":0,"median":14},"no.":{"max":6579,"mean":6373.02702702703,"variance":24652.6936936937,"stdev":157.011762915056,"min":6086,"median":6411},"january":{"max":54,"mean":12.5135135135135,"variance":152.812312312312,"stdev":12.3617277235956,"min":0,"median":10},"october":{"max":70,"mean":14.9189189189189,"variance":254.021021021021,"stdev":15.9380369249485,"min":0,"median":12},"april":{"max":46,"mean":12.2432432432432,"variance":149.689189189189,"stdev":12.2347533358539,"min":0,"median":11},"february":{"max":60,"mean":18.4054054054054,"variance":202.803303303303,"stdev":14.2409024750296,"min":0,"median":20},"average":{"max":50.88,"mean":14.8567567567568,"variance":114.059216966967,"stdev":10.6798509805599,"min":0.0,"median":16.5},"march":{"max":52,"mean":15.6486486486486,"variance":154.067567567568,"stdev":12.412395722324,"min":0,"median":15},"december":{"max":45,"mean":10.6216216216216,"variance":128.797297297297,"stdev":11.3488896944722,"min":0,"median":10},"september":{"max":70,"mean":15.8108108108108,"variance":314.490990990991,"stdev":17.7338938474039,"min":0,"median":10}},"features":[{"properties":{"november":0,"city":"Calvin","name":"F4K - Calvin Elem, Calvin","no.":6111,"january":4,"geo_score":0.608,"october":0,"delivery date":"Friday, 2nd","zip code":"74531","april":4,"february":4,"average":2.5,"march":4,"id":"a67tynahrmq9","geo_precision":"street","december":4,"address":"229 Third St","september":0,"fbc county code":"HUGHES","state":"OK"},"type":"Feature","geometry":{"type":"Point","coordinates":[-96.247932,34.966602]}},{"properties":{"november":10,"city":"Dustin","name":"F4K - Dustin, Dustin","no.":6461,"january":8,"geo_score":0.902,"october":10,"delivery date":"Friday, 1st","zip code":"74839","april":11,"february":10,"average":10.0,"march":11,"id":"a67tynqdy80e","geo_precision":"range","december":10,"address":"203 Wisdom","september":10,"fbc county code":"HUGHES","state":"OK"},"type":"Feature","geometry":{"type":"Point","coordinates":[-96.036868,35.273255]}},{"properties":{"november":1,"city":"Holdenville","name":"F4K - Moss, Moss","no.":6466,"january":0,"geo_score":0.447,"october":4,"delivery date":"Friday, 3rd","zip code":"74848","april":0,"february":0,"average":1.13,"march":0,"id":"a67tyne9gs7x","geo_precision":"street","december":4,"address":"8087 E 134 Rd","september":0,"fbc county code":"HUGHES","state":"OK"},"type":"Feature","geometry":{"type":"Point","coordinates":[-97.276066,35.333891]}},{"properties":{"november":0,"city":"Holdenville","name":"F4K - Ethel Reed, Holdenville","no.":6553,"january":34,"geo_score":0.814,"october":0,"delivery date":"Friday, 3rd","zip code":"74848","april":32,"february":60,"average":17.5,"march":14,"id":"a67tynh47aat","geo_precision":"range","december":0,"address":"210 Grimes St","september":0,"fbc county code":"HUGHES","state":"OK"},"type":"Feature","geometry":{"type":"Point","coordinates":[-96.38358,35.085641]}},{"properties":{"november":0,"city":"Holdenville","name":"F4K - Thomas Mid, Holdenville","no.":6556,"january":0,"geo_score":0.858,"october":0,"delivery date":"Friday, 3rd","zip code":"74848","april":6,"february":34,"average":6.0,"march":8,"id":"a67tynakufd2","geo_precision":"range","december":0,"address":"1000 S Oliphant","september":0,"fbc county code":"HUGHES","state":"OK"},"type":"Feature","geometry":{"type":"Point","coordinates":[-96.388544,35.078497]}},{"properties":{"november":16,"city":"Wetumka","name":"F4K - Wetumka Elem, Wetumka","no.":6492,"january":10,"geo_score":0.805,"october":22,"delivery date":"Friday, 3rd","zip code":"74883","april":18,"february":18,"average":16.5,"march":18,"id":"a67tyne88wlo","geo_precision":"range","december":10,"address":"416 S Tiger","september":20,"fbc county code":"HUGHES","state":"OK"},"type":"Feature","geometry":{"type":"Point","coordinates":[-96.236333,35.232474]}},{"properties":{"november":8,"city":"Agra","name":"F4K - Agra, Agra","no.":6430,"january":6,"geo_score":0.536,"october":8,"delivery date":"Monday, 4th","zip code":"74824","april":0,"february":6,"average":8.88,"march":8,"id":"a67tynif7lvl","geo_precision":"street","december":0,"address":"112 S. Main","september":35,"fbc county code":"LINCOLN","state":"OK"},"type":"Feature","geometry":{"type":"Point","coordinates":[-96.872106,35.897123]}},{"properties":{"november":9,"city":"Chandler","name":"F4K - Park Road, Chandler","no.":6376,"january":16,"geo_score":0.873,"october":0,"delivery date":"Monday, 4th","zip code":"74834","april":20,"february":23,"average":16.63,"march":16,"id":"a67tynik2q5b","geo_precision":"range","december":23,"address":"1601 W Park Road","september":26,"fbc county code":"LINCOLN","state":"OK"},"type":"Feature","geometry":{"type":"Point","coordinates":[-96.898237,35.702857]}},{"properties":{"november":10,"city":"Chandler","name":"F4K - East Side, Chandler","no.":6377,"january":22,"geo_score":0.915,"october":14,"delivery date":"Monday, 4th","zip code":"74834-2473","april":18,"february":12,"average":17.25,"march":20,"id":"a67tyndcn3js","geo_precision":"range","december":18,"address":"401 S Iowa Ave.","september":24,"fbc county code":"LINCOLN","state":"OK"},"type":"Feature","geometry":{"type":"Point","coordinates":[-96.875689,35.706792]}},{"properties":{"november":36,"city":"Meeker","name":"F4K - Meeker, Meeker","no.":6174,"january":23,"geo_score":0.74,"october":43,"delivery date":"Tuesday, 4th","zip code":"74855-9045","april":5,"february":36,"average":23.5,"march":27,"id":"a67tynl9xa5e","geo_precision":"street","december":0,"address":"400 S Culver","september":18,"fbc county code":"LINCOLN","state":"OK"},"type":"Feature","geometry":{"type":"Point","coordinates":[-96.901452,35.499795]}},{"properties":{"november":0,"city":"Prague","name":"F4K - Prague Elem, Prague","no.":6542,"january":16,"geo_score":0.571,"october":0,"delivery date":"Friday, 1st","zip code":"74864","april":10,"february":20,"average":10.88,"march":24,"id":"a67tynkz3qt5","geo_precision":"street","december":17,"address":"15th &amp; Westlawn","september":0,"fbc county code":"LINCOLN","state":"OK"},"type":"Feature","geometry":{"type":"Point","coordinates":[-96.683224,35.491791]}},{"properties":{"november":14,"city":"Stroud","name":"F4K - Parkview, Stroud","no.":6173,"january":16,"geo_score":0.508,"october":20,"delivery date":"Monday, 2nd","zip code":"74079-2011","april":18,"february":28,"average":15.25,"march":0,"id":"a67tynpiz34j","geo_precision":"street","december":10,"address":"119 E. 10th St.","september":16,"fbc county code":"LINCOLN","state":"OK"},"type":"Feature","geometry":{"type":"Point","coordinates":[-96.654238,35.756358]}},{"properties":{"november":22,"city":"Okemah","name":"F4K - Oakes, Okemah","no.":6402,"january":22,"geo_score":0.506,"october":16,"delivery date":"Friday, 1st","zip code":"74859","april":0,"february":18,"average":21.0,"march":52,"id":"a67tynej0q8c","geo_precision":"street","december":22,"address":"101 N. 16th","september":16,"fbc county code":"OKFUSKEE","state":"OK"},"type":"Feature","geometry":{"type":"Point","coordinates":[-96.319522,35.431553]}},{"properties":{"november":0,"city":"Weleetka","name":"F4K - Weleetka Elem, Weleetka","no.":6494,"january":3,"geo_score":0.546,"october":0,"delivery date":"Friday, 1st","zip code":"74880","april":0,"february":5,"average":1.5,"march":4,"id":"a67tynae9l8f","geo_precision":"street","december":0,"address":"302 E 6th Street","september":0,"fbc county code":"OKFUSKEE","state":"OK"},"type":"Feature","geometry":{"type":"Point","coordinates":[-96.136783,35.338732]}},{"properties":{"november":8,"city":"Asher","name":"F4K - Asher, Asher","no.":6485,"january":8,"geo_score":0.492,"october":11,"delivery date":"Tuesday, 4th","zip code":"74826","april":0,"february":7,"average":7.13,"march":10,"id":"a67tynpi1gg0","geo_precision":"street","december":5,"address":"201 N. Division","september":8,"fbc county code":"POTAWATOMI","state":"OK"},"type":"Feature","geometry":{"type":"Point","coordinates":[-96.922972,34.99441]}},{"properties":{"november":0,"city":"Dale","name":"F4K - Dale Elementary, Dale","no.":6561,"january":0,"geo_score":0.919,"october":0,"delivery date":"Tuesday, 4th","zip code":"74851","april":0,"february":2,"average":0.75,"march":4,"id":"a67tynf6v90p","geo_precision":"range","december":0,"address":"300 Smith Ave","september":0,"fbc county code":"POTAWATOMI","state":"OK"},"type":"Feature","geometry":{"type":"Point","coordinates":[-97.0452,35.388705]}},{"properties":{"november":27,"city":"Maud","name":"F4K - Maud Elem, Maud","no.":6486,"january":26,"geo_score":0.866,"october":32,"delivery date":"Tuesday, 4th","zip code":"74854","april":17,"february":14,"average":23.5,"march":20,"id":"a67tyndf3r3p","geo_precision":"range","december":26,"address":"410 W Young St","september":26,"fbc county code":"POTAWATOMI","state":"OK"},"type":"Feature","geometry":{"type":"Point","coordinates":[-96.779486,35.133245]}},{"properties":{"november":25,"city":"McLoud","name":"F4K - McLoud Elem, McLoud","no.":6531,"january":18,"geo_score":0.875,"october":26,"delivery date":"Tuesday, 4th","zip code":"74851","april":36,"february":32,"average":19.38,"march":18,"id":"a67tynf4s3pb","geo_precision":"range","december":0,"address":"535 W Park","september":0,"fbc county code":"POTAWATOMI","state":"OK"},"type":"Feature","geometry":{"type":"Point","coordinates":[-97.093472,35.43343]}},{"properties":{"november":36,"city":"Shawnee","name":"F4K - Shawnee ECC, Shawnee","no.":6086,"january":0,"geo_score":0.971,"october":26,"delivery date":"Tuesday, 4th","zip code":"74804-2640","april":25,"february":36,"average":23.25,"march":15,"id":"a67tyner3mmu","geo_precision":"range","december":26,"address":"1831 Airport Dr","september":22,"fbc county code":"POTAWATOMI","state":"OK"},"type":"Feature","geometry":{"type":"Point","coordinates":[-96.93481,35.351689]}},{"properties":{"november":28,"city":"Shawnee","name":"F4K - Horace Mann, Shawnee","no.":6087,"january":14,"geo_score":0.815,"october":38,"delivery date":"Tuesday, 4th","zip code":"74801-7410","april":14,"february":28,"average":25.13,"march":32,"id":"a67tynlbjodf","geo_precision":"range","december":18,"address":"412 N Draper","september":29,"fbc county code":"POTAWATOMI","state":"OK"},"type":"Feature","geometry":{"type":"Point","coordinates":[-96.905479,35.331743]}},{"properties":{"november":16,"city":"Shawnee","name":"F4K - Will Rogers, Shawnee","no.":6139,"january":20,"geo_score":0.619,"october":12,"delivery date":"Tuesday, 4th","zip code":"74804-2966","april":15,"february":27,"average":16.63,"march":20,"id":"a67tynmm9ked","geo_precision":"street","december":15,"address":"2600 N. Union","september":8,"fbc county code":"POTAWATOMI","state":"OK"},"type":"Feature","geometry":{"type":"Point","coordinates":[-96.921068,35.347176]}},{"properties":{"november":50,"city":"Shawnee","name":"F4K - Jefferson, Shawnee","no.":6140,"january":35,"geo_score":0.471,"october":70,"delivery date":"Tuesday, 4th","zip code":"74801-5832","april":46,"february":46,"average":50.88,"march":46,"id":"a67tynpxqv86","geo_precision":"street","december":45,"address":"700 N. Louisa","september":69,"fbc county code":"POTAWATOMI","state":"OK"},"type":"Feature","geometry":{"type":"Point","coordinates":[-96.928649,35.328678]}},{"properties":{"november":65,"city":"Shawnee","name":"F4K - North Rock Creek, Shawne","no.":6327,"january":0,"geo_score":1.0,"october":16,"delivery date":"Tuesday, 4th","zip code":"74804-9301","april":0,"february":0,"average":16.63,"march":28,"id":"a67tyne8115o","geo_precision":"range","december":0,"address":"42400 Garrett's Lake Rd.","september":24,"fbc county code":"POTAWATOMI","state":"OK"},"type":"Feature","geometry":{"type":"Point","coordinates":[-96.903706,35.405447]}},{"properties":{"november":10,"city":"Shawnee","name":"F4K - Pleasant Grove, Shawnee","no.":6328,"january":4,"geo_score":0.476,"october":10,"delivery date":"Tuesday, 4th","zip code":"74801-8146","april":15,"february":10,"average":8.5,"march":9,"id":"a67tyndtr223","geo_precision":"street","december":4,"address":"1927 E. Walnut","september":6,"fbc county code":"POTAWATOMI","state":"OK"},"type":"Feature","geometry":{"type":"Point","coordinates":[-96.910502,35.325458]}},{"properties":{"november":27,"city":"Shawnee","name":"F4K - Bethel, Bethel","no.":6480,"january":18,"geo_score":0.805,"october":27,"delivery date":"Tuesday, 4th","zip code":"74801","april":20,"february":24,"average":22.75,"march":20,"id":"a67tynj10z8s","geo_precision":"street","december":16,"address":"36000 Clear Pond Rd","september":30,"fbc county code":"POTAWATOMI","state":"OK"},"type":"Feature","geometry":{"type":"Point","coordinates":[-97.018525,35.318616]}},{"properties":{"november":0,"city":"Shawnee","name":"F4K - Sequoyah Elem, Shawnee","no.":6579,"january":0,"geo_score":0.688,"october":0,"delivery date":"Tuesday, 4th","zip code":"74801","april":0,"february":0,"average":1.25,"march":10,"id":"a67tynp9zb5u","geo_precision":"street","december":0,"address":"1401 E Independence St","september":0,"fbc county code":"POTAWATOMI","state":"OK"},"type":"Feature","geometry":{"type":"Point","coordinates":[-97.138652,35.34776]}},{"properties":{"november":40,"city":"Tecumseh","name":"F4K - Krouch Elem, Tecumseh","no.":6387,"january":25,"geo_score":0.514,"october":38,"delivery date":"Tuesday, 4th","zip code":"74873-2828","april":25,"february":25,"average":27.13,"march":25,"id":"a67tynl13ka7","geo_precision":"street","december":23,"address":"723 W. Park","september":16,"fbc county code":"POTAWATOMI","state":"OK"},"type":"Feature","geometry":{"type":"Point","coordinates":[-97.054203,35.188587]}},{"properties":{"november":0,"city":"Tecumseh","name":"F4K - Barnard, Tecumseh","no.":6388,"january":0,"geo_score":0.837,"october":0,"delivery date":"Tuesday, 4th","zip code":"74873","april":0,"february":0,"average":0.0,"march":0,"id":"a67tynixsrpq","geo_precision":"range","december":0,"address":"315 E Locust","september":0,"fbc county code":"POTAWATOMI","state":"OK"},"type":"Feature","geometry":{"type":"Point","coordinates":[-96.934077,35.254478]}},{"properties":{"november":0,"city":"Tecumseh","name":"F4K - Cross Timbers, Tecumseh","no.":6389,"january":0,"geo_score":0.837,"october":0,"delivery date":"Tuesday, 4th","zip code":"74873","april":0,"february":0,"average":0.0,"march":0,"id":"a67tynpza92t","geo_precision":"range","december":0,"address":"315 E Locust","september":0,"fbc county code":"POTAWATOMI","state":"OK"},"type":"Feature","geometry":{"type":"Point","coordinates":[-96.934077,35.254478]}},{"properties":{"november":90,"city":"Konawa","name":"F4K - Konawa Elem, Konawa","no.":6495,"january":0,"geo_score":0.576,"october":28,"delivery date":"Wednesday, 3rd","zip code":"74849","april":0,"february":14,"average":25.25,"march":0,"id":"a67tynew91ge","geo_precision":"street","december":0,"address":"701 W South St","september":70,"fbc county code":"SEMINOLE","state":"OK"},"type":"Feature","geometry":{"type":"Point","coordinates":[-96.757622,34.956081]}},{"properties":{"november":10,"city":"Seminole","name":"F4K - Northwood, Seminole","no.":6141,"january":3,"geo_score":0.939,"october":0,"delivery date":"Tuesday, 4th","zip code":"74868-2210","april":23,"february":20,"average":11.0,"march":12,"id":"a67tynk6ypbw","geo_precision":"range","december":10,"address":"1001 Carson Drive","september":10,"fbc county code":"SEMINOLE","state":"OK"},"type":"Feature","geometry":{"type":"Point","coordinates":[-96.682517,35.242893]}},{"properties":{"november":0,"city":"Seminole","name":"F4K - Wilson, Seminole","no.":6142,"january":3,"geo_score":0.333,"october":0,"delivery date":"Tuesday, 4th","zip code":"74686-2810","april":0,"february":0,"average":1.63,"march":0,"id":"a67tynf4zuso","geo_precision":"street","december":10,"address":"1400 N. Harding","september":0,"fbc county code":"SEMINOLE","state":"OK"},"type":"Feature","geometry":{"type":"Point","coordinates":[-96.634791,34.750477]}},{"properties":{"november":29,"city":"Seminole","name":"F4K - Betty L. Smith, Seminole","no.":6219,"january":12,"geo_score":0.53,"october":19,"delivery date":"Tuesday, 4th","zip code":"74868-3160","april":31,"february":23,"average":27.75,"march":34,"id":"a67tynnyh1lo","geo_precision":"street","december":36,"address":"301 N. Timmons","september":38,"fbc county code":"SEMINOLE","state":"OK"},"type":"Feature","geometry":{"type":"Point","coordinates":[-96.677259,35.221866]}},{"properties":{"november":18,"city":"Seminole","name":"F4K - Strother, Seminole","no.":6411,"january":6,"geo_score":0.618,"october":14,"delivery date":"Tuesday, 4th","zip code":"74868","april":12,"february":21,"average":13.38,"march":14,"id":"a67tynk14yd8","geo_precision":"street","december":12,"address":"38085 EW 1140","september":10,"fbc county code":"SEMINOLE","state":"OK"},"type":"Feature","geometry":{"type":"Point","coordinates":[-96.711203,35.260971]}},{"properties":{"november":25,"city":"Seminole","name":"F4K - Varnum Elem, Seminole","no.":6525,"january":18,"geo_score":0.619,"october":26,"delivery date":"Tuesday, 4th","zip code":"74868","april":0,"february":26,"average":15.25,"march":17,"id":"a67tynidd5rw","geo_precision":"street","december":10,"address":"11929 Ns 355","september":0,"fbc county code":"SEMINOLE","state":"OK"},"type":"Feature","geometry":{"type":"Point","coordinates":[-96.653391,35.253457]}},{"properties":{"november":42,"city":"Wewoka","name":"F4K -  Wewoka, Wewoka","no.":6429,"january":54,"geo_score":0.514,"october":0,"delivery date":"Tuesday, 4th","zip code":"74884","april":23,"february":28,"average":25.13,"march":20,"id":"a67tyng7yhc9","geo_precision":"street","december":0,"address":"800 S. Ocheese","september":34,"fbc county code":"SEMINOLE","state":"OK"},"type":"Feature","geometry":{"type":"Point","coordinates":[-96.498198,35.139083]}},{"properties":{"november":19,"city":"Wewoka","name":"F4K - Justice, Wewoka","no.":6440,"january":19,"geo_score":0.493,"october":22,"delivery date":"Tuesday, 4th","zip code":"74884","april":9,"february":24,"average":18.88,"march":19,"id":"a67tyngwubwu","geo_precision":"street","december":19,"address":"36507 EW 130","september":20,"fbc county code":"SEMINOLE","state":"OK"},"type":"Feature","geometry":{"type":"Point","coordinates":[-96.895665,35.507095]}}],"is_temporal":false,"author":{"url":"","metadata":"","contact_name":"","contact_address":"","source":"","contact_phone":""},"source":"","pagination":{"sort":null,"start":0,"total":37,"limit":1000000},"state":"complete","tags":"","published":"2014-08-15T04:14:18-04:00","id":239075}