{"type":"FeatureCollection","data_type":"Dataset","url_type":null,"permissions":[{"permissions":{"download":true,"view":true},"group_id":"everyone"}],"classification":null,"title":"dp$c$vi$its2o1o","count":351,"stream_id":23926,"contributor":{"url":"http://geocommons.com/users/11204","name":"joegravellese"},"data_attributes":null,"calculation_params":null,"icon_link":null,"link":"http://geocommons.com/overlays/23926.json","extent":[-73.4245,0.0,0.0,42.8417],"geometry_types":["point"],"unique_name":null,"name":"dp$c$vi$its2o1o","feature_count":351,"description":"","next_feature":null,"is_raster":false,"short_classification":"Y","stats":{"dpcvisits":{"max":133,"mean":1.1025641025641,"variance":76.3837362637363,"stdev":8.73977895966118,"min":0,"median":0},"lat":{"max":42.841705,"mean":40.950484934473,"variance":54.501192136303,"stdev":7.38249227133378,"min":0.0,"median":42.280037},"long":{"max":0.0,"mean":-69.4318450113961,"variance":157.095149005384,"stdev":12.5337603697128,"min":-73.424525,"median":-71.433299}},"features":[{"properties":{"dpcvisits":0,"id":"a6o5ms98thyu","community":"Abington","lat":42.117629,"state":"Massachusetts","long":-70.956766},"type":"Feature","geometry":{"type":"Point","coordinates":[-70.956766,42.117629]}},{"properties":{"dpcvisits":0,"id":"a6o5msjbcomb","community":"Acton","lat":42.48582,"state":"Massachusetts","long":-71.433299},"type":"Feature","geometry":{"type":"Point","coordinates":[-71.433299,42.48582]}},{"properties":{"dpcvisits":0,"id":"a6o5mscdb8zn","community":"Acushnet","lat":41.682897,"state":"Massachusetts","long":-70.909483},"type":"Feature","geometry":{"type":"Point","coordinates":[-70.909483,41.682897]}},{"properties":{"dpcvisits":0,"id":"a6o5msk943cx","community":"Adams","lat":42.621441,"state":"Massachusetts","long":-73.120377},"type":"Feature","geometry":{"type":"Point","coordinates":[-73.120377,42.621441]}},{"properties":{"dpcvisits":0,"id":"a6o5msf30j7c","community":"Agawam","lat":42.088621,"state":"Massachusetts","long":-72.625272},"type":"Feature","geometry":{"type":"Point","coordinates":[-72.625272,42.088621]}},{"properties":{"dpcvisits":0,"id":"a6o5msgbqq46","community":"Alford","lat":42.236366,"state":"Massachusetts","long":-73.415357},"type":"Feature","geometry":{"type":"Point","coordinates":[-73.415357,42.236366]}},{"properties":{"dpcvisits":0,"id":"a6o5mslsom48","community":"Amesbury","lat":0.0,"state":"Massachusetts","long":0.0},"type":"Feature","geometry":{"type":"Point","coordinates":[0.0,0.0]}},{"properties":{"dpcvisits":0,"id":"a6o5msa33b9c","community":"Amherst","lat":42.375265,"state":"Massachusetts","long":-72.518949},"type":"Feature","geometry":{"type":"Point","coordinates":[-72.518949,42.375265]}},{"properties":{"dpcvisits":0,"id":"a6o5mslotyjl","community":"Andover","lat":42.653565,"state":"Massachusetts","long":-71.136494},"type":"Feature","geometry":{"type":"Point","coordinates":[-71.136494,42.653565]}},{"properties":{"dpcvisits":0,"id":"a6o5msaczdvc","community":"Aquinnah","lat":41.342905,"state":"Massachusetts","long":-70.812889},"type":"Feature","geometry":{"type":"Point","coordinates":[-70.812889,41.342905]}},{"properties":{"dpcvisits":0,"id":"a6o5ms8ltx6a","community":"Arlington","lat":42.416295,"state":"Massachusetts","long":-71.156764},"type":"Feature","geometry":{"type":"Point","coordinates":[-71.156764,42.416295]}},{"properties":{"dpcvisits":0,"id":"a6o5mscd3m00","community":"Ashburnham","lat":42.6358,"state":"Massachusetts","long":-71.908354},"type":"Feature","geometry":{"type":"Point","coordinates":[-71.908354,42.6358]}},{"properties":{"dpcvisits":0,"id":"a6o5msd9wpw4","community":"Ashby","lat":42.681023,"state":"Massachusetts","long":-71.831224},"type":"Feature","geometry":{"type":"Point","coordinates":[-71.831224,42.681023]}},{"properties":{"dpcvisits":0,"id":"a6o5msl4pkkc","community":"Ashfield","lat":42.52616,"state":"Massachusetts","long":-72.790989},"type":"Feature","geometry":{"type":"Point","coordinates":[-72.790989,42.52616]}},{"properties":{"dpcvisits":0,"id":"a6o5msk3fevj","community":"Ashland","lat":42.261303,"state":"Massachusetts","long":-71.465799},"type":"Feature","geometry":{"type":"Point","coordinates":[-71.465799,42.261303]}},{"properties":{"dpcvisits":0,"id":"a6o5msapmayu","community":"Athol","lat":42.593843,"state":"Massachusetts","long":-72.227862},"type":"Feature","geometry":{"type":"Point","coordinates":[-72.227862,42.593843]}},{"properties":{"dpcvisits":0,"id":"a6o5msj4tssy","community":"Attleboro","lat":41.945065,"state":"Massachusetts","long":-71.281094},"type":"Feature","geometry":{"type":"Point","coordinates":[-71.281094,41.945065]}},{"properties":{"dpcvisits":0,"id":"a6o5mskmvyrb","community":"Auburn","lat":42.196208,"state":"Massachusetts","long":-71.833923},"type":"Feature","geometry":{"type":"Point","coordinates":[-71.833923,42.196208]}},{"properties":{"dpcvisits":0,"id":"a6o5msho7oe6","community":"Avon","lat":42.129485,"state":"Massachusetts","long":-71.039024},"type":"Feature","geometry":{"type":"Point","coordinates":[-71.039024,42.129485]}},{"properties":{"dpcvisits":0,"id":"a6o5msd957fo","community":"Ayer","lat":42.558746,"state":"Massachusetts","long":-71.584777},"type":"Feature","geometry":{"type":"Point","coordinates":[-71.584777,42.558746]}},{"properties":{"dpcvisits":0,"id":"a6o5msf2sd9j","community":"Barnstable","lat":41.701941,"state":"Massachusetts","long":-70.304425},"type":"Feature","geometry":{"type":"Point","coordinates":[-70.304425,41.701941]}},{"properties":{"dpcvisits":0,"id":"a6o5ms9d42ak","community":"Barre","lat":42.423189,"state":"Massachusetts","long":-72.108117},"type":"Feature","geometry":{"type":"Point","coordinates":[-72.108117,42.423189]}},{"properties":{"dpcvisits":0,"id":"a6o5msioo4k0","community":"Becket","lat":42.314509,"state":"Massachusetts","long":-73.093892},"type":"Feature","geometry":{"type":"Point","coordinates":[-73.093892,42.314509]}},{"properties":{"dpcvisits":0,"id":"a6o5msci6387","community":"Bedford","lat":42.491891,"state":"Massachusetts","long":-71.281471},"type":"Feature","geometry":{"type":"Point","coordinates":[-71.281471,42.491891]}},{"properties":{"dpcvisits":0,"id":"a6o5msj8px9k","community":"Belchertown","lat":42.277057,"state":"Massachusetts","long":-72.400719},"type":"Feature","geometry":{"type":"Point","coordinates":[-72.400719,42.277057]}},{"properties":{"dpcvisits":0,"id":"a6o5msk1agln","community":"Bellingham","lat":42.08697,"state":"Massachusetts","long":-71.474579},"type":"Feature","geometry":{"type":"Point","coordinates":[-71.474579,42.08697]}},{"properties":{"dpcvisits":0,"id":"a6o5msmjomlp","community":"Belmont","lat":42.396261,"state":"Massachusetts","long":-71.177012},"type":"Feature","geometry":{"type":"Point","coordinates":[-71.177012,42.396261]}},{"properties":{"dpcvisits":0,"id":"a6o5ms81pou0","community":"Berkley","lat":41.846357,"state":"Massachusetts","long":-71.082539},"type":"Feature","geometry":{"type":"Point","coordinates":[-71.082539,41.846357]}},{"properties":{"dpcvisits":0,"id":"a6o5msghqav0","community":"Berlin","lat":42.381375,"state":"Massachusetts","long":-71.637842},"type":"Feature","geometry":{"type":"Point","coordinates":[-71.637842,42.381375]}},{"properties":{"dpcvisits":0,"id":"a6o5msgr7oi8","community":"Bernardston","lat":42.67118,"state":"Massachusetts","long":-72.550444},"type":"Feature","geometry":{"type":"Point","coordinates":[-72.550444,42.67118]}},{"properties":{"dpcvisits":0,"id":"a6o5msapd601","community":"Yarmouth","lat":41.663318,"state":"Massachusetts","long":-70.198987},"type":"Feature","geometry":{"type":"Point","coordinates":[-70.198987,41.663318]}},{"properties":{"dpcvisits":0,"id":"a6o5mse3zxd2","community":"Billerica","lat":42.562968,"state":"Massachusetts","long":-71.270559},"type":"Feature","geometry":{"type":"Point","coordinates":[-71.270559,42.562968]}},{"properties":{"dpcvisits":0,"id":"a6o5mshvtu6k","community":"Blackstone","lat":42.017888,"state":"Massachusetts","long":-71.533494},"type":"Feature","geometry":{"type":"Point","coordinates":[-71.533494,42.017888]}},{"properties":{"dpcvisits":0,"id":"a6o5msg0t01c","community":"Blandford","lat":42.17963,"state":"Massachusetts","long":-72.924829},"type":"Feature","geometry":{"type":"Point","coordinates":[-72.924829,42.17963]}},{"properties":{"dpcvisits":0,"id":"a6o5msg21zbs","community":"Bolton","lat":42.433102,"state":"Massachusetts","long":-71.60772},"type":"Feature","geometry":{"type":"Point","coordinates":[-71.60772,42.433102]}},{"properties":{"dpcvisits":0,"id":"a6o5msnguqgq","community":"Wrentham","lat":42.0655,"state":"Massachusetts","long":-71.329514},"type":"Feature","geometry":{"type":"Point","coordinates":[-71.329514,42.0655]}},{"properties":{"dpcvisits":0,"id":"a6o5msfw9twb","community":"Bourne","lat":41.74264,"state":"Massachusetts","long":-70.588294},"type":"Feature","geometry":{"type":"Point","coordinates":[-70.588294,41.74264]}},{"properties":{"dpcvisits":0,"id":"a6o5msdg7dvt","community":"Worthington","lat":42.4,"state":"Massachusetts","long":-72.937539},"type":"Feature","geometry":{"type":"Point","coordinates":[-72.937539,42.4]}},{"properties":{"dpcvisits":0,"id":"a6o5msbepmhk","community":"Boxford","lat":42.662899,"state":"Massachusetts","long":-70.999054},"type":"Feature","geometry":{"type":"Point","coordinates":[-70.999054,42.662899]}},{"properties":{"dpcvisits":0,"id":"a6o5msnr5x2y","community":"Boylston","lat":42.325474,"state":"Massachusetts","long":-71.753821},"type":"Feature","geometry":{"type":"Point","coordinates":[-71.753821,42.325474]}},{"properties":{"dpcvisits":0,"id":"a6o5msd4llmi","community":"Braintree","lat":42.206391,"state":"Massachusetts","long":-71.004817},"type":"Feature","geometry":{"type":"Point","coordinates":[-71.004817,42.206391]}},{"properties":{"dpcvisits":0,"id":"a6o5msbsvusj","community":"Brewster","lat":41.763835,"state":"Massachusetts","long":-70.074684},"type":"Feature","geometry":{"type":"Point","coordinates":[-70.074684,41.763835]}},{"properties":{"dpcvisits":0,"id":"a6o5msnseu3q","community":"Bridgewater","lat":41.988745,"state":"Massachusetts","long":-70.976994},"type":"Feature","geometry":{"type":"Point","coordinates":[-70.976994,41.988745]}},{"properties":{"dpcvisits":0,"id":"a6o5msc0a61o","community":"Brimfield","lat":42.12199,"state":"Massachusetts","long":-72.204234},"type":"Feature","geometry":{"type":"Point","coordinates":[-72.204234,42.12199]}},{"properties":{"dpcvisits":0,"id":"a6o5msigq9y2","community":"Brockton","lat":42.08317,"state":"Massachusetts","long":-71.017244},"type":"Feature","geometry":{"type":"Point","coordinates":[-71.017244,42.08317]}},{"properties":{"dpcvisits":0,"id":"a6o5msjns2ns","community":"Brookfield","lat":42.21503,"state":"Massachusetts","long":-72.101779},"type":"Feature","geometry":{"type":"Point","coordinates":[-72.101779,42.21503]}},{"properties":{"dpcvisits":0,"id":"a6o5msg596d3","community":"Brookline","lat":42.333473,"state":"Massachusetts","long":-71.120476},"type":"Feature","geometry":{"type":"Point","coordinates":[-71.120476,42.333473]}},{"properties":{"dpcvisits":0,"id":"a6o5mseabcge","community":"Buckland","lat":42.590738,"state":"Massachusetts","long":-72.790017},"type":"Feature","geometry":{"type":"Point","coordinates":[-72.790017,42.590738]}},{"properties":{"dpcvisits":0,"id":"a6o5msmzomkv","community":"Burlington","lat":42.505832,"state":"Massachusetts","long":-71.19376},"type":"Feature","geometry":{"type":"Point","coordinates":[-71.19376,42.505832]}},{"properties":{"dpcvisits":0,"id":"a6o5msdjbhuq","community":"Cambridge","lat":42.36679,"state":"Massachusetts","long":-71.106019},"type":"Feature","geometry":{"type":"Point","coordinates":[-71.106019,42.36679]}},{"properties":{"dpcvisits":0,"id":"a6o5mse28p4a","community":"Canton","lat":42.1592,"state":"Massachusetts","long":-71.144789},"type":"Feature","geometry":{"type":"Point","coordinates":[-71.144789,42.1592]}},{"properties":{"dpcvisits":0,"id":"a6o5msfa0flt","community":"Carlisle","lat":42.52923,"state":"Massachusetts","long":-71.347799},"type":"Feature","geometry":{"type":"Point","coordinates":[-71.347799,42.52923]}},{"properties":{"dpcvisits":0,"id":"a6o5msjxmuic","community":"Carver","lat":41.888457,"state":"Massachusetts","long":-70.768731},"type":"Feature","geometry":{"type":"Point","coordinates":[-70.768731,41.888457]}},{"properties":{"dpcvisits":0,"id":"a6o5msbyp2qc","community":"Charlemont","lat":0.0,"state":"Massachusetts","long":0.0},"type":"Feature","geometry":{"type":"Point","coordinates":[0.0,0.0]}},{"properties":{"dpcvisits":0,"id":"a6o5msfnzs7l","community":"Charlton","lat":42.134705,"state":"Massachusetts","long":-71.969764},"type":"Feature","geometry":{"type":"Point","coordinates":[-71.969764,42.134705]}},{"properties":{"dpcvisits":0,"id":"a6o5msjek5v4","community":"Chatham","lat":41.680971,"state":"Massachusetts","long":-69.958626},"type":"Feature","geometry":{"type":"Point","coordinates":[-69.958626,41.680971]}},{"properties":{"dpcvisits":0,"id":"a6o5ms81v74e","community":"Worcester","lat":42.26299,"state":"Massachusetts","long":-71.802354},"type":"Feature","geometry":{"type":"Point","coordinates":[-71.802354,42.26299]}},{"properties":{"dpcvisits":0,"id":"a6o5msmhvdpo","community":"Chelsea","lat":42.39376,"state":"Massachusetts","long":-71.032369},"type":"Feature","geometry":{"type":"Point","coordinates":[-71.032369,42.39376]}},{"properties":{"dpcvisits":0,"id":"a6o5msf41zl1","community":"Cheshire","lat":42.562046,"state":"Massachusetts","long":-73.162439},"type":"Feature","geometry":{"type":"Point","coordinates":[-73.162439,42.562046]}},{"properties":{"dpcvisits":0,"id":"a6o5msdigcky","community":"Chester","lat":42.280037,"state":"Massachusetts","long":-72.982659},"type":"Feature","geometry":{"type":"Point","coordinates":[-72.982659,42.280037]}},{"properties":{"dpcvisits":0,"id":"a6o5msn8qal0","community":"Chesterfield","lat":42.392127,"state":"Massachusetts","long":-72.84369},"type":"Feature","geometry":{"type":"Point","coordinates":[-72.84369,42.392127]}},{"properties":{"dpcvisits":0,"id":"a6o5ms8eou54","community":"Chicopee","lat":42.14819,"state":"Massachusetts","long":-72.607019},"type":"Feature","geometry":{"type":"Point","coordinates":[-72.607019,42.14819]}},{"properties":{"dpcvisits":0,"id":"a6o5msds2duw","community":"Chilmark","lat":41.342251,"state":"Massachusetts","long":-70.744636},"type":"Feature","geometry":{"type":"Point","coordinates":[-70.744636,41.342251]}},{"properties":{"dpcvisits":0,"id":"a6o5msbwlmfq","community":"Clarksburg","lat":42.711906,"state":"Massachusetts","long":-73.084246},"type":"Feature","geometry":{"type":"Point","coordinates":[-73.084246,42.711906]}},{"properties":{"dpcvisits":0,"id":"a6o5msmy9n8h","community":"Clinton","lat":42.41689,"state":"Massachusetts","long":-71.682379},"type":"Feature","geometry":{"type":"Point","coordinates":[-71.682379,42.41689]}},{"properties":{"dpcvisits":0,"id":"a6o5mskey6xg","community":"Cohasset","lat":42.242495,"state":"Massachusetts","long":-70.802539},"type":"Feature","geometry":{"type":"Point","coordinates":[-70.802539,42.242495]}},{"properties":{"dpcvisits":0,"id":"a6o5msit92l3","community":"Colrain","lat":42.673925,"state":"Massachusetts","long":-72.696739},"type":"Feature","geometry":{"type":"Point","coordinates":[-72.696739,42.673925]}},{"properties":{"dpcvisits":0,"id":"a6o5msm10011","community":"Concord","lat":42.459915,"state":"Massachusetts","long":-71.347799},"type":"Feature","geometry":{"type":"Point","coordinates":[-71.347799,42.459915]}},{"properties":{"dpcvisits":0,"id":"a6o5mslavsas","community":"Conway","lat":42.508778,"state":"Massachusetts","long":-72.697475},"type":"Feature","geometry":{"type":"Point","coordinates":[-72.697475,42.508778]}},{"properties":{"dpcvisits":0,"id":"a6o5msb227vf","community":"Cummington","lat":42.460698,"state":"Massachusetts","long":-72.893501},"type":"Feature","geometry":{"type":"Point","coordinates":[-72.893501,42.460698]}},{"properties":{"dpcvisits":0,"id":"a6o5mskcglwq","community":"Dalton","lat":42.473229,"state":"Massachusetts","long":-73.16971},"type":"Feature","geometry":{"type":"Point","coordinates":[-73.16971,42.473229]}},{"properties":{"dpcvisits":0,"id":"a6o5ms8qf3xg","community":"Danvers","lat":0.0,"state":"Massachusetts","long":0.0},"type":"Feature","geometry":{"type":"Point","coordinates":[0.0,0.0]}},{"properties":{"dpcvisits":0,"id":"a6o5msgtxofb","community":"Dartmouth","lat":41.628219,"state":"Massachusetts","long":-70.966035},"type":"Feature","geometry":{"type":"Point","coordinates":[-70.966035,41.628219]}},{"properties":{"dpcvisits":0,"id":"a6o5msiijz8g","community":"Dedham","lat":42.246602,"state":"Massachusetts","long":-71.173771},"type":"Feature","geometry":{"type":"Point","coordinates":[-71.173771,42.246602]}},{"properties":{"dpcvisits":0,"id":"a6o5ms9stj5q","community":"Deerfield","lat":42.54247,"state":"Massachusetts","long":-72.601999},"type":"Feature","geometry":{"type":"Point","coordinates":[-72.601999,42.54247]}},{"properties":{"dpcvisits":0,"id":"a6o5ms8rc0bv","community":"Woburn","lat":42.479195,"state":"Massachusetts","long":-71.150604},"type":"Feature","geometry":{"type":"Point","coordinates":[-71.150604,42.479195]}},{"properties":{"dpcvisits":0,"id":"a6o5msmzop16","community":"Dighton","lat":41.826441,"state":"Massachusetts","long":-71.121069},"type":"Feature","geometry":{"type":"Point","coordinates":[-71.121069,41.826441]}},{"properties":{"dpcvisits":0,"id":"a6o5msf8tqqx","community":"Douglas","lat":42.06591,"state":"Massachusetts","long":-71.709603},"type":"Feature","geometry":{"type":"Point","coordinates":[-71.709603,42.06591]}},{"properties":{"dpcvisits":0,"id":"a6o5msa0al45","community":"Dover","lat":42.244285,"state":"Massachusetts","long":-71.280104},"type":"Feature","geometry":{"type":"Point","coordinates":[-71.280104,42.244285]}},{"properties":{"dpcvisits":0,"id":"a6o5msbk713i","community":"Dracut","lat":42.670488,"state":"Massachusetts","long":-71.300354},"type":"Feature","geometry":{"type":"Point","coordinates":[-71.300354,42.670488]}},{"properties":{"dpcvisits":0,"id":"a6o5msdj1jap","community":"Dudley","lat":42.043785,"state":"Massachusetts","long":-71.890894},"type":"Feature","geometry":{"type":"Point","coordinates":[-71.890894,42.043785]}},{"properties":{"dpcvisits":0,"id":"a6o5msd1ykea","community":"Dunstable","lat":42.67442,"state":"Massachusetts","long":-71.481754},"type":"Feature","geometry":{"type":"Point","coordinates":[-71.481754,42.67442]}},{"properties":{"dpcvisits":0,"id":"a6o5msi5izha","community":"Duxbury","lat":42.037296,"state":"Massachusetts","long":-70.689583},"type":"Feature","geometry":{"type":"Point","coordinates":[-70.689583,42.037296]}},{"properties":{"dpcvisits":0,"id":"a6o5mscejb68","community":"East Bridgewater","lat":42.029633,"state":"Massachusetts","long":-70.955279},"type":"Feature","geometry":{"type":"Point","coordinates":[-70.955279,42.029633]}},{"properties":{"dpcvisits":0,"id":"a6o5mscvg8cb","community":"East Brookfield","lat":42.225415,"state":"Massachusetts","long":-72.046649},"type":"Feature","geometry":{"type":"Point","coordinates":[-72.046649,42.225415]}},{"properties":{"dpcvisits":0,"id":"a6o5mshulwsb","community":"East Longmeadow","lat":42.06488,"state":"Massachusetts","long":-72.513064},"type":"Feature","geometry":{"type":"Point","coordinates":[-72.513064,42.06488]}},{"properties":{"dpcvisits":0,"id":"a6o5msf0ljg2","community":"Eastham","lat":41.830042,"state":"Massachusetts","long":-69.977255},"type":"Feature","geometry":{"type":"Point","coordinates":[-69.977255,41.830042]}},{"properties":{"dpcvisits":0,"id":"a6o5msfnnko6","community":"Easthampton","lat":42.270792,"state":"Massachusetts","long":-72.672184},"type":"Feature","geometry":{"type":"Point","coordinates":[-72.672184,42.270792]}},{"properties":{"dpcvisits":0,"id":"a6o5ms8wuvsd","community":"Easton","lat":42.074712,"state":"Massachusetts","long":-71.088839},"type":"Feature","geometry":{"type":"Point","coordinates":[-71.088839,42.074712]}},{"properties":{"dpcvisits":0,"id":"a6o5msd226hi","community":"Edgartown","lat":41.39088,"state":"Massachusetts","long":-70.520649},"type":"Feature","geometry":{"type":"Point","coordinates":[-70.520649,41.39088]}},{"properties":{"dpcvisits":0,"id":"a6o5msjirhlq","community":"Egremont","lat":42.190207,"state":"Massachusetts","long":-73.424525},"type":"Feature","geometry":{"type":"Point","coordinates":[-73.424525,42.190207]}},{"properties":{"dpcvisits":0,"id":"a6o5msem8ycv","community":"Erving","lat":42.599655,"state":"Massachusetts","long":-72.398644},"type":"Feature","geometry":{"type":"Point","coordinates":[-72.398644,42.599655]}},{"properties":{"dpcvisits":0,"id":"a6o5msj6ma5j","community":"Essex","lat":42.631919,"state":"Massachusetts","long":-70.783106},"type":"Feature","geometry":{"type":"Point","coordinates":[-70.783106,42.631919]}},{"properties":{"dpcvisits":0,"id":"a6o5msmanb5s","community":"Everett","lat":42.40816,"state":"Massachusetts","long":-71.054484},"type":"Feature","geometry":{"type":"Point","coordinates":[-71.054484,42.40816]}},{"properties":{"dpcvisits":0,"id":"a6o5msgn9g5l","community":"Fairhaven","lat":41.635956,"state":"Massachusetts","long":-70.903478},"type":"Feature","geometry":{"type":"Point","coordinates":[-70.903478,41.635956]}},{"properties":{"dpcvisits":0,"id":"a6o5ms8zr8rm","community":"Fall River","lat":41.69735,"state":"Massachusetts","long":-71.143649},"type":"Feature","geometry":{"type":"Point","coordinates":[-71.143649,41.69735]}},{"properties":{"dpcvisits":0,"id":"a6o5mse5g4li","community":"Falmouth","lat":41.552355,"state":"Massachusetts","long":-70.617479},"type":"Feature","geometry":{"type":"Point","coordinates":[-70.617479,41.552355]}},{"properties":{"dpcvisits":0,"id":"a6o5msn3ke0d","community":"Fitchburg","lat":42.58176,"state":"Massachusetts","long":-71.792259},"type":"Feature","geometry":{"type":"Point","coordinates":[-71.792259,42.58176]}},{"properties":{"dpcvisits":0,"id":"a6o5msh2rgey","community":"Florida","lat":0.0,"state":"Massachusetts","long":0.0},"type":"Feature","geometry":{"type":"Point","coordinates":[0.0,0.0]}},{"properties":{"dpcvisits":0,"id":"a6o5msgvdzvx","community":"Foxborough","lat":42.065469,"state":"Massachusetts","long":-71.248918},"type":"Feature","geometry":{"type":"Point","coordinates":[-71.248918,42.065469]}},{"properties":{"dpcvisits":0,"id":"a6o5msics2t7","community":"Framingham","lat":42.279519,"state":"Massachusetts","long":-71.416519},"type":"Feature","geometry":{"type":"Point","coordinates":[-71.416519,42.279519]}},{"properties":{"dpcvisits":0,"id":"a6o5mshp0gda","community":"Franklin","lat":42.085102,"state":"Massachusetts","long":-71.399133},"type":"Feature","geometry":{"type":"Point","coordinates":[-71.399133,42.085102]}},{"properties":{"dpcvisits":0,"id":"a6o5mscqfgt1","community":"Freetown","lat":41.79796,"state":"Massachusetts","long":-71.069111},"type":"Feature","geometry":{"type":"Point","coordinates":[-71.069111,41.79796]}},{"properties":{"dpcvisits":0,"id":"a6o5msic07hu","community":"Gardner","lat":42.57384,"state":"Massachusetts","long":-71.995389},"type":"Feature","geometry":{"type":"Point","coordinates":[-71.995389,42.57384]}},{"properties":{"dpcvisits":0,"id":"a6o5msdw6r4h","community":"Georgetown","lat":0.0,"state":"Massachusetts","long":0.0},"type":"Feature","geometry":{"type":"Point","coordinates":[0.0,0.0]}},{"properties":{"dpcvisits":0,"id":"a6o5msdbd582","community":"Gill","lat":42.641155,"state":"Massachusetts","long":-72.498858},"type":"Feature","geometry":{"type":"Point","coordinates":[-72.498858,42.641155]}},{"properties":{"dpcvisits":0,"id":"a6o5msdy4kwc","community":"Gloucester","lat":42.614353,"state":"Massachusetts","long":-70.66811},"type":"Feature","geometry":{"type":"Point","coordinates":[-70.66811,42.614353]}},{"properties":{"dpcvisits":0,"id":"a6o5msiwrx8y","community":"Goshen","lat":42.440925,"state":"Massachusetts","long":-72.799904},"type":"Feature","geometry":{"type":"Point","coordinates":[-72.799904,42.440925]}},{"properties":{"dpcvisits":0,"id":"a6o5msaala86","community":"Gosnold","lat":41.424122,"state":"Massachusetts","long":-70.931901},"type":"Feature","geometry":{"type":"Point","coordinates":[-70.931901,41.424122]}},{"properties":{"dpcvisits":0,"id":"a6o5msluu7hw","community":"Winthrop","lat":42.376845,"state":"Massachusetts","long":-70.984259},"type":"Feature","geometry":{"type":"Point","coordinates":[-70.984259,42.376845]}},{"properties":{"dpcvisits":0,"id":"a6o5msgmazjf","community":"Granby","lat":42.257751,"state":"Massachusetts","long":-72.516213},"type":"Feature","geometry":{"type":"Point","coordinates":[-72.516213,42.257751]}},{"properties":{"dpcvisits":0,"id":"a6o5ms9peycd","community":"Granville","lat":42.067181,"state":"Massachusetts","long":-72.879893},"type":"Feature","geometry":{"type":"Point","coordinates":[-72.879893,42.067181]}},{"properties":{"dpcvisits":0,"id":"a6o5ms7w5ldw","community":"Great Barrington","lat":42.193255,"state":"Massachusetts","long":-73.363339},"type":"Feature","geometry":{"type":"Point","coordinates":[-73.363339,42.193255]}},{"properties":{"dpcvisits":0,"id":"a6o5msb9u8do","community":"Greenfield","lat":42.587697,"state":"Massachusetts","long":-72.600876},"type":"Feature","geometry":{"type":"Point","coordinates":[-72.600876,42.587697]}},{"properties":{"dpcvisits":0,"id":"a6o5msl692by","community":"Groton","lat":42.608505,"state":"Massachusetts","long":-71.571599},"type":"Feature","geometry":{"type":"Point","coordinates":[-71.571599,42.608505]}},{"properties":{"dpcvisits":0,"id":"a6o5msl11trs","community":"Groveland","lat":42.767048,"state":"Massachusetts","long":-71.025665},"type":"Feature","geometry":{"type":"Point","coordinates":[-71.025665,42.767048]}},{"properties":{"dpcvisits":0,"id":"a6o5msf7xksr","community":"Hadley","lat":42.34334,"state":"Massachusetts","long":-72.589234},"type":"Feature","geometry":{"type":"Point","coordinates":[-72.589234,42.34334]}},{"properties":{"dpcvisits":0,"id":"a6o5msitoxug","community":"Halifax","lat":41.991105,"state":"Massachusetts","long":-70.859904},"type":"Feature","geometry":{"type":"Point","coordinates":[-70.859904,41.991105]}},{"properties":{"dpcvisits":0,"id":"a6o5mslqplal","community":"Hamilton","lat":42.61984,"state":"Massachusetts","long":-70.855219},"type":"Feature","geometry":{"type":"Point","coordinates":[-70.855219,42.61984]}},{"properties":{"dpcvisits":0,"id":"a6o5msjmryq5","community":"Hampden","lat":42.063865,"state":"Massachusetts","long":-72.414504},"type":"Feature","geometry":{"type":"Point","coordinates":[-72.414504,42.063865]}},{"properties":{"dpcvisits":0,"id":"a6o5msfr47z0","community":"Hancock","lat":42.5476,"state":"Massachusetts","long":-73.312214},"type":"Feature","geometry":{"type":"Point","coordinates":[-73.312214,42.5476]}},{"properties":{"dpcvisits":0,"id":"a6o5msd64wws","community":"Hanover","lat":42.1165,"state":"Massachusetts","long":-70.844214},"type":"Feature","geometry":{"type":"Point","coordinates":[-70.844214,42.1165]}},{"properties":{"dpcvisits":0,"id":"a6o5msbfvb4u","community":"Hanson","lat":42.065726,"state":"Massachusetts","long":-70.867866},"type":"Feature","geometry":{"type":"Point","coordinates":[-70.867866,42.065726]}},{"properties":{"dpcvisits":0,"id":"a6o5msjxyfzc","community":"Hardwick","lat":42.366752,"state":"Massachusetts","long":-72.184923},"type":"Feature","geometry":{"type":"Point","coordinates":[-72.184923,42.366752]}},{"properties":{"dpcvisits":0,"id":"a6o5msi6eg5n","community":"Harvard","lat":42.504323,"state":"Massachusetts","long":-71.584528},"type":"Feature","geometry":{"type":"Point","coordinates":[-71.584528,42.504323]}},{"properties":{"dpcvisits":0,"id":"a6o5msa8152h","community":"Harwich","lat":41.68627,"state":"Massachusetts","long":-70.073419},"type":"Feature","geometry":{"type":"Point","coordinates":[-70.073419,41.68627]}},{"properties":{"dpcvisits":0,"id":"a6o5msilsm7u","community":"Hatfield","lat":42.371751,"state":"Massachusetts","long":-72.596435},"type":"Feature","geometry":{"type":"Point","coordinates":[-72.596435,42.371751]}},{"properties":{"dpcvisits":0,"id":"a6o5msgy1hm1","community":"Haverhill","lat":42.777539,"state":"Massachusetts","long":-71.076796},"type":"Feature","geometry":{"type":"Point","coordinates":[-71.076796,42.777539]}},{"properties":{"dpcvisits":0,"id":"a6o5mshqzrao","community":"Hawley","lat":42.598988,"state":"Massachusetts","long":-72.914629},"type":"Feature","geometry":{"type":"Point","coordinates":[-72.914629,42.598988]}},{"properties":{"dpcvisits":0,"id":"a6o5msdps46u","community":"Heath","lat":42.673585,"state":"Massachusetts","long":-72.821574},"type":"Feature","geometry":{"type":"Point","coordinates":[-72.821574,42.673585]}},{"properties":{"dpcvisits":0,"id":"a6o5ms9gzc02","community":"Hingham","lat":42.236795,"state":"Massachusetts","long":-70.874852},"type":"Feature","geometry":{"type":"Point","coordinates":[-70.874852,42.236795]}},{"properties":{"dpcvisits":0,"id":"a6o5msi7v0i0","community":"Hinsdale","lat":42.437831,"state":"Massachusetts","long":-73.123459},"type":"Feature","geometry":{"type":"Point","coordinates":[-73.123459,42.437831]}},{"properties":{"dpcvisits":0,"id":"a6o5mslbefns","community":"Holbrook","lat":42.156065,"state":"Massachusetts","long":-71.008664},"type":"Feature","geometry":{"type":"Point","coordinates":[-71.008664,42.156065]}},{"properties":{"dpcvisits":0,"id":"a6o5msdiqpye","community":"Holden","lat":42.350784,"state":"Massachusetts","long":-71.862691},"type":"Feature","geometry":{"type":"Point","coordinates":[-71.862691,42.350784]}},{"properties":{"dpcvisits":0,"id":"a6o5msm1w1an","community":"Holland","lat":42.065844,"state":"Massachusetts","long":-72.160077},"type":"Feature","geometry":{"type":"Point","coordinates":[-72.160077,42.065844]}},{"properties":{"dpcvisits":0,"id":"a6o5mscagh33","community":"Holliston","lat":42.20204,"state":"Massachusetts","long":-71.428964},"type":"Feature","geometry":{"type":"Point","coordinates":[-71.428964,42.20204]}},{"properties":{"dpcvisits":0,"id":"a6o5msfqs29t","community":"Holyoke","lat":42.206965,"state":"Massachusetts","long":-72.607434},"type":"Feature","geometry":{"type":"Point","coordinates":[-72.607434,42.206965]}},{"properties":{"dpcvisits":0,"id":"a6o5msftrmt8","community":"Hopedale","lat":42.12896,"state":"Massachusetts","long":-71.539579},"type":"Feature","geometry":{"type":"Point","coordinates":[-71.539579,42.12896]}},{"properties":{"dpcvisits":0,"id":"a6o5mse4rqwf","community":"Windsor","lat":42.51099,"state":"Massachusetts","long":-73.055874},"type":"Feature","geometry":{"type":"Point","coordinates":[-73.055874,42.51099]}},{"properties":{"dpcvisits":0,"id":"a6o5ms9z5nql","community":"Hubbardston","lat":42.475905,"state":"Massachusetts","long":-72.007779},"type":"Feature","geometry":{"type":"Point","coordinates":[-72.007779,42.475905]}},{"properties":{"dpcvisits":0,"id":"a6o5mskrqs3u","community":"Hudson","lat":42.39117,"state":"Massachusetts","long":-71.567684},"type":"Feature","geometry":{"type":"Point","coordinates":[-71.567684,42.39117]}},{"properties":{"dpcvisits":0,"id":"a6o5msetkyky","community":"Hull","lat":42.271425,"state":"Massachusetts","long":-70.857724},"type":"Feature","geometry":{"type":"Point","coordinates":[-70.857724,42.271425]}},{"properties":{"dpcvisits":0,"id":"a6o5msaclzy6","community":"Huntington","lat":42.232299,"state":"Massachusetts","long":-72.878728},"type":"Feature","geometry":{"type":"Point","coordinates":[-72.878728,42.232299]}},{"properties":{"dpcvisits":0,"id":"a6o5msf00g7i","community":"Ipswich","lat":42.68049,"state":"Massachusetts","long":-70.833006},"type":"Feature","geometry":{"type":"Point","coordinates":[-70.833006,42.68049]}},{"properties":{"dpcvisits":0,"id":"a6o5ms7wkjmk","community":"Kingston","lat":41.993707,"state":"Massachusetts","long":-70.731936},"type":"Feature","geometry":{"type":"Point","coordinates":[-70.731936,41.993707]}},{"properties":{"dpcvisits":0,"id":"a6o5msjqjg2j","community":"Lakeville","lat":41.850813,"state":"Massachusetts","long":-70.949891},"type":"Feature","geometry":{"type":"Point","coordinates":[-70.949891,41.850813]}},{"properties":{"dpcvisits":0,"id":"a6o5ms9pab31","community":"Lancaster","lat":42.455025,"state":"Massachusetts","long":-71.673579},"type":"Feature","geometry":{"type":"Point","coordinates":[-71.673579,42.455025]}},{"properties":{"dpcvisits":0,"id":"a6o5msko3irr","community":"Lanesborough","lat":42.528483,"state":"Massachusetts","long":-73.228334},"type":"Feature","geometry":{"type":"Point","coordinates":[-73.228334,42.528483]}},{"properties":{"dpcvisits":0,"id":"a6o5mseu32l8","community":"Lawrence","lat":42.710328,"state":"Massachusetts","long":-71.161244},"type":"Feature","geometry":{"type":"Point","coordinates":[-71.161244,42.710328]}},{"properties":{"dpcvisits":0,"id":"a6o5msn0lebi","community":"Lee","lat":42.305298,"state":"Massachusetts","long":-73.249255},"type":"Feature","geometry":{"type":"Point","coordinates":[-73.249255,42.305298]}},{"properties":{"dpcvisits":0,"id":"a6o5msj311vh","community":"Leicester","lat":42.246395,"state":"Massachusetts","long":-71.906829},"type":"Feature","geometry":{"type":"Point","coordinates":[-71.906829,42.246395]}},{"properties":{"dpcvisits":0,"id":"a6o5msh317mi","community":"Lenox","lat":42.356468,"state":"Massachusetts","long":-73.284221},"type":"Feature","geometry":{"type":"Point","coordinates":[-73.284221,42.356468]}},{"properties":{"dpcvisits":0,"id":"a6o5msei09c1","community":"Leominster","lat":42.52642,"state":"Massachusetts","long":-71.759614},"type":"Feature","geometry":{"type":"Point","coordinates":[-71.759614,42.52642]}},{"properties":{"dpcvisits":0,"id":"a6o5ms90513p","community":"Leverett","lat":42.46472,"state":"Massachusetts","long":-72.498133},"type":"Feature","geometry":{"type":"Point","coordinates":[-72.498133,42.46472]}},{"properties":{"dpcvisits":0,"id":"a6o5msgkdfi7","community":"Lexington","lat":42.446319,"state":"Massachusetts","long":-71.223751},"type":"Feature","geometry":{"type":"Point","coordinates":[-71.223751,42.446319]}},{"properties":{"dpcvisits":0,"id":"a6o5msfexyzg","community":"Leyden","lat":42.701017,"state":"Massachusetts","long":-72.63149},"type":"Feature","geometry":{"type":"Point","coordinates":[-72.63149,42.701017]}},{"properties":{"dpcvisits":0,"id":"a6o5mskuy1s6","community":"Lincoln","lat":42.414105,"state":"Massachusetts","long":-71.325684},"type":"Feature","geometry":{"type":"Point","coordinates":[-71.325684,42.414105]}},{"properties":{"dpcvisits":0,"id":"a6o5mskivufx","community":"Littleton","lat":42.538175,"state":"Massachusetts","long":-71.484071},"type":"Feature","geometry":{"type":"Point","coordinates":[-71.484071,42.538175]}},{"properties":{"dpcvisits":0,"id":"a6o5msg6pk4f","community":"Longmeadow","lat":42.05022,"state":"Massachusetts","long":-72.579794},"type":"Feature","geometry":{"type":"Point","coordinates":[-72.579794,42.05022]}},{"properties":{"dpcvisits":0,"id":"a6o5ms9dxf7y","community":"Lowell","lat":42.64589,"state":"Massachusetts","long":-71.312844},"type":"Feature","geometry":{"type":"Point","coordinates":[-71.312844,42.64589]}},{"properties":{"dpcvisits":0,"id":"a6o5mse6uayy","community":"Ludlow","lat":42.170423,"state":"Massachusetts","long":-72.465173},"type":"Feature","geometry":{"type":"Point","coordinates":[-72.465173,42.170423]}},{"properties":{"dpcvisits":0,"id":"a6o5msdowzzh","community":"Lunenburg","lat":42.595571,"state":"Massachusetts","long":-71.724989},"type":"Feature","geometry":{"type":"Point","coordinates":[-71.724989,42.595571]}},{"properties":{"dpcvisits":0,"id":"a6o5msenpflk","community":"Lynn","lat":42.4637,"state":"Massachusetts","long":-70.950219},"type":"Feature","geometry":{"type":"Point","coordinates":[-70.950219,42.4637]}},{"properties":{"dpcvisits":0,"id":"a6o5mseow0vh","community":"Lynnfield","lat":42.538625,"state":"Massachusetts","long":-71.046889},"type":"Feature","geometry":{"type":"Point","coordinates":[-71.046889,42.538625]}},{"properties":{"dpcvisits":0,"id":"a6o5mskqlut9","community":"Malden","lat":42.426925,"state":"Massachusetts","long":-71.073469},"type":"Feature","geometry":{"type":"Point","coordinates":[-71.073469,42.426925]}},{"properties":{"dpcvisits":0,"id":"a6o5msijj0hk","community":"Manchester-by-the-Sea","lat":0.0,"state":"Massachusetts","long":0.0},"type":"Feature","geometry":{"type":"Point","coordinates":[0.0,0.0]}},{"properties":{"dpcvisits":0,"id":"a6o5mso02i0k","community":"Mansfield","lat":42.024238,"state":"Massachusetts","long":-71.219119},"type":"Feature","geometry":{"type":"Point","coordinates":[-71.219119,42.024238]}},{"properties":{"dpcvisits":0,"id":"a6o5msndlvfm","community":"Marblehead","lat":42.497339,"state":"Massachusetts","long":-70.861435},"type":"Feature","geometry":{"type":"Point","coordinates":[-70.861435,42.497339]}},{"properties":{"dpcvisits":0,"id":"a6o5msc9onbb","community":"Marion","lat":41.70296,"state":"Massachusetts","long":-70.766629},"type":"Feature","geometry":{"type":"Point","coordinates":[-70.766629,41.70296]}},{"properties":{"dpcvisits":0,"id":"a6o5msc3k554","community":"Marlborough","lat":42.346806,"state":"Massachusetts","long":-71.547991},"type":"Feature","geometry":{"type":"Point","coordinates":[-71.547991,42.346806]}},{"properties":{"dpcvisits":0,"id":"a6o5msavn9xc","community":"Marshfield","lat":42.091211,"state":"Massachusetts","long":-70.710402},"type":"Feature","geometry":{"type":"Point","coordinates":[-70.710402,42.091211]}},{"properties":{"dpcvisits":0,"id":"a6o5msd41slw","community":"Mashpee","lat":41.648345,"state":"Massachusetts","long":-70.481294},"type":"Feature","geometry":{"type":"Point","coordinates":[-70.481294,41.648345]}},{"properties":{"dpcvisits":0,"id":"a6o5mshptb9c","community":"Mattapoisett","lat":41.65912,"state":"Massachusetts","long":-70.816779},"type":"Feature","geometry":{"type":"Point","coordinates":[-70.816779,41.65912]}},{"properties":{"dpcvisits":0,"id":"a6o5msk4upr7","community":"Maynard","lat":42.430123,"state":"Massachusetts","long":-71.461551},"type":"Feature","geometry":{"type":"Point","coordinates":[-71.461551,42.430123]}},{"properties":{"dpcvisits":0,"id":"a6o5msh8b6dd","community":"Medfield","lat":42.186815,"state":"Massachusetts","long":-71.304999},"type":"Feature","geometry":{"type":"Point","coordinates":[-71.304999,42.186815]}},{"properties":{"dpcvisits":0,"id":"a6o5msel6x84","community":"Medford","lat":42.41985,"state":"Massachusetts","long":-71.108724},"type":"Feature","geometry":{"type":"Point","coordinates":[-71.108724,42.41985]}},{"properties":{"dpcvisits":0,"id":"a6o5msdsc3oj","community":"Medway","lat":42.14039,"state":"Massachusetts","long":-71.398534},"type":"Feature","geometry":{"type":"Point","coordinates":[-71.398534,42.14039]}},{"properties":{"dpcvisits":0,"id":"a6o5ms8sgv08","community":"Melrose","lat":0.0,"state":"Massachusetts","long":0.0},"type":"Feature","geometry":{"type":"Point","coordinates":[0.0,0.0]}},{"properties":{"dpcvisits":0,"id":"a6o5msbltiv9","community":"Mendon","lat":42.105168,"state":"Massachusetts","long":-71.55117},"type":"Feature","geometry":{"type":"Point","coordinates":[-71.55117,42.105168]}},{"properties":{"dpcvisits":0,"id":"a6o5msdmb3z2","community":"Merrimac","lat":42.833174,"state":"Massachusetts","long":-71.001948},"type":"Feature","geometry":{"type":"Point","coordinates":[-71.001948,42.833174]}},{"properties":{"dpcvisits":0,"id":"a6o5msbnxexz","community":"Methuen","lat":42.73011,"state":"Massachusetts","long":-71.183679},"type":"Feature","geometry":{"type":"Point","coordinates":[-71.183679,42.73011]}},{"properties":{"dpcvisits":0,"id":"a6o5msnzp9lc","community":"Middleborough","lat":41.89442,"state":"Massachusetts","long":-70.906864},"type":"Feature","geometry":{"type":"Point","coordinates":[-70.906864,41.89442]}},{"properties":{"dpcvisits":0,"id":"a6o5msaotqnu","community":"Middlefield","lat":42.344959,"state":"Massachusetts","long":-73.010932},"type":"Feature","geometry":{"type":"Point","coordinates":[-73.010932,42.344959]}},{"properties":{"dpcvisits":0,"id":"a6o5ms9uraee","community":"Middleton","lat":42.59191,"state":"Massachusetts","long":-71.014034},"type":"Feature","geometry":{"type":"Point","coordinates":[-71.014034,42.59191]}},{"properties":{"dpcvisits":0,"id":"a6o5msm0pohb","community":"Milford","lat":42.142995,"state":"Massachusetts","long":-71.516544},"type":"Feature","geometry":{"type":"Point","coordinates":[-71.516544,42.142995]}},{"properties":{"dpcvisits":0,"id":"a6o5msbqd0wq","community":"Millbury","lat":42.18923,"state":"Massachusetts","long":-71.762188},"type":"Feature","geometry":{"type":"Point","coordinates":[-71.762188,42.18923]}},{"properties":{"dpcvisits":0,"id":"a6o5msln6kgl","community":"Winchester","lat":42.45302,"state":"Massachusetts","long":-71.134961},"type":"Feature","geometry":{"type":"Point","coordinates":[-71.134961,42.45302]}},{"properties":{"dpcvisits":0,"id":"a6o5msj7zm50","community":"Millville","lat":42.02711,"state":"Massachusetts","long":-71.580719},"type":"Feature","geometry":{"type":"Point","coordinates":[-71.580719,42.02711]}},{"properties":{"dpcvisits":0,"id":"a6o5ms891zi5","community":"Milton","lat":42.253485,"state":"Massachusetts","long":-71.079157},"type":"Feature","geometry":{"type":"Point","coordinates":[-71.079157,42.253485]}},{"properties":{"dpcvisits":0,"id":"a6o5msd9t0b6","community":"Monroe","lat":42.722267,"state":"Massachusetts","long":-72.941326},"type":"Feature","geometry":{"type":"Point","coordinates":[-72.941326,42.722267]}},{"properties":{"dpcvisits":0,"id":"a6o5msm0ked1","community":"Monson","lat":42.098955,"state":"Massachusetts","long":-72.315099},"type":"Feature","geometry":{"type":"Point","coordinates":[-72.315099,42.098955]}},{"properties":{"dpcvisits":0,"id":"a6o5msb5vkfg","community":"Montague","lat":42.53281,"state":"Massachusetts","long":-72.531929},"type":"Feature","geometry":{"type":"Point","coordinates":[-72.531929,42.53281]}},{"properties":{"dpcvisits":0,"id":"a6o5ms944p8g","community":"Monterey","lat":42.179452,"state":"Massachusetts","long":-73.213078},"type":"Feature","geometry":{"type":"Point","coordinates":[-73.213078,42.179452]}},{"properties":{"dpcvisits":0,"id":"a6o5msiv2w4b","community":"Montgomery","lat":0.0,"state":"Massachusetts","long":0.0},"type":"Feature","geometry":{"type":"Point","coordinates":[0.0,0.0]}},{"properties":{"dpcvisits":0,"id":"a6o5msnlpjxu","community":"Mount Washington","lat":42.2429,"state":"Massachusetts","long":-73.055649},"type":"Feature","geometry":{"type":"Point","coordinates":[-73.055649,42.2429]}},{"properties":{"dpcvisits":0,"id":"a6o5ms8vzex4","community":"Nahant","lat":42.424209,"state":"Massachusetts","long":-70.914507},"type":"Feature","geometry":{"type":"Point","coordinates":[-70.914507,42.424209]}},{"properties":{"dpcvisits":0,"id":"a6o5mskqivp7","community":"Nantucket","lat":41.285215,"state":"Massachusetts","long":-70.099329},"type":"Feature","geometry":{"type":"Point","coordinates":[-70.099329,41.285215]}},{"properties":{"dpcvisits":0,"id":"a6o5msnt12h0","community":"Natick","lat":0.0,"state":"Massachusetts","long":0.0},"type":"Feature","geometry":{"type":"Point","coordinates":[0.0,0.0]}},{"properties":{"dpcvisits":0,"id":"a6o5mskcsgz5","community":"Needham","lat":0.0,"state":"Massachusetts","long":0.0},"type":"Feature","geometry":{"type":"Point","coordinates":[0.0,0.0]}},{"properties":{"dpcvisits":0,"id":"a6o5msby4jrl","community":"New Ashford","lat":42.604072,"state":"Massachusetts","long":-73.242411},"type":"Feature","geometry":{"type":"Point","coordinates":[-73.242411,42.604072]}},{"properties":{"dpcvisits":0,"id":"a6o5msnxyku8","community":"New Bedford","lat":41.637655,"state":"Massachusetts","long":-70.930864},"type":"Feature","geometry":{"type":"Point","coordinates":[-70.930864,41.637655]}},{"properties":{"dpcvisits":0,"id":"a6o5mscr39hv","community":"New Braintree","lat":42.31797,"state":"Massachusetts","long":-72.121924},"type":"Feature","geometry":{"type":"Point","coordinates":[-72.121924,42.31797]}},{"properties":{"dpcvisits":0,"id":"a6o5msa7qvy3","community":"New Marlborough","lat":42.344792,"state":"Massachusetts","long":-71.552841},"type":"Feature","geometry":{"type":"Point","coordinates":[-71.552841,42.344792]}},{"properties":{"dpcvisits":0,"id":"a6o5mseru5f8","community":"New Salem","lat":42.501676,"state":"Massachusetts","long":-72.331924},"type":"Feature","geometry":{"type":"Point","coordinates":[-72.331924,42.501676]}},{"properties":{"dpcvisits":0,"id":"a6o5ms8ebbco","community":"Newbury","lat":42.797515,"state":"Massachusetts","long":-70.861404},"type":"Feature","geometry":{"type":"Point","coordinates":[-70.861404,42.797515]}},{"properties":{"dpcvisits":0,"id":"a6o5msgxib2n","community":"Newburyport","lat":42.811978,"state":"Massachusetts","long":-70.872638},"type":"Feature","geometry":{"type":"Point","coordinates":[-70.872638,42.811978]}},{"properties":{"dpcvisits":0,"id":"a6o5ms9qflh8","community":"Newton","lat":42.338495,"state":"Massachusetts","long":-71.207074},"type":"Feature","geometry":{"type":"Point","coordinates":[-71.207074,42.338495]}},{"properties":{"dpcvisits":0,"id":"a6o5ms8bfy9g","community":"Norfolk","lat":42.120647,"state":"Massachusetts","long":-71.318797},"type":"Feature","geometry":{"type":"Point","coordinates":[-71.318797,42.120647]}},{"properties":{"dpcvisits":0,"id":"a6o5mslrb67i","community":"North Adams","lat":42.699847,"state":"Massachusetts","long":-73.114942},"type":"Feature","geometry":{"type":"Point","coordinates":[-73.114942,42.699847]}},{"properties":{"dpcvisits":0,"id":"a6o5msfrc4bo","community":"North Andover","lat":42.703095,"state":"Massachusetts","long":-71.13124},"type":"Feature","geometry":{"type":"Point","coordinates":[-71.13124,42.703095]}},{"properties":{"dpcvisits":0,"id":"a6o5msgfav6v","community":"North Attleboro","lat":0.0,"state":"Massachusetts","long":0.0},"type":"Feature","geometry":{"type":"Point","coordinates":[0.0,0.0]}},{"properties":{"dpcvisits":0,"id":"a6o5msna3e6y","community":"North Brookfield","lat":42.269175,"state":"Massachusetts","long":-72.085219},"type":"Feature","geometry":{"type":"Point","coordinates":[-72.085219,42.269175]}},{"properties":{"dpcvisits":0,"id":"a6o5msa8e2z9","community":"North Reading","lat":42.587215,"state":"Massachusetts","long":-71.118704},"type":"Feature","geometry":{"type":"Point","coordinates":[-71.118704,42.587215]}},{"properties":{"dpcvisits":0,"id":"a6o5msdkyjzh","community":"Northampton","lat":42.317816,"state":"Massachusetts","long":-72.632384},"type":"Feature","geometry":{"type":"Point","coordinates":[-72.632384,42.317816]}},{"properties":{"dpcvisits":0,"id":"a6o5msjjpw2h","community":"Winchendon","lat":42.681243,"state":"Massachusetts","long":-72.049118},"type":"Feature","geometry":{"type":"Point","coordinates":[-72.049118,42.681243]}},{"properties":{"dpcvisits":0,"id":"a6o5msnkk11f","community":"Northbridge","lat":42.15307,"state":"Massachusetts","long":-71.650742},"type":"Feature","geometry":{"type":"Point","coordinates":[-71.650742,42.15307]}},{"properties":{"dpcvisits":0,"id":"a6o5msbqd4fo","community":"Northfield","lat":42.691968,"state":"Massachusetts","long":-72.457333},"type":"Feature","geometry":{"type":"Point","coordinates":[-72.457333,42.691968]}},{"properties":{"dpcvisits":0,"id":"a6o5msngkic8","community":"Norton","lat":41.971419,"state":"Massachusetts","long":-71.178569},"type":"Feature","geometry":{"type":"Point","coordinates":[-71.178569,41.971419]}},{"properties":{"dpcvisits":0,"id":"a6o5msn3hxes","community":"Norwell","lat":42.157589,"state":"Massachusetts","long":-70.820149},"type":"Feature","geometry":{"type":"Point","coordinates":[-70.820149,42.157589]}},{"properties":{"dpcvisits":0,"id":"a6o5msa8pvix","community":"Norwood","lat":42.19562,"state":"Massachusetts","long":-71.199909},"type":"Feature","geometry":{"type":"Point","coordinates":[-71.199909,42.19562]}},{"properties":{"dpcvisits":0,"id":"a6o5msh3ai90","community":"Oak Bluffs","lat":41.457815,"state":"Massachusetts","long":-70.556249},"type":"Feature","geometry":{"type":"Point","coordinates":[-70.556249,41.457815]}},{"properties":{"dpcvisits":0,"id":"a6o5ms9f4bj2","community":"Oakham","lat":42.353788,"state":"Massachusetts","long":-72.042794},"type":"Feature","geometry":{"type":"Point","coordinates":[-72.042794,42.353788]}},{"properties":{"dpcvisits":0,"id":"a6o5mshea8vw","community":"Orange","lat":42.59157,"state":"Massachusetts","long":-72.310082},"type":"Feature","geometry":{"type":"Point","coordinates":[-72.310082,42.59157]}},{"properties":{"dpcvisits":0,"id":"a6o5msfb7thq","community":"Orleans","lat":41.782147,"state":"Massachusetts","long":-69.977562},"type":"Feature","geometry":{"type":"Point","coordinates":[-69.977562,41.782147]}},{"properties":{"dpcvisits":0,"id":"a6o5msjdz4cp","community":"Otis","lat":42.191191,"state":"Massachusetts","long":-73.091452},"type":"Feature","geometry":{"type":"Point","coordinates":[-73.091452,42.191191]}},{"properties":{"dpcvisits":0,"id":"a6o5mso8kxtv","community":"Oxford","lat":42.1176,"state":"Massachusetts","long":-71.864679},"type":"Feature","geometry":{"type":"Point","coordinates":[-71.864679,42.1176]}},{"properties":{"dpcvisits":0,"id":"a6o5ms805hnn","community":"Palmer","lat":42.18495,"state":"Massachusetts","long":-72.347921},"type":"Feature","geometry":{"type":"Point","coordinates":[-72.347921,42.18495]}},{"properties":{"dpcvisits":0,"id":"a6o5mso5dek1","community":"Paxton","lat":42.311375,"state":"Massachusetts","long":-71.927854},"type":"Feature","geometry":{"type":"Point","coordinates":[-71.927854,42.311375]}},{"properties":{"dpcvisits":0,"id":"a6o5ms8chp5t","community":"Peabody","lat":42.52636,"state":"Massachusetts","long":-70.928509},"type":"Feature","geometry":{"type":"Point","coordinates":[-70.928509,42.52636]}},{"properties":{"dpcvisits":0,"id":"a6o5msku9izz","community":"Pelham","lat":42.391071,"state":"Massachusetts","long":-72.411889},"type":"Feature","geometry":{"type":"Point","coordinates":[-72.411889,42.391071]}},{"properties":{"dpcvisits":0,"id":"a6o5msfw5t3n","community":"Pembroke","lat":42.071302,"state":"Massachusetts","long":-70.809619},"type":"Feature","geometry":{"type":"Point","coordinates":[-70.809619,42.071302]}},{"properties":{"dpcvisits":0,"id":"a6o5msasggue","community":"Pepperell","lat":42.667414,"state":"Massachusetts","long":-71.5948},"type":"Feature","geometry":{"type":"Point","coordinates":[-71.5948,42.667414]}},{"properties":{"dpcvisits":0,"id":"a6o5msdulv8k","community":"Peru","lat":42.437635,"state":"Massachusetts","long":-73.044679},"type":"Feature","geometry":{"type":"Point","coordinates":[-73.044679,42.437635]}},{"properties":{"dpcvisits":0,"id":"a6o5msncqrqh","community":"Wilmington","lat":42.563953,"state":"Massachusetts","long":-71.181369},"type":"Feature","geometry":{"type":"Point","coordinates":[-71.181369,42.563953]}},{"properties":{"dpcvisits":0,"id":"a6o5msjrjkh8","community":"Phillipston","lat":42.549064,"state":"Massachusetts","long":-72.13239},"type":"Feature","geometry":{"type":"Point","coordinates":[-72.13239,42.549064]}},{"properties":{"dpcvisits":0,"id":"a6o5ms7qjbe2","community":"Pittsfield","lat":42.447408,"state":"Massachusetts","long":-73.254221},"type":"Feature","geometry":{"type":"Point","coordinates":[-73.254221,42.447408]}},{"properties":{"dpcvisits":0,"id":"a6o5mse8t7g9","community":"Plainfield","lat":42.516173,"state":"Massachusetts","long":-72.914102},"type":"Feature","geometry":{"type":"Point","coordinates":[-72.914102,42.516173]}},{"properties":{"dpcvisits":0,"id":"a6o5msecxzax","community":"Plainville","lat":42.00634,"state":"Massachusetts","long":-71.336914},"type":"Feature","geometry":{"type":"Point","coordinates":[-71.336914,42.00634]}},{"properties":{"dpcvisits":0,"id":"a6o5msnzdk3i","community":"Plymouth","lat":41.953995,"state":"Massachusetts","long":-70.658899},"type":"Feature","geometry":{"type":"Point","coordinates":[-70.658899,41.953995]}},{"properties":{"dpcvisits":0,"id":"a6o5mscql30h","community":"Plympton","lat":41.959274,"state":"Massachusetts","long":-70.82355},"type":"Feature","geometry":{"type":"Point","coordinates":[-70.82355,41.959274]}},{"properties":{"dpcvisits":0,"id":"a6o5msi2ynxh","community":"Princeton","lat":42.449603,"state":"Massachusetts","long":-71.878624},"type":"Feature","geometry":{"type":"Point","coordinates":[-71.878624,42.449603]}},{"properties":{"dpcvisits":0,"id":"a6o5msj031oy","community":"Provincetown","lat":42.051427,"state":"Massachusetts","long":-70.187942},"type":"Feature","geometry":{"type":"Point","coordinates":[-70.187942,42.051427]}},{"properties":{"dpcvisits":0,"id":"a6o5msbsjd8p","community":"Quincy","lat":42.252285,"state":"Massachusetts","long":-71.004164},"type":"Feature","geometry":{"type":"Point","coordinates":[-71.004164,42.252285]}},{"properties":{"dpcvisits":0,"id":"a6o5msef2tbh","community":"Randolph","lat":42.16268,"state":"Massachusetts","long":-71.041399},"type":"Feature","geometry":{"type":"Point","coordinates":[-71.041399,42.16268]}},{"properties":{"dpcvisits":0,"id":"a6o5msfb5qbu","community":"Raynham","lat":41.922798,"state":"Massachusetts","long":-71.051368},"type":"Feature","geometry":{"type":"Point","coordinates":[-71.051368,41.922798]}},{"properties":{"dpcvisits":0,"id":"a6o5msk96ngl","community":"Reading","lat":42.526002,"state":"Massachusetts","long":-71.103957},"type":"Feature","geometry":{"type":"Point","coordinates":[-71.103957,42.526002]}},{"properties":{"dpcvisits":0,"id":"a6o5mseexpak","community":"Rehoboth","lat":41.887734,"state":"Massachusetts","long":-71.199608},"type":"Feature","geometry":{"type":"Point","coordinates":[-71.199608,41.887734]}},{"properties":{"dpcvisits":0,"id":"a6o5msge3wm4","community":"Revere","lat":42.40807,"state":"Massachusetts","long":-71.013589},"type":"Feature","geometry":{"type":"Point","coordinates":[-71.013589,42.40807]}},{"properties":{"dpcvisits":0,"id":"a6o5msh6kavg","community":"Richmond","lat":42.39043,"state":"Massachusetts","long":-73.367299},"type":"Feature","geometry":{"type":"Point","coordinates":[-73.367299,42.39043]}},{"properties":{"dpcvisits":0,"id":"a6o5msh04ygf","community":"Rochester","lat":41.731641,"state":"Massachusetts","long":-70.821768},"type":"Feature","geometry":{"type":"Point","coordinates":[-70.821768,41.731641]}},{"properties":{"dpcvisits":0,"id":"a6o5ms8y7tm0","community":"Rockland","lat":42.128985,"state":"Massachusetts","long":-70.915274},"type":"Feature","geometry":{"type":"Point","coordinates":[-70.915274,42.128985]}},{"properties":{"dpcvisits":0,"id":"a6o5msm3nuxr","community":"Rockport","lat":42.656775,"state":"Massachusetts","long":-70.618899},"type":"Feature","geometry":{"type":"Point","coordinates":[-70.618899,42.656775]}},{"properties":{"dpcvisits":0,"id":"a6o5mscx6rml","community":"Rowe","lat":42.693966,"state":"Massachusetts","long":-72.89919},"type":"Feature","geometry":{"type":"Point","coordinates":[-72.89919,42.693966]}},{"properties":{"dpcvisits":0,"id":"a6o5msltoml7","community":"Rowley","lat":42.715295,"state":"Massachusetts","long":-70.879734},"type":"Feature","geometry":{"type":"Point","coordinates":[-70.879734,42.715295]}},{"properties":{"dpcvisits":0,"id":"a6o5ms8hc737","community":"Royalston","lat":42.693451,"state":"Massachusetts","long":-72.244112},"type":"Feature","geometry":{"type":"Point","coordinates":[-72.244112,42.693451]}},{"properties":{"dpcvisits":0,"id":"a6o5msk98rbe","community":"Russell","lat":42.18971,"state":"Massachusetts","long":-72.857519},"type":"Feature","geometry":{"type":"Point","coordinates":[-72.857519,42.18971]}},{"properties":{"dpcvisits":0,"id":"a6o5msirtai4","community":"Rutland","lat":42.37664,"state":"Massachusetts","long":-71.954184},"type":"Feature","geometry":{"type":"Point","coordinates":[-71.954184,42.37664]}},{"properties":{"dpcvisits":0,"id":"a6o5mshv5gm6","community":"Williamstown","lat":42.714639,"state":"Massachusetts","long":-73.208782},"type":"Feature","geometry":{"type":"Point","coordinates":[-73.208782,42.714639]}},{"properties":{"dpcvisits":0,"id":"a6o5msgu0k28","community":"Salisbury","lat":42.841705,"state":"Massachusetts","long":-70.859757},"type":"Feature","geometry":{"type":"Point","coordinates":[-70.859757,42.841705]}},{"properties":{"dpcvisits":0,"id":"a6o5msmxgtjr","community":"Sandisfield","lat":42.104028,"state":"Massachusetts","long":-73.104346},"type":"Feature","geometry":{"type":"Point","coordinates":[-73.104346,42.104028]}},{"properties":{"dpcvisits":0,"id":"a6o5msmwrh4b","community":"Sandwich","lat":41.758265,"state":"Massachusetts","long":-70.500534},"type":"Feature","geometry":{"type":"Point","coordinates":[-70.500534,41.758265]}},{"properties":{"dpcvisits":0,"id":"a6o5msmhrcmn","community":"Saugus","lat":42.46532,"state":"Massachusetts","long":-71.009705},"type":"Feature","geometry":{"type":"Point","coordinates":[-71.009705,42.46532]}},{"properties":{"dpcvisits":0,"id":"a6o5msifjba8","community":"Savoy","lat":42.565309,"state":"Massachusetts","long":-73.026276},"type":"Feature","geometry":{"type":"Point","coordinates":[-73.026276,42.565309]}},{"properties":{"dpcvisits":0,"id":"a6o5ms8vhhob","community":"Scituate","lat":42.20031,"state":"Massachusetts","long":-70.772669},"type":"Feature","geometry":{"type":"Point","coordinates":[-70.772669,42.20031]}},{"properties":{"dpcvisits":0,"id":"a6o5msgml5o4","community":"Seekonk","lat":41.829792,"state":"Massachusetts","long":-71.325196},"type":"Feature","geometry":{"type":"Point","coordinates":[-71.325196,41.829792]}},{"properties":{"dpcvisits":0,"id":"a6o5msedu4wk","community":"Sharon","lat":42.120595,"state":"Massachusetts","long":-71.180779},"type":"Feature","geometry":{"type":"Point","coordinates":[-71.180779,42.120595]}},{"properties":{"dpcvisits":0,"id":"a6o5mso72nvu","community":"Sheffield","lat":42.11095,"state":"Massachusetts","long":-73.353714},"type":"Feature","geometry":{"type":"Point","coordinates":[-73.353714,42.11095]}},{"properties":{"dpcvisits":0,"id":"a6o5msf6yt7u","community":"Shelburne","lat":42.60361,"state":"Massachusetts","long":-72.738339},"type":"Feature","geometry":{"type":"Point","coordinates":[-72.738339,42.60361]}},{"properties":{"dpcvisits":0,"id":"a6o5msew35rw","community":"Sherborn","lat":42.240191,"state":"Massachusetts","long":-71.371607},"type":"Feature","geometry":{"type":"Point","coordinates":[-71.371607,42.240191]}},{"properties":{"dpcvisits":0,"id":"a6o5msitpn7d","community":"Shirley","lat":42.545578,"state":"Massachusetts","long":-71.641241},"type":"Feature","geometry":{"type":"Point","coordinates":[-71.641241,42.545578]}},{"properties":{"dpcvisits":0,"id":"a6o5msb94jno","community":"Shrewsbury","lat":42.290475,"state":"Massachusetts","long":-71.721989},"type":"Feature","geometry":{"type":"Point","coordinates":[-71.721989,42.290475]}},{"properties":{"dpcvisits":0,"id":"a6o5msfzfwcm","community":"Shutesbury","lat":42.452648,"state":"Massachusetts","long":-72.405754},"type":"Feature","geometry":{"type":"Point","coordinates":[-72.405754,42.452648]}},{"properties":{"dpcvisits":0,"id":"a6o5msmqpc8q","community":"Somerset","lat":41.751385,"state":"Massachusetts","long":-71.141459},"type":"Feature","geometry":{"type":"Point","coordinates":[-71.141459,41.751385]}},{"properties":{"dpcvisits":0,"id":"a6o5msatbnzp","community":"Somerville","lat":42.386675,"state":"Massachusetts","long":-71.098264},"type":"Feature","geometry":{"type":"Point","coordinates":[-71.098264,42.386675]}},{"properties":{"dpcvisits":0,"id":"a6o5msd0sx06","community":"South Hadley","lat":42.214645,"state":"Massachusetts","long":-72.593779},"type":"Feature","geometry":{"type":"Point","coordinates":[-72.593779,42.214645]}},{"properties":{"dpcvisits":0,"id":"a6o5msi3uwxh","community":"Southampton","lat":42.228585,"state":"Massachusetts","long":-72.727961},"type":"Feature","geometry":{"type":"Point","coordinates":[-72.727961,42.228585]}},{"properties":{"dpcvisits":0,"id":"a6o5msd79520","community":"Southborough","lat":42.305764,"state":"Massachusetts","long":-71.531945},"type":"Feature","geometry":{"type":"Point","coordinates":[-71.531945,42.305764]}},{"properties":{"dpcvisits":0,"id":"a6o5msgcuhhk","community":"Southbridge","lat":42.074025,"state":"Massachusetts","long":-72.034399},"type":"Feature","geometry":{"type":"Point","coordinates":[-72.034399,42.074025]}},{"properties":{"dpcvisits":0,"id":"a6o5msacmom6","community":"Southwick","lat":42.053629,"state":"Massachusetts","long":-72.77157},"type":"Feature","geometry":{"type":"Point","coordinates":[-72.77157,42.053629]}},{"properties":{"dpcvisits":0,"id":"a6o5msesn4q7","community":"Spencer","lat":42.243873,"state":"Massachusetts","long":-71.992952},"type":"Feature","geometry":{"type":"Point","coordinates":[-71.992952,42.243873]}},{"properties":{"dpcvisits":0,"id":"a6o5mslpemlw","community":"Springfield","lat":42.10122,"state":"Massachusetts","long":-72.589264},"type":"Feature","geometry":{"type":"Point","coordinates":[-72.589264,42.10122]}},{"properties":{"dpcvisits":0,"id":"a6o5mschn3oi","community":"Sterling","lat":42.437521,"state":"Massachusetts","long":-71.760468},"type":"Feature","geometry":{"type":"Point","coordinates":[-71.760468,42.437521]}},{"properties":{"dpcvisits":0,"id":"a6o5mshdrf4r","community":"Stockbridge","lat":42.283803,"state":"Massachusetts","long":-73.319012},"type":"Feature","geometry":{"type":"Point","coordinates":[-73.319012,42.283803]}},{"properties":{"dpcvisits":0,"id":"a6o5mse3rl9r","community":"Stoneham","lat":42.48027,"state":"Massachusetts","long":-71.099134},"type":"Feature","geometry":{"type":"Point","coordinates":[-71.099134,42.48027]}},{"properties":{"dpcvisits":0,"id":"a6o5mshmi8ui","community":"Stoughton","lat":42.12598,"state":"Massachusetts","long":-71.102135},"type":"Feature","geometry":{"type":"Point","coordinates":[-71.102135,42.12598]}},{"properties":{"dpcvisits":0,"id":"a6o5mse0854p","community":"Stow","lat":42.436645,"state":"Massachusetts","long":-71.505889},"type":"Feature","geometry":{"type":"Point","coordinates":[-71.505889,42.436645]}},{"properties":{"dpcvisits":0,"id":"a6o5msixisal","community":"Sturbridge","lat":42.109278,"state":"Massachusetts","long":-72.082027},"type":"Feature","geometry":{"type":"Point","coordinates":[-72.082027,42.109278]}},{"properties":{"dpcvisits":0,"id":"a6o5mslqajm9","community":"Sudbury","lat":42.384211,"state":"Massachusetts","long":-71.409633},"type":"Feature","geometry":{"type":"Point","coordinates":[-71.409633,42.384211]}},{"properties":{"dpcvisits":0,"id":"a6o5ms8wt5cq","community":"Sunderland","lat":42.467161,"state":"Massachusetts","long":-72.581026},"type":"Feature","geometry":{"type":"Point","coordinates":[-72.581026,42.467161]}},{"properties":{"dpcvisits":0,"id":"a6o5mscuapi8","community":"Sutton","lat":42.14979,"state":"Massachusetts","long":-71.762434},"type":"Feature","geometry":{"type":"Point","coordinates":[-71.762434,42.14979]}},{"properties":{"dpcvisits":0,"id":"a6o5msioene3","community":"Swampscott","lat":42.469133,"state":"Massachusetts","long":-70.918826},"type":"Feature","geometry":{"type":"Point","coordinates":[-70.918826,42.469133]}},{"properties":{"dpcvisits":0,"id":"a6o5msf4o3kr","community":"Swansea","lat":41.74945,"state":"Massachusetts","long":-71.192893},"type":"Feature","geometry":{"type":"Point","coordinates":[-71.192893,41.74945]}},{"properties":{"dpcvisits":0,"id":"a6o5msjgrnfy","community":"Taunton","lat":41.900915,"state":"Massachusetts","long":-71.088779},"type":"Feature","geometry":{"type":"Point","coordinates":[-71.088779,41.900915]}},{"properties":{"dpcvisits":0,"id":"a6o5mso5uk4h","community":"Templeton","lat":42.561384,"state":"Massachusetts","long":-72.037009},"type":"Feature","geometry":{"type":"Point","coordinates":[-72.037009,42.561384]}},{"properties":{"dpcvisits":0,"id":"a6o5mshjvi8m","community":"Tewksbury","lat":42.611405,"state":"Massachusetts","long":-71.232424},"type":"Feature","geometry":{"type":"Point","coordinates":[-71.232424,42.611405]}},{"properties":{"dpcvisits":0,"id":"a6o5mslp9kpc","community":"Tisbury","lat":41.454285,"state":"Massachusetts","long":-70.601219},"type":"Feature","geometry":{"type":"Point","coordinates":[-70.601219,41.454285]}},{"properties":{"dpcvisits":0,"id":"a6o5msgdh250","community":"Tolland","lat":42.079629,"state":"Massachusetts","long":-72.986282},"type":"Feature","geometry":{"type":"Point","coordinates":[-72.986282,42.079629]}},{"properties":{"dpcvisits":0,"id":"a6o5mso48df0","community":"Topsfield","lat":42.64189,"state":"Massachusetts","long":-70.950749},"type":"Feature","geometry":{"type":"Point","coordinates":[-70.950749,42.64189]}},{"properties":{"dpcvisits":0,"id":"a6o5mskfl60j","community":"Townsend","lat":42.6676,"state":"Massachusetts","long":-71.707179},"type":"Feature","geometry":{"type":"Point","coordinates":[-71.707179,42.6676]}},{"properties":{"dpcvisits":0,"id":"a6o5mseomxxr","community":"Truro","lat":41.99886,"state":"Massachusetts","long":-70.055637},"type":"Feature","geometry":{"type":"Point","coordinates":[-70.055637,41.99886]}},{"properties":{"dpcvisits":0,"id":"a6o5ms9z8ifi","community":"Tyngsborough","lat":42.676652,"state":"Massachusetts","long":-71.425607},"type":"Feature","geometry":{"type":"Point","coordinates":[-71.425607,42.676652]}},{"properties":{"dpcvisits":0,"id":"a6o5mscjkvr7","community":"Tyringham","lat":42.246958,"state":"Massachusetts","long":-73.205088},"type":"Feature","geometry":{"type":"Point","coordinates":[-73.205088,42.246958]}},{"properties":{"dpcvisits":0,"id":"a6o5msm3y0yo","community":"Upton","lat":42.173595,"state":"Massachusetts","long":-71.603302},"type":"Feature","geometry":{"type":"Point","coordinates":[-71.603302,42.173595]}},{"properties":{"dpcvisits":0,"id":"a6o5msl9fg8o","community":"Uxbridge","lat":42.075547,"state":"Massachusetts","long":-71.628707},"type":"Feature","geometry":{"type":"Point","coordinates":[-71.628707,42.075547]}},{"properties":{"dpcvisits":0,"id":"a6o5msjzluiz","community":"Wakefield","lat":42.5064,"state":"Massachusetts","long":-71.072399},"type":"Feature","geometry":{"type":"Point","coordinates":[-71.072399,42.5064]}},{"properties":{"dpcvisits":0,"id":"a6o5ms7usqxe","community":"Wales","lat":42.074342,"state":"Massachusetts","long":-72.223791},"type":"Feature","geometry":{"type":"Point","coordinates":[-72.223791,42.074342]}},{"properties":{"dpcvisits":0,"id":"a6o5msnxyias","community":"Walpole","lat":42.146253,"state":"Massachusetts","long":-71.249131},"type":"Feature","geometry":{"type":"Point","coordinates":[-71.249131,42.146253]}},{"properties":{"dpcvisits":0,"id":"a6o5mse8nwce","community":"Waltham","lat":42.37644,"state":"Massachusetts","long":-71.235324},"type":"Feature","geometry":{"type":"Point","coordinates":[-71.235324,42.37644]}},{"properties":{"dpcvisits":0,"id":"a6o5msd4ii8q","community":"Ware","lat":42.26048,"state":"Massachusetts","long":-72.241889},"type":"Feature","geometry":{"type":"Point","coordinates":[-72.241889,42.26048]}},{"properties":{"dpcvisits":0,"id":"a6o5msawatv2","community":"Wareham","lat":41.759865,"state":"Massachusetts","long":-70.723729},"type":"Feature","geometry":{"type":"Point","coordinates":[-70.723729,41.759865]}},{"properties":{"dpcvisits":0,"id":"a6o5msb0vgtq","community":"Warren","lat":42.211215,"state":"Massachusetts","long":-72.198779},"type":"Feature","geometry":{"type":"Point","coordinates":[-72.198779,42.211215]}},{"properties":{"dpcvisits":0,"id":"a6o5ms8p76f3","community":"Warwick","lat":42.682122,"state":"Massachusetts","long":-72.338085},"type":"Feature","geometry":{"type":"Point","coordinates":[-72.338085,42.682122]}},{"properties":{"dpcvisits":0,"id":"a6o5ms7wo34h","community":"Washington","lat":42.373881,"state":"Massachusetts","long":-73.113882},"type":"Feature","geometry":{"type":"Point","coordinates":[-73.113882,42.373881]}},{"properties":{"dpcvisits":0,"id":"a6o5msnbdbla","community":"Watertown","lat":42.367615,"state":"Massachusetts","long":-71.187879},"type":"Feature","geometry":{"type":"Point","coordinates":[-71.187879,42.367615]}},{"properties":{"dpcvisits":0,"id":"a6o5msgc6g4n","community":"Wayland","lat":42.3632,"state":"Massachusetts","long":-71.360354},"type":"Feature","geometry":{"type":"Point","coordinates":[-71.360354,42.3632]}},{"properties":{"dpcvisits":0,"id":"a6o5ms7tyggm","community":"Webster","lat":42.049743,"state":"Massachusetts","long":-71.880971},"type":"Feature","geometry":{"type":"Point","coordinates":[-71.880971,42.049743]}},{"properties":{"dpcvisits":0,"id":"a6o5mso4pf6h","community":"Wellesley","lat":42.29776,"state":"Massachusetts","long":-71.289744},"type":"Feature","geometry":{"type":"Point","coordinates":[-71.289744,42.29776]}},{"properties":{"dpcvisits":0,"id":"a6o5msnui4x9","community":"Wellfleet","lat":41.93864,"state":"Massachusetts","long":-70.03209},"type":"Feature","geometry":{"type":"Point","coordinates":[-70.03209,41.93864]}},{"properties":{"dpcvisits":0,"id":"a6o5msb37z8l","community":"Wendell","lat":42.548245,"state":"Massachusetts","long":-72.394834},"type":"Feature","geometry":{"type":"Point","coordinates":[-72.394834,42.548245]}},{"properties":{"dpcvisits":0,"id":"a6o5msi39d1n","community":"Wenham","lat":42.604595,"state":"Massachusetts","long":-70.887134},"type":"Feature","geometry":{"type":"Point","coordinates":[-70.887134,42.604595]}},{"properties":{"dpcvisits":0,"id":"a6o5ms8hqnx1","community":"West Boylston","lat":42.38689,"state":"Massachusetts","long":-71.779094},"type":"Feature","geometry":{"type":"Point","coordinates":[-71.779094,42.38689]}},{"properties":{"dpcvisits":0,"id":"a6o5msazjy4y","community":"West Bridgewater","lat":42.02095,"state":"Massachusetts","long":-71.008869},"type":"Feature","geometry":{"type":"Point","coordinates":[-71.008869,42.02095]}},{"properties":{"dpcvisits":0,"id":"a6o5msmzbqvm","community":"West Brookfield","lat":42.23488,"state":"Massachusetts","long":-72.142139},"type":"Feature","geometry":{"type":"Point","coordinates":[-72.142139,42.23488]}},{"properties":{"dpcvisits":0,"id":"a6o5mscaekl8","community":"West Newbury","lat":42.799217,"state":"Massachusetts","long":-70.992192},"type":"Feature","geometry":{"type":"Point","coordinates":[-70.992192,42.799217]}},{"properties":{"dpcvisits":0,"id":"a6o5msh893ly","community":"West Springfield","lat":42.105568,"state":"Massachusetts","long":-72.623498},"type":"Feature","geometry":{"type":"Point","coordinates":[-72.623498,42.105568]}},{"properties":{"dpcvisits":0,"id":"a6o5msjqsu4m","community":"West Stockbridge","lat":42.334328,"state":"Massachusetts","long":-73.367245},"type":"Feature","geometry":{"type":"Point","coordinates":[-73.367245,42.334328]}},{"properties":{"dpcvisits":0,"id":"a6o5mslzqltw","community":"West Tisbury","lat":41.425891,"state":"Massachusetts","long":-70.646915},"type":"Feature","geometry":{"type":"Point","coordinates":[-70.646915,41.425891]}},{"properties":{"dpcvisits":0,"id":"a6o5msgebss0","community":"Westborough","lat":42.268807,"state":"Massachusetts","long":-71.613866},"type":"Feature","geometry":{"type":"Point","coordinates":[-71.613866,42.268807]}},{"properties":{"dpcvisits":0,"id":"a6o5msle0k6v","community":"Westfield","lat":42.120177,"state":"Massachusetts","long":-72.754675},"type":"Feature","geometry":{"type":"Point","coordinates":[-72.754675,42.120177]}},{"properties":{"dpcvisits":0,"id":"a6o5ms9fu96p","community":"Westford","lat":42.582622,"state":"Massachusetts","long":-71.437077},"type":"Feature","geometry":{"type":"Point","coordinates":[-71.437077,42.582622]}},{"properties":{"dpcvisits":0,"id":"a6o5msmykz5l","community":"Westhampton","lat":42.302737,"state":"Massachusetts","long":-72.774881},"type":"Feature","geometry":{"type":"Point","coordinates":[-72.774881,42.302737]}},{"properties":{"dpcvisits":0,"id":"a6o5mso6oklc","community":"Westminster","lat":42.545785,"state":"Massachusetts","long":-71.911524},"type":"Feature","geometry":{"type":"Point","coordinates":[-71.911524,42.545785]}},{"properties":{"dpcvisits":0,"id":"a6o5msgoea1c","community":"Weston","lat":42.369023,"state":"Massachusetts","long":-71.298775},"type":"Feature","geometry":{"type":"Point","coordinates":[-71.298775,42.369023]}},{"properties":{"dpcvisits":0,"id":"a6o5mscurm68","community":"Westport","lat":41.57942,"state":"Massachusetts","long":-71.089952},"type":"Feature","geometry":{"type":"Point","coordinates":[-71.089952,41.57942]}},{"properties":{"dpcvisits":0,"id":"a6o5msasc38i","community":"Westwood","lat":42.227195,"state":"Massachusetts","long":-71.221841},"type":"Feature","geometry":{"type":"Point","coordinates":[-71.221841,42.227195]}},{"properties":{"dpcvisits":0,"id":"a6o5msja664o","community":"Weymouth","lat":42.22217,"state":"Massachusetts","long":-70.938819},"type":"Feature","geometry":{"type":"Point","coordinates":[-70.938819,42.22217]}},{"properties":{"dpcvisits":0,"id":"a6o5msbrah6r","community":"Whately","lat":42.441682,"state":"Massachusetts","long":-72.635168},"type":"Feature","geometry":{"type":"Point","coordinates":[-72.635168,42.441682]}},{"properties":{"dpcvisits":0,"id":"a6o5msnz7ilm","community":"Whitman","lat":42.080824,"state":"Massachusetts","long":-70.935324},"type":"Feature","geometry":{"type":"Point","coordinates":[-70.935324,42.080824]}},{"properties":{"dpcvisits":0,"id":"a6o5mskthfsi","community":"Wilbraham","lat":42.12122,"state":"Massachusetts","long":-72.450279},"type":"Feature","geometry":{"type":"Point","coordinates":[-72.450279,42.12122]}},{"properties":{"dpcvisits":0,"id":"a6o5msbvdji0","community":"Williamsburg","lat":42.403917,"state":"Massachusetts","long":-72.749509},"type":"Feature","geometry":{"type":"Point","coordinates":[-72.749509,42.403917]}},{"properties":{"dpcvisits":13,"id":"a6o5mskwsp5v","community":"Northborough","lat":42.320218,"state":"Massachusetts","long":-71.63702},"type":"Feature","geometry":{"type":"Point","coordinates":[-71.63702,42.320218]}},{"properties":{"dpcvisits":133,"id":"a6o5ms9mjlol","community":"Grafton","lat":42.210878,"state":"Massachusetts","long":-71.69223},"type":"Feature","geometry":{"type":"Point","coordinates":[-71.69223,42.210878]}},{"properties":{"dpcvisits":14,"id":"a6o5ms8g0r1e","community":"Boston","lat":42.358635,"state":"Massachusetts","long":-71.056699},"type":"Feature","geometry":{"type":"Point","coordinates":[-71.056699,42.358635]}},{"properties":{"dpcvisits":14,"id":"a6o5ms9ux93c","community":"Boxborough","lat":42.484017,"state":"Massachusetts","long":-71.514117},"type":"Feature","geometry":{"type":"Point","coordinates":[-71.514117,42.484017]}},{"properties":{"dpcvisits":14,"id":"a6o5mskd90x6","community":"Beverly","lat":42.547745,"state":"Massachusetts","long":-70.878979},"type":"Feature","geometry":{"type":"Point","coordinates":[-70.878979,42.547745]}},{"properties":{"dpcvisits":22,"id":"a6o5msbdjr8m","community":"Hopkinton","lat":42.228769,"state":"Massachusetts","long":-71.520371},"type":"Feature","geometry":{"type":"Point","coordinates":[-71.520371,42.228769]}},{"properties":{"dpcvisits":22,"id":"a6o5msl3r4ki","community":"Chelmsford","lat":42.59827,"state":"Massachusetts","long":-71.346839},"type":"Feature","geometry":{"type":"Point","coordinates":[-71.346839,42.59827]}},{"properties":{"dpcvisits":4,"id":"a6o5msfl1dil","community":"Petersham","lat":42.48793,"state":"Massachusetts","long":-72.186298},"type":"Feature","geometry":{"type":"Point","coordinates":[-72.186298,42.48793]}},{"properties":{"dpcvisits":41,"id":"a6o5msa9w8l6","community":"Millis","lat":42.16734,"state":"Massachusetts","long":-71.357514},"type":"Feature","geometry":{"type":"Point","coordinates":[-71.357514,42.16734]}},{"properties":{"dpcvisits":55,"id":"a6o5msh3fgkf","community":"Dennis","lat":41.738065,"state":"Massachusetts","long":-70.192189},"type":"Feature","geometry":{"type":"Point","coordinates":[-70.192189,41.738065]}},{"properties":{"dpcvisits":55,"id":"a6o5msnmom55","community":"Salem","lat":42.5224,"state":"Massachusetts","long":-70.895809},"type":"Feature","geometry":{"type":"Point","coordinates":[-70.895809,42.5224]}}],"is_temporal":false,"author":{"url":"","metadata":"","contact_name":"","contact_address":"","source":"","contact_phone":""},"source":"","pagination":{"sort":null,"start":0,"total":351,"limit":1000000},"state":"complete","tags":"","published":"2014-08-10T16:46:54-04:00","id":23926}