{"type":"FeatureCollection","data_type":"Dataset","url_type":null,"permissions":[{"permissions":{"download":true,"view":true},"group_id":"everyone"}],"classification":null,"title":"Tailings Sites in Nevada","count":39,"stream_id":239675,"contributor":{"url":"http://geocommons.com/users/45327","name":"jkordi"},"data_attributes":null,"calculation_params":null,"icon_link":null,"link":"http://geocommons.com/overlays/239675.json","extent":[-119.814,38.387,-114.931,41.0594],"geometry_types":["point"],"unique_name":null,"name":"Tailings Sites in Nevada","feature_count":39,"description":"These are the sites of mineral deposits from mining operations in Northern Nevada. If not properly managed, they may present a threat to the ecology of the region. ","next_feature":null,"is_raster":false,"short_classification":"Y","stats":{},"features":[{"properties":{"city":"Antelope Springs","geo_score":0.733,"id":"a6aeuihkos7j","geo_precision":"city","state":"NV"},"type":"Feature","geometry":{"type":"Point","coordinates":[-115.585895,40.726593]}},{"properties":{"city":"Austin","geo_score":0.857,"id":"a6aeuiqh6uzm","geo_precision":"city","state":"NV"},"type":"Feature","geometry":{"type":"Point","coordinates":[-117.19669,40.046976]}},{"properties":{"city":"Awakening Mine","geo_score":0.747,"id":"a6aeuih0tqya","geo_precision":"city","state":"NV"},"type":"Feature","geometry":{"type":"Point","coordinates":[-118.109585,38.387008]}},{"properties":{"city":"Battle Mountain","geo_score":0.857,"id":"a6aeuijgbaf8","geo_precision":"city","state":"NV"},"type":"Feature","geometry":{"type":"Point","coordinates":[-116.974803,40.042115]}},{"properties":{"city":"Beowawe","geo_score":0.857,"id":"a6aeuid51spc","geo_precision":"city","state":"NV"},"type":"Feature","geometry":{"type":"Point","coordinates":[-116.477307,40.592692]}},{"properties":{"city":"Black Diablo Mine","geo_score":0.743,"id":"a6aeuiliukei","geo_precision":"city","state":"NV"},"type":"Feature","geometry":{"type":"Point","coordinates":[-118.109585,38.387008]}},{"properties":{"city":"Bottle Creek Mine","geo_score":0.743,"id":"a6aeuieaou2g","geo_precision":"city","state":"NV"},"type":"Feature","geometry":{"type":"Point","coordinates":[-118.109585,38.387008]}},{"properties":{"city":"Buena Vista Mine","geo_score":0.745,"id":"a6aeuir46hvd","geo_precision":"city","state":"NV"},"type":"Feature","geometry":{"type":"Point","coordinates":[-118.109585,38.387008]}},{"properties":{"city":"Buffalo Valley Mine","geo_score":0.739,"id":"a6aeuifdn346","geo_precision":"city","state":"NV"},"type":"Feature","geometry":{"type":"Point","coordinates":[-118.109585,38.387008]}},{"properties":{"city":"Bullion Mine","geo_score":0.753,"id":"a6aeuiggpngq","geo_precision":"city","state":"NV"},"type":"Feature","geometry":{"type":"Point","coordinates":[-118.109585,38.387008]}},{"properties":{"city":"Burner Mine","geo_score":0.757,"id":"a6aeuiibhorf","geo_precision":"city","state":"NV"},"type":"Feature","geometry":{"type":"Point","coordinates":[-118.109585,38.387008]}},{"properties":{"city":"Cotrez Mine","geo_score":0.757,"id":"a6aeuij8vgdb","geo_precision":"city","state":"NV"},"type":"Feature","geometry":{"type":"Point","coordinates":[-118.109585,38.387008]}},{"properties":{"city":"Eureka","geo_score":0.857,"id":"a6aeuijslig8","geo_precision":"city","state":"NV"},"type":"Feature","geometry":{"type":"Point","coordinates":[-115.993806,39.547797]}},{"properties":{"city":"Golconda","geo_score":0.857,"id":"a6aeuifbslij","geo_precision":"city","state":"NV"},"type":"Feature","geometry":{"type":"Point","coordinates":[-117.494182,40.950867]}},{"properties":{"city":"Gold Circle Mine","geo_score":0.745,"id":"a6aeuijoy4fd","geo_precision":"city","state":"NV"},"type":"Feature","geometry":{"type":"Point","coordinates":[-118.109585,38.387008]}},{"properties":{"city":"Gold Run","geo_score":0.735,"id":"a6aeuinq7xl3","geo_precision":"city","state":"NV"},"type":"Feature","geometry":{"type":"Point","coordinates":[-119.813803,39.529633]}},{"properties":{"city":"Hiltop Mine","geo_score":0.757,"id":"a6aeuiipqwqy","geo_precision":"city","state":"NV"},"type":"Feature","geometry":{"type":"Point","coordinates":[-118.109585,38.387008]}},{"properties":{"city":"Imlay","geo_score":0.857,"id":"a6aeuijwmbv0","geo_precision":"city","state":"NV"},"type":"Feature","geometry":{"type":"Point","coordinates":[-118.288693,40.649475]}},{"properties":{"city":"Iron Point Mine","geo_score":0.747,"id":"a6aeuikuumq8","geo_precision":"city","state":"NV"},"type":"Feature","geometry":{"type":"Point","coordinates":[-118.109585,38.387008]}},{"properties":{"city":"Ivanhole Mine","geo_score":0.75,"id":"a6aeuir7bdtf","geo_precision":"city","state":"NV"},"type":"Feature","geometry":{"type":"Point","coordinates":[-118.109585,38.387008]}},{"properties":{"city":"Lewis Mine","geo_score":0.762,"id":"a6aeuip4rmp2","geo_precision":"city","state":"NV"},"type":"Feature","geometry":{"type":"Point","coordinates":[-118.109585,38.387008]}},{"properties":{"city":"Lone Mountain","geo_score":0.75,"id":"a6aeuillebxc","geo_precision":"city","state":"NV"},"type":"Feature","geometry":{"type":"Point","coordinates":[-114.931409,39.260495]}},{"properties":{"city":"Majuba Mine","geo_score":0.757,"id":"a6aeuingkh76","geo_precision":"city","state":"NV"},"type":"Feature","geometry":{"type":"Point","coordinates":[-118.109585,38.387008]}},{"properties":{"city":"Mill City","geo_score":0.857,"id":"a6aeuimns1z1","geo_precision":"city","state":"NV"},"type":"Feature","geometry":{"type":"Point","coordinates":[-118.070418,40.683516]}},{"properties":{"city":"Modarelli Mine","geo_score":0.747,"id":"a6aeuignk5w5","geo_precision":"city","state":"NV"},"type":"Feature","geometry":{"type":"Point","coordinates":[-118.109585,38.387008]}},{"properties":{"city":"Mount Hope Mine","geo_score":0.747,"id":"a6aeuij86llh","geo_precision":"city","state":"NV"},"type":"Feature","geometry":{"type":"Point","coordinates":[-118.109585,38.387008]}},{"properties":{"city":"National Mine","geo_score":0.75,"id":"a6aeuisdtcyj","geo_precision":"city","state":"NV"},"type":"Feature","geometry":{"type":"Point","coordinates":[-118.109585,38.387008]}},{"properties":{"city":"North Battle Mountain","geo_score":0.82,"id":"a6aeuiprtxj9","geo_precision":"city","state":"NV"},"type":"Feature","geometry":{"type":"Point","coordinates":[-116.974803,40.042115]}},{"properties":{"city":"Potosi Mine","geo_score":0.757,"id":"a6aeuic77aw3","geo_precision":"city","state":"NV"},"type":"Feature","geometry":{"type":"Point","coordinates":[-118.109585,38.387008]}},{"properties":{"city":"Raolroad Mine","geo_score":0.75,"id":"a6aeuiqownqn","geo_precision":"city","state":"NV"},"type":"Feature","geometry":{"type":"Point","coordinates":[-118.109585,38.387008]}},{"properties":{"city":"Rochester Mine","geo_score":0.747,"id":"a6aeuih62t55","geo_precision":"city","state":"NV"},"type":"Feature","geometry":{"type":"Point","coordinates":[-118.109585,38.387008]}},{"properties":{"city":"Safford Mine","geo_score":0.753,"id":"a6aeuiml9nt2","geo_precision":"city","state":"NV"},"type":"Feature","geometry":{"type":"Point","coordinates":[-118.109585,38.387008]}},{"properties":{"city":"Scraper Springs","geo_score":0.745,"id":"a6aeuigrdnyg","geo_precision":"city","state":"NV"},"type":"Feature","geometry":{"type":"Point","coordinates":[-115.585895,40.726593]}},{"properties":{"city":"Seven Thoughts Mine","geo_score":0.739,"id":"a6aeuiqfiaqk","geo_precision":"city","state":"NV"},"type":"Feature","geometry":{"type":"Point","coordinates":[-118.109585,38.387008]}},{"properties":{"city":"Star Mine","geo_score":0.768,"id":"a6aeuio9lmn8","geo_precision":"city","state":"NV"},"type":"Feature","geometry":{"type":"Point","coordinates":[-118.109585,38.387008]}},{"properties":{"city":"Swales Mine","geo_score":0.757,"id":"a6aeuij3kefy","geo_precision":"city","state":"NV"},"type":"Feature","geometry":{"type":"Point","coordinates":[-118.109585,38.387008]}},{"properties":{"city":"Tenmile Mine","geo_score":0.753,"id":"a6aeuisaudy9","geo_precision":"city","state":"NV"},"type":"Feature","geometry":{"type":"Point","coordinates":[-118.109585,38.387008]}},{"properties":{"city":"Tuscarora","geo_score":0.857,"id":"a6aeuipxb7x7","geo_precision":"city","state":"NV"},"type":"Feature","geometry":{"type":"Point","coordinates":[-115.529596,41.059414]}},{"properties":{"city":"Willard Mine","geo_score":0.753,"id":"a6aeuiscjnvn","geo_precision":"city","state":"NV"},"type":"Feature","geometry":{"type":"Point","coordinates":[-118.109585,38.387008]}}],"is_temporal":false,"author":{"url":"http://pubs.usgs.gov/bul/b2210-d/B2210-D-508.pdf","metadata":"","contact_name":"","contact_address":"","source":"U.S.G.S.","contact_phone":""},"source":"http://pubs.usgs.gov/bul/b2210-d/B2210-D-508.pdf","pagination":{"sort":null,"start":0,"total":39,"limit":1000000},"state":"complete","tags":"","published":"2012-05-08T19:23:06Z","id":239675}