{"type":"FeatureCollection","data_type":"Dataset Analysis","url_type":null,"permissions":[{"permissions":{"download":true,"view":true},"group_id":"everyone"}],"classification":null,"title":"Filtered Features of 'Apartments Mapping File' based on '4900 Junius'","count":114,"stream_id":240052,"contributor":{"url":"http://geocommons.com/users/38931","name":"shanewallen"},"data_attributes":null,"calculation_params":[{"calculation":"buffer_intersect","input":{"min_distance":"0","ds1":"239946","ds2":"240044","unit":"miles","distance":"1"}}],"icon_link":null,"link":"http://geocommons.com/overlays/240052.json","extent":[-96.7827,32.7883,-96.7553,32.8121],"geometry_types":["point"],"unique_name":null,"name":"Filtered Features of 'Apartments Mapping File' based on '4900 Junius'","feature_count":114,"description":"Dataset created by filtering features of 'Apartments Mapping File' that are within a buffer of 0 to 1 miles around the features in '4900 Junius'","next_feature":null,"is_raster":false,"short_classification":"Y","stats":{"score":{"max":68,"variance":698.666666666667,"mean":24.0,"stdev":26.4323034687987,"min":0,"median":20},"geo_score":{"max":0.805,"variance":0.00198083504114269,"mean":0.759201754385966,"stdev":0.0445065730105418,"min":0.695,"median":0.74}},"features":[{"properties":{"notes 1":null,"score":null,"city":"DALLAS","location name":"BENHEIM PLACE APTS","notes 2":null,"last insp. date":"1/1/2007","geo_score":0.805,"id":"89","geo_precision":"range","address":"4514 ASH LN","state":"TX"},"type":"Feature","geometry":{"type":"Point","coordinates":[-96.763395,32.788307]}},{"properties":{"notes 1":null,"score":null,"city":"DALLAS","location name":"4 PLEX","notes 2":null,"last insp. date":"2/1/2007","geo_score":0.732,"id":"111","geo_precision":"range","address":"4116 JUNIUS","state":"TX"},"type":"Feature","geometry":{"type":"Point","coordinates":[-96.775728,32.793122]}},{"properties":{"notes 1":null,"score":null,"city":"DALLAS","location name":"HASKELL PLACE APTS","notes 2":null,"last insp. date":"5/5/2006","geo_score":0.698,"id":"63","geo_precision":"range","address":"922 HASKELL","state":"TX"},"type":"Feature","geometry":{"type":"Point","coordinates":[-96.777026,32.794072]}},{"properties":{"notes 1":null,"score":null,"city":"DALLAS","location name":"THE DUNES","notes 2":null,"last insp. date":"4/1/2009","geo_score":0.721,"id":"256","geo_precision":"range","address":"4414 WORTH","state":"TX"},"type":"Feature","geometry":{"type":"Point","coordinates":[-96.772181,32.794322]}},{"properties":{"notes 1":null,"score":null,"city":"DALLAS","location name":"APTS","notes 2":null,"last insp. date":"5/8/2005","geo_score":0.721,"id":"21","geo_precision":"range","address":"4417 WORTH","state":"TX"},"type":"Feature","geometry":{"type":"Point","coordinates":[-96.772166,32.794337]}},{"properties":{"notes 1":null,"score":68,"city":"DALLAS","location name":"4-PLEX","notes 2":null,"last insp. date":"1/30/2008","geo_score":0.805,"id":"185","geo_precision":"range","address":"4936 EAST SIDE AVE","state":"TX"},"type":"Feature","geometry":{"type":"Point","coordinates":[-96.762123,32.794869]}},{"properties":{"notes 1":null,"score":40,"city":"DALLAS","location name":"4 PLEX","notes 2":null,"last insp. date":"2/5/2008","geo_score":0.721,"id":"187","geo_precision":"range","address":"4507 WORTH","state":"TX"},"type":"Feature","geometry":{"type":"Point","coordinates":[-96.771624,32.795172]}},{"properties":{"notes 1":null,"score":null,"city":"DALLAS","location name":"SWISSAIRE APTS","notes 2":null,"last insp. date":"1/1/2007","geo_score":0.695,"id":"90","geo_precision":"range","address":"4125 SWISS","state":"TX"},"type":"Feature","geometry":{"type":"Point","coordinates":[-96.778007,32.795234]}},{"properties":{"notes 1":null,"score":null,"city":"DALLAS","location name":"GUIDERA COURT","notes 2":null,"last insp. date":"1/26/2007","geo_score":0.707,"id":"103","geo_precision":"range","address":"4303 GASTON","state":"TX"},"type":"Feature","geometry":{"type":"Point","coordinates":[-96.775205,32.795313]}},{"properties":{"notes 1":null,"score":null,"city":"DALLAS","location name":"CEDARWOOD APTS","notes 2":null,"last insp. date":"6/27/2007","geo_score":0.707,"id":"143","geo_precision":"range","address":"4309 GASTON","state":"TX"},"type":"Feature","geometry":{"type":"Point","coordinates":[-96.775162,32.795355]}},{"properties":{"notes 1":null,"score":null,"city":"DALLAS","location name":"SANDS APTS","notes 2":null,"last insp. date":"7/3/2007","geo_score":0.707,"id":"145","geo_precision":"range","address":"4317 GASTON","state":"TX"},"type":"Feature","geometry":{"type":"Point","coordinates":[-96.775105,32.795411]}},{"properties":{"notes 1":null,"score":null,"city":"DALLAS","location name":"OUR FRIEND'S PLACE","notes 2":null,"last insp. date":"5/16/2005","geo_score":0.732,"id":"24","geo_precision":"range","address":"4500 JUNIUS","state":"TX"},"type":"Feature","geometry":{"type":"Point","coordinates":[-96.772477,32.795811]}},{"properties":{"notes 1":null,"score":null,"city":"DALLAS","location name":"CASA TREMONT APTS","notes 2":null,"last insp. date":"11/13/2006","geo_score":0.74,"id":"86","geo_precision":"range","address":"4700 TREMONT","state":"TX"},"type":"Feature","geometry":{"type":"Point","coordinates":[-96.769127,32.795851]}},{"properties":{"notes 1":null,"score":null,"city":"DALLAS","location name":"PARKMORE APTS","notes 2":null,"last insp. date":"9/5/2008","geo_score":0.74,"id":"200","geo_precision":"range","address":"4701 TREMONT","state":"TX"},"type":"Feature","geometry":{"type":"Point","coordinates":[-96.769127,32.795851]}},{"properties":{"notes 1":null,"score":null,"city":"DALLAS","location name":"CASA TREMONT APTS","notes 2":null,"last insp. date":"11/12/2008","geo_score":0.74,"id":"220","geo_precision":"range","address":"4706 TREMONT","state":"TX"},"type":"Feature","geometry":{"type":"Point","coordinates":[-96.769072,32.795905]}},{"properties":{"notes 1":null,"score":null,"city":"DALLAS","location name":"JUNIUS PLACE 2","notes 2":null,"last insp. date":"6/23/2006","geo_score":0.732,"id":"72","geo_precision":"range","address":"4512 JUNIUS","state":"TX"},"type":"Feature","geometry":{"type":"Point","coordinates":[-96.772382,32.795906]}},{"properties":{"notes 1":null,"score":null,"city":"DALLAS","location name":"JUNIUS PLACE 1","notes 2":null,"last insp. date":"9/16/2005","geo_score":0.732,"id":"37","geo_precision":"range","address":"4511 JUNIUS","state":"TX"},"type":"Feature","geometry":{"type":"Point","coordinates":[-96.772358,32.79593]}},{"properties":{"notes 1":null,"score":0,"city":"DALLAS","location name":"APTS","notes 2":null,"last insp. date":"7/31/2007","geo_score":0.732,"id":"147","geo_precision":"range","address":"4517 JUNIUS","state":"TX"},"type":"Feature","geometry":{"type":"Point","coordinates":[-96.772286,32.796001]}},{"properties":{"notes 1":null,"score":null,"city":"DALLAS","location name":"WORTH PLACE APTS","notes 2":null,"last insp. date":"4/24/2006","geo_score":0.721,"id":"59","geo_precision":"range","address":"4637 WORTH","state":"TX"},"type":"Feature","geometry":{"type":"Point","coordinates":[-96.770453,32.796189]}},{"properties":{"notes 1":null,"score":null,"city":"DALLAS","location name":"4 PLEX","notes 2":null,"last insp. date":"7/28/2008","geo_score":0.732,"id":"193","geo_precision":"range","address":"4612 JUNIUS","state":"TX"},"type":"Feature","geometry":{"type":"Point","coordinates":[-96.77146,32.796688]}},{"properties":{"notes 1":null,"score":null,"city":"DALLAS","location name":"4 PLEX","notes 2":null,"last insp. date":"4/22/2009","geo_score":0.721,"id":"259","geo_precision":"range","address":"4701 WORTH","state":"TX"},"type":"Feature","geometry":{"type":"Point","coordinates":[-96.769831,32.796689]}},{"properties":{"notes 1":null,"score":null,"city":"DALLAS","location name":"LIFEFORCE","notes 2":null,"last insp. date":"9/4/2008","geo_score":0.707,"id":"199","geo_precision":"range","address":"4513 GASTON","state":"TX"},"type":"Feature","geometry":{"type":"Point","coordinates":[-96.773453,32.796765]}},{"properties":{"notes 1":null,"score":null,"city":"DALLAS","location name":"APTS","notes 2":null,"last insp. date":"11/29/2005","geo_score":0.707,"id":"43","geo_precision":"range","address":"4926 REIGER","state":"TX"},"type":"Feature","geometry":{"type":"Point","coordinates":[-96.763977,32.796979]}},{"properties":{"notes 1":null,"score":null,"city":"DALLAS","location name":"APTS","notes 2":null,"last insp. date":"9/12/2007","geo_score":0.732,"id":"166","geo_precision":"range","address":"4603 JUNIUS","state":"TX"},"type":"Feature","geometry":{"type":"Point","coordinates":[-96.771028,32.797008]}},{"properties":{"notes 1":null,"score":null,"city":"DALLAS","location name":"LAKEWOOD CLUB","notes 2":null,"last insp. date":"1/31/2007","geo_score":0.715,"id":"109","geo_precision":"range","address":"200 HENDERSON","state":"TX"},"type":"Feature","geometry":{"type":"Point","coordinates":[-96.75858,32.797579]}},{"properties":{"notes 1":null,"score":null,"city":"DALLAS","location name":"4 PLEX","notes 2":null,"last insp. date":"4/5/2005","geo_score":0.721,"id":"16","geo_precision":"range","address":"4820 WORTH","state":"TX"},"type":"Feature","geometry":{"type":"Point","coordinates":[-96.768665,32.797692]}},{"properties":{"notes 1":null,"score":null,"city":"DALLAS","location name":"4 PLEX","notes 2":null,"last insp. date":"4/7/2005","geo_score":0.721,"id":"17","geo_precision":"range","address":"4837 WORTH","state":"TX"},"type":"Feature","geometry":{"type":"Point","coordinates":[-96.768479,32.797876]}},{"properties":{"notes 1":null,"score":null,"city":"DALLAS","location name":"4 PLEX","notes 2":null,"last insp. date":"6/27/2005","geo_score":0.695,"id":"30","geo_precision":"range","address":"4509 SWISS","state":"TX"},"type":"Feature","geometry":{"type":"Point","coordinates":[-96.774764,32.797887]}},{"properties":{"notes 1":null,"score":null,"city":"DALLAS","location name":"4 PLEX","notes 2":null,"last insp. date":"1/18/2007","geo_score":0.695,"id":"97","geo_precision":"range","address":"4512 SWISS","state":"TX"},"type":"Feature","geometry":{"type":"Point","coordinates":[-96.774736,32.797915]}},{"properties":{"notes 1":null,"score":null,"city":"DALLAS","location name":"APTS","notes 2":null,"last insp. date":"1/30/2007","geo_score":0.695,"id":"106","geo_precision":"range","address":"4515 SWISS","state":"TX"},"type":"Feature","geometry":{"type":"Point","coordinates":[-96.774721,32.79793]}},{"properties":{"notes 1":null,"score":null,"city":"DALLAS","location name":"APTS","notes 2":null,"last insp. date":"9/11/2008","geo_score":0.707,"id":"201","geo_precision":"range","address":"4701 GASTON","state":"TX"},"type":"Feature","geometry":{"type":"Point","coordinates":[-96.771813,32.798107]}},{"properties":{"notes 1":null,"score":null,"city":"DALLAS","location name":"4 PLEX","notes 2":null,"last insp. date":"10/20/2005","geo_score":0.732,"id":"41","geo_precision":"range","address":"4719 JUNIUS","state":"TX"},"type":"Feature","geometry":{"type":"Point","coordinates":[-96.769533,32.798231]}},{"properties":{"notes 1":null,"score":null,"city":"DALLAS","location name":"LAKEWOOD CLUB","notes 2":null,"last insp. date":"5/9/2006","geo_score":0.715,"id":"66","geo_precision":"range","address":"100 HENDERSON","state":"TX"},"type":"Feature","geometry":{"type":"Point","coordinates":[-96.75963,32.798516]}},{"properties":{"notes 1":null,"score":null,"city":"DALLAS","location name":"SWISSWOOD APTS","notes 2":null,"last insp. date":"3/1/2007","geo_score":0.695,"id":"127","geo_precision":"range","address":"4602 SWISS","state":"TX"},"type":"Feature","geometry":{"type":"Point","coordinates":[-96.773853,32.798657]}},{"properties":{"notes 1":null,"score":null,"city":"DALLAS","location name":"APTS","notes 2":null,"last insp. date":"5/1/2009","geo_score":0.695,"id":"263","geo_precision":"range","address":"1001 ANNEX","state":"TX"},"type":"Feature","geometry":{"type":"Point","coordinates":[-96.772438,32.798705]}},{"properties":{"notes 1":null,"score":null,"city":"DALLAS","location name":"APTS","notes 2":null,"last insp. date":"11/16/2004","geo_score":0.721,"id":"2","geo_precision":"range","address":"4917 WORTH","state":"TX"},"type":"Feature","geometry":{"type":"Point","coordinates":[-96.767314,32.798817]}},{"properties":{"notes 1":null,"score":null,"city":"DALLAS","location name":"GOLDEN OAKS APTS","notes 2":null,"last insp. date":"5/10/2005","geo_score":0.805,"id":"22","geo_precision":"range","address":"1517 N HASKELL AVE","state":"TX"},"type":"Feature","geometry":{"type":"Point","coordinates":[-96.782439,32.798925]}},{"properties":{"notes 1":null,"score":null,"city":"DALLAS","location name":"GOLDEN OAKS APTS","notes 2":null,"last insp. date":"6/27/2005","geo_score":0.805,"id":"31","geo_precision":"range","address":"1525 N HASKELL AVE","state":"TX"},"type":"Feature","geometry":{"type":"Point","coordinates":[-96.782735,32.798977]}},{"properties":{"notes 1":null,"score":null,"city":"DALLAS","location name":"COLONY CORNER","notes 2":null,"last insp. date":"3/23/2007","geo_score":0.732,"id":"130","geo_precision":"range","address":"4903 JUNIUS","state":"TX"},"type":"Feature","geometry":{"type":"Point","coordinates":[-96.768263,32.799269]}},{"properties":{"notes 1":null,"score":null,"city":"DALLAS","location name":"4 PLEX","notes 2":null,"last insp. date":"3/1/2007","geo_score":0.695,"id":"126","geo_precision":"range","address":"4709 SWISS","state":"TX"},"type":"Feature","geometry":{"type":"Point","coordinates":[-96.773097,32.799291]}},{"properties":{"notes 1":null,"score":null,"city":"DALLAS","location name":"LAGO DEL MAR APTS","notes 2":null,"last insp. date":"1/24/2007","geo_score":0.74,"id":"98","geo_precision":"range","address":"4509 LIVE OAK","state":"TX"},"type":"Feature","geometry":{"type":"Point","coordinates":[-96.776412,32.799396]}},{"properties":{"notes 1":null,"score":null,"city":"DALLAS","location name":"APTS","notes 2":null,"last insp. date":"12/20/2004","geo_score":0.717,"id":"5","geo_precision":"range","address":"1001 GRIGSBY","state":"TX"},"type":"Feature","geometry":{"type":"Point","coordinates":[-96.771543,32.799445]}},{"properties":{"notes 1":null,"score":null,"city":"DALLAS","location name":"WALES APTS","notes 2":null,"last insp. date":"1/31/2007","geo_score":0.74,"id":"107","geo_precision":"range","address":"4515 LIVE OAK","state":"TX"},"type":"Feature","geometry":{"type":"Point","coordinates":[-96.77634,32.799467]}},{"properties":{"notes 1":null,"score":null,"city":"DALLAS","location name":"LAS BRISAS MANOR","notes 2":null,"last insp. date":"2/22/2007","geo_score":0.74,"id":"117","geo_precision":"range","address":"4524 LIVE OAK","state":"TX"},"type":"Feature","geometry":{"type":"Point","coordinates":[-96.77622,32.799587]}},{"properties":{"notes 1":null,"score":null,"city":"DALLAS","location name":"STARLITE APTS","notes 2":null,"last insp. date":"10/17/2007","geo_score":0.732,"id":"178","geo_precision":"range","address":"4931 JUNIUS","state":"TX"},"type":"Feature","geometry":{"type":"Point","coordinates":[-96.767861,32.799668]}},{"properties":{"notes 1":null,"score":null,"city":"DALLAS","location name":"APTS","notes 2":null,"last insp. date":"11/12/2008","geo_score":0.732,"id":"217","geo_precision":"range","address":"4935 JUNIUS","state":"TX"},"type":"Feature","geometry":{"type":"Point","coordinates":[-96.767804,32.799725]}},{"properties":{"notes 1":null,"score":null,"city":"DALLAS","location name":"APTS","notes 2":null,"last insp. date":"3/26/2007","geo_score":0.695,"id":"132","geo_precision":"range","address":"4806 SWISS","state":"TX"},"type":"Feature","geometry":{"type":"Point","coordinates":[-96.772137,32.800109]}},{"properties":{"notes 1":null,"score":20,"city":"DALLAS","location name":"GASTON AVE APTS","notes 2":null,"last insp. date":"1/22/2008","geo_score":0.805,"id":"183","geo_precision":"range","address":"4915 GASTON AVE","state":"TX"},"type":"Feature","geometry":{"type":"Point","coordinates":[-96.769112,32.800333]}},{"properties":{"notes 1":null,"score":null,"city":"DALLAS","location name":"REIGER APTS","notes 2":null,"last insp. date":"11/3/2006","geo_score":0.707,"id":"85","geo_precision":"range","address":"5418 REIGER","state":"TX"},"type":"Feature","geometry":{"type":"Point","coordinates":[-96.759548,32.800397]}},{"properties":{"notes 1":null,"score":null,"city":"DALLAS","location name":"BRYAN RIDGE APTS","notes 2":null,"last insp. date":"9/1/2007","geo_score":0.805,"id":"160","geo_precision":"range","address":"4514 BRYAN ST","state":"TX"},"type":"Feature","geometry":{"type":"Point","coordinates":[-96.777523,32.800516]}},{"properties":{"notes 1":null,"score":null,"city":"DALLAS","location name":"4 PLEX","notes 2":null,"last insp. date":"8/20/2007","geo_score":0.695,"id":"155","geo_precision":"range","address":"4842 SWISS","state":"TX"},"type":"Feature","geometry":{"type":"Point","coordinates":[-96.771653,32.800568]}},{"properties":{"notes 1":null,"score":null,"city":"DALLAS","location name":"4 PLEX","notes 2":null,"last insp. date":"1/23/2008","geo_score":0.695,"id":"184","geo_precision":"range","address":"4846 SWISS","state":"TX"},"type":"Feature","geometry":{"type":"Point","coordinates":[-96.771599,32.800619]}},{"properties":{"notes 1":null,"score":null,"city":"DALLAS","location name":"OAKBLUFF CONDOS","notes 2":null,"last insp. date":"8/1/2007","geo_score":0.695,"id":"149","geo_precision":"range","address":"1317 ANNEX","state":"TX"},"type":"Feature","geometry":{"type":"Point","coordinates":[-96.77527,32.800645]}},{"properties":{"notes 1":null,"score":null,"city":"DALLAS","location name":"APTS","notes 2":null,"last insp. date":"4/15/2009","geo_score":0.732,"id":"257","geo_precision":"range","address":"5002 JUNIUS","state":"TX"},"type":"Feature","geometry":{"type":"Point","coordinates":[-96.766593,32.800658]}},{"properties":{"notes 1":null,"score":null,"city":"DALLAS","location name":"JUNIUS APTS","notes 2":null,"last insp. date":"5/8/2009","geo_score":0.732,"id":"267","geo_precision":"range","address":"5015 JUNIUS","state":"TX"},"type":"Feature","geometry":{"type":"Point","coordinates":[-96.766519,32.800734]}},{"properties":{"notes 1":null,"score":null,"city":"DALLAS","location name":"APTS","notes 2":null,"last insp. date":"8/14/2008","geo_score":0.74,"id":"197","geo_precision":"range","address":"4630 LIVE OAK","state":"TX"},"type":"Feature","geometry":{"type":"Point","coordinates":[-96.774782,32.800793]}},{"properties":{"notes 1":null,"score":null,"city":"DALLAS","location name":"APTS","notes 2":null,"last insp. date":"9/11/2008","geo_score":0.74,"id":"202","geo_precision":"range","address":"4638 LIVE OAK","state":"TX"},"type":"Feature","geometry":{"type":"Point","coordinates":[-96.774695,32.800879]}},{"properties":{"notes 1":null,"score":null,"city":"DALLAS","location name":"LEANDRO APTS","notes 2":null,"last insp. date":"6/1/2007","geo_score":0.707,"id":"141","geo_precision":"range","address":"5510 REIGER","state":"TX"},"type":"Feature","geometry":{"type":"Point","coordinates":[-96.758609,32.801113]}},{"properties":{"notes 1":null,"score":null,"city":"DALLAS","location name":"LA FINA APTS","notes 2":null,"last insp. date":"11/12/2008","geo_score":0.707,"id":"216","geo_precision":"range","address":"5526 REIGER","state":"TX"},"type":"Feature","geometry":{"type":"Point","coordinates":[-96.758421,32.801287]}},{"properties":{"notes 1":null,"score":null,"city":"DALLAS","location name":"APTS","notes 2":null,"last insp. date":"5/8/2009","geo_score":0.732,"id":"266","geo_precision":"range","address":"5119 JUNIUS","state":"TX"},"type":"Feature","geometry":{"type":"Point","coordinates":[-96.76571,32.801465]}},{"properties":{"notes 1":null,"score":null,"city":"DALLAS","location name":"APTS","notes 2":null,"last insp. date":"5/25/2004","geo_score":0.721,"id":"1","geo_precision":"range","address":"5211 WORTH","state":"TX"},"type":"Feature","geometry":{"type":"Point","coordinates":[-96.76405,32.801518]}},{"properties":{"notes 1":null,"score":0,"city":"DALLAS","location name":"CARROLL SQUARE","notes 2":null,"last insp. date":"1/26/2007","geo_score":0.805,"id":"105","geo_precision":"range","address":"1522 N CARROLL AVE.","state":"TX"},"type":"Feature","geometry":{"type":"Point","coordinates":[-96.779133,32.801715]}},{"properties":{"notes 1":null,"score":null,"city":"DALLAS","location name":"BRYAN SONG","notes 2":null,"last insp. date":"12/17/2008","geo_score":0.805,"id":"225","geo_precision":"range","address":"4625 BRYAN ST","state":"TX"},"type":"Feature","geometry":{"type":"Point","coordinates":[-96.776021,32.801785]}},{"properties":{"notes 1":null,"score":null,"city":"DALLAS","location name":"BRYAN SONG","notes 2":null,"last insp. date":"1/23/2009","geo_score":0.805,"id":"232","geo_precision":"range","address":"4635 BRYAN ST","state":"TX"},"type":"Feature","geometry":{"type":"Point","coordinates":[-96.775911,32.80189]}},{"properties":{"notes 1":null,"score":null,"city":"DALLAS","location name":"BRYAN SONG","notes 2":null,"last insp. date":"5/7/2009","geo_score":0.805,"id":"265","geo_precision":"range","address":"4645 BRYAN ST","state":"TX"},"type":"Feature","geometry":{"type":"Point","coordinates":[-96.775802,32.801995]}},{"properties":{"notes 1":null,"score":null,"city":"DALLAS","location name":"LIVE OAK ROOMING HOUSE","notes 2":null,"last insp. date":"9/24/2008","geo_score":0.74,"id":"204","geo_precision":"range","address":"4801 LIVE OAK","state":"TX"},"type":"Feature","geometry":{"type":"Point","coordinates":[-96.773068,32.802149]}},{"properties":{"notes 1":null,"score":null,"city":"DALLAS","location name":"4 PLEX","notes 2":null,"last insp. date":"11/4/2008","geo_score":0.74,"id":"210","geo_precision":"range","address":"4806 LIVE OAK","state":"TX"},"type":"Feature","geometry":{"type":"Point","coordinates":[-96.773032,32.802185]}},{"properties":{"notes 1":null,"score":null,"city":"DALLAS","location name":"APTS","notes 2":null,"last insp. date":"11/12/2008","geo_score":0.74,"id":"219","geo_precision":"range","address":"4810 LIVE OAK","state":"TX"},"type":"Feature","geometry":{"type":"Point","coordinates":[-96.773007,32.802208]}},{"properties":{"notes 1":null,"score":null,"city":"DALLAS","location name":"ANNEX MANOR APARTMENTS","notes 2":null,"last insp. date":"6/23/2006","geo_score":0.805,"id":"73","geo_precision":"range","address":"1516 ANNEX AVE","state":"TX"},"type":"Feature","geometry":{"type":"Point","coordinates":[-96.7772,32.802368]}},{"properties":{"notes 1":null,"score":null,"city":"DALLAS","location name":"NO NAME","notes 2":null,"last insp. date":"2/26/2007","geo_score":0.805,"id":"119","geo_precision":"range","address":"5639 REIGER AVE","state":"TX"},"type":"Feature","geometry":{"type":"Point","coordinates":[-96.756849,32.802484]}},{"properties":{"notes 1":null,"score":null,"city":"DALLAS","location name":"NO NAME","notes 2":null,"last insp. date":"2/14/2007","geo_score":0.805,"id":"112","geo_precision":"range","address":"5121 GASTON AVE","state":"TX"},"type":"Feature","geometry":{"type":"Point","coordinates":[-96.766289,32.802867]}},{"properties":{"notes 1":null,"score":null,"city":"DALLAS","location name":"CORNERSTONE APTS","notes 2":null,"last insp. date":"2/21/2007","geo_score":0.805,"id":"115","geo_precision":"range","address":"5207 GASTON AVE","state":"TX"},"type":"Feature","geometry":{"type":"Point","coordinates":[-96.765828,32.803036]}},{"properties":{"notes 1":null,"score":null,"city":"DALLAS","location name":"APARTMENTS","notes 2":null,"last insp. date":"8/17/2006","geo_score":0.805,"id":"79","geo_precision":"range","address":"1604 ANNEX AVE","state":"TX"},"type":"Feature","geometry":{"type":"Point","coordinates":[-96.77818,32.803177]}},{"properties":{"notes 1":null,"score":null,"city":"DALLAS","location name":"WESTWOOD APTS","notes 2":null,"last insp. date":"2/23/2009","geo_score":0.805,"id":"236","geo_precision":"range","address":"4928 LIVE OAK ST","state":"TX"},"type":"Feature","geometry":{"type":"Point","coordinates":[-96.771268,32.803652]}},{"properties":{"notes 1":null,"score":null,"city":"DALLAS","location name":"NO NAME","notes 2":null,"last insp. date":"11/12/2008","geo_score":0.805,"id":"215","geo_precision":"range","address":"5811 REIGER AVE","state":"TX"},"type":"Feature","geometry":{"type":"Point","coordinates":[-96.755347,32.80367]}},{"properties":{"notes 1":null,"score":null,"city":"DALLAS","location name":"WESTWOOD APTS","notes 2":null,"last insp. date":"4/1/2009","geo_score":0.805,"id":"255","geo_precision":"range","address":"4936 LIVE OAK ST","state":"TX"},"type":"Feature","geometry":{"type":"Point","coordinates":[-96.771224,32.803695]}},{"properties":{"notes 1":null,"score":null,"city":"DALLAS","location name":"GASTON VILLAGE","notes 2":null,"last insp. date":"2/21/2006","geo_score":0.707,"id":"53","geo_precision":"range","address":"5324 GASTON","state":"TX"},"type":"Feature","geometry":{"type":"Point","coordinates":[-96.765149,32.8037]}},{"properties":{"notes 1":null,"score":null,"city":"DALLAS","location name":"MISSIONARY CHURCH APARTMENTS","notes 2":null,"last insp. date":"5/7/2009","geo_score":0.805,"id":"264","geo_precision":"range","address":"4911 BRYAN ST","state":"TX"},"type":"Feature","geometry":{"type":"Point","coordinates":[-96.773454,32.803883]}},{"properties":{"notes 1":null,"score":null,"city":"DALLAS","location name":"COURTYARD APARTMENTS","notes 2":null,"last insp. date":"5/1/2009","geo_score":0.805,"id":"262","geo_precision":"range","address":"4806 VIRGINIA AVE.","state":"TX"},"type":"Feature","geometry":{"type":"Point","coordinates":[-96.775094,32.803964]}},{"properties":{"notes 1":null,"score":null,"city":"DALLAS","location name":"MUNGE JHM APARTMENTS","notes 2":null,"last insp. date":"5/8/2006","geo_score":0.805,"id":"65","geo_precision":"range","address":"4517 MUNGER AVE","state":"TX"},"type":"Feature","geometry":{"type":"Point","coordinates":[-96.781535,32.804201]}},{"properties":{"notes 1":null,"score":null,"city":"DALLAS","location name":"MAGELLON APARTMENTS","notes 2":null,"last insp. date":"2/27/2007","geo_score":0.805,"id":"121","geo_precision":"range","address":"1415 BENNETT AVE.","state":"TX"},"type":"Feature","geometry":{"type":"Point","coordinates":[-96.772554,32.804834]}},{"properties":{"notes 1":null,"score":null,"city":"DALLAS","location name":"EL MIRAMI","notes 2":null,"last insp. date":"1/25/2007","geo_score":0.805,"id":"99","geo_precision":"range","address":"1416 BENNETT AVE.","state":"TX"},"type":"Feature","geometry":{"type":"Point","coordinates":[-96.772569,32.804847]}},{"properties":{"notes 1":null,"score":null,"city":"DALLAS","location name":"ALEXANDER COURT APARTMENTS","notes 2":null,"last insp. date":"3/23/2007","geo_score":0.805,"id":"131","geo_precision":"range","address":"4619 ROSS AVE.","state":"TX"},"type":"Feature","geometry":{"type":"Point","coordinates":[-96.778036,32.804858]}},{"properties":{"notes 1":null,"score":null,"city":"DALLAS","location name":"SHERMAN OAKS @UPPER E","notes 2":null,"last insp. date":"4/1/2009","geo_score":0.805,"id":"254","geo_precision":"range","address":"5118 LIVE OAK ST","state":"TX"},"type":"Feature","geometry":{"type":"Point","coordinates":[-96.7698,32.80488]}},{"properties":{"notes 1":null,"score":null,"city":"DALLAS","location name":"DEBUTANTE APARTMENTS","notes 2":null,"last insp. date":"3/12/2007","geo_score":0.805,"id":"128","geo_precision":"range","address":"1422 BENNETT AVE.","state":"TX"},"type":"Feature","geometry":{"type":"Point","coordinates":[-96.772613,32.804886]}},{"properties":{"notes 1":null,"score":40,"city":"DALLAS","location name":"APTS","notes 2":null,"last insp. date":"9/26/2007","geo_score":0.805,"id":"174","geo_precision":"range","address":"5016 BRYAN ST","state":"TX"},"type":"Feature","geometry":{"type":"Point","coordinates":[-96.772281,32.804908]}},{"properties":{"notes 1":null,"score":null,"city":"DALLAS","location name":"APARTMENTS","notes 2":null,"last insp. date":"9/6/2007","geo_score":0.805,"id":"165","geo_precision":"range","address":"1429 BENNETT AVE.","state":"TX"},"type":"Feature","geometry":{"type":"Point","coordinates":[-96.772658,32.804924]}},{"properties":{"notes 1":null,"score":null,"city":"DALLAS","location name":"DEBUTANTE APARTMENTS","notes 2":null,"last insp. date":"8/17/2007","geo_score":0.805,"id":"154","geo_precision":"range","address":"1428 BENNETT AVE.","state":"TX"},"type":"Feature","geometry":{"type":"Point","coordinates":[-96.772658,32.804924]}},{"properties":{"notes 1":null,"score":null,"city":"DALLAS","location name":"CABRERAS","notes 2":null,"last insp. date":"9/6/2007","geo_score":0.805,"id":"164","geo_precision":"range","address":"1430 BENNETT AVE.","state":"TX"},"type":"Feature","geometry":{"type":"Point","coordinates":[-96.772673,32.804937]}},{"properties":{"notes 1":null,"score":null,"city":"DALLAS","location name":"NO NAME","notes 2":null,"last insp. date":"4/1/2009","geo_score":0.805,"id":"253","geo_precision":"range","address":"5124 LIVE OAK ST","state":"TX"},"type":"Feature","geometry":{"type":"Point","coordinates":[-96.769736,32.804946]}},{"properties":{"notes 1":null,"score":0,"city":"DALLAS","location name":"APTS","notes 2":null,"last insp. date":"12/20/2004","geo_score":0.805,"id":"6","geo_precision":"range","address":"5026 BRYAN ST","state":"TX"},"type":"Feature","geometry":{"type":"Point","coordinates":[-96.772176,32.80501]}},{"properties":{"notes 1":null,"score":null,"city":"DALLAS","location name":"BEACON HILL APTS","notes 2":null,"last insp. date":"5/19/2006","geo_score":0.805,"id":"68","geo_precision":"range","address":"711 N BEACON ST","state":"TX"},"type":"Feature","geometry":{"type":"Point","coordinates":[-96.760771,32.805013]}},{"properties":{"notes 1":null,"score":null,"city":"DALLAS","location name":"MARQUEE APTS","notes 2":null,"last insp. date":"2/21/2007","geo_score":0.805,"id":"114","geo_precision":"range","address":"5515 GASTON AVE","state":"TX"},"type":"Feature","geometry":{"type":"Point","coordinates":[-96.76313,32.805274]}},{"properties":{"notes 1":null,"score":null,"city":"DALLAS","location name":"CASA BUENA APARTMENTS","notes 2":null,"last insp. date":"9/26/2007","geo_score":0.805,"id":"173","geo_precision":"range","address":"1515 BENNETT AVE.","state":"TX"},"type":"Feature","geometry":{"type":"Point","coordinates":[-96.773333,32.805516]}},{"properties":{"notes 1":null,"score":null,"city":"DALLAS","location name":"CASA BUENA APARTMENTS","notes 2":null,"last insp. date":"2/7/2008","geo_score":0.805,"id":"188","geo_precision":"range","address":"1519 BENNETT AVE.","state":"TX"},"type":"Feature","geometry":{"type":"Point","coordinates":[-96.77336,32.805544]}},{"properties":{"notes 1":null,"score":null,"city":"DALLAS","location name":"NO NAME","notes 2":null,"last insp. date":"1/29/2009","geo_score":0.805,"id":"233","geo_precision":"range","address":"719 HUNTLEY ST","state":"TX"},"type":"Feature","geometry":{"type":"Point","coordinates":[-96.759947,32.805744]}},{"properties":{"notes 1":null,"score":null,"city":"DALLAS","location name":"APTS","notes 2":null,"last insp. date":"12/21/2004","geo_score":0.805,"id":"7","geo_precision":"range","address":"5122 BRYAN ST","state":"TX"},"type":"Feature","geometry":{"type":"Point","coordinates":[-96.771001,32.805953]}},{"properties":{"notes 1":null,"score":null,"city":"DALLAS","location name":"ALHAMBRA APARTMENTS","notes 2":null,"last insp. date":"1/1/2007","geo_score":0.707,"id":"88","geo_precision":"street","address":"5015 SAN JACINTO ST","state":"TX"},"type":"Feature","geometry":{"type":"Point","coordinates":[-96.773932,32.806264]}},{"properties":{"notes 1":null,"score":null,"city":"DALLAS","location name":"TAMERON APARTMENTS","notes 2":null,"last insp. date":"2/1/2007","geo_score":0.805,"id":"110","geo_precision":"range","address":"5021 SAN JACINTO ST","state":"TX"},"type":"Feature","geometry":{"type":"Point","coordinates":[-96.773887,32.806306]}},{"properties":{"notes 1":null,"score":null,"city":"DALLAS","location name":"BONAVENTURE","notes 2":null,"last insp. date":"3/12/2009","geo_score":0.805,"id":"243","geo_precision":"range","address":"1728 N FITZHUGH AVE.","state":"TX"},"type":"Feature","geometry":{"type":"Point","coordinates":[-96.776556,32.806446]}},{"properties":{"notes 1":null,"score":null,"city":"DALLAS","location name":"OXFORD HOUSE DALLAS","notes 2":null,"last insp. date":"9/4/2008","geo_score":0.805,"id":"198","geo_precision":"range","address":"726 GLENDALE ST","state":"TX"},"type":"Feature","geometry":{"type":"Point","coordinates":[-96.759183,32.806464]}},{"properties":{"notes 1":null,"score":null,"city":"DALLAS","location name":"NO NAME","notes 2":null,"last insp. date":"2/23/2007","geo_score":0.805,"id":"118","geo_precision":"range","address":"5645 GASTON AVE","state":"TX"},"type":"Feature","geometry":{"type":"Point","coordinates":[-96.761331,32.806804]}},{"properties":{"notes 1":null,"score":null,"city":"DALLAS","location name":"PARK TERRACE APTS","notes 2":null,"last insp. date":"7/23/2007","geo_score":0.805,"id":"146","geo_precision":"range","address":"5650 GASTON AVE","state":"TX"},"type":"Feature","geometry":{"type":"Point","coordinates":[-96.760992,32.807095]}},{"properties":{"notes 1":null,"score":null,"city":"DALLAS","location name":"1818 FITZHUGH APARTMENTS","notes 2":null,"last insp. date":"3/27/2007","geo_score":0.805,"id":"135","geo_precision":"range","address":"1818 N FITZHUGH AVE.","state":"TX"},"type":"Feature","geometry":{"type":"Point","coordinates":[-96.777445,32.807307]}},{"properties":{"notes 1":null,"score":null,"city":"DALLAS","location name":"FITZHUGH","notes 2":null,"last insp. date":"4/5/2006","geo_score":0.805,"id":"56","geo_precision":"range","address":"1826 N FITZHUGH AVE.","state":"TX"},"type":"Feature","geometry":{"type":"Point","coordinates":[-96.777519,32.807383]}},{"properties":{"notes 1":null,"score":null,"city":"DALLAS","location name":"4 PLEX","notes 2":null,"last insp. date":"5/16/2005","geo_score":0.805,"id":"23","geo_precision":"range","address":"5806 BRYAN PKWY","state":"TX"},"type":"Feature","geometry":{"type":"Point","coordinates":[-96.767295,32.807949]}},{"properties":{"notes 1":null,"score":null,"city":"DALLAS","location name":"NO NAME","notes 2":null,"last insp. date":"7/28/2006","geo_score":0.805,"id":"77","geo_precision":"range","address":"5918 BRYAN PKWY","state":"TX"},"type":"Feature","geometry":{"type":"Point","coordinates":[-96.766511,32.807954]}},{"properties":{"notes 1":null,"score":null,"city":"DALLAS","location name":"BENNETT APARTMENTS","notes 2":null,"last insp. date":"2/27/2007","geo_score":0.805,"id":"120","geo_precision":"range","address":"1819 BENNETT AVE","state":"TX"},"type":"Feature","geometry":{"type":"Point","coordinates":[-96.776328,32.808184]}},{"properties":{"notes 1":null,"score":null,"city":"DALLAS","location name":"VILLA SANTA MARIA APARTMENTS","notes 2":null,"last insp. date":"4/16/2009","geo_score":0.805,"id":"258","geo_precision":"range","address":"1830 BENNETT AVE","state":"TX"},"type":"Feature","geometry":{"type":"Point","coordinates":[-96.776443,32.808298]}},{"properties":{"notes 1":null,"score":null,"city":"DALLAS","location name":"GARRETT GABLES CONDOMINIUMS","notes 2":null,"last insp. date":"3/2/2004","geo_score":0.805,"id":"0","geo_precision":"range","address":"1820 N GARRETT AVE.","state":"TX"},"type":"Feature","geometry":{"type":"Point","coordinates":[-96.775364,32.809034]}},{"properties":{"notes 1":null,"score":null,"city":"DALLAS","location name":"NO NAME","notes 2":null,"last insp. date":"1/22/2008","geo_score":0.805,"id":"182","geo_precision":"range","address":"5800 ROSS AVE","state":"TX"},"type":"Feature","geometry":{"type":"Point","coordinates":[-96.76771,32.811132]}},{"properties":{"notes 1":null,"score":null,"city":"DALLAS","location name":"NO NAME","notes 2":null,"last insp. date":"1/16/2007","geo_score":0.74,"id":"96","geo_precision":"range","address":"1714 MATILDA","state":"TX"},"type":"Feature","geometry":{"type":"Point","coordinates":[-96.768558,32.811279]}},{"properties":{"notes 1":null,"score":null,"city":"DALLAS","location name":"NO NAME","notes 2":null,"last insp. date":"4/5/2006","geo_score":0.805,"id":"54","geo_precision":"range","address":"6030 LEWIS ST","state":"TX"},"type":"Feature","geometry":{"type":"Point","coordinates":[-96.762512,32.812127]}},{"properties":{"notes 1":null,"score":null,"city":"DALLAS","location name":"NO NAME","notes 2":null,"last insp. date":"4/5/2006","geo_score":0.805,"id":"55","geo_precision":"range","address":"5969 LEWIS ST","state":"TX"},"type":"Feature","geometry":{"type":"Point","coordinates":[-96.765087,32.812134]}}],"is_temporal":false,"author":{"url":"","metadata":"","contact_name":"","contact_address":"","source":"","contact_phone":""},"source":"","pagination":{"sort":null,"start":0,"total":114,"limit":1000000},"state":"complete","tags":"","published":"2014-08-14T14:51:45-04:00","id":240052}