{"type":"FeatureCollection","data_type":"Dataset","url_type":null,"permissions":[{"permissions":{"download":true,"view":true},"group_id":"everyone"}],"classification":null,"title":"Gay Proms Historically in the US","count":41,"stream_id":240798,"contributor":{"url":"http://geocommons.com/users/45542","name":"shawna.sherman"},"data_attributes":null,"calculation_params":null,"icon_link":null,"link":"http://geocommons.com/overlays/240798.json","extent":[-157.858,21.3069,-68.8789,47.3809],"geometry_types":["point"],"unique_name":null,"name":"Gay Proms Historically in the US","feature_count":41,"description":"Data compiled from newspaper articles about gay proms in the United States.","next_feature":null,"is_raster":false,"short_classification":"Y","stats":{"year":{"max":2011,"mean":2004.14634146341,"variance":17.3780487804878,"stdev":4.16869869149688,"min":1994,"median":2005}},"features":[{"properties":{"city":"Los Angeles","geo_score":0.857,"year":1994,"id":"a635qlzwz75e","geo_precision":"city","state":"CA"},"type":"Feature","geometry":{"type":"Point","coordinates":[-118.243685,34.052234]}},{"properties":{"city":"Ferndale","geo_score":0.857,"year":2008,"id":"a635qm011sot","geo_precision":"city","state":"MI"},"type":"Feature","geometry":{"type":"Point","coordinates":[-83.140675,42.460586]}},{"properties":{"city":"Grand Ledge","geo_score":0.757,"year":1998,"id":"a635qlzbxvq6","geo_precision":"city","state":"MI"},"type":"Feature","geometry":{"type":"Point","coordinates":[-85.306756,46.158336]}},{"properties":{"city":"Evansville","geo_score":0.857,"year":2008,"id":"a635qltfsnl2","geo_precision":"city","state":"IN"},"type":"Feature","geometry":{"type":"Point","coordinates":[-87.555848,37.974764]}},{"properties":{"city":"Kansas City","geo_score":0.857,"year":1999,"id":"a635qlrhsbim","geo_precision":"city","state":"MO"},"type":"Feature","geometry":{"type":"Point","coordinates":[-94.598583,39.102404]}},{"properties":{"city":"Savannah","geo_score":0.857,"year":2007,"id":"a635qlyregqo","geo_precision":"city","state":"GA"},"type":"Feature","geometry":{"type":"Point","coordinates":[-81.099834,32.083541]}},{"properties":{"city":"Jacksonville","geo_score":0.714,"year":2006,"id":"a635qlx9ohn4","geo_precision":"city","state":"FLA"},"type":"Feature","geometry":{"type":"Point","coordinates":[-81.655651,30.332184]}},{"properties":{"city":"Winston-Salem","geo_score":0.857,"year":2006,"id":"a635qm2mmmdc","geo_precision":"city","state":"NC"},"type":"Feature","geometry":{"type":"Point","coordinates":[-80.244216,36.09986]}},{"properties":{"city":"Tracy","geo_score":0.755,"year":2006,"id":"a635qlpvf5r0","geo_precision":"city","state":"CA"},"type":"Feature","geometry":{"type":"Point","coordinates":[-119.253446,36.417728]}},{"properties":{"city":"Dallas","geo_score":0.857,"year":1998,"id":"a635qltdzxnq","geo_precision":"city","state":"TX"},"type":"Feature","geometry":{"type":"Point","coordinates":[-96.806667,32.783056]}},{"properties":{"city":"Colorado Springs","geo_score":0.857,"year":2005,"id":"a635qlzsgvcj","geo_precision":"city","state":"CO"},"type":"Feature","geometry":{"type":"Point","coordinates":[-104.821363,38.833882]}},{"properties":{"city":"Salt Lake City","geo_score":0.857,"year":2005,"id":"a635qlukgob3","geo_precision":"city","state":"UT"},"type":"Feature","geometry":{"type":"Point","coordinates":[-111.891047,40.760779]}},{"properties":{"city":"Miami","geo_score":0.857,"year":2004,"id":"a635qm18ofnx","geo_precision":"city","state":"FL"},"type":"Feature","geometry":{"type":"Point","coordinates":[-80.193659,25.774266]}},{"properties":{"city":"Norfolk","geo_score":0.857,"year":2008,"id":"a635qlss6a49","geo_precision":"city","state":"VA"},"type":"Feature","geometry":{"type":"Point","coordinates":[-76.285218,36.846815]}},{"properties":{"city":"Snohomish County","geo_score":0.733,"year":2004,"id":"a635qlxck7ro","geo_precision":"city","state":"WA"},"type":"Feature","geometry":{"type":"Point","coordinates":[-122.234843,47.380934]}},{"properties":{"city":"Boston","geo_score":0.714,"year":2006,"id":"a635qlrc74fz","geo_precision":"city","state":"MA"},"type":"Feature","geometry":{"type":"Point","coordinates":[-71.059773,42.358431]}},{"properties":{"city":"Evansville","geo_score":0.857,"year":2003,"id":"a635qlry635e","geo_precision":"city","state":"IN"},"type":"Feature","geometry":{"type":"Point","coordinates":[-87.555848,37.974764]}},{"properties":{"city":"Wayne","geo_score":0.857,"year":2002,"id":"a635qltrtsnc","geo_precision":"city","state":"PA"},"type":"Feature","geometry":{"type":"Point","coordinates":[-75.357678,40.043201]}},{"properties":{"city":"Columbus","geo_score":0.776,"year":2002,"id":"a635qlxlslmf","geo_precision":"city","state":"OH"},"type":"Feature","geometry":{"type":"Point","coordinates":[-82.695724,39.998397]}},{"properties":{"city":"Kansas City","geo_score":0.857,"year":2005,"id":"a635qlpkq668","geo_precision":"city","state":"MO"},"type":"Feature","geometry":{"type":"Point","coordinates":[-94.598583,39.102404]}},{"properties":{"city":"Tampa","geo_score":0.857,"year":2001,"id":"a635qlsrz5he","geo_precision":"city","state":"FL"},"type":"Feature","geometry":{"type":"Point","coordinates":[-82.458428,27.947522]}},{"properties":{"city":"Sayville","geo_score":0.857,"year":2001,"id":"a635qlwxcbdw","geo_precision":"city","state":"NY"},"type":"Feature","geometry":{"type":"Point","coordinates":[-73.085858,40.745866]}},{"properties":{"city":"New Orleans","geo_score":0.857,"year":2000,"id":"a635qm2dyzbx","geo_precision":"city","state":"LA"},"type":"Feature","geometry":{"type":"Point","coordinates":[-89.930956,30.068812]}},{"properties":{"city":"Bangor","geo_score":0.857,"year":1999,"id":"a635qlxrruya","geo_precision":"city","state":"ME"},"type":"Feature","geometry":{"type":"Point","coordinates":[-68.878893,45.061744]}},{"properties":{"city":"Long Island","geo_score":0.816,"year":2001,"id":"a635qlmbw9wd","geo_precision":"city","state":"NY"},"type":"Feature","geometry":{"type":"Point","coordinates":[-73.948749,40.744824]}},{"properties":{"city":"Sacramento","geo_score":0.857,"year":2010,"id":"a635qlzsmgrh","geo_precision":"city","state":"CA"},"type":"Feature","geometry":{"type":"Point","coordinates":[-121.4944,38.581572]}},{"properties":{"city":"Tulsa","geo_score":0.857,"year":2006,"id":"a635qlvvpn10","geo_precision":"city","state":"OK"},"type":"Feature","geometry":{"type":"Point","coordinates":[-95.992775,36.153982]}},{"properties":{"city":"Modesto","geo_score":0.857,"year":2011,"id":"a635qlxpwrp9","geo_precision":"city","state":"CA"},"type":"Feature","geometry":{"type":"Point","coordinates":[-121.016796,37.669463]}},{"properties":{"city":"El Paso","geo_score":0.857,"year":2010,"id":"a635qluefpom","geo_precision":"city","state":"TX"},"type":"Feature","geometry":{"type":"Point","coordinates":[-106.486931,31.75872]}},{"properties":{"city":"Visalia","geo_score":0.857,"year":1997,"id":"a635qlybmpqy","geo_precision":"city","state":"CA"},"type":"Feature","geometry":{"type":"Point","coordinates":[-119.292059,36.330228]}},{"properties":{"city":"Honolulu","geo_score":0.857,"year":2003,"id":"a635qlwypg1p","geo_precision":"city","state":"HI"},"type":"Feature","geometry":{"type":"Point","coordinates":[-157.858333,21.306944]}},{"properties":{"city":"Portland","geo_score":0.857,"year":1999,"id":"a635qlxl69io","geo_precision":"city","state":"OR"},"type":"Feature","geometry":{"type":"Point","coordinates":[-122.676207,45.523452]}},{"properties":{"city":"Albany","geo_score":0.857,"year":2001,"id":"a635qlsydoib","geo_precision":"city","state":"NY"},"type":"Feature","geometry":{"type":"Point","coordinates":[-73.756232,42.652579]}},{"properties":{"city":"Charlotsville","geo_score":0.838,"year":2008,"id":"a635qlusf0qn","geo_precision":"city","state":"VA"},"type":"Feature","geometry":{"type":"Point","coordinates":[-78.476678,38.029306]}},{"properties":{"city":"McAllen","geo_score":0.857,"year":2001,"id":"a635qly3zn0i","geo_precision":"city","state":"TX"},"type":"Feature","geometry":{"type":"Point","coordinates":[-98.244679,26.219199]}},{"properties":{"city":"Manassas","geo_score":0.857,"year":2009,"id":"a635qlqyi3md","geo_precision":"city","state":"VA"},"type":"Feature","geometry":{"type":"Point","coordinates":[-77.487162,38.744685]}},{"properties":{"city":"Greensboro","geo_score":0.857,"year":2008,"id":"a635qm2792mn","geo_precision":"city","state":"NC"},"type":"Feature","geometry":{"type":"Point","coordinates":[-79.791975,36.072636]}},{"properties":{"city":"Chicago Area","geo_score":0.805,"year":2007,"id":"a635qlqz0i43","geo_precision":"city","state":"IL"},"type":"Feature","geometry":{"type":"Point","coordinates":[-87.650052,41.850033]}},{"properties":{"city":"Manassas","geo_score":0.857,"year":2009,"id":"a635qlxu0f7o","geo_precision":"city","state":"VA"},"type":"Feature","geometry":{"type":"Point","coordinates":[-77.487162,38.744685]}},{"properties":{"city":"San Jose","geo_score":0.857,"year":2010,"id":"a635qlnbrv0m","geo_precision":"city","state":"CA"},"type":"Feature","geometry":{"type":"Point","coordinates":[-121.894956,37.339386]}},{"properties":{"city":"Saint Louis","geo_score":0.857,"year":2005,"id":"a635qlqsccp0","geo_precision":"city","state":"MO"},"type":"Feature","geometry":{"type":"Point","coordinates":[-90.197889,38.627273]}}],"is_temporal":false,"author":{"url":"","metadata":"","contact_name":"","contact_address":"","source":"","contact_phone":""},"source":"","pagination":{"sort":null,"start":0,"total":41,"limit":1000000},"state":"complete","tags":"gay,prom","published":"2014-08-14T15:48:20-04:00","id":240798}