{"type":"FeatureCollection","data_type":"Dataset","url_type":null,"permissions":[{"permissions":{"download":true,"view":true},"group_id":"everyone"}],"classification":null,"title":"COGS top100","count":100,"stream_id":242911,"contributor":{"url":"http://geocommons.com/users/42047","name":"toczek"},"data_attributes":null,"calculation_params":null,"icon_link":null,"link":"http://geocommons.com/overlays/242911.json","extent":[-122.676,25.7743,-71.0598,48.7477],"geometry_types":["point"],"unique_name":null,"name":"COGS top100","feature_count":100,"description":"","next_feature":null,"is_raster":false,"short_classification":"Y","stats":{"cogs spend":{"max":49655979,"mean":7187575.31,"variance":36721997081625.6,"stdev":6059867.74456552,"min":3379452,"median":5303592}},"features":[{"properties":{"city":"HOUSTON","geo_score":0.816,"cogs spend":49655979,"id":"a698k0we5h1b","geo_precision":"city","state":"TX"},"type":"Feature","geometry":{"type":"Point","coordinates":[-96.919704,29.845783]}},{"properties":{"city":"NEW YORK","geo_score":0.857,"cogs spend":30246627,"id":"a698k0ps97ql","geo_precision":"city","state":"NY"},"type":"Feature","geometry":{"type":"Point","coordinates":[-74.005973,40.714269]}},{"properties":{"city":"SAN ANTONIO","geo_score":0.857,"cogs spend":19979879,"id":"a698k0py4nr7","geo_precision":"city","state":"TX"},"type":"Feature","geometry":{"type":"Point","coordinates":[-98.493628,29.424122]}},{"properties":{"city":"CHICAGO","geo_score":0.857,"cogs spend":18611481,"id":"a698k0w74ga6","geo_precision":"city","state":"IL"},"type":"Feature","geometry":{"type":"Point","coordinates":[-87.650052,41.850033]}},{"properties":{"city":"BOSTON","geo_score":0.857,"cogs spend":17124652,"id":"a698k0uvgpeq","geo_precision":"city","state":"MA"},"type":"Feature","geometry":{"type":"Point","coordinates":[-71.059773,42.358431]}},{"properties":{"city":"BALTIMORE","geo_score":0.857,"cogs spend":16620128,"id":"a698k0w80i8h","geo_precision":"city","state":"MD"},"type":"Feature","geometry":{"type":"Point","coordinates":[-76.612189,39.290385]}},{"properties":{"city":"RICHMOND","geo_score":0.857,"cogs spend":14994262,"id":"a698k0q27al8","geo_precision":"city","state":"VA"},"type":"Feature","geometry":{"type":"Point","coordinates":[-77.460262,37.553758]}},{"properties":{"city":"COLUMBUS","geo_score":0.776,"cogs spend":13976497,"id":"a698k0r1rrf1","geo_precision":"city","state":"OH"},"type":"Feature","geometry":{"type":"Point","coordinates":[-82.695724,39.998397]}},{"properties":{"city":"PITTSBURGH","geo_score":0.857,"cogs spend":13152144,"id":"a698k0q8vn1d","geo_precision":"city","state":"PA"},"type":"Feature","geometry":{"type":"Point","coordinates":[-79.995886,40.440625]}},{"properties":{"city":"INDIANAPOLIS","geo_score":0.857,"cogs spend":12838312,"id":"a698k0xb8yuv","geo_precision":"city","state":"IN"},"type":"Feature","geometry":{"type":"Point","coordinates":[-86.158042,39.768377]}},{"properties":{"city":"TEMPE","geo_score":0.857,"cogs spend":12559800,"id":"a698k0ug1mmt","geo_precision":"city","state":"AZ"},"type":"Feature","geometry":{"type":"Point","coordinates":[-111.90931,33.414768]}},{"properties":{"city":"WASHINGTON","geo_score":0.857,"cogs spend":12190322,"id":"a698k0pbykjk","geo_precision":"city","state":"DC"},"type":"Feature","geometry":{"type":"Point","coordinates":[-77.036366,38.895112]}},{"properties":{"city":"TAMPA","geo_score":0.857,"cogs spend":11895593,"id":"a698k0tvgk28","geo_precision":"city","state":"FL"},"type":"Feature","geometry":{"type":"Point","coordinates":[-82.458428,27.947522]}},{"properties":{"city":"ROCHESTER","geo_score":0.857,"cogs spend":10711297,"id":"a698k0yj4slc","geo_precision":"city","state":"NY"},"type":"Feature","geometry":{"type":"Point","coordinates":[-77.615557,43.154785]}},{"properties":{"city":"CINCINNATI","geo_score":0.857,"cogs spend":10661966,"id":"a698k0xvuq9i","geo_precision":"city","state":"OH"},"type":"Feature","geometry":{"type":"Point","coordinates":[-84.456886,39.162004]}},{"properties":{"city":"GREENVILLE","geo_score":0.831,"cogs spend":10074125,"id":"a698k0y977o6","geo_precision":"city","state":"NC"},"type":"Feature","geometry":{"type":"Point","coordinates":[-81.703445,36.408734]}},{"properties":{"city":"ATLANTA","geo_score":0.857,"cogs spend":9057634,"id":"a698k0rz8vbx","geo_precision":"city","state":"GA"},"type":"Feature","geometry":{"type":"Point","coordinates":[-84.387982,33.748995]}},{"properties":{"city":"WILMINGTON","geo_score":0.857,"cogs spend":8974823,"id":"a698k0wh5jpc","geo_precision":"city","state":"MA"},"type":"Feature","geometry":{"type":"Point","coordinates":[-71.173888,42.561782]}},{"properties":{"city":"JESSUP","geo_score":0.857,"cogs spend":8820420,"id":"a698k0x4je3o","geo_precision":"city","state":"MD"},"type":"Feature","geometry":{"type":"Point","coordinates":[-76.813394,39.155266]}},{"properties":{"city":"HARRISONBURG","geo_score":0.857,"cogs spend":8805631,"id":"a698k0kcrr5f","geo_precision":"city","state":"VA"},"type":"Feature","geometry":{"type":"Point","coordinates":[-78.877137,38.422777]}},{"properties":{"city":"DENVER","geo_score":0.857,"cogs spend":8749213,"id":"a698k0uq5n5r","geo_precision":"city","state":"CO"},"type":"Feature","geometry":{"type":"Point","coordinates":[-104.984703,39.739154]}},{"properties":{"city":"CARSON","geo_score":0.796,"cogs spend":8433706,"id":"a698k0jyn1xo","geo_precision":"city","state":"CA"},"type":"Feature","geometry":{"type":"Point","coordinates":[-121.179381,37.56382]}},{"properties":{"city":"LUBBOCK","geo_score":0.857,"cogs spend":7930759,"id":"a698k0jfptfh","geo_precision":"city","state":"TX"},"type":"Feature","geometry":{"type":"Point","coordinates":[-101.855167,33.577863]}},{"properties":{"city":"MEMPHIS","geo_score":0.857,"cogs spend":7913403,"id":"a698k0wen1ki","geo_precision":"city","state":"TN"},"type":"Feature","geometry":{"type":"Point","coordinates":[-90.04898,35.149534]}},{"properties":{"city":"BLOOMINGTON","geo_score":0.857,"cogs spend":7862405,"id":"a698k0ukza7g","geo_precision":"city","state":"MN"},"type":"Feature","geometry":{"type":"Point","coordinates":[-93.29828,44.840798]}},{"properties":{"city":"MINNEAPOLIS","geo_score":0.857,"cogs spend":7849074,"id":"a698k0ltbpnr","geo_precision":"city","state":"MN"},"type":"Feature","geometry":{"type":"Point","coordinates":[-93.263836,44.979965]}},{"properties":{"city":"CHARLOTTESVILLE","geo_score":0.857,"cogs spend":7679457,"id":"a698k0v16kdy","geo_precision":"city","state":"VA"},"type":"Feature","geometry":{"type":"Point","coordinates":[-78.476678,38.029306]}},{"properties":{"city":"FREMONT","geo_score":0.857,"cogs spend":7651078,"id":"a698k0wylrum","geo_precision":"city","state":"CA"},"type":"Feature","geometry":{"type":"Point","coordinates":[-121.988572,37.54827]}},{"properties":{"city":"CARROLLTON","geo_score":0.857,"cogs spend":7525481,"id":"a698k0xzyvdz","geo_precision":"city","state":"TX"},"type":"Feature","geometry":{"type":"Point","coordinates":[-96.777626,32.767268]}},{"properties":{"city":"MIAMI","geo_score":0.857,"cogs spend":7316910,"id":"a698k0uoobbb","geo_precision":"city","state":"FL"},"type":"Feature","geometry":{"type":"Point","coordinates":[-80.193659,25.774266]}},{"properties":{"city":"GAINESVILLE","geo_score":0.818,"cogs spend":7178694,"id":"a698k0p4s9t4","geo_precision":"city","state":"FL"},"type":"Feature","geometry":{"type":"Point","coordinates":[-85.354651,30.731305]}},{"properties":{"city":"WESTBURY","geo_score":0.857,"cogs spend":7121782,"id":"a698k0vjaych","geo_precision":"city","state":"NY"},"type":"Feature","geometry":{"type":"Point","coordinates":[-76.710785,43.214789]}},{"properties":{"city":"SYOSSET","geo_score":0.857,"cogs spend":7091942,"id":"a698k0xv1f6j","geo_precision":"city","state":"NY"},"type":"Feature","geometry":{"type":"Point","coordinates":[-73.601772,40.754757]}},{"properties":{"city":"CHAPEL HILL","geo_score":0.857,"cogs spend":6997584,"id":"a698k0r7etxa","geo_precision":"city","state":"NC"},"type":"Feature","geometry":{"type":"Point","coordinates":[-79.038605,35.926939]}},{"properties":{"city":"NEWARK","geo_score":0.857,"cogs spend":6832882,"id":"a698k0mni4v0","geo_precision":"city","state":"DE"},"type":"Feature","geometry":{"type":"Point","coordinates":[-75.749657,39.683723]}},{"properties":{"city":"NASHVILLE","geo_score":0.857,"cogs spend":6746082,"id":"a698k0snom6s","geo_precision":"city","state":"TN"},"type":"Feature","geometry":{"type":"Point","coordinates":[-86.784443,36.16589]}},{"properties":{"city":"FORT WORTH","geo_score":0.746,"cogs spend":6550941,"id":"a698k0xqemoj","geo_precision":"city","state":"TX"},"type":"Feature","geometry":{"type":"Point","coordinates":[-95.262161,31.108239]}},{"properties":{"city":"LAS VEGAS","geo_score":0.857,"cogs spend":6365658,"id":"a698k0nbp78t","geo_precision":"city","state":"NV"},"type":"Feature","geometry":{"type":"Point","coordinates":[-115.137223,36.174971]}},{"properties":{"city":"NORRISTOWN","geo_score":0.857,"cogs spend":6096241,"id":"a698k0s0r8nf","geo_precision":"city","state":"PA"},"type":"Feature","geometry":{"type":"Point","coordinates":[-75.339905,40.121497]}},{"properties":{"city":"CHARLESTON","geo_score":0.798,"cogs spend":5991144,"id":"a698k0ms76w9","geo_precision":"city","state":"SC"},"type":"Feature","geometry":{"type":"Point","coordinates":[-79.970643,32.85712]}},{"properties":{"city":"NORFOLK","geo_score":0.857,"cogs spend":5850011,"id":"a698k0tq32j9","geo_precision":"city","state":"VA"},"type":"Feature","geometry":{"type":"Point","coordinates":[-76.285218,36.846815]}},{"properties":{"city":"KNOXVILLE","geo_score":0.794,"cogs spend":5831823,"id":"a698k0qjeqba","geo_precision":"city","state":"TN"},"type":"Feature","geometry":{"type":"Point","coordinates":[-86.784443,36.16589]}},{"properties":{"city":"IRVINE","geo_score":0.857,"cogs spend":5798543,"id":"a698k0rsnn96","geo_precision":"city","state":"CA"},"type":"Feature","geometry":{"type":"Point","coordinates":[-117.823111,33.669465]}},{"properties":{"city":"ANAHEIM","geo_score":0.857,"cogs spend":5742942,"id":"a698k0wvmkug","geo_precision":"city","state":"CA"},"type":"Feature","geometry":{"type":"Point","coordinates":[-117.914504,33.835293]}},{"properties":{"city":"LOUISVILLE","geo_score":0.857,"cogs spend":5635297,"id":"a698k0m8j82m","geo_precision":"city","state":"KY"},"type":"Feature","geometry":{"type":"Point","coordinates":[-85.759407,38.254238]}},{"properties":{"city":"TALLAHASSEE","geo_score":0.857,"cogs spend":5563270,"id":"a698k0vcfrlm","geo_precision":"city","state":"FL"},"type":"Feature","geometry":{"type":"Point","coordinates":[-84.280733,30.438256]}},{"properties":{"city":"ALBANY","geo_score":0.857,"cogs spend":5388250,"id":"a698k0mivsgh","geo_precision":"city","state":"NY"},"type":"Feature","geometry":{"type":"Point","coordinates":[-73.756232,42.652579]}},{"properties":{"city":"MOUNT PLEASANT","geo_score":0.857,"cogs spend":5378826,"id":"a698k0zo0q8l","geo_precision":"city","state":"MI"},"type":"Feature","geometry":{"type":"Point","coordinates":[-86.247253,42.457251]}},{"properties":{"city":"ALLENDALE","geo_score":0.857,"cogs spend":5321341,"id":"a698k0y3l8xt","geo_precision":"city","state":"MI"},"type":"Feature","geometry":{"type":"Point","coordinates":[-85.93927,42.979522]}},{"properties":{"city":"VANCOUVER","geo_score":0.0,"cogs spend":5303592,"id":"a698k0ye5emx","geo_precision":"unmatched","state":"CN"},"type":"Feature","geometry":null},{"properties":{"city":"DALLAS","geo_score":0.857,"cogs spend":5267112,"id":"a698k0o6mpoz","geo_precision":"city","state":"TX"},"type":"Feature","geometry":{"type":"Point","coordinates":[-96.806667,32.783056]}},{"properties":{"city":"DURHAM","geo_score":0.857,"cogs spend":5228867,"id":"a698k0r0lm8o","geo_precision":"city","state":"NC"},"type":"Feature","geometry":{"type":"Point","coordinates":[-78.898619,35.994033]}},{"properties":{"city":"LAKE BUENA VISTA","geo_score":0.857,"cogs spend":5180352,"id":"a698k0x87qhj","geo_precision":"city","state":"FL"},"type":"Feature","geometry":{"type":"Point","coordinates":[-81.538684,28.393619]}},{"properties":{"city":"NEW ORLEANS","geo_score":0.857,"cogs spend":5144453,"id":"a698k0nmylnf","geo_precision":"city","state":"LA"},"type":"Feature","geometry":{"type":"Point","coordinates":[-89.930956,30.068812]}},{"properties":{"city":"WEST CHESTER","geo_score":0.857,"cogs spend":5117381,"id":"a698k0pia3fs","geo_precision":"city","state":"PA"},"type":"Feature","geometry":{"type":"Point","coordinates":[-75.610503,39.980107]}},{"properties":{"city":"WACO","geo_score":0.857,"cogs spend":5038449,"id":"a698k0p3to9t","geo_precision":"city","state":"TX"},"type":"Feature","geometry":{"type":"Point","coordinates":[-97.14667,31.549333]}},{"properties":{"city":"KIRKLAND","geo_score":0.857,"cogs spend":5020353,"id":"a698k0rfjw7p","geo_precision":"city","state":"WA"},"type":"Feature","geometry":{"type":"Point","coordinates":[-122.208735,47.681488]}},{"properties":{"city":"ELK GROVE VILLAGE","geo_score":0.743,"cogs spend":4897414,"id":"a698k0mwbb65","geo_precision":"city","state":"IL"},"type":"Feature","geometry":{"type":"Point","coordinates":[-89.265915,37.300605]}},{"properties":{"city":"TUSCALOOSA","geo_score":0.857,"cogs spend":4776173,"id":"a698k0k8xdy2","geo_precision":"city","state":"AL"},"type":"Feature","geometry":{"type":"Point","coordinates":[-87.569174,33.209841]}},{"properties":{"city":"KANATA","geo_score":0.0,"cogs spend":4739726,"id":"a698k0slgjbr","geo_precision":"unmatched","state":"CN"},"type":"Feature","geometry":null},{"properties":{"city":"AUSTIN","geo_score":0.857,"cogs spend":4686005,"id":"a698k0tfqseo","geo_precision":"city","state":"TX"},"type":"Feature","geometry":{"type":"Point","coordinates":[-97.743061,30.267153]}},{"properties":{"city":"LEWISVILLE","geo_score":0.857,"cogs spend":4637510,"id":"a698k0xc00d6","geo_precision":"city","state":"TX"},"type":"Feature","geometry":{"type":"Point","coordinates":[-96.994174,33.046233]}},{"properties":{"city":"SCRANTON","geo_score":0.857,"cogs spend":4627976,"id":"a698k0lnfg27","geo_precision":"city","state":"PA"},"type":"Feature","geometry":{"type":"Point","coordinates":[-75.662412,41.408969]}},{"properties":{"city":"ANN ARBOR","geo_score":0.75,"cogs spend":4457039,"id":"a698k0v9b50u","geo_precision":"city","state":"MI"},"type":"Feature","geometry":{"type":"Point","coordinates":[-86.176715,42.96502]}},{"properties":{"city":"PHOENIX","geo_score":0.857,"cogs spend":4433472,"id":"a698k0xjshaw","geo_precision":"city","state":"AZ"},"type":"Feature","geometry":{"type":"Point","coordinates":[-112.074037,33.448377]}},{"properties":{"city":"CLEMSON UNIVERSITY","geo_score":0.773,"cogs spend":4391903,"id":"a698k0rgrvgi","geo_precision":"city","state":"SC"},"type":"Feature","geometry":{"type":"Point","coordinates":[-82.802154,34.75974]}},{"properties":{"city":"LOWELL","geo_score":0.857,"cogs spend":4330168,"id":"a698k0wmdvtb","geo_precision":"city","state":"MA"},"type":"Feature","geometry":{"type":"Point","coordinates":[-71.459405,42.446396]}},{"properties":{"city":"ORLANDO","geo_score":0.857,"cogs spend":4250160,"id":"a698k0o64z5l","geo_precision":"city","state":"FL"},"type":"Feature","geometry":{"type":"Point","coordinates":[-81.379237,28.538336]}},{"properties":{"city":"GREENSBORO","geo_score":0.857,"cogs spend":4236019,"id":"a698k0vh1gr0","geo_precision":"city","state":"NC"},"type":"Feature","geometry":{"type":"Point","coordinates":[-79.791975,36.072636]}},{"properties":{"city":"ROUND ROCK","geo_score":0.857,"cogs spend":4164459,"id":"a698k0mwra8g","geo_precision":"city","state":"TX"},"type":"Feature","geometry":{"type":"Point","coordinates":[-97.678896,30.508255]}},{"properties":{"city":"PORTLAND","geo_score":0.857,"cogs spend":4162296,"id":"a698k0lnoy1s","geo_precision":"city","state":"OR"},"type":"Feature","geometry":{"type":"Point","coordinates":[-122.676207,45.523452]}},{"properties":{"city":"BELLINGHAM","geo_score":0.857,"cogs spend":4146514,"id":"a698k0sdw9dc","geo_precision":"city","state":"WA"},"type":"Feature","geometry":{"type":"Point","coordinates":[-122.454297,48.747687]}},{"properties":{"city":"TOLEDO","geo_score":0.857,"cogs spend":4108002,"id":"a698k0x6y0rb","geo_precision":"city","state":"OH"},"type":"Feature","geometry":{"type":"Point","coordinates":[-83.555212,41.663938]}},{"properties":{"city":"BIRMINGHAM","geo_score":0.857,"cogs spend":4017855,"id":"a698k0tp8msc","geo_precision":"city","state":"AL"},"type":"Feature","geometry":{"type":"Point","coordinates":[-86.80249,33.520661]}},{"properties":{"city":"NEW BERLIN","geo_score":0.746,"cogs spend":4007251,"id":"a698k0xq5r5t","geo_precision":"city","state":"WI"},"type":"Feature","geometry":{"type":"Point","coordinates":[-88.133876,44.163209]}},{"properties":{"city":"KANSAS CITY","geo_score":0.857,"cogs spend":3909736,"id":"a698k0pqjihh","geo_precision":"city","state":"MO"},"type":"Feature","geometry":{"type":"Point","coordinates":[-94.598583,39.102404]}},{"properties":{"city":"WINSTON SALEM","geo_score":0.857,"cogs spend":3828066,"id":"a698k0snrtzs","geo_precision":"city","state":"NC"},"type":"Feature","geometry":{"type":"Point","coordinates":[-80.244216,36.09986]}},{"properties":{"city":"SPARKS","geo_score":0.857,"cogs spend":3805787,"id":"a698k0sjbvul","geo_precision":"city","state":"NV"},"type":"Feature","geometry":{"type":"Point","coordinates":[-119.640601,40.039169]}},{"properties":{"city":"SCOTTSDALE","geo_score":0.857,"cogs spend":3788878,"id":"a698k0s7n5la","geo_precision":"city","state":"AZ"},"type":"Feature","geometry":{"type":"Point","coordinates":[-111.899033,33.50921]}},{"properties":{"city":"ST PAUL","geo_score":0.762,"cogs spend":3787142,"id":"a698k0mfeg2j","geo_precision":"city","state":"MN"},"type":"Feature","geometry":{"type":"Point","coordinates":[-92.259625,47.415205]}},{"properties":{"city":"ABILENE","geo_score":0.857,"cogs spend":3777804,"id":"a698k0xgb6uk","geo_precision":"city","state":"TX"},"type":"Feature","geometry":{"type":"Point","coordinates":[-99.80213,32.344457]}},{"properties":{"city":"MOLINE","geo_score":0.786,"cogs spend":3760018,"id":"a698k0v1yxpr","geo_precision":"city","state":"IL"},"type":"Feature","geometry":{"type":"Point","coordinates":[-90.595736,41.420305]}},{"properties":{"city":"EDISON","geo_score":0.857,"cogs spend":3719977,"id":"a698k0vcvfv9","geo_precision":"city","state":"NJ"},"type":"Feature","geometry":{"type":"Point","coordinates":[-74.412095,40.518715]}},{"properties":{"city":"FORT LAUDERDALE","geo_score":0.857,"cogs spend":3705237,"id":"a698k0y1ilcy","geo_precision":"city","state":"FL"},"type":"Feature","geometry":{"type":"Point","coordinates":[-80.143379,26.122308]}},{"properties":{"city":"SPRINGFIELD","geo_score":0.792,"cogs spend":3702729,"id":"a698k0ky2g1o","geo_precision":"city","state":"MO"},"type":"Feature","geometry":{"type":"Point","coordinates":[-91.237925,38.295605]}},{"properties":{"city":"DANIA BEACH","geo_score":0.857,"cogs spend":3689706,"id":"a698k0lquv0x","geo_precision":"city","state":"FL"},"type":"Feature","geometry":{"type":"Point","coordinates":[-80.143934,26.052311]}},{"properties":{"city":"SAN JOSE","geo_score":0.857,"cogs spend":3685116,"id":"a698k0kgh7ag","geo_precision":"city","state":"CA"},"type":"Feature","geometry":{"type":"Point","coordinates":[-121.894956,37.339386]}},{"properties":{"city":"SAN DIEGO","geo_score":0.857,"cogs spend":3665172,"id":"a698k0ojucfs","geo_precision":"city","state":"CA"},"type":"Feature","geometry":{"type":"Point","coordinates":[-117.157255,32.715329]}},{"properties":{"city":"KANSAS CITY","geo_score":0.857,"cogs spend":3631770,"id":"a698k0ncpypm","geo_precision":"city","state":"KS"},"type":"Feature","geometry":{"type":"Point","coordinates":[-94.627457,39.114171]}},{"properties":{"city":"MARYVILLE","geo_score":0.857,"cogs spend":3631060,"id":"a698k0sfawm5","geo_precision":"city","state":"MO"},"type":"Feature","geometry":{"type":"Point","coordinates":[-94.860299,40.277742]}},{"properties":{"city":"WILMINGTON","geo_score":0.857,"cogs spend":3630913,"id":"a698k0k46ee2","geo_precision":"city","state":"NC"},"type":"Feature","geometry":{"type":"Point","coordinates":[-77.94471,34.225726]}},{"properties":{"city":"BOWLING GREEN","geo_score":0.738,"cogs spend":3560311,"id":"a698k0qh4rs9","geo_precision":"city","state":"KY"},"type":"Feature","geometry":{"type":"Point","coordinates":[-83.355181,38.067306]}},{"properties":{"city":"BAYTOWN","geo_score":0.857,"cogs spend":3548926,"id":"a698k0qqnhei","geo_precision":"city","state":"TX"},"type":"Feature","geometry":{"type":"Point","coordinates":[-95.434241,29.83399]}},{"properties":{"city":"SPRINGFIELD","geo_score":0.857,"cogs spend":3529718,"id":"a698k0ted449","geo_precision":"city","state":"MA"},"type":"Feature","geometry":{"type":"Point","coordinates":[-72.589811,42.101483]}},{"properties":{"city":"UNIVERSITY","geo_score":0.857,"cogs spend":3515223,"id":"a698k0rs1qip","geo_precision":"city","state":"MS"},"type":"Feature","geometry":{"type":"Point","coordinates":[-89.573605,34.33962]}},{"properties":{"city":"INDIANA","geo_score":0.857,"cogs spend":3472673,"id":"a698k0y5qg4y","geo_precision":"city","state":"PA"},"type":"Feature","geometry":{"type":"Point","coordinates":[-79.080422,40.621272]}},{"properties":{"city":"CEDAR RAPIDS","geo_score":0.857,"cogs spend":3466137,"id":"a698k0k7681x","geo_precision":"city","state":"IA"},"type":"Feature","geometry":{"type":"Point","coordinates":[-91.644068,42.008333]}},{"properties":{"city":"HIGH POINT","geo_score":0.857,"cogs spend":3428361,"id":"a698k0qewtqz","geo_precision":"city","state":"NC"},"type":"Feature","geometry":{"type":"Point","coordinates":[-79.988711,35.993538]}},{"properties":{"city":"ROCKFORD","geo_score":0.857,"cogs spend":3420807,"id":"a698k0y5lz08","geo_precision":"city","state":"IL"},"type":"Feature","geometry":{"type":"Point","coordinates":[-89.093995,42.271131]}},{"properties":{"city":"WILLIAMSBURG","geo_score":0.857,"cogs spend":3379452,"id":"a698k0n6orgd","geo_precision":"city","state":"VA"},"type":"Feature","geometry":{"type":"Point","coordinates":[-76.746769,37.310451]}}],"is_temporal":false,"author":{"url":"","metadata":"","contact_name":"","contact_address":"","source":"","contact_phone":""},"source":"","pagination":{"sort":null,"start":0,"total":100,"limit":1000000},"state":"complete","tags":"","published":"2014-08-14T19:14:48-04:00","id":242911}