{"type":"FeatureCollection","data_type":"Dataset Analysis","url_type":null,"permissions":[{"permissions":{"download":true,"view":true},"group_id":"everyone"}],"classification":null,"title":"Filtered Features of 'Christine_-_Real_Estate_-_ran_March_26th' based on 'new_modest_office_branch_address_revised'","count":29,"stream_id":246669,"contributor":{"url":"http://geocommons.com/users/39447","name":"sam.felipe"},"data_attributes":null,"calculation_params":[{"calculation":"buffer_intersect","input":{"min_distance":"0","ds1":"220220","ds2":"246668","unit":"miles","include_distance":"1","distance":"10"}}],"icon_link":null,"link":"http://geocommons.com/overlays/246669.json","extent":[-121.078,37.594,-120.931,37.7943],"geometry_types":["point"],"unique_name":null,"name":"Filtered Features of 'Christine_-_Real_Estate_-_ran_March_26th' based on 'new_modest_office_branch_address_revised'","feature_count":29,"description":"Dataset created by filtering features of 'Christine_-_Real_Estate_-_ran_March_26th' that are within a buffer of 0 to 10 miles around the features in 'new_modest_office_branch_address_revised'","next_feature":null,"is_raster":false,"short_classification":"Y","stats":{"rep? (1 for yes, 0 for no)":{"max":1,"variance":0.221674876847291,"mean":0.689655172413793,"stdev":0.470823615430759,"min":0,"median":1},"geo_score":{"max":1.0,"variance":0.0187168940886699,"mean":0.917586206896552,"stdev":0.136809700272568,"min":0.558,"median":1.0},"distance":{"max":7.3480639793633,"variance":4.52244781909155,"mean":2.94515667169852,"stdev":2.12660476325328,"min":0.371429857958127,"median":2.3887400075382}},"features":[{"properties":{"rep? (1 for yes, 0 for no)":0,"city":"Ceres","zip":"95307","real estate office":"Excel Realtors","geo_score":0.614,"street address":"2600 E. Whitmore Ave","id":"31","geo_precision":"street","state":"CA","distance":6.87547495274045},"type":"Feature","geometry":{"type":"Point","coordinates":[-120.958327,37.593997]}},{"properties":{"rep? (1 for yes, 0 for no)":0,"city":"Ceres","zip":"95307","real estate office":"Cmg Realty","geo_score":1.0,"street address":"1901 Ginkgo Ct","id":"45","geo_precision":"range","state":"CA","distance":7.11179680534261},"type":"Feature","geometry":{"type":"Point","coordinates":[-120.930809,37.602466]}},{"properties":{"rep? (1 for yes, 0 for no)":0,"city":"Modesto","zip":"95351","real estate office":"PMZ","geo_score":0.965,"street address":"1392 Mitchell Rd","id":"17","geo_precision":"range","state":"CA","distance":6.32301949334138},"type":"Feature","geometry":{"type":"Point","coordinates":[-120.938729,37.6112]}},{"properties":{"rep? (1 for yes, 0 for no)":0,"city":"Modesto","zip":"95351","real estate office":"PMZ","geo_score":0.558,"street address":"1600 N. Carpenter Rd.","id":"1","geo_precision":"street","state":"CA","distance":5.25085531550235},"type":"Feature","geometry":{"type":"Point","coordinates":[-121.030461,37.627719]}},{"properties":{"rep? (1 for yes, 0 for no)":1,"city":"Modesto","zip":"95354","real estate office":"Best Choice Realty","geo_score":0.714,"street address":"1300 H. Street","id":"42","geo_precision":"street","state":"CA","distance":3.91657569552027},"type":"Feature","geometry":{"type":"Point","coordinates":[-121.002353,37.635269]}},{"properties":{"rep? (1 for yes, 0 for no)":1,"city":"Modesto","zip":"95354","real estate office":"The Land Group","geo_score":1.0,"street address":"1401 F Street","id":"34","geo_precision":"range","state":"CA","distance":3.48157952661087},"type":"Feature","geometry":{"type":"Point","coordinates":[-120.991888,37.63952]}},{"properties":{"rep? (1 for yes, 0 for no)":1,"city":"Modesto","zip":"95354","real estate office":"Love Real Estate","geo_score":0.902,"street address":"1008 12th St.","id":"30","geo_precision":"range","state":"CA","distance":3.39262087111529},"type":"Feature","geometry":{"type":"Point","coordinates":[-120.998488,37.642035]}},{"properties":{"rep? (1 for yes, 0 for no)":1,"city":"Modesto","zip":"95354","real estate office":"Granite Realty","geo_score":0.902,"street address":"1120 13th St.","id":"24","geo_precision":"range","state":"CA","distance":3.28021703960258},"type":"Feature","geometry":{"type":"Point","coordinates":[-120.998778,37.643826]}},{"properties":{"rep? (1 for yes, 0 for no)":1,"city":"Modesto","zip":"95350","real estate office":"New Destiny Real Estate","geo_score":0.89,"street address":"509 Scenic Dr.","id":"38","geo_precision":"range","state":"CA","distance":3.01701795459218},"type":"Feature","geometry":{"type":"Point","coordinates":[-120.987765,37.645882]}},{"properties":{"rep? (1 for yes, 0 for no)":1,"city":"Modesto","zip":"95350","real estate office":"PMZ","geo_score":0.89,"street address":"1120 Scenic Dr.","id":"29","geo_precision":"range","state":"CA","distance":2.94434096979095},"type":"Feature","geometry":{"type":"Point","coordinates":[-120.980328,37.647366]}},{"properties":{"rep? (1 for yes, 0 for no)":1,"city":"Modesto","zip":"95350","real estate office":"Exit Realty","geo_score":1.0,"street address":"901 McHenry Ave","id":"21","geo_precision":"range","state":"CA","distance":2.39470493088399},"type":"Feature","geometry":{"type":"Point","coordinates":[-120.993822,37.655739]}},{"properties":{"rep? (1 for yes, 0 for no)":1,"city":"Modesto","zip":"95350","real estate office":"Weeks Real Estate","geo_score":1.0,"street address":"946 Mchenry Ave","id":"27","geo_precision":"range","state":"CA","distance":2.35870179026459},"type":"Feature","geometry":{"type":"Point","coordinates":[-120.993827,37.656286]}},{"properties":{"rep? (1 for yes, 0 for no)":1,"city":"Modesto","zip":"95350","real estate office":"PMZ","geo_score":0.602,"street address":"1230 E. Orangeburg","id":"0","geo_precision":"street","state":"CA","distance":1.87353295458355},"type":"Feature","geometry":{"type":"Point","coordinates":[-120.99392,37.663665]}},{"properties":{"rep? (1 for yes, 0 for no)":0,"city":"Modesto","zip":"95355","real estate office":"Lebon Real Estate","geo_score":1.0,"street address":"1508 Coffee Rd","id":"44","geo_precision":"range","state":"CA","distance":1.81751623424513},"type":"Feature","geometry":{"type":"Point","coordinates":[-120.975717,37.665499]}},{"properties":{"rep? (1 for yes, 0 for no)":1,"city":"Modesto","zip":"95350","real estate office":"Matel Realtors","geo_score":1.0,"street address":"1562 Tully Rd.","id":"11","geo_precision":"range","state":"CA","distance":2.3887400075382},"type":"Feature","geometry":{"type":"Point","coordinates":[-121.012179,37.667138]}},{"properties":{"rep? (1 for yes, 0 for no)":1,"city":"Modesto","zip":"95350","real estate office":"Castle Real Estate","geo_score":1.0,"street address":"1608 Tully Rd","id":"37","geo_precision":"range","state":"CA","distance":2.36207232097714},"type":"Feature","geometry":{"type":"Point","coordinates":[-121.012186,37.667756]}},{"properties":{"rep? (1 for yes, 0 for no)":1,"city":"Modesto","zip":"95350","real estate office":"Almond Valley Realty","geo_score":1.0,"street address":"180 Leveland Lane","id":"26","geo_precision":"range","state":"CA","distance":1.00272861536126},"type":"Feature","geometry":{"type":"Point","coordinates":[-120.996014,37.679127]}},{"properties":{"rep? (1 for yes, 0 for no)":1,"city":"Modesto","zip":"95350","real estate office":"Great Valley Realtors","geo_score":0.768,"street address":"2813 Coffe Rd","id":"35","geo_precision":"range","state":"CA","distance":0.993685171310231},"type":"Feature","geometry":{"type":"Point","coordinates":[-120.975869,37.679966]}},{"properties":{"rep? (1 for yes, 0 for no)":1,"city":"Modesto","zip":"95355","real estate office":"Re/Max","geo_score":1.0,"street address":"3425 coffee Rd.","id":"4","geo_precision":"range","state":"CA","distance":0.753220539162331},"type":"Feature","geometry":{"type":"Point","coordinates":[-120.976047,37.687824]}},{"properties":{"rep? (1 for yes, 0 for no)":1,"city":"Modesto","zip":"95350","real estate office":"Prudential","geo_score":1.0,"street address":"1101 Sylvan Ave","id":"5","geo_precision":"range","state":"CA","distance":0.467867102576843},"type":"Feature","geometry":{"type":"Point","coordinates":[-120.980096,37.688923]}},{"properties":{"rep? (1 for yes, 0 for no)":1,"city":"Modesto","zip":"95350","real estate office":"Keller Williams","geo_score":1.0,"street address":"1001 Sylvan Ave","id":"7","geo_precision":"range","state":"CA","distance":0.371429857958127},"type":"Feature","geometry":{"type":"Point","coordinates":[-120.981499,37.688943]}},{"properties":{"rep? (1 for yes, 0 for no)":1,"city":"Modesto","zip":"95350","real estate office":"Coldwell Banker/Vinson Chase","geo_score":1.0,"street address":"220 Standiford Ave","id":"9","geo_precision":"range","state":"CA","distance":0.612150138507248},"type":"Feature","geometry":{"type":"Point","coordinates":[-120.994411,37.68909]}},{"properties":{"rep? (1 for yes, 0 for no)":1,"city":"Modesto","zip":"95350","real estate office":"Century 21 M&amp;M","geo_score":1.0,"street address":"605 Standiford Ave","id":"2","geo_precision":"range","state":"CA","distance":1.0457121415064},"type":"Feature","geometry":{"type":"Point","coordinates":[-121.000718,37.689186]}},{"properties":{"rep? (1 for yes, 0 for no)":1,"city":"Modesto","zip":"95350","real estate office":"Capital Real Estate","geo_score":1.0,"street address":"1500 Standiford Ave","id":"28","geo_precision":"range","state":"CA","distance":2.17415155924613},"type":"Feature","geometry":{"type":"Point","coordinates":[-121.017135,37.689419]}},{"properties":{"rep? (1 for yes, 0 for no)":1,"city":"Modesto","zip":"95350","real estate office":"RMH Realty","geo_score":1.0,"street address":"1700 Standiford Ave","id":"39","geo_precision":"range","state":"CA","distance":2.53636996296495},"type":"Feature","geometry":{"type":"Point","coordinates":[-121.02241,37.68944]}},{"properties":{"rep? (1 for yes, 0 for no)":0,"city":"Modesto","zip":"95357","real estate office":"Atlantic &amp; Pacific Real Estate","geo_score":1.0,"street address":"3516 Oakdale Rd.","id":"15","geo_precision":"range","state":"CA","distance":1.99329881965992},"type":"Feature","geometry":{"type":"Point","coordinates":[-120.957988,37.690213]}},{"properties":{"rep? (1 for yes, 0 for no)":0,"city":"Modesto","zip":"95355","real estate office":"Integrity Real Estate","geo_score":1.0,"street address":"3931 Coffee Rd.","id":"43","geo_precision":"range","state":"CA","distance":0.872443902451076},"type":"Feature","geometry":{"type":"Point","coordinates":[-120.976149,37.69552]}},{"properties":{"rep? (1 for yes, 0 for no)":0,"city":"Modesto","zip":"95356","real estate office":"Taffeco Real Estate","geo_score":1.0,"street address":"4807 Sisk Rd.","id":"33","geo_precision":"range","state":"CA","distance":6.44965482653766},"type":"Feature","geometry":{"type":"Point","coordinates":[-121.077547,37.707597]}},{"properties":{"rep? (1 for yes, 0 for no)":0,"city":"Modesto","zip":"95355","real estate office":"Harmony Homes","geo_score":0.805,"street address":"3125 McHenry Ave","id":"22","geo_precision":"range","state":"CA","distance":7.3480639793633},"type":"Feature","geometry":{"type":"Point","coordinates":[-120.996638,37.794304]}}],"is_temporal":false,"author":{"url":null,"metadata":null,"contact_name":null,"contact_address":null,"source":null,"contact_phone":null},"source":null,"pagination":{"sort":null,"start":0,"total":29,"limit":1000000},"state":"complete","tags":"","published":"2014-08-15T00:51:54-04:00","id":246669}