{"type":"FeatureCollection","data_type":"Dataset","url_type":null,"permissions":[{"permissions":{"download":true,"view":true},"group_id":"everyone"}],"classification":null,"title":"Non-Gleaners Bartholomew Meal Sites","count":5,"stream_id":246926,"contributor":{"url":"http://geocommons.com/users/32393","name":"eoliver88"},"data_attributes":null,"calculation_params":null,"icon_link":null,"link":"http://geocommons.com/overlays/246926.json","extent":[-85.9198,39.2035,-85.7715,39.2999],"geometry_types":["point"],"unique_name":null,"name":"Non-Gleaners Bartholomew Meal Sites","feature_count":5,"description":"","next_feature":null,"is_raster":false,"short_classification":"Y","stats":{},"features":[{"properties":{"name":"Hope Moravian Church","city":"Hope","zip":"47246","geo_score":0.632,"id":"a62kszooh0ch","address":"202 Main St.","geo_precision":"street","state":"IN"},"type":"Feature","geometry":{"type":"Point","coordinates":[-85.771514,39.299951]}},{"properties":{"name":"Asbury United Methodist Church","city":"Columbus","zip":"47201","geo_score":0.816,"id":"a62kszrcd3nr","address":"1751 27th St.","geo_precision":"range","state":"IN"},"type":"Feature","geometry":{"type":"Point","coordinates":[-85.905859,39.226584]}},{"properties":{"name":"First Presbyterian Church","city":"Columbus","zip":"47201","geo_score":0.796,"id":"a62kszs9b51n","address":"512 7th St.","geo_precision":"range","state":"IN"},"type":"Feature","geometry":{"type":"Point","coordinates":[-85.919777,39.205593]}},{"properties":{"name":"First Christian Church","city":"Columbus","zip":"47201","geo_score":0.796,"id":"a62kszvsyqlu","address":"531 5th St.","geo_precision":"range","state":"IN"},"type":"Feature","geometry":{"type":"Point","coordinates":[-85.919431,39.203543]}},{"properties":{"name":"Second Baptist Church","city":"Columbus","zip":"47202","geo_score":0.707,"id":"a62kszrzn1pv","address":"1325 10th St.","geo_precision":"range","state":"IN"},"type":"Feature","geometry":{"type":"Point","coordinates":[-85.909817,39.208476]}}],"is_temporal":false,"author":{"url":"","metadata":"","contact_name":"","contact_address":"","source":"","contact_phone":""},"source":"","pagination":{"sort":null,"start":0,"total":5,"limit":1000000},"state":"complete","tags":"gfbeo","published":"2014-08-15T01:08:51-04:00","id":246926}