{"type":"FeatureCollection","data_type":"Dataset Analysis","url_type":null,"permissions":[{"permissions":{"download":true,"view":true},"group_id":"everyone"}],"classification":null,"title":"Filtered Features of 'Jan16-Mar' based on 'GEO-CLLI'","count":110,"stream_id":247470,"contributor":{"url":"http://geocommons.com/users/46764","name":"jmcnair2"},"data_attributes":null,"calculation_params":{"input":{"min_distance":"0","unit":"miles","near_id":"247268","distance":"2","include_distance":true,"id":"247467"},"calculation":"buffer_intersect"},"icon_link":null,"link":"http://geocommons.com/overlays/247470.json","extent":[-122.7,25.7558,-74.9096,45.539],"geometry_types":["point"],"unique_name":null,"name":"Filtered Features of 'Jan16-Mar' based on 'GEO-CLLI'","feature_count":110,"description":"Dataset created by filtering features of 'Jan16-Mar' that are within a buffer of 0 to 2 miles around the features in 'GEO-CLLI'","next_feature":null,"is_raster":false,"short_classification":"Y","stats":{"geo_score":{"max":0.902,"variance":0.0190679029190993,"mean":0.721472727272727,"stdev":0.138086577621068,"min":0.286,"median":0.805},"distance":{"max":1.99472188391431,"variance":0.378372647572709,"mean":1.02323110233694,"stdev":0.61512002696442,"min":0.00963054665576268,"median":1.056377851121}},"features":[{"properties":{"city":"Miami","industry":"HOA/HUD","state/province":"FL","geo_score":0.805,"company / account":"Stanley Axlrod UTD Towers","street":"1809 Brickell Ave","id":"a63edfpjnp1x","geo_precision":"range","distance":1.60021303296667},"type":"Feature","geometry":{"type":"Point","coordinates":[-80.195998,25.755828]}},{"properties":{"city":"Dallas","industry":"Hotel","state/province":"TX","geo_score":0.61,"company / account":"Crowne Plaza Dallas Market Center","street":"7050 Stemmons Freeway","id":"a63edfnsvrnq","geo_precision":"street","distance":0.678678994572286},"type":"Feature","geometry":{"type":"Point","coordinates":[-96.900014,32.914704]}},{"properties":{"city":"Birmingham","industry":"Hotel","state/province":"AL","geo_score":0.805,"company / account":"Hampton Inn &amp; Suites Birmingham Downtown Tutwiler","street":"2021 Park Pl","id":"a63edfmbr014","geo_precision":"range","distance":0.290891026193191},"type":"Feature","geometry":{"type":"Point","coordinates":[-86.809747,33.519746]}},{"properties":{"city":"Atlanta","industry":"Hotel","state/province":"GA","geo_score":0.805,"company / account":"Sear","street":"265 PEACHTREE CENTER AVE NE","id":"a63edfqq4yui","geo_precision":"range","distance":1.38631367155551},"type":"Feature","geometry":{"type":"Point","coordinates":[-84.386028,33.761457]}},{"properties":{"city":"Atlanta","industry":"Hotel","state/province":"GA","geo_score":0.805,"company / account":"Best Western Plus Inn at the Peachtrees","street":"330 Peachtree St","id":"a63edfqcau7r","geo_precision":"range","distance":1.21332464358962},"type":"Feature","geometry":{"type":"Point","coordinates":[-84.386249,33.763999]}},{"properties":{"city":"Columbia","industry":"Assisted Living","state/province":"SC","geo_score":0.707,"company / account":"The Haven in the Summit","street":"3 Summit Terr","id":"a63edfwrx8z2","geo_precision":"range","distance":1.84770810695943},"type":"Feature","geometry":{"type":"Point","coordinates":[-81.003858,34.018685]}},{"properties":{"city":"Columbia","industry":"Hotel","state/province":"SC","geo_score":0.512,"company / account":"Best Western Executive Inn &amp; Suites","street":"1720 Bush River Rd","id":"a63edfs39g5f","geo_precision":"street","distance":1.70819460668373},"type":"Feature","geometry":{"type":"Point","coordinates":[-81.041901,34.020131]}},{"properties":{"city":"Roswell","industry":"Assisted Living Management","state/province":"GA","geo_score":0.708,"company / account":"Principal Senior Living Group, LLC","street":"11205 Alpharetta Hwy","id":"a63edfvm26a1","geo_precision":"street","distance":1.43179390755765},"type":"Feature","geometry":{"type":"Point","coordinates":[-84.345481,34.034863]}},{"properties":{"city":"Little Rock","industry":"Hotel","state/province":"AR","geo_score":0.805,"company / account":"The Capital Hotel","street":"111 W Markham St","id":"a63edfv2feab","geo_precision":"range","distance":0.783971112114088},"type":"Feature","geometry":{"type":"Point","coordinates":[-92.270402,34.748106]}},{"properties":{"city":"Spartanburg","industry":"Apartment","state/province":"SC","geo_score":0.805,"company / account":"Kensington Manor Apartments","street":"170 Kensington Dr","id":"a63edfx9ryor","geo_precision":"range","distance":1.62139675267473},"type":"Feature","geometry":{"type":"Point","coordinates":[-81.96292,34.921124]}},{"properties":{"city":"Charlotte","industry":"Hotel","state/province":"NC","geo_score":0.585,"company / account":"Albatross","street":"10416 Heavershire Drive","id":"a63edfvoohpt","geo_precision":"city","distance":0.412777988410262},"type":"Feature","geometry":{"type":"Point","coordinates":[-80.843127,35.227087]}},{"properties":{"city":"Charlotte","industry":"Hotel","state/province":"NC","geo_score":0.585,"company / account":"Albatross","street":"10416 Heavershire Drive","id":"a63edfoqmnm2","geo_precision":"city","distance":0.412777988410262},"type":"Feature","geometry":{"type":"Point","coordinates":[-80.843127,35.227087]}},{"properties":{"city":"Asheville","industry":"Dodge New Construction","state/province":"NC","geo_score":0.67,"company / account":"Design Management, LLC","street":"1 N Pack Square Ste 419","id":"a63edfyyuny1","geo_precision":"range","distance":0.436313261113182},"type":"Feature","geometry":{"type":"Point","coordinates":[-82.551814,35.595148]}},{"properties":{"city":"Raleigh","industry":"Private Viewing","state/province":"NC","geo_score":0.805,"company / account":"Recycling Management Resources","street":"1505 S Blount St","id":"a63edfwo2nw5","geo_precision":"range","distance":1.39045190333602},"type":"Feature","geometry":{"type":"Point","coordinates":[-78.637547,35.759788]}},{"properties":{"city":"Raleigh","industry":"Property Management","state/province":"NC","geo_score":0.778,"company / account":"Joyner Realty Company","street":"815-B New Bern Ave.","id":"a63edfjb9mch","geo_precision":"range","distance":0.922438270456645},"type":"Feature","geometry":{"type":"Point","coordinates":[-78.627182,35.780041]}},{"properties":{"city":"Raleigh","industry":"Private Viewing","state/province":"NC","geo_score":0.388,"company / account":"North Carolina Department of Transportation","street":"1505 Mail Service Center","id":"a63edfys51px","geo_precision":"street","distance":1.82975950877126},"type":"Feature","geometry":{"type":"Point","coordinates":[-78.63086,35.804291]}},{"properties":{"city":"Raleigh","industry":"Developer","state/province":"NC","geo_score":0.286,"company / account":"Realty Investments","street":"P.O. Box 12698","id":"a63edfryrruw","geo_precision":"street","distance":1.12996394884914},"type":"Feature","geometry":{"type":"Point","coordinates":[-78.615735,35.823274]}},{"properties":{"city":"Raleigh","industry":"Private Viewing","state/province":"NC","geo_score":0.286,"company / account":"Martin Marietta Composites","street":"P.O. Box 30013","id":"a63edflamd4c","geo_precision":"street","distance":1.12996394884914},"type":"Feature","geometry":{"type":"Point","coordinates":[-78.615735,35.823274]}},{"properties":{"city":"Raleigh","industry":"Developer","state/province":"NC","geo_score":0.667,"company / account":"Church Street Company","street":"4001 Barrett Drive Suite 104","id":"a63edfkm44sl","geo_precision":"range","distance":1.84868247428306},"type":"Feature","geometry":{"type":"Point","coordinates":[-78.630249,35.829765]}},{"properties":{"city":"Raleigh","industry":"Private Viewing","state/province":"NC","geo_score":0.805,"company / account":"Emery Advertising","street":"4911 Green Road","id":"a63edflf256c","geo_precision":"range","distance":1.68769438439496},"type":"Feature","geometry":{"type":"Point","coordinates":[-78.586361,35.851437]}},{"properties":{"city":"Raleigh","industry":"Developer","state/province":"NC","geo_score":0.39,"company / account":"Meritage Homes of North Carolina Inc.","street":"5400 Trinity Road, Palisades I,  Ste. 100","id":"a63edfyx5vze","geo_precision":"street","distance":1.78424112852009},"type":"Feature","geometry":{"type":"Point","coordinates":[-78.584734,35.851661]}},{"properties":{"city":"Greensboro","industry":"Property Management","state/province":"NC","geo_score":0.371,"company / account":"Westminster Company Property Management","street":"PO Box 26560","id":"a63edfmmsyhy","geo_precision":"street","distance":1.86648366175232},"type":"Feature","geometry":{"type":"Point","coordinates":[-79.819915,36.065549]}},{"properties":{"city":"Nashville","industry":"Condo","state/province":"TN","geo_score":0.805,"company / account":"Deer Lake Retirement Community","street":"368 Deer Lake Drive","id":"a63edfyosw2q","geo_precision":"range","distance":0.969809110496074},"type":"Feature","geometry":{"type":"Point","coordinates":[-86.924427,36.076637]}},{"properties":{"city":"Nashville","industry":"Apartment","state/province":"TN","geo_score":0.805,"company / account":"Green Hills Apartments","street":"2209 Abbott Martin Road","id":"a63edfvmbkr8","geo_precision":"range","distance":1.79917089598247},"type":"Feature","geometry":{"type":"Point","coordinates":[-86.82123,36.106586]}},{"properties":{"city":"Nashville","industry":"Apartment","state/province":"TN","geo_score":0.776,"company / account":"Argyle Avenue Senior Apartment","street":"755 E Argyle Avenue","id":"a63edft8y5dw","geo_precision":"range","distance":1.49734804645309},"type":"Feature","geometry":{"type":"Point","coordinates":[-86.777657,36.136067]}},{"properties":{"city":"Nashville","industry":"Assisted Living Management","state/province":"TN","geo_score":0.732,"company / account":"Healthcare Properties of Saint Augustine","street":"210 25th Avenue North","id":"a63edfsvccna","geo_precision":"range","distance":1.21727698026229},"type":"Feature","geometry":{"type":"Point","coordinates":[-86.809203,36.148348]}},{"properties":{"city":"Nashville","industry":"Property Management","state/province":"TN","geo_score":0.659,"company / account":"Lend Lease (US) Public Partnerships LLC","street":"1801 West End Ave Ste 1700","id":"a63edfyjluwq","geo_precision":"range","distance":1.30162907081792},"type":"Feature","geometry":{"type":"Point","coordinates":[-86.795998,36.153011]}},{"properties":{"city":"Knoxville","industry":"Dodge New Construction","state/province":"TN","geo_score":0.542,"company / account":"Brookview Town Centre Hotel","street":"306 N Weisgarber Rd","id":"a63edfsvrgbo","geo_precision":"city","distance":0.641103815883724},"type":"Feature","geometry":{"type":"Point","coordinates":[-86.784443,36.16589]}},{"properties":{"city":"Virginia Beach","industry":"Hotel","state/province":"VA","geo_score":0.805,"company / account":"Oceanfront Inn Virginia Beach","street":"2901 Atlantic Avenue","id":"a63edfiz91k6","geo_precision":"range","distance":0.182506175596102},"type":"Feature","geometry":{"type":"Point","coordinates":[-75.977926,36.858364]}},{"properties":{"city":"Virginia Beach","industry":"Hotel","state/province":"VA","geo_score":0.805,"company / account":"Plantation Motel Virginia Beach","street":"2906 Atlantic Ave","id":"a63edfk9f4hg","geo_precision":"range","distance":0.180917368639973},"type":"Feature","geometry":{"type":"Point","coordinates":[-75.977932,36.858393]}},{"properties":{"city":"Chesapeake","industry":"Hotel","state/province":"VA","geo_score":0.805,"company / account":"Sleep Inn &amp; Suites Chesapeake","street":"3280 Western Branch Blvd","id":"a63edfrtd5c6","geo_precision":"range","distance":0.329089463782107},"type":"Feature","geometry":{"type":"Point","coordinates":[-76.40992,36.865251]}},{"properties":{"city":"Newport News","industry":"Hotel","state/province":"VA","geo_score":0.805,"company / account":"Comfort Inn Newport News","street":"12330 Jefferson Ave","id":"a63edfuszntx","geo_precision":"range","distance":0.80211329986712},"type":"Feature","geometry":{"type":"Point","coordinates":[-76.502046,37.115815]}},{"properties":{"city":"Fredericksburg","industry":"Hotel","state/province":"VA","geo_score":0.805,"company / account":"Econo Lodge near Fredericksburg Battlefield","street":"5321 Jefferson Davis Hwy","id":"a63edfretjjz","geo_precision":"range","distance":0.443697962198228},"type":"Feature","geometry":{"type":"Point","coordinates":[-77.499039,38.24509]}},{"properties":{"city":"Saint Louis","industry":"Property Management","state/province":"MO","geo_score":0.805,"company / account":"Epworth Children &amp; Family Services Inc","street":"110 N Elm Ave","id":"a63edfpj2hfe","geo_precision":"range","distance":0.18616136328185},"type":"Feature","geometry":{"type":"Point","coordinates":[-90.356398,38.595256]}},{"properties":{"city":"Herndon","industry":"Developer","state/province":"VA","geo_score":0.475,"company / account":"Jmh Productions Inc  Jmh Productions Inc","street":"1530 Kingstream Circle","id":"a63edfktoo5y","geo_precision":"street","distance":1.62963344376933},"type":"Feature","geometry":{"type":"Point","coordinates":[-77.183213,38.822354]}},{"properties":{"city":"Washington","industry":"Apartment","state/province":"DC","geo_score":0.622,"company / account":"Wah LUCK House","street":"800 6th St NW Ofc","id":"a63edfxv2zub","geo_precision":"range","distance":0.539724225654895},"type":"Feature","geometry":{"type":"Point","coordinates":[-77.01991,38.899811]}},{"properties":{"city":"Washington","industry":"Government Military","state/province":"DC","geo_score":0.805,"company / account":"Veterans Health Administration","street":"810 Vermont Ave NW","id":"a63edfkuapuo","geo_precision":"range","distance":0.0728985176790968},"type":"Feature","geometry":{"type":"Point","coordinates":[-77.035079,38.900316]}},{"properties":{"city":"Washington","industry":"HOA/HUD","state/province":"DC","geo_score":0.805,"company / account":"Tyler House","street":"1200 N Capitol St NW","id":"a63edfvw6e7t","geo_precision":"range","distance":1.38853200413677},"type":"Feature","geometry":{"type":"Point","coordinates":[-77.009063,38.905646]}},{"properties":{"city":"Dulles","industry":"Hotel","state/province":"VA","geo_score":0.577,"company / account":"Comfort Inn &amp; Suites Airport Dulles","street":"45515 Dulles Plz","id":"a63edfwaczpx","geo_precision":"street","distance":0.700961473195388},"type":"Feature","geometry":{"type":"Point","coordinates":[-77.406762,38.97398]}},{"properties":{"city":"Chevy Chase","industry":"Assisted Living","state/province":"MD","geo_score":0.805,"company / account":"Five Star Premier Residences of Chevy Chase","street":"8100 Connecticut Ave","id":"a63edfpgznj5","geo_precision":"range","distance":1.39579432260083},"type":"Feature","geometry":{"type":"Point","coordinates":[-77.077163,38.993911]}},{"properties":{"city":"Silver Spring","industry":"Hotel","state/province":"MD","geo_score":0.805,"company / account":"Courtyard SIlver Spring Downtown","street":"8506 Fenton St","id":"a63edg7cradv","geo_precision":"range","distance":0.189703071648033},"type":"Feature","geometry":{"type":"Point","coordinates":[-77.025488,38.99691]}},{"properties":{"city":"Bethesda","industry":"Assisted Living","state/province":"MD","geo_score":0.805,"company / account":"Bethesda Health and Rehabilitation Center","street":"5721 Grosvenor Ln","id":"a63edfsw3ut5","geo_precision":"range","distance":0.0227215380439421},"type":"Feature","geometry":{"type":"Point","coordinates":[-77.113975,39.022623]}},{"properties":{"city":"Kansas City","industry":"Dodge New Construction","state/province":"MO","geo_score":0.457,"company / account":"West Edge Office and Hotel Development","street":"48th &amp; Roanoke Pkwy","id":"a63edfxfuy8m","geo_precision":"street","distance":1.35519930904362},"type":"Feature","geometry":{"type":"Point","coordinates":[-94.571855,39.039828]}},{"properties":{"city":"Silver Springs","industry":"Assisted Living","state/province":"MD","geo_score":0.805,"company / account":"Aspenwood Senior Living","street":"14400 Homecrest Rd","id":"a63edfu3d57r","geo_precision":"range","distance":0.742420411276409},"type":"Feature","geometry":{"type":"Point","coordinates":[-77.062805,39.091308]}},{"properties":{"city":"Leesburg","industry":"Assisted Living Management","state/province":"VA","geo_score":0.902,"company / account":"Morningside Management LLC","street":"201 Liberty Street Southwest","id":"a63edfno5tyo","geo_precision":"range","distance":1.37656237856611},"type":"Feature","geometry":{"type":"Point","coordinates":[-77.567608,39.114556]}},{"properties":{"city":"Baltimore","industry":"Assisted Living","state/province":"MD","geo_score":0.805,"company / account":"Summit Park Health &amp; Rehab Center","street":"1502 Frederick Rd","id":"a63edfjd8q1h","geo_precision":"range","distance":1.05652247364875},"type":"Feature","geometry":{"type":"Point","coordinates":[-76.746302,39.268797]}},{"properties":{"city":"Baltimore","industry":"Property Management","state/province":"MD","geo_score":0.805,"company / account":"Mount Royal Management Co","street":"1233 W Mount Royal Ave","id":"a63edfvve0vv","geo_precision":"range","distance":0.322436793134216},"type":"Feature","geometry":{"type":"Point","coordinates":[-76.620296,39.307201]}},{"properties":{"city":"Baltimore","industry":"Assisted Living","state/province":"MD","geo_score":0.805,"company / account":"Overlea Health and Rehabilitation Center","street":"6116 Belair Rd","id":"a63edfuebx2q","geo_precision":"range","distance":1.2405621188822},"type":"Feature","geometry":{"type":"Point","coordinates":[-76.537034,39.349212]}},{"properties":{"city":"Wilmington","industry":"Hotel","state/province":"DE","geo_score":0.805,"company / account":"The Residences at City Center","street":"1007 N Orange St","id":"a63edfu4xlho","geo_precision":"range","distance":1.96759909700861},"type":"Feature","geometry":{"type":"Point","coordinates":[-75.549045,39.746135]}},{"properties":{"city":"Philadelphia","industry":"Assisted Living","state/province":"PA","geo_score":0.707,"company / account":"St Monica Manor","street":"2509 S 4th St","id":"a63edfw0gdhy","geo_precision":"range","distance":1.19324139488781},"type":"Feature","geometry":{"type":"Point","coordinates":[-75.154506,39.917177]}},{"properties":{"city":"Philadelphia","industry":"Hotel","state/province":"PA","geo_score":0.661,"company / account":"Residence Inn Philadelphia Downtown","street":"One East Penn Square","id":"a63edfvn3l54","geo_precision":"street","distance":1.70224821898154},"type":"Feature","geometry":{"type":"Point","coordinates":[-75.162438,39.952906]}},{"properties":{"city":"Philadelphia","industry":"Hotel","state/province":"PA","geo_score":0.661,"company / account":"Residence Inn Philadelphia Downtown","street":"One East Penn Square","id":"a63edfvcsiqc","geo_precision":"street","distance":1.70224821898154},"type":"Feature","geometry":{"type":"Point","coordinates":[-75.162438,39.952906]}},{"properties":{"city":"Philadelphia","industry":"Apartment","state/province":"PA","geo_score":0.805,"company / account":"Mercy Douglass Human Services Residences","street":"4511 Walnut St","id":"a63edfuidvu3","geo_precision":"range","distance":1.93923161124171},"type":"Feature","geometry":{"type":"Point","coordinates":[-75.212786,39.955376]}},{"properties":{"city":"Philadelphia","industry":"HOA/HUD","state/province":"PA","geo_score":0.805,"company / account":"Mercy Douglass - Sansom House","street":"4508 Sansom St","id":"a63edfqhvdk2","geo_precision":"range","distance":1.85690841839578},"type":"Feature","geometry":{"type":"Point","coordinates":[-75.211643,39.95602]}},{"properties":{"city":"Philadelphia","industry":"Assisted Living","state/province":"PA","geo_score":0.805,"company / account":"The Watermark at Logan Square","street":"2 Franklin Town Blvd","id":"a63edfv6frko","geo_precision":"range","distance":1.71526853047383},"type":"Feature","geometry":{"type":"Point","coordinates":[-75.167161,39.958692]}},{"properties":{"city":"Philadelphia","industry":"HOA/HUD","state/province":"PA","geo_score":0.805,"company / account":"Simpson Mid Town Inc","street":"1001 Green St","id":"a63edfymde3h","geo_precision":"range","distance":1.41263949990564},"type":"Feature","geometry":{"type":"Point","coordinates":[-75.154311,39.962613]}},{"properties":{"city":"Philadelphia","industry":"HOA/HUD","state/province":"PA","geo_score":0.721,"company / account":"St Matthew's Manor","street":"230 N 57th St","id":"a63edfnyffwj","geo_precision":"range","distance":0.993378048169884},"type":"Feature","geometry":{"type":"Point","coordinates":[-75.234108,39.965036]}},{"properties":{"city":"Philadelphia","industry":"HOA/HUD","state/province":"PA","geo_score":0.805,"company / account":"Friends Rehabilitation Program, Inc.","street":"706 W Girard Ave","id":"a63edfniu9mc","geo_precision":"range","distance":1.74864894186711},"type":"Feature","geometry":{"type":"Point","coordinates":[-75.148382,39.970437]}},{"properties":{"city":"Philadelphia","industry":"Property Management","state/province":"PA","geo_score":0.565,"company / account":"City Of Philadelphia Office Of Supportive Housing","street":"1401 Jfk Blvd Fl 10","id":"a63edfvtntth","geo_precision":"range","distance":1.06996783156445},"type":"Feature","geometry":{"type":"Point","coordinates":[-75.244115,39.972274]}},{"properties":{"city":"Philadelphia","industry":"Assisted Living","state/province":"PA","geo_score":0.805,"company / account":"Centennial Village","street":"4400 W Girard Ave","id":"a63edfl0qgpd","geo_precision":"range","distance":0.770976123492421},"type":"Feature","geometry":{"type":"Point","coordinates":[-75.212211,39.973242]}},{"properties":{"city":"Philadelphia","industry":"Assisted Living","state/province":"PA","geo_score":0.805,"company / account":"Centennial Village","street":"4400 W Girard Ave","id":"a63edfo0onm1","geo_precision":"range","distance":0.770976123492421},"type":"Feature","geometry":{"type":"Point","coordinates":[-75.212211,39.973242]}},{"properties":{"city":"Philadelphia","industry":"Apartment","state/province":"PA","geo_score":0.805,"company / account":"Simpson Fletcher Conestoga","street":"5353 Master St","id":"a63edfkhjs22","geo_precision":"range","distance":0.286735465958209},"type":"Feature","geometry":{"type":"Point","coordinates":[-75.228837,39.973964]}},{"properties":{"city":"Philadelphia","industry":"Apartment","state/province":"PA","geo_score":0.805,"company / account":"Clara Baldwin Manor","street":"2600 W Susquehanna Ave","id":"a63edfphjgie","geo_precision":"range","distance":1.30797136795354},"type":"Feature","geometry":{"type":"Point","coordinates":[-75.175803,39.988811]}},{"properties":{"city":"Philadelphia","industry":"HOA/HUD","state/province":"PA","geo_score":0.707,"company / account":"Old City Presbyterian Apartments","street":"2509 N 4th St","id":"a63edfyvaide","geo_precision":"range","distance":0.74108252657958},"type":"Feature","geometry":{"type":"Point","coordinates":[-75.139,39.988885]}},{"properties":{"city":"Philadelphia","industry":"Apartment","state/province":"PA","geo_score":0.805,"company / account":"Bryn Mawr Suites","street":"5100 Lebanon Ave","id":"a63edfwn25f5","geo_precision":"range","distance":0.687580161880204},"type":"Feature","geometry":{"type":"Point","coordinates":[-75.226903,39.989209]}},{"properties":{"city":"Philadelphia","industry":"HOA/HUD","state/province":"PA","geo_score":0.429,"company / account":"Susquehanna Townhouses","street":"2233 N 20th St # A","id":"a63edfjndn5u","geo_precision":"street","distance":0.455989983792154},"type":"Feature","geometry":{"type":"Point","coordinates":[-75.128639,39.992225]}},{"properties":{"city":"Columbus","industry":"Hotel","state/province":"OH","geo_score":0.805,"company / account":"Hilton Columbus Downtown","street":"401 North High Street","id":"a63edfnh7cme","geo_precision":"range","distance":0.988572789127776},"type":"Feature","geometry":{"type":"Point","coordinates":[-82.677223,39.994161]}},{"properties":{"city":"Philadelphia","industry":"Apartment","state/province":"PA","geo_score":0.805,"company / account":"Opportunities Tower","street":"1717 W Hunting Park Ave # 1727","id":"a63edfpfkzhy","geo_precision":"range","distance":1.94864965245552},"type":"Feature","geometry":{"type":"Point","coordinates":[-75.155368,40.015184]}},{"properties":{"city":"Philadelphia","industry":"Apartment","state/province":"PA","geo_score":0.702,"company / account":"Chelten Place Apartments","street":"319 W Chelten Ave Apt 102","id":"a63edfsnd4pt","geo_precision":"range","distance":0.524610140419941},"type":"Feature","geometry":{"type":"Point","coordinates":[-75.180461,40.030197]}},{"properties":{"city":"Philadelphia","industry":"Apartment","state/province":"PA","geo_score":0.805,"company / account":"Empirian Luxury Towers","street":"633 W Rittenhouse St","id":"a63edfoww4qd","geo_precision":"range","distance":0.746425532836268},"type":"Feature","geometry":{"type":"Point","coordinates":[-75.184415,40.030224]}},{"properties":{"city":"Philadelphia","industry":"Apartment","state/province":"PA","geo_score":0.805,"company / account":"Belmont Residences","street":"3 Penn Blvd","id":"a63edfkccue2","geo_precision":"range","distance":0.473562933845561},"type":"Feature","geometry":{"type":"Point","coordinates":[-75.169379,40.031754]}},{"properties":{"city":"Philadelphia","industry":"HOA/HUD","state/province":"PA","geo_score":0.805,"company / account":"Four Freedoms House o Philadelphia","street":"6101 Morris St","id":"a63edfy89ccp","geo_precision":"range","distance":0.928286198368629},"type":"Feature","geometry":{"type":"Point","coordinates":[-75.188405,40.034966]}},{"properties":{"city":"Philadelphia","industry":"Assisted Living","state/province":"PA","geo_score":0.805,"company / account":"Caring Heart Rehab &amp; Nursing","street":"6445 Germantown Ave","id":"a63edfstvzdt","geo_precision":"range","distance":0.774374640934247},"type":"Feature","geometry":{"type":"Point","coordinates":[-75.182998,40.04759]}},{"properties":{"city":"Philadelphia","industry":"HOA/HUD","state/province":"PA","geo_score":0.707,"company / account":"Philip Murray House","street":"6300 Old York Rd","id":"a63edfxpz98k","geo_precision":"street","distance":0.152176196753266},"type":"Feature","geometry":{"type":"Point","coordinates":[-75.144167,40.049886]}},{"properties":{"city":"Philadelphia","industry":"Assisted Living","state/province":"PA","geo_score":0.805,"company / account":"Tabor Manor","street":"6730 Tabor Ave","id":"a63edfsftqxv","geo_precision":"range","distance":0.545679151046089},"type":"Feature","geometry":{"type":"Point","coordinates":[-75.087777,40.051833]}},{"properties":{"city":"Philadelphia","industry":"Apartment","state/province":"PA","geo_score":0.805,"company / account":"Burholme Senior Residences","street":"7023 Rising Sun Ave","id":"a63edfu12249","geo_precision":"range","distance":0.336591665880003},"type":"Feature","geometry":{"type":"Point","coordinates":[-75.088193,40.057224]}},{"properties":{"city":"Philadelphia","industry":"Assisted Living","state/province":"PA","geo_score":0.805,"company / account":"Golden Living Center - Stenton","street":"7310 Stenton Ave","id":"a63edfoi0vn6","geo_precision":"range","distance":1.40336426071829},"type":"Feature","geometry":{"type":"Point","coordinates":[-75.183969,40.070187]}},{"properties":{"city":"Philadelphia","industry":"Apartment","state/province":"PA","geo_score":0.805,"company / account":"Saligman House Inc","street":"8900 Roosevelt Blvd","id":"a63edfvgdlg3","geo_precision":"range","distance":1.29387021160178},"type":"Feature","geometry":{"type":"Point","coordinates":[-75.038299,40.071261]}},{"properties":{"city":"Philadelphia","industry":"Assisted Living","state/province":"PA","geo_score":0.805,"company / account":"Arbor Terrace at Chestnut Hill","street":"495 E Abington Ave","id":"a63edfnigdeu","geo_precision":"range","distance":0.530950707462071},"type":"Feature","geometry":{"type":"Point","coordinates":[-75.196731,40.077258]}},{"properties":{"city":"Philadelphia","industry":"Assisted Living","state/province":"PA","geo_score":0.805,"company / account":"Oakwood Healthcare &amp; Rehabilitation Center","street":"2109 Red Lion Rd","id":"a63edfwi41j4","geo_precision":"range","distance":0.977861643828835},"type":"Feature","geometry":{"type":"Point","coordinates":[-75.018063,40.09692]}},{"properties":{"city":"Champaign","industry":"Property Management","state/province":"IL","geo_score":0.333,"company / account":"Gillespie Management Inc","street":"Po Box 2519","id":"a63edfjgi0lj","geo_precision":"street","distance":0.168665399000303},"type":"Feature","geometry":{"type":"Point","coordinates":[-88.232068,40.111936]}},{"properties":{"city":"Bensalem","industry":"Assisted Living","state/province":"PA","geo_score":0.902,"company / account":"Sierra Oaks of Bensalem","street":"6400 Hulmeville Rd","id":"a63edfj07dr7","geo_precision":"range","distance":1.97183542514529},"type":"Feature","geometry":{"type":"Point","coordinates":[-74.912046,40.142149]}},{"properties":{"city":"Langhorne","industry":"Assisted Living","state/province":"PA","geo_score":0.86,"company / account":"Langhorne Gardens Rehab","street":"350 Manor Ave","id":"a63edfzdu9h7","geo_precision":"range","distance":1.14997341493798},"type":"Feature","geometry":{"type":"Point","coordinates":[-74.909619,40.163311]}},{"properties":{"city":"Pittsburgh","industry":"Assisted Living Customer","state/province":"PA","geo_score":0.805,"company / account":"Reformed Presbyterian Home - Upper Floor","street":"2334 Perrysville Avenue","id":"a63edfuolr3o","geo_precision":"range","distance":0.896244266671406},"type":"Feature","geometry":{"type":"Point","coordinates":[-80.010232,40.466953]}},{"properties":{"city":"Cleveland","industry":"Assisted Living","state/province":"OH","geo_score":0.805,"company / account":"The Senior Health &amp; Wellness Center","street":"4229 Pearl Rd","id":"a63edfuf39e7","geo_precision":"range","distance":0.190842739644363},"type":"Feature","geometry":{"type":"Point","coordinates":[-81.705611,41.440509]}},{"properties":{"city":"Des Moines","industry":"Hotel","state/province":"IA","geo_score":0.805,"company / account":"Hampton Inn Des Moines Airport","street":"5001 Fleur Drive","id":"a63edfjd3txo","geo_precision":"range","distance":1.44663135517484},"type":"Feature","geometry":{"type":"Point","coordinates":[-93.644985,41.538347]}},{"properties":{"city":"Chicago","industry":"Hotel Management","state/province":"IL","geo_score":0.675,"company / account":"Associated Hotels, LLC","street":"29 South LaSalle Street Suite 705","id":"a63edfxalo3o","geo_precision":"range","distance":1.80599650535616},"type":"Feature","geometry":{"type":"Point","coordinates":[-87.632345,41.881241]}},{"properties":{"city":"Chicago","industry":"Private Viewing","state/province":"IL","geo_score":0.333,"company / account":"Kemper Corporation","street":"1 E. Wacker Drive","id":"a63edfo6hxhr","geo_precision":"street","distance":1.95487704208311},"type":"Feature","geometry":{"type":"Point","coordinates":[-87.626347,41.886829]}},{"properties":{"city":"Chicago","industry":"Hotel","state/province":"IL","geo_score":0.683,"company / account":"Courtyard Chicago Downtown Magnificent Mile","street":"165 E Ontario St","id":"a63edfrorlnv","geo_precision":"range","distance":0.370518518181993},"type":"Feature","geometry":{"type":"Point","coordinates":[-87.623564,41.893348]}},{"properties":{"city":"Alma","industry":"College/University","state/province":"MI","geo_score":0.562,"company / account":"Alpha Xi Delta Sorority","street":"815 W Superior St","id":"a63edfjoxfb5","geo_precision":"street","distance":1.71161565894693},"type":"Feature","geometry":{"type":"Point","coordinates":[-85.580624,42.270303]}},{"properties":{"city":"East Lansing","industry":"College/University","state/province":"MI","geo_score":0.55,"company / account":"Hubbard Hall","street":"249 W Akers","id":"a63edfxmf1w9","geo_precision":"city","distance":0.00963054665576268},"type":"Feature","geometry":{"type":"Point","coordinates":[-84.555535,42.732535]}},{"properties":{"city":"Flint","industry":"MDU","state/province":"MI","geo_score":0.753,"company / account":"Riverfront Student Housing","street":"1 Riverfront Ctr W","id":"a63edfjkkdtr","geo_precision":"range","distance":0.107187640634855},"type":"Feature","geometry":{"type":"Point","coordinates":[-83.690964,43.016276]}},{"properties":{"city":"Milwaukee","industry":"Dodge New Construction","state/province":"WI","geo_score":0.615,"company / account":"Marriott Hotel Milwaukee","street":"E Wisconsin &amp; N Milwaukee Sts","id":"a63edfuvjcgm","geo_precision":"street","distance":0.106024192324991},"type":"Feature","geometry":{"type":"Point","coordinates":[-87.909117,43.038574]}},{"properties":{"city":"Boise","industry":"Hotel","state/province":"ID","geo_score":0.768,"company / account":"Hotel 43","street":"981 W Grove St","id":"a63edfoevqdl","geo_precision":"range","distance":0.45744319238574},"type":"Feature","geometry":{"type":"Point","coordinates":[-116.206325,43.61592]}},{"properties":{"city":"Boise","industry":"Hotel","state/province":"ID","geo_score":0.805,"company / account":"Shilo Inn Boise","street":"3031 Main St","id":"a63edfqewe6b","geo_precision":"range","distance":1.99472188391431},"type":"Feature","geometry":{"type":"Point","coordinates":[-116.228194,43.621579]}},{"properties":{"city":"Green Bay","industry":"Assisted Living","state/province":"WI","geo_score":0.707,"company / account":"La Frank Adult Family Home","street":"1713 Frank St","id":"a63edg0wpi2y","geo_precision":"street","distance":1.056377851121},"type":"Feature","geometry":{"type":"Point","coordinates":[-88.06005,44.506457]}},{"properties":{"city":"Green Bay","industry":"Assisted Living","state/province":"WI","geo_score":0.805,"company / account":"Benchmark Healthcare of Green Bay","street":"436 S Jefferson St","id":"a63edg107bxe","geo_precision":"range","distance":0.27851933098246},"type":"Feature","geometry":{"type":"Point","coordinates":[-88.016272,44.508734]}},{"properties":{"city":"Green Bay","industry":"Hotel","state/province":"WI","geo_score":0.805,"company / account":"Saint Brendan's Inn","street":"234 S Washington St","id":"a63edfzk2yj2","geo_precision":"range","distance":0.147701269919993},"type":"Feature","geometry":{"type":"Point","coordinates":[-88.017155,44.512717]}},{"properties":{"city":"Green Bay","industry":"Assisted Living","state/province":"WI","geo_score":0.805,"company / account":"Golden Living Center Village Gardens","street":"1640 Shawano Ave","id":"a63edgf39r5h","geo_precision":"range","distance":1.02561509820388},"type":"Feature","geometry":{"type":"Point","coordinates":[-88.062127,44.530854]}},{"properties":{"city":"Minneapolis","industry":"Assisted Living Management","state/province":"MN","geo_score":0.721,"company / account":"Breck Home Residential Care Center, Llc","street":"312 W 95th St","id":"a63edfo20aoo","geo_precision":"range","distance":0.365625401803239},"type":"Feature","geometry":{"type":"Point","coordinates":[-93.283812,44.831264]}},{"properties":{"city":"Minneapolis","industry":"Assisted Living","state/province":"MN","geo_score":0.805,"company / account":"Covenair Inc","street":"9031 Penn Ave S","id":"a63edfpivtw9","geo_precision":"range","distance":1.90645591579037},"type":"Feature","geometry":{"type":"Point","coordinates":[-93.30886,44.840321]}},{"properties":{"city":"Minneapolis","industry":"Assisted Living","state/province":"MN","geo_score":0.78,"company / account":"Shelter Care for Kids","street":"3103 Columbus Ave","id":"a63edfxpsf3k","geo_precision":"range","distance":1.44435749457343},"type":"Feature","geometry":{"type":"Point","coordinates":[-93.263931,44.946641]}},{"properties":{"city":"Minneapolis","industry":"Assisted Living","state/province":"MN","geo_score":0.624,"company / account":"Friendship Center Licensed Adult Day Program","street":"1717 2nd St Ne","id":"a63edfu8nxcl","geo_precision":"street","distance":0.186584678808976},"type":"Feature","geometry":{"type":"Point","coordinates":[-93.266387,45.035542]}},{"properties":{"city":"Minneapolis","industry":"Hotel","state/province":"MN","geo_score":0.688,"company / account":"Days Inn University Ave SE Minneapols","street":"2407 University Ave SE","id":"a63edfwgyjl3","geo_precision":"street","distance":0.0129157616593663},"type":"Feature","geometry":{"type":"Point","coordinates":[-93.262497,45.035545]}},{"properties":{"city":"Minneapolis","industry":"HOA/HUD","state/province":"MN","geo_score":0.624,"company / account":"Minneapolis Public Housing Authority","street":"1001 Washington Ave N","id":"a63edfwkwk6r","geo_precision":"street","distance":0.457075307838297},"type":"Feature","geometry":{"type":"Point","coordinates":[-93.256328,45.04098]}},{"properties":{"city":"Minneapolis","industry":"Assisted Living","state/province":"MN","geo_score":0.902,"company / account":"Crest View Lutheran Home","street":"4444 Reservoir Blvd","id":"a63edftshb3j","geo_precision":"range","distance":1.98306469867256},"type":"Feature","geometry":{"type":"Point","coordinates":[-93.234992,45.049606]}},{"properties":{"city":"Minneapolis","industry":"Property Management","state/province":"MN","geo_score":0.642,"company / account":"Field Regina Northrop Neighborhood Group, Inc.","street":"1620 E 46th St","id":"a63edflo4d21","geo_precision":"range","distance":1.8769288459743},"type":"Feature","geometry":{"type":"Point","coordinates":[-93.236956,45.050016]}},{"properties":{"city":"Portland","industry":"Hotel","state/province":"OR","geo_score":0.805,"company / account":"Quality Inn Portland Convention Center","street":"431 NE Multnomah St","id":"a63edg3e7iza","geo_precision":"range","distance":1.39084115092891},"type":"Feature","geometry":{"type":"Point","coordinates":[-122.661452,45.531513]}},{"properties":{"city":"Portland","industry":"Apartment","state/province":"OR","geo_score":0.805,"company / account":"Rose Quarter Housing","street":"10 N Weidler St","id":"a63edfv8zjed","geo_precision":"range","distance":1.22499433285869},"type":"Feature","geometry":{"type":"Point","coordinates":[-122.666751,45.534365]}},{"properties":{"city":"Portland","industry":"RV/Campground/Marina","state/province":"OR","geo_score":0.805,"company / account":"Shore Power","street":"2351 NW York St.","id":"a63edfxonznq","geo_precision":"range","distance":1.90995909041206},"type":"Feature","geometry":{"type":"Point","coordinates":[-122.699969,45.539037]}}],"is_temporal":false,"author":{"url":null,"metadata":null,"contact_name":null,"contact_address":null,"source":null,"contact_phone":null},"source":null,"pagination":{"sort":null,"start":0,"total":110,"limit":1000000},"state":"complete","tags":"","published":"2014-08-15T01:38:08-04:00","id":247470}