{"type":"FeatureCollection","data_type":"Dataset","url_type":null,"permissions":[{"permissions":{"download":true,"view":true},"group_id":"everyone"}],"classification":null,"title":"VARHISH-LIST","count":59,"stream_id":247755,"contributor":{"url":"http://geocommons.com/users/46671","name":"ericwaze"},"data_attributes":null,"calculation_params":null,"icon_link":null,"link":"http://geocommons.com/overlays/247755.json","extent":[-122.81,37.6684,-120.958,38.8047],"geometry_types":["point"],"unique_name":null,"name":"VARHISH-LIST","feature_count":59,"description":"","next_feature":null,"is_raster":false,"short_classification":"Y","stats":{},"features":[{"properties":{"city":"FAIRFIELD","st":"CA","zip":"94533","geo_score":0.805,"id":"a643m3aj96c7","address":"3345 N TEXAS STREET","geo_precision":"range"},"type":"Feature","geometry":{"type":"Point","coordinates":[-122.034073,38.290443]}},{"properties":{"city":"GREENBRAE","st":"CA","zip":"94904","geo_score":0.591,"id":"a643m3g01x0y","address":"295 SIR FRANCIS DRAKE","geo_precision":"street"},"type":"Feature","geometry":{"type":"Point","coordinates":[-122.520259,37.945654]}},{"properties":{"city":"FAIRFIELD","st":"CA","zip":"94534","geo_score":0.827,"id":"a643m35x3s6g","address":"4450 CENTRAL WAY","geo_precision":"range"},"type":"Feature","geometry":{"type":"Point","coordinates":[-122.133744,38.218665]}},{"properties":{"city":"NAPA","st":"CA","zip":"94558","geo_score":0.735,"id":"a643m3ctarnp","address":"300 LINCOLN","geo_precision":"range"},"type":"Feature","geometry":{"type":"Point","coordinates":[-122.276446,38.310652]}},{"properties":{"city":"NAPA","st":"CA","zip":"94558","geo_score":0.823,"id":"a643m3del6t5","address":"1491 TRANCAS STREET","geo_precision":"range"},"type":"Feature","geometry":{"type":"Point","coordinates":[-122.302237,38.32231]}},{"properties":{"city":"NOVATO","st":"CA","zip":"94945","geo_score":0.626,"id":"a643m3cmgdit","address":"7473 REDWOOD BLVD","geo_precision":"street"},"type":"Feature","geometry":{"type":"Point","coordinates":[-122.568793,38.111291]}},{"properties":{"city":"NOVATO","st":"CA","zip":"94947","geo_score":0.833,"id":"a643m3ihiru7","address":"1390 SOUTH NOVATO BLVD","geo_precision":"range"},"type":"Feature","geometry":{"type":"Point","coordinates":[-122.564785,38.087735]}},{"properties":{"city":"NOVATO","st":"CA","zip":"94947","geo_score":0.833,"id":"a643m3gzn9ov","address":"2085 NOVATO BLVD","geo_precision":"range"},"type":"Feature","geometry":{"type":"Point","coordinates":[-122.594385,38.111925]}},{"properties":{"city":"NOVATO","st":"CA","zip":"94947","geo_score":0.638,"id":"a643m3ie5fyj","address":"7300 REDWOOD BLVD","geo_precision":"street"},"type":"Feature","geometry":{"type":"Point","coordinates":[-122.561816,38.090452]}},{"properties":{"city":"NOVATO","st":"CA","zip":"94949","geo_score":0.82,"id":"a643m3cdsiyr","address":"401 ENFRENTE ROAD","geo_precision":"range"},"type":"Feature","geometry":{"type":"Point","coordinates":[-122.538878,38.068533]}},{"properties":{"city":"SAN RAFAEL","st":"CA","zip":"94901","geo_score":0.902,"id":"a643m3bm16ii","address":"834 IRWIN ST","geo_precision":"range"},"type":"Feature","geometry":{"type":"Point","coordinates":[-122.521095,37.970727]}},{"properties":{"city":"SAN RAFAEL","st":"CA","zip":"94901","geo_score":0.805,"id":"a643m3dhdo5u","address":"950 DEL PRESIDIO BLVD","geo_precision":"range"},"type":"Feature","geometry":{"type":"Point","coordinates":[-122.543974,38.007225]}},{"properties":{"city":"SAN RAFAEL","st":"CA","zip":"94901","geo_score":0.785,"id":"a643m3j0s9nz","address":"1833 4TH ST","geo_precision":"range"},"type":"Feature","geometry":{"type":"Point","coordinates":[-122.539659,37.974252]}},{"properties":{"city":"VALLEJO","st":"CA","zip":"94591","geo_score":0.902,"id":"a643m3ib8ckp","address":"708 ADMIRAL CALLAGHAN LANE","geo_precision":"range"},"type":"Feature","geometry":{"type":"Point","coordinates":[-122.2279,38.123741]}},{"properties":{"city":"VALLEJO","st":"CA","zip":"94590","geo_score":0.626,"id":"a643m34uxlym","address":"1604 MARINE WORLD PARKWAY","geo_precision":"range"},"type":"Feature","geometry":{"type":"Point","coordinates":[-122.256407,38.111067]}},{"properties":{"city":"City","st":"ST","zip":"Zip","geo_score":0.0,"id":"a643m37921zv","address":"Address","geo_precision":"unmatched"},"type":"Feature","geometry":null},{"properties":{"city":"PETALUMA","st":"CA","zip":"94952","geo_score":0.816,"id":"a643m3elmr1d","address":"1001 LAKEVILLE STREET","geo_precision":"range"},"type":"Feature","geometry":{"type":"Point","coordinates":[-122.622395,38.235348]}},{"properties":{"city":"ROHNERT PARK","st":"CA","zip":"94928","geo_score":0.815,"id":"a643m37ir1zx","address":"1484 EAST COTATI","geo_precision":"range"},"type":"Feature","geometry":{"type":"Point","coordinates":[-122.685915,38.335661]}},{"properties":{"city":"SANTA ROSA","st":"CA","zip":"95403","geo_score":0.816,"id":"a643m37zc4vy","address":"777 STEELE LANE","geo_precision":"range"},"type":"Feature","geometry":{"type":"Point","coordinates":[-122.725475,38.459972]}},{"properties":{"city":"SANTA ROSA","st":"CA","zip":"95403","geo_score":0.816,"id":"a643m3ben0me","address":"2005 GUERNEVILLE ROAD","geo_precision":"range"},"type":"Feature","geometry":{"type":"Point","coordinates":[-122.751446,38.452583]}},{"properties":{"city":"SANTA ROSA","st":"CA","zip":"95407","geo_score":0.816,"id":"a643m3ir6i8x","address":"255 DUTTON AVE","geo_precision":"range"},"type":"Feature","geometry":{"type":"Point","coordinates":[-122.725947,38.432432]}},{"properties":{"city":"SANTA ROSA","st":"CA","zip":"95401","geo_score":0.632,"id":"a643m3a1vj60","address":"3453 CLEVELAND AVE","geo_precision":"street"},"type":"Feature","geometry":{"type":"Point","coordinates":[-122.728395,38.459907]}},{"properties":{"city":"SANTA ROSA","st":"CA","zip":"95407","geo_score":0.816,"id":"a643m3gytekg","address":"3785 SANTA ROSA AVE","geo_precision":"range"},"type":"Feature","geometry":{"type":"Point","coordinates":[-122.713578,38.387282]}},{"properties":{"city":"SONOMA","st":"CA","zip":"95476","geo_score":0.814,"id":"a643m380rhd9","address":"616 BROADWAY","geo_precision":"range"},"type":"Feature","geometry":{"type":"Point","coordinates":[-122.458196,38.289684]}},{"properties":{"city":"WINDSOR","st":"CA","zip":"95492","geo_score":0.588,"id":"a643m35z425l","address":"9033 OLD REDWOOD HWY","geo_precision":"street"},"type":"Feature","geometry":{"type":"Point","coordinates":[-122.809898,38.547405]}},{"properties":{"city":"WINDSOR","st":"CA","zip":"95492","geo_score":0.708,"id":"a643m3f9r369","address":"6301 HEMBREE LANE","geo_precision":"street"},"type":"Feature","geometry":{"type":"Point","coordinates":[-122.785684,38.525753]}},{"properties":{"city":"ROHNERT PARK","st":"CA","zip":"95407","geo_score":0.566,"id":"a643m39hndsy","address":"5085 Redwood","geo_precision":"street"},"type":"Feature","geometry":{"type":"Point","coordinates":[-122.7135,38.360967]}},{"properties":{"city":"City","st":"ST","zip":"Zip","geo_score":0.0,"id":"a643m37rxa29","address":"Address","geo_precision":"unmatched"},"type":"Feature","geometry":null},{"properties":{"city":"Elk Grove","st":"CA","zip":"95624","geo_score":0.817,"id":"a643m3a2t36g","address":"8607 Elk Grove Blvd","geo_precision":"range"},"type":"Feature","geometry":{"type":"Point","coordinates":[-121.385217,38.408979]}},{"properties":{"city":"Elk Grove","st":"CA","zip":"95831","geo_score":0.522,"id":"a643m39xq8uz","address":"9100 Harbour Point","geo_precision":"street"},"type":"Feature","geometry":{"type":"Point","coordinates":[-121.520219,38.479715]}},{"properties":{"city":"Sacramento","st":"CA","zip":"95864","geo_score":0.902,"id":"a643m37qf21g","address":"3510 Fair Oaks Blvd","geo_precision":"range"},"type":"Feature","geometry":{"type":"Point","coordinates":[-121.382936,38.574047]}},{"properties":{"city":"Sacramento","st":"CA","zip":"95825","geo_score":0.844,"id":"a643m3iex3ez","address":"1301 Howe ave","geo_precision":"range"},"type":"Feature","geometry":{"type":"Point","coordinates":[-121.415312,38.588888]}},{"properties":{"city":"Sacramento","st":"CA","zip":"95814","geo_score":0.776,"id":"a643m3hn8xyx","address":"225 N Jibboom St.","geo_precision":"range"},"type":"Feature","geometry":{"type":"Point","coordinates":[-121.505498,38.599033]}},{"properties":{"city":"Sacramento","st":"CA","zip":"95835","geo_score":0.805,"id":"a643m3elkdf2","address":"2221 Del Paso road","geo_precision":"range"},"type":"Feature","geometry":{"type":"Point","coordinates":[-121.512205,38.656]}},{"properties":{"city":"Elk Grove","st":"CA","zip":"95758","geo_score":0.902,"id":"a643m3bdfndw","address":"7401 Sheldon Rd.","geo_precision":"range"},"type":"Feature","geometry":{"type":"Point","coordinates":[-121.416326,38.438005]}},{"properties":{"city":"Sacramento","st":"CA","zip":"95823","geo_score":0.824,"id":"a643m3evsz62","address":"4050 Florin Road","geo_precision":"range"},"type":"Feature","geometry":{"type":"Point","coordinates":[-121.459828,38.49601]}},{"properties":{"city":"Sacramento","st":"CA","zip":"95828","geo_score":0.805,"id":"a643m3fteih7","address":"6490 Mack Road","geo_precision":"range"},"type":"Feature","geometry":{"type":"Point","coordinates":[-121.428328,38.474216]}},{"properties":{"city":"Sacramento","st":"CA","zip":"95831","geo_score":0.902,"id":"a643m3aph1za","address":"8900 Pocket Rd","geo_precision":"range"},"type":"Feature","geometry":{"type":"Point","coordinates":[-121.505073,38.481269]}},{"properties":{"city":"Sacramento","st":"CA","zip":"95833","geo_score":0.78,"id":"a643m36trzkv","address":"1599 W El Camino Real","geo_precision":"range"},"type":"Feature","geometry":{"type":"Point","coordinates":[-121.497854,38.612739]}},{"properties":{"city":"Modesto","st":"CA","zip":"95355","geo_score":0.902,"id":"a643m37lcfxy","address":"1728 Oakdale Rd,","geo_precision":"range"},"type":"Feature","geometry":{"type":"Point","coordinates":[-120.957571,37.668403]}},{"properties":{"city":"City","st":"ST","zip":"Zip","geo_score":0.0,"id":"a643m35pooxa","address":"Address","geo_precision":"unmatched"},"type":"Feature","geometry":null},{"properties":{"city":"Rockline","st":"CA","zip":"95765","geo_score":0.533,"id":"a643m3au93ey","address":"6001 West Oaks Blvd","geo_precision":"street"},"type":"Feature","geometry":{"type":"Point","coordinates":[-121.265171,38.804719]}},{"properties":{"city":"Davis","st":"CA","zip":"95616","geo_score":0.902,"id":"a643m358mw3n","address":"1010 Olive Drive","geo_precision":"range"},"type":"Feature","geometry":{"type":"Point","coordinates":[-121.738439,38.540912]}},{"properties":{"city":"Citrus height","st":"CA","zip":"95610","geo_score":0.895,"id":"a643m3fkv0t5","address":"7899 Greenback Lane","geo_precision":"range"},"type":"Feature","geometry":{"type":"Point","coordinates":[-121.271565,38.678428]}},{"properties":{"city":"Citrus height","st":"CA","zip":"95621","geo_score":0.895,"id":"a643m3j2c7th","address":"6141 Greenback Lane","geo_precision":"range"},"type":"Feature","geometry":{"type":"Point","coordinates":[-121.320055,38.678453]}},{"properties":{"city":"Roseville","st":"CA","zip":"95747","geo_score":0.902,"id":"a643m3ihazwf","address":"3998 Foothills Blvd","geo_precision":"range"},"type":"Feature","geometry":{"type":"Point","coordinates":[-121.309106,38.743815]}},{"properties":{"city":"Sacramento","st":"CA","zip":"95821","geo_score":0.834,"id":"a643m35a6dlp","address":"3500 Auburn Blvd","geo_precision":"range"},"type":"Feature","geometry":{"type":"Point","coordinates":[-121.382941,38.637155]}},{"properties":{"city":"Antelope","st":"CA","zip":"95843","geo_score":0.902,"id":"a643m37cke9n","address":"7969 Watt Ave","geo_precision":"range"},"type":"Feature","geometry":{"type":"Point","coordinates":[-121.392155,38.7132]}},{"properties":{"city":"Shingle Springs","st":"CA","zip":"95682","geo_score":0.819,"id":"a643m376tbds","address":"3405 Coach Lane","geo_precision":"range"},"type":"Feature","geometry":{"type":"Point","coordinates":[-120.968895,38.658152]}},{"properties":{"city":"Davis","st":"CA","zip":"95616","geo_score":0.902,"id":"a643m3eg20d2","address":"1944 Anderson Road","geo_precision":"range"},"type":"Feature","geometry":{"type":"Point","coordinates":[-121.758465,38.560658]}},{"properties":{"city":"VACAVILLE","st":"CA","zip":"95688","geo_score":0.827,"id":"a643m3it3jw2","address":"950 MERCHANT STREET","geo_precision":"range"},"type":"Feature","geometry":{"type":"Point","coordinates":[-121.996816,38.348126]}},{"properties":{"city":"City","st":"ST","zip":"Zip","geo_score":0.0,"id":"a643m3ieixmp","address":"Address","geo_precision":"unmatched"},"type":"Feature","geometry":null},{"properties":{"city":"Walnut Creek","st":"CA","zip":"94597","geo_score":0.819,"id":"a643m3jmvlxr","address":"2900 North Main","geo_precision":"range"},"type":"Feature","geometry":{"type":"Point","coordinates":[-122.062477,37.926466]}},{"properties":{"city":"Pittsburg","st":"CA","zip":"94565","geo_score":0.872,"id":"a643m3bge87g","address":"1235 California Ave.","geo_precision":"range"},"type":"Feature","geometry":{"type":"Point","coordinates":[-121.865701,38.012802]}},{"properties":{"city":"Brentwood","st":"CA","zip":"94513","geo_score":0.708,"id":"a643m34h0hr6","address":"6031 Lone Tree way","geo_precision":"street"},"type":"Feature","geometry":{"type":"Point","coordinates":[-121.732346,37.961643]}},{"properties":{"city":"BERKELEY","st":"CA","zip":"94702","geo_score":0.835,"id":"a643m3cyujve","address":"1250 UNIVERSITY","geo_precision":"range"},"type":"Feature","geometry":{"type":"Point","coordinates":[-122.28752,37.869662]}},{"properties":{"city":"EL SOBRANTE","st":"CA","zip":"94803","geo_score":0.902,"id":"a643m3hvhoom","address":"3621 SAN PABLO DAM RD","geo_precision":"range"},"type":"Feature","geometry":{"type":"Point","coordinates":[-122.318082,37.964199]}},{"properties":{"city":"EMERYVILLE","st":"CA","zip":"94608","geo_score":0.707,"id":"a643m362peln","address":"1800 1/2 POWELL STREET","geo_precision":"street"},"type":"Feature","geometry":{"type":"Point","coordinates":[-122.28418,37.840825]}},{"properties":{"city":"SAN PABLO","st":"CA","zip":"94806","geo_score":0.827,"id":"a643m3j5mits","address":"2876 EL PORTAL DRIVE","geo_precision":"range"},"type":"Feature","geometry":{"type":"Point","coordinates":[-122.331785,37.963045]}}],"is_temporal":false,"author":{"url":"","metadata":"","contact_name":"","contact_address":"","source":"","contact_phone":""},"source":"","pagination":{"sort":null,"start":0,"total":59,"limit":1000000},"state":"complete","tags":"","published":"2014-08-15T01:54:38-04:00","id":247755}