{"type":"FeatureCollection","data_type":"Dataset","url_type":null,"permissions":[{"permissions":{"download":true,"view":true},"group_id":"everyone"}],"classification":null,"title":"Pantry_service_hours","count":42,"stream_id":248268,"contributor":{"url":"http://geocommons.com/users/45913","name":"jnathan3"},"data_attributes":null,"calculation_params":null,"icon_link":null,"link":"http://geocommons.com/overlays/248268.json","extent":[-77.9384,42.7803,-77.4163,43.2936],"geometry_types":["point"],"unique_name":null,"name":"Pantry_service_hours","feature_count":42,"description":"","next_feature":null,"is_raster":false,"short_classification":"Y","stats":{},"features":[{"properties":{"city":"Rochester","zip":"14607","geo_score":0.902,"id":"a66qrmmudsf9","address":"259 Monroe Ave","geo_precision":"range","agency name":"AIDS CARE - DAILY BREAD"},"type":"Feature","geometry":{"type":"Point","coordinates":[-77.599119,43.149648]}},{"properties":{"city":"Rochester","zip":"14605","geo_score":0.902,"id":"a66qrmb1d75h","address":"152 Baden Street","geo_precision":"range","agency name":"BADEN STREET SETTLEMENT HOUSE"},"type":"Feature","geometry":{"type":"Point","coordinates":[-77.606557,43.16853]}},{"properties":{"city":"Rochester","zip":"14621","geo_score":0.902,"id":"a66qrmlc68c1","address":"1111 Joseph Ave","geo_precision":"range","agency name":"BETHANY HOUSE"},"type":"Feature","geometry":{"type":"Point","coordinates":[-77.608286,43.185445]}},{"properties":{"city":"Rochester","zip":"14618","geo_score":0.827,"id":"a66qrmh9l8jp","address":"2035 Monroe Avenue","geo_precision":"range","agency name":"BRIGHTON FOOD CUPBOARD"},"type":"Feature","geometry":{"type":"Point","coordinates":[-77.562397,43.124339]}},{"properties":{"city":"Brockport","zip":"14420","geo_score":0.813,"id":"a66qrml20vsg","address":"14 State Street","geo_precision":"range","agency name":"BROCKPORT ECUMENICAL"},"type":"Feature","geometry":{"type":"Point","coordinates":[-77.938414,43.214382]}},{"properties":{"city":"Rochester","zip":"14620","geo_score":0.902,"id":"a66qrmit9iyr","address":"68 Ashland Street","geo_precision":"range","agency name":"CALVARY ST. ANDREW'S"},"type":"Feature","geometry":{"type":"Point","coordinates":[-77.608766,43.143788]}},{"properties":{"city":"Rochester","zip":"14606","geo_score":0.902,"id":"a66qrmg2ngln","address":"48 Cameron Street","geo_precision":"range","agency name":"CAMERON FOOD PANTRY"},"type":"Feature","geometry":{"type":"Point","coordinates":[-77.639661,43.165462]}},{"properties":{"city":"Rochester","zip":"14605","geo_score":0.902,"id":"a66qrmj84p4u","address":"30 Hart Street","geo_precision":"range","agency name":"CATHOLIC FAMILY SERVICES PANTRY"},"type":"Feature","geometry":{"type":"Point","coordinates":[-77.618744,43.170788]}},{"properties":{"city":"Rochester","zip":"14611","geo_score":0.84,"id":"a66qrmh51lv8","address":"445 Jay Street","geo_precision":"range","agency name":"CHARLES SETTLEMENT HOUSE"},"type":"Feature","geometry":{"type":"Point","coordinates":[-77.631801,43.159414]}},{"properties":{"city":"Rochester","zip":"14608","geo_score":0.902,"id":"a66qrmqpviqz","address":"700 Exchange Street","geo_precision":"range","agency name":"CHURCH OF LOVE FAITH CENTER"},"type":"Feature","geometry":{"type":"Point","coordinates":[-77.617272,43.14127]}},{"properties":{"city":"Rochester","zip":"14607","geo_score":0.902,"id":"a66qrmhqrs5f","address":"102 North Union Street","geo_precision":"range","agency name":"DIMITRI HOUSE EMERGENCY FP"},"type":"Feature","geometry":{"type":"Point","coordinates":[-77.594658,43.159371]}},{"properties":{"city":"East Rochester","zip":"14445","geo_score":0.902,"id":"a66qrmp55rci","address":"333 East Chestnut Street","geo_precision":"range","agency name":"EAST ROCHESTER FOOD SHELF"},"type":"Feature","geometry":{"type":"Point","coordinates":[-77.478773,43.112184]}},{"properties":{"city":"Rochester","zip":"14624","geo_score":0.403,"id":"a66qrmdxr3bq","address":"2924 S. Union St.","geo_precision":"street","agency name":"GRACE CHURCH OF THE NAZARENE"},"type":"Feature","geometry":{"type":"Point","coordinates":[-77.805948,43.145731]}},{"properties":{"city":"Rochester","zip":"14616","geo_score":0.827,"id":"a66qrmq4ijyt","address":"500 Maiden Lane","geo_precision":"range","agency name":"GREECE ECUMENICAL FOOD SHELF"},"type":"Feature","geometry":{"type":"Point","coordinates":[-77.653748,43.223746]}},{"properties":{"city":"Rochester","zip":"14619","geo_score":0.902,"id":"a66qrmb6h7uo","address":"360 Wellington Avenue","geo_precision":"range","agency name":"GROW/FAMILY RESTORATION PROJECT"},"type":"Feature","geometry":{"type":"Point","coordinates":[-77.640738,43.141191]}},{"properties":{"city":"Hilton","zip":"14468","geo_score":0.371,"id":"a66qrmjh87qt","address":"59 Henry Street, Rm11B","geo_precision":"street","agency name":"HILTON PARMA EMERGENCY FOODSHELF"},"type":"Feature","geometry":{"type":"Point","coordinates":[-77.797591,43.287997]}},{"properties":{"city":"Webster","zip":"14580","geo_score":0.83,"id":"a66qrmcd5uny","address":"1450 Ridge Road East","geo_precision":"range","agency name":"H.O.P.E. MINISTRY"},"type":"Feature","geometry":{"type":"Point","coordinates":[-77.416334,43.214381]}},{"properties":{"city":"Rochester","zip":"14621","geo_score":0.902,"id":"a66qrmq5vykf","address":"1101 Norton Street","geo_precision":"range","agency name":"HOUSE OF GRACE -  PAN"},"type":"Feature","geometry":{"type":"Point","coordinates":[-77.593719,43.187034]}},{"properties":{"city":"Rochester","zip":"14621","geo_score":0.902,"id":"a66qrmfhdmn3","address":"777 Clifford Avenue","geo_precision":"range","agency name":"IBERO FOOD PANTRY"},"type":"Feature","geometry":{"type":"Point","coordinates":[-77.60241,43.17526]}},{"properties":{"city":"Rochester","zip":"14622","geo_score":0.902,"id":"a66qrmnmfvlf","address":"4275 Culver Rd","geo_precision":"range","agency name":"IRONDEQUOIT COMMUNITY CUPBOARD"},"type":"Feature","geometry":{"type":"Point","coordinates":[-77.547342,43.226575]}},{"properties":{"city":"Rochester","zip":"14464","geo_score":0.586,"id":"a66qrmkojow7","address":"1742 RT 19 North","geo_precision":"range","agency name":"LIFE SOLUTIONS OF HAMLIN"},"type":"Feature","geometry":{"type":"Point","coordinates":[-77.920805,43.293565]}},{"properties":{"city":"Rochester","zip":"14612","geo_score":0.625,"id":"a66qrmqbnq3k","address":"10 Cede field Commons","geo_precision":"range","agency name":"MISSION SHARE OUTREACH CENTER"},"type":"Feature","geometry":{"type":"Point","coordinates":[-77.588765,43.141859]}},{"properties":{"city":"Rochester","zip":"14620","geo_score":0.902,"id":"a66qrmhhpf9j","address":"243 Rosedale Street","geo_precision":"range","agency name":"NEW LIFE PRESBYTERIAN CHURCH"},"type":"Feature","geometry":{"type":"Point","coordinates":[-77.581938,43.140396]}},{"properties":{"city":"Rochester","zip":"14611","geo_score":0.84,"id":"a66qrmd2uvxs","address":"447 Genesee St.","geo_precision":"range","agency name":"OUTREACH COMMUNITY CENTER"},"type":"Feature","geometry":{"type":"Point","coordinates":[-77.636041,43.141372]}},{"properties":{"city":"Rochester","zip":"14606","geo_score":0.902,"id":"a66qrmkwpeup","address":"218 Murray Street","geo_precision":"range","agency name":"OUTREACH TEMPLE FOOD CUPBOARD"},"type":"Feature","geometry":{"type":"Point","coordinates":[-77.642176,43.163998]}},{"properties":{"city":"N.Chili","zip":"14514","geo_score":0.859,"id":"a66qrmg8yz8x","address":"4322 Buffalo Road","geo_precision":"range","agency name":"PEARCE MEMORIAL FOOD CUPBOARD"},"type":"Feature","geometry":{"type":"Point","coordinates":[-77.800602,43.121534]}},{"properties":{"city":"Pittsford","zip":"14534","geo_score":0.543,"id":"a66qrmnpkv57","address":"1 Grove Street Suite 103A","geo_precision":"street","agency name":"PITTSFORD FOOD CUPBOARD"},"type":"Feature","geometry":{"type":"Point","coordinates":[-77.516071,43.095423]}},{"properties":{"city":"Rochester","zip":"14604","geo_score":0.902,"id":"a66qrmqlk9wf","address":"111 North Chestnut Street","geo_precision":"range","agency name":"REFORMATION LUTHERAN CHURCH"},"type":"Feature","geometry":{"type":"Point","coordinates":[-77.602714,43.159495]}},{"properties":{"city":"Rochester","zip":"14608","geo_score":0.902,"id":"a66qrmaqx147","address":"388 Tremont Street","geo_precision":"range","agency name":"ROCHESTER FAMILY MISSION"},"type":"Feature","geometry":{"type":"Point","coordinates":[-77.625384,43.147846]}},{"properties":{"city":"Henrietta","zip":"14467","geo_score":0.357,"id":"a66qrmlwkk0w","address":"Box 302","geo_precision":"street","agency name":"RUSH-HENRIETTA AREA FOOD TERMINAL"},"type":"Feature","geometry":{"type":"Point","coordinates":[-77.934601,42.780314]}},{"properties":{"city":"Rochester","zip":"14604-4310","geo_score":0.902,"id":"a66qrmb8haj0","address":"70 Liberty Pole Way","geo_precision":"range","agency name":"SALVATION ARMY EMERGENCY FOOD ASSISTANCE"},"type":"Feature","geometry":{"type":"Point","coordinates":[-77.604415,43.158799]}},{"properties":{"city":"Rochester","zip":"14621","geo_score":0.468,"id":"a66qrmgdxq2v","address":"915 N. Clinton Avenue","geo_precision":"street","agency name":"SALVATION ARMY ROCHESTER TEMPLE CORPS"},"type":"Feature","geometry":{"type":"Point","coordinates":[-77.61331,43.175622]}},{"properties":{"city":"Rochester","zip":"14605","geo_score":0.902,"id":"a66qrmp0eyyy","address":"316 Bay Street","geo_precision":"range","agency name":"SISTER MARY REGIS FOOD CUPBOARD"},"type":"Feature","geometry":{"type":"Point","coordinates":[-77.585912,43.170854]}},{"properties":{"city":"Penfield","zip":"14526","geo_score":0.466,"id":"a66qrmdbbvlk","address":"1850 Fairport-Nine Mile Pt. Rd","geo_precision":"street","agency name":"SOUTHEAST BIBLE BAPTIST CHURCH"},"type":"Feature","geometry":{"type":"Point","coordinates":[-77.430413,43.194193]}},{"properties":{"city":"Rochester","zip":"14611","geo_score":0.84,"id":"a66qrmh8rz68","address":"350 Chili Ave","geo_precision":"range","agency name":"SOUTHWEST ECUMENICAL MINISTRIES \n-St. Stephen's Church"},"type":"Feature","geometry":{"type":"Point","coordinates":[-77.646007,43.14697]}},{"properties":{"city":"Rochester","zip":"14621","geo_score":0.902,"id":"a66qrmld0573","address":"890 Portland Avenue","geo_precision":"range","agency name":"ST. ANDREWS EMERGENCY FOOD CUPBOARD"},"type":"Feature","geometry":{"type":"Point","coordinates":[-77.586705,43.18203]}},{"properties":{"city":"Rochester","zip":"14606","geo_score":0.902,"id":"a66qrmk9e7up","address":"168 Spencerport Road","geo_precision":"range","agency name":"ST. THEODORE'S SOCIAL MINSTRIES \nFOOD CUPBOARD"},"type":"Feature","geometry":{"type":"Point","coordinates":[-77.695216,43.166622]}},{"properties":{"city":"Rochester","zip":"14605","geo_score":0.849,"id":"a66qrmgj374z","address":"253 North Clinton Avenue","geo_precision":"range","agency name":"THE COMMUNITY FOOD CUPBOARD \nOF GREATER ROCHESTER"},"type":"Feature","geometry":{"type":"Point","coordinates":[-77.608396,43.162101]}},{"properties":{"city":"Rochester","zip":"14605","geo_score":0.902,"id":"a66qrmq8iktk","address":"57 Central Park","geo_precision":"range","agency name":"THE COMMUNITY PLACE CUPBOARD"},"type":"Feature","geometry":{"type":"Point","coordinates":[-77.59376,43.169451]}},{"properties":{"city":"Rochester","zip":"14609","geo_score":0.902,"id":"a66qrmg0o7zm","address":"145 Parsells Avenue","geo_precision":"range","agency name":"THE COMMUNITY PLACE EMERGENCY FP"},"type":"Feature","geometry":{"type":"Point","coordinates":[-77.575391,43.16564]}},{"properties":{"city":"Rochester","zip":"14607","geo_score":0.902,"id":"a66qrme1bmcv","address":"4 Meigs Street","geo_precision":"range","agency name":"THIRD PRESBYTERIAN PANTRY"},"type":"Feature","geometry":{"type":"Point","coordinates":[-77.590742,43.154075]}},{"properties":{"city":"Rochester","zip":"14605","geo_score":0.902,"id":"a66qrmc7q9us","address":"175 Ward Street","geo_precision":"range","agency name":"VOA HOMELESSNESS PREVENTION PROGRAM"},"type":"Feature","geometry":{"type":"Point","coordinates":[-77.609007,43.164804]}}],"is_temporal":false,"author":{"url":"","metadata":null,"contact_name":null,"contact_address":null,"source":null,"contact_phone":null},"source":"","pagination":{"sort":null,"start":0,"total":42,"limit":1000000},"state":"complete","tags":"","published":"2014-08-15T02:40:49-04:00","id":248268}