{"type":"FeatureCollection","data_type":"Dataset","url_type":null,"permissions":[{"permissions":{"download":true,"view":true},"group_id":"everyone"}],"classification":null,"title":"in_flight_sites_06-05-2012","count":145,"stream_id":248633,"contributor":{"url":"http://geocommons.com/users/33693","name":"pg8767"},"data_attributes":null,"calculation_params":null,"icon_link":null,"link":"http://geocommons.com/overlays/248633.json","extent":[-116.602,-34.7,167.117,51.05],"geometry_types":["point"],"unique_name":null,"name":"in_flight_sites_06-05-2012","feature_count":145,"description":"","next_feature":null,"is_raster":false,"short_classification":"Y","stats":{"phones":{"max":900,"mean":95.0827586206897,"variance":21254.2431034483,"stdev":145.788350369459,"min":0,"median":50}},"features":[{"properties":{"city":"Anchorage","geo_score":0.0,"id":"a67nhpltm8rx","phones":202,"geo_precision":"unmatched","state":"AK"},"type":"Feature","geometry":null},{"properties":{"city":"Fairbanks","geo_score":0.0,"id":"a67nhpy1nex6","phones":10,"geo_precision":"unmatched","state":"AK"},"type":"Feature","geometry":null},{"properties":{"city":"Juneau","geo_score":0.0,"id":"a67nhpxgsywl","phones":8,"geo_precision":"unmatched","state":"AK"},"type":"Feature","geometry":null},{"properties":{"city":"Tuscaloosa","geo_score":0.0,"id":"a67nhplkp92z","phones":74,"geo_precision":"unmatched","state":"AL"},"type":"Feature","geometry":null},{"properties":{"city":"El Dorado","geo_score":1.0,"id":"a67nhpod68in","phones":26,"geo_precision":"zip","state":"AR"},"type":"Feature","geometry":{"type":"Point","coordinates":[-54.6333333,-26.4]}},{"properties":{"city":"Fayetteville","geo_score":0.0,"id":"a67nhpjrlojy","phones":35,"geo_precision":"unmatched","state":"AR"},"type":"Feature","geometry":null},{"properties":{"city":"Fort Smith","geo_score":0.921,"id":"a67nhpphcz59","phones":55,"geo_precision":"zip","state":"AR"},"type":"Feature","geometry":{"type":"Point","coordinates":[-58.45,-34.7]}},{"properties":{"city":"Hot Springs","geo_score":0.886,"id":"a67nhpv4kilr","phones":20,"geo_precision":"zip","state":"AR"},"type":"Feature","geometry":{"type":"Point","coordinates":[-60.55,-26.0666667]}},{"properties":{"city":"Texarkana","geo_score":0.0,"id":"a67nhpp7fhqp","phones":16,"geo_precision":"unmatched","state":"AR"},"type":"Feature","geometry":null},{"properties":{"city":"Phoenix","geo_score":0.0,"id":"a67nhpxi6g5r","phones":52,"geo_precision":"unmatched","state":"AZ"},"type":"Feature","geometry":null},{"properties":{"city":"Sierra Vista","geo_score":0.896,"id":"a67nhpy8aaz1","phones":9,"geo_precision":"zip","state":"AZ"},"type":"Feature","geometry":{"type":"Point","coordinates":[49.7163889,40.5322222]}},{"properties":{"city":"El Centro","geo_score":0.9,"id":"a67nhppyku1h","phones":39,"geo_precision":"zip","state":"CA"},"type":"Feature","geometry":{"type":"Point","coordinates":[-77.232752517,48.383487733]}},{"properties":{"city":"San Diego","geo_score":0.893,"id":"a67nhpw7p0am","phones":459,"geo_precision":"zip","state":"CA"},"type":"Feature","geometry":{"type":"Point","coordinates":[-116.602093777,51.049964127]}},{"properties":{"city":"Woodland Hills","geo_score":0.868,"id":"a67nhpvvuyh3","phones":30,"geo_precision":"zip","state":"CA"},"type":"Feature","geometry":{"type":"Point","coordinates":[-83.166488288,47.716815065]}},{"properties":{"city":"Denver","geo_score":0.0,"id":"a67nhpxphi6h","phones":455,"geo_precision":"unmatched","state":"CO"},"type":"Feature","geometry":null},{"properties":{"city":"Bridgeport","geo_score":0.0,"id":"a67nhpl2vbkv","phones":36,"geo_precision":"unmatched","state":"CT"},"type":"Feature","geometry":null},{"properties":{"city":"Hartford","geo_score":0.0,"id":"a67nhppn97a0","phones":40,"geo_precision":"unmatched","state":"CT"},"type":"Feature","geometry":null},{"properties":{"city":"New Haven","geo_score":0.0,"id":"a67nhpnhv8lr","phones":53,"geo_precision":"unmatched","state":"CT"},"type":"Feature","geometry":null},{"properties":{"city":"Gainesville","geo_score":0.0,"id":"a67nhpwe1si7","phones":52,"geo_precision":"unmatched","state":"FL"},"type":"Feature","geometry":null},{"properties":{"city":"Panama City","geo_score":0.0,"id":"a67nhpx2vf87","phones":38,"geo_precision":"unmatched","state":"FL"},"type":"Feature","geometry":null},{"properties":{"city":"Pensacola","geo_score":0.0,"id":"a67nhpy4bpho","phones":220,"geo_precision":"unmatched","state":"FL"},"type":"Feature","geometry":null},{"properties":{"city":"Tallahassee","geo_score":0.0,"id":"a67nhpqtar74","phones":112,"geo_precision":"unmatched","state":"FL"},"type":"Feature","geometry":null},{"properties":{"city":"Atlanta","geo_score":0.0,"id":"a67nhprydva1","phones":660,"geo_precision":"unmatched","state":"GA"},"type":"Feature","geometry":null},{"properties":{"city":"Augusta","geo_score":0.0,"id":"a67nhpt3ozl7","phones":110,"geo_precision":"unmatched","state":"GA"},"type":"Feature","geometry":null},{"properties":{"city":"Brunswick","geo_score":0.0,"id":"a67nhpov3pkp","phones":100,"geo_precision":"unmatched","state":"GA"},"type":"Feature","geometry":null},{"properties":{"city":"Dublin","geo_score":0.0,"id":"a67nhpktdznl","phones":10,"geo_precision":"unmatched","state":"GA"},"type":"Feature","geometry":null},{"properties":{"city":"Gainsville","geo_score":0.0,"id":"a67nhpn8iuyt","phones":62,"geo_precision":"unmatched","state":"GA"},"type":"Feature","geometry":null},{"properties":{"city":"Marietta","geo_score":0.0,"id":"a67nhpvtus9f","phones":20,"geo_precision":"unmatched","state":"GA"},"type":"Feature","geometry":null},{"properties":{"city":"Newnan","geo_score":0.0,"id":"a67nhpptf0ua","phones":53,"geo_precision":"unmatched","state":"GA"},"type":"Feature","geometry":null},{"properties":{"city":"Rome","geo_score":0.929,"id":"a67nhpunkt0a","phones":86,"geo_precision":"zip","state":"GA"},"type":"Feature","geometry":{"type":"Point","coordinates":[12.0833333,-1.3166667]}},{"properties":{"city":"Savannah","geo_score":0.0,"id":"a67nhpsla8nt","phones":183,"geo_precision":"unmatched","state":"GA"},"type":"Feature","geometry":null},{"properties":{"city":"Statesboro","geo_score":0.0,"id":"a67nhpuh9ri0","phones":23,"geo_precision":"unmatched","state":"GA"},"type":"Feature","geometry":null},{"properties":{"city":"Tucker","geo_score":0.0,"id":"a67nhpwqutt7","phones":15,"geo_precision":"unmatched","state":"GA"},"type":"Feature","geometry":null},{"properties":{"city":"Waycross","geo_score":0.0,"id":"a67nhplk4932","phones":33,"geo_precision":"unmatched","state":"GA"},"type":"Feature","geometry":null},{"properties":{"city":"Cedar Rapids","geo_score":0.0,"id":"a67nhpo8h4he","phones":109,"geo_precision":"unmatched","state":"IA"},"type":"Feature","geometry":null},{"properties":{"city":"Boise","geo_score":0.914,"id":"a67nhpr3t0hv","phones":194,"geo_precision":"zip","state":"ID"},"type":"Feature","geometry":{"type":"Point","coordinates":[95.9574,5.2872]}},{"properties":{"city":"Coeur D'Alene","geo_score":0.909,"id":"a67nhpvojv5m","phones":34,"geo_precision":"zip","state":"ID"},"type":"Feature","geometry":{"type":"Point","coordinates":[95.8366,5.508]}},{"properties":{"city":"Moscow","geo_score":0.905,"id":"a67nhpud7pst","phones":16,"geo_precision":"zip","state":"ID"},"type":"Feature","geometry":{"type":"Point","coordinates":[117.2,-8.6666667]}},{"properties":{"city":"Pocatello","geo_score":0.889,"id":"a67nhprhpqtd","phones":52,"geo_precision":"zip","state":"ID"},"type":"Feature","geometry":{"type":"Point","coordinates":[123.8,-10.1166667]}},{"properties":{"city":"Twin Falls","geo_score":0.889,"id":"a67nhptyg6zi","phones":4,"geo_precision":"zip","state":"ID"},"type":"Feature","geometry":{"type":"Point","coordinates":[133.5166667,-2.55]}},{"properties":{"city":"Chicago","geo_score":0.0,"id":"a67nhpx0nlwo","phones":340,"geo_precision":"unmatched","state":"IL"},"type":"Feature","geometry":null},{"properties":{"city":"Danville","geo_score":0.0,"id":"a67nhpmkvprn","phones":18,"geo_precision":"unmatched","state":"IL"},"type":"Feature","geometry":null},{"properties":{"city":"Peoria","geo_score":0.0,"id":"a67nhptfyapt","phones":124,"geo_precision":"unmatched","state":"IL"},"type":"Feature","geometry":null},{"properties":{"city":"Rock Island","geo_score":0.0,"id":"a67nhpjouwfh","phones":20,"geo_precision":"unmatched","state":"IL"},"type":"Feature","geometry":null},{"properties":{"city":"Springfield","geo_score":0.0,"id":"a67nhpuz763a","phones":140,"geo_precision":"unmatched","state":"IL"},"type":"Feature","geometry":null},{"properties":{"city":"Urbana","geo_score":0.0,"id":"a67nhpoh7rfu","phones":62,"geo_precision":"unmatched","state":"IL"},"type":"Feature","geometry":null},{"properties":{"city":"Fort Wayne","geo_score":0.905,"id":"a67nhpoh7pvj","phones":60,"geo_precision":"zip","state":"IN"},"type":"Feature","geometry":{"type":"Point","coordinates":[78.95,20.0666667]}},{"properties":{"city":"Hammond","geo_score":0.918,"id":"a67nhpnt0d5c","phones":125,"geo_precision":"zip","state":"IN"},"type":"Feature","geometry":{"type":"Point","coordinates":[92.4,23.1166667]}},{"properties":{"city":"Lafayette","geo_score":0.0,"id":"a67nhpr2c1ap","phones":38,"geo_precision":"unmatched","state":"IN"},"type":"Feature","geometry":null},{"properties":{"city":"South Bend","geo_score":0.889,"id":"a67nhpmnl62a","phones":200,"geo_precision":"zip","state":"IN"},"type":"Feature","geometry":{"type":"Point","coordinates":[80.3333333,25.4833333]}},{"properties":{"city":"Bowling Green","geo_score":0.0,"id":"a67nhpwa08mu","phones":113,"geo_precision":"unmatched","state":"KY"},"type":"Feature","geometry":null},{"properties":{"city":"Hopkinsville","geo_score":0.0,"id":"a67nhpnaxch1","phones":10,"geo_precision":"unmatched","state":"KY"},"type":"Feature","geometry":null},{"properties":{"city":"Lexington","geo_score":0.0,"id":"a67nhpslbnvm","phones":114,"geo_precision":"unmatched","state":"KY"},"type":"Feature","geometry":null},{"properties":{"city":"Louisville","geo_score":0.0,"id":"a67nhpj0h4jj","phones":239,"geo_precision":"unmatched","state":"KY"},"type":"Feature","geometry":null},{"properties":{"city":"Owensboro","geo_score":0.0,"id":"a67nhpkxtmqe","phones":64,"geo_precision":"unmatched","state":"KY"},"type":"Feature","geometry":null},{"properties":{"city":"Paducah","geo_score":0.0,"id":"a67nhpql1bqw","phones":55,"geo_precision":"unmatched","state":"KY"},"type":"Feature","geometry":null},{"properties":{"city":"Alexandria","geo_score":0.0,"id":"a67nhpwkn3yd","phones":69,"geo_precision":"unmatched","state":"LA"},"type":"Feature","geometry":null},{"properties":{"city":"Baton Rouge","geo_score":0.0,"id":"a67nhpre6hpe","phones":221,"geo_precision":"unmatched","state":"LA"},"type":"Feature","geometry":null},{"properties":{"city":"Lafayette","geo_score":0.0,"id":"a67nhputvm6d","phones":62,"geo_precision":"unmatched","state":"LA"},"type":"Feature","geometry":null},{"properties":{"city":"Lake Charles","geo_score":0.883,"id":"a67nhpp4rgwz","phones":65,"geo_precision":"zip","state":"LA"},"type":"Feature","geometry":{"type":"Point","coordinates":[107.3,15.9166667]}},{"properties":{"city":"Monroe","geo_score":0.0,"id":"a67nhpnjvhwt","phones":36,"geo_precision":"unmatched","state":"LA"},"type":"Feature","geometry":null},{"properties":{"city":"NewOrleans","geo_score":0.0,"id":"a67nhpqpqyty","phones":80,"geo_precision":"unmatched","state":"LA"},"type":"Feature","geometry":null},{"properties":{"city":"Shreveport","geo_score":0.0,"id":"a67nhpxtfypw","phones":88,"geo_precision":"unmatched","state":"LA"},"type":"Feature","geometry":null},{"properties":{"city":"Boston","geo_score":0.929,"id":"a67nhpoqe0gd","phones":533,"geo_precision":"zip","state":"MA"},"type":"Feature","geometry":{"type":"Point","coordinates":[-7.15,31.96]}},{"properties":{"city":"Bangor","geo_score":0.0,"id":"a67nhpt5g04c","phones":52,"geo_precision":"unmatched","state":"ME"},"type":"Feature","geometry":null},{"properties":{"city":"Portland","geo_score":0.0,"id":"a67nhptz5jkl","phones":70,"geo_precision":"unmatched","state":"ME"},"type":"Feature","geometry":null},{"properties":{"city":"Cape Girardeau","geo_score":0.0,"id":"a67nhpqljhjy","phones":137,"geo_precision":"unmatched","state":"MO"},"type":"Feature","geometry":null},{"properties":{"city":"Hannibal","geo_score":0.0,"id":"a67nhpwjvjy8","phones":6,"geo_precision":"unmatched","state":"MO"},"type":"Feature","geometry":null},{"properties":{"city":"Jefferson City","geo_score":0.0,"id":"a67nhpvkccj2","phones":88,"geo_precision":"unmatched","state":"MO"},"type":"Feature","geometry":null},{"properties":{"city":"Kansas City","geo_score":0.0,"id":"a67nhpi9f6t3","phones":364,"geo_precision":"unmatched","state":"MO"},"type":"Feature","geometry":null},{"properties":{"city":"St Louis","geo_score":0.0,"id":"a67nhpy4but6","phones":900,"geo_precision":"unmatched","state":"MO"},"type":"Feature","geometry":null},{"properties":{"city":"Aberdeen","geo_score":0.0,"id":"a67nhpvrjejj","phones":96,"geo_precision":"unmatched","state":"MS"},"type":"Feature","geometry":null},{"properties":{"city":"Greenville","geo_score":0.0,"id":"a67nhps62c9d","phones":30,"geo_precision":"unmatched","state":"MS"},"type":"Feature","geometry":null},{"properties":{"city":"Oxford","geo_score":0.0,"id":"a67nhpwud870","phones":78,"geo_precision":"unmatched","state":"MS"},"type":"Feature","geometry":null},{"properties":{"city":"Tupelo","geo_score":0.0,"id":"a67nhptf4c63","phones":14,"geo_precision":"unmatched","state":"MS"},"type":"Feature","geometry":null},{"properties":{"city":"Billings","geo_score":0.0,"id":"a67nhpo1sfsk","phones":96,"geo_precision":"unmatched","state":"MT"},"type":"Feature","geometry":null},{"properties":{"city":"Browning","geo_score":0.0,"id":"a67nhpsf4c52","phones":2,"geo_precision":"unmatched","state":"MT"},"type":"Feature","geometry":null},{"properties":{"city":"Butte","geo_score":0.0,"id":"a67nhpkcjeek","phones":40,"geo_precision":"unmatched","state":"MT"},"type":"Feature","geometry":null},{"properties":{"city":"Glasgow","geo_score":0.0,"id":"a67nhpqoiu2x","phones":4,"geo_precision":"unmatched","state":"MT"},"type":"Feature","geometry":null},{"properties":{"city":"Great Falls","geo_score":0.871,"id":"a67nhpvcdone","phones":64,"geo_precision":"zip","state":"MT"},"type":"Feature","geometry":{"type":"Point","coordinates":[14.3180556,36.0488889]}},{"properties":{"city":"Hardin","geo_score":0.0,"id":"a67nhptmaxke","phones":2,"geo_precision":"unmatched","state":"MT"},"type":"Feature","geometry":null},{"properties":{"city":"Helena","geo_score":0.0,"id":"a67nhpt5h4z3","phones":40,"geo_precision":"unmatched","state":"MT"},"type":"Feature","geometry":null},{"properties":{"city":"Missoula","geo_score":0.0,"id":"a67nhpir4i36","phones":72,"geo_precision":"unmatched","state":"MT"},"type":"Feature","geometry":null},{"properties":{"city":"Durham","geo_score":0.0,"id":"a67nhplergv1","phones":53,"geo_precision":"unmatched","state":"NC"},"type":"Feature","geometry":null},{"properties":{"city":"Greensboro","geo_score":0.0,"id":"a67nhptlar6j","phones":134,"geo_precision":"unmatched","state":"NC"},"type":"Feature","geometry":null},{"properties":{"city":"Raliegh","geo_score":0.0,"id":"a67nhpxe74i3","phones":37,"geo_precision":"unmatched","state":"NC"},"type":"Feature","geometry":null},{"properties":{"city":"Rockingham","geo_score":0.0,"id":"a67nhpooxm5c","phones":6,"geo_precision":"unmatched","state":"NC"},"type":"Feature","geometry":null},{"properties":{"city":"Salisbury","geo_score":0.0,"id":"a67nhpvsfnnk","phones":11,"geo_precision":"unmatched","state":"NC"},"type":"Feature","geometry":null},{"properties":{"city":"Statesville","geo_score":0.0,"id":"a67nhpoe62zu","phones":20,"geo_precision":"unmatched","state":"NC"},"type":"Feature","geometry":null},{"properties":{"city":"Wilson","geo_score":0.0,"id":"a67nhpt6e84j","phones":27,"geo_precision":"unmatched","state":"NC"},"type":"Feature","geometry":null},{"properties":{"city":"Winston Salem","geo_score":0.905,"id":"a67nhpjlz773","phones":36,"geo_precision":"zip","state":"NC"},"type":"Feature","geometry":{"type":"Point","coordinates":[167.1166667,-20.7666667]}},{"properties":{"city":"Concord","geo_score":0.0,"id":"a67nhpwhed01","phones":131,"geo_precision":"unmatched","state":"NH"},"type":"Feature","geometry":null},{"properties":{"city":"Camden","geo_score":0.0,"id":"a67nhpnkb08p","phones":66,"geo_precision":"unmatched","state":"NJ"},"type":"Feature","geometry":null},{"properties":{"city":"Linwood","geo_score":0.0,"id":"a67nhpvik4zt","phones":10,"geo_precision":"unmatched","state":"NJ"},"type":"Feature","geometry":null},{"properties":{"city":"Newark","geo_score":0.0,"id":"a67nhpo33na1","phones":698,"geo_precision":"unmatched","state":"NJ"},"type":"Feature","geometry":null},{"properties":{"city":"Paterson","geo_score":0.0,"id":"a67nhpjy3xvu","phones":18,"geo_precision":"unmatched","state":"NJ"},"type":"Feature","geometry":null},{"properties":{"city":"Tinton Falls","geo_score":0.0,"id":"a67nhpxkt71y","phones":48,"geo_precision":"unmatched","state":"NJ"},"type":"Feature","geometry":null},{"properties":{"city":"Trenton","geo_score":0.0,"id":"a67nhplohxlu","phones":428,"geo_precision":"unmatched","state":"NJ"},"type":"Feature","geometry":null},{"properties":{"city":"Albany","geo_score":0.0,"id":"a67nhpjs41i6","phones":3,"geo_precision":"unmatched","state":"NY"},"type":"Feature","geometry":null},{"properties":{"city":"New York","geo_score":0.0,"id":"a67nhpm9lkkt","phones":0,"geo_precision":"unmatched","state":"NY"},"type":"Feature","geometry":null},{"properties":{"city":"Syracuse","geo_score":0.0,"id":"a67nhpnn7oqp","phones":6,"geo_precision":"unmatched","state":"NY"},"type":"Feature","geometry":null},{"properties":{"city":"Cincinnati","geo_score":0.0,"id":"a67nhpsuc6c3","phones":58,"geo_precision":"unmatched","state":"OH"},"type":"Feature","geometry":null},{"properties":{"city":"Columbus","geo_score":0.0,"id":"a67nhpsznb05","phones":108,"geo_precision":"unmatched","state":"OH"},"type":"Feature","geometry":null},{"properties":{"city":"Dayton","geo_score":0.0,"id":"a67nhpj2tmed","phones":84,"geo_precision":"unmatched","state":"OH"},"type":"Feature","geometry":null},{"properties":{"city":"Medina","geo_score":0.0,"id":"a67nhplmuuea","phones":20,"geo_precision":"unmatched","state":"OH"},"type":"Feature","geometry":null},{"properties":{"city":"Toledo","geo_score":0.0,"id":"a67nhpyoexe2","phones":28,"geo_precision":"unmatched","state":"OH"},"type":"Feature","geometry":null},{"properties":{"city":"Mcalester","geo_score":0.0,"id":"a67nhpwi2veo","phones":6,"geo_precision":"unmatched","state":"OK"},"type":"Feature","geometry":null},{"properties":{"city":"Muskogee","geo_score":0.0,"id":"a67nhppyvq4g","phones":60,"geo_precision":"unmatched","state":"OK"},"type":"Feature","geometry":null},{"properties":{"city":"Tulsa","geo_score":0.0,"id":"a67nhpqt5irs","phones":468,"geo_precision":"unmatched","state":"OK"},"type":"Feature","geometry":null},{"properties":{"city":"Bend","geo_score":0.0,"id":"a67nhptnvc3r","phones":2,"geo_precision":"unmatched","state":"OR"},"type":"Feature","geometry":null},{"properties":{"city":"Medford","geo_score":0.0,"id":"a67nhpyg963c","phones":20,"geo_precision":"unmatched","state":"OR"},"type":"Feature","geometry":null},{"properties":{"city":"Pendleton","geo_score":0.0,"id":"a67nhpo1d0e0","phones":2,"geo_precision":"unmatched","state":"OR"},"type":"Feature","geometry":null},{"properties":{"city":"Portland","geo_score":0.0,"id":"a67nhpkml95h","phones":180,"geo_precision":"unmatched","state":"OR"},"type":"Feature","geometry":null},{"properties":{"city":"Salem","geo_score":0.0,"id":"a67nhpo1ynyz","phones":12,"geo_precision":"unmatched","state":"OR"},"type":"Feature","geometry":null},{"properties":{"city":"Aberdeen","geo_score":0.0,"id":"a67nhprbpwsd","phones":16,"geo_precision":"unmatched","state":"SD"},"type":"Feature","geometry":null},{"properties":{"city":"Kyle","geo_score":0.881,"id":"a67nhpmqs96n","phones":2,"geo_precision":"zip","state":"SD"},"type":"Feature","geometry":{"type":"Point","coordinates":[32.4166667,15.1666667]}},{"properties":{"city":"Mission","geo_score":0.0,"id":"a67nhpsykcqe","phones":2,"geo_precision":"unmatched","state":"SD"},"type":"Feature","geometry":null},{"properties":{"city":"Pierre","geo_score":0.952,"id":"a67nhpjk9saf","phones":74,"geo_precision":"zip","state":"SD"},"type":"Feature","geometry":{"type":"Point","coordinates":[32.0333333,8.0333333]}},{"properties":{"city":"Rapid City","geo_score":0.921,"id":"a67nhpjttpoa","phones":70,"geo_precision":"zip","state":"SD"},"type":"Feature","geometry":{"type":"Point","coordinates":[32.4772222,4.52]}},{"properties":{"city":"Sioux Falls","geo_score":0.871,"id":"a67nhpv7f2gk","phones":287,"geo_precision":"zip","state":"SD"},"type":"Feature","geometry":{"type":"Point","coordinates":[36.0833333,20.2833333]}},{"properties":{"city":"Timber Lake","geo_score":0.929,"id":"a67nhpo9lp4l","phones":2,"geo_precision":"zip","state":"SD"},"type":"Feature","geometry":{"type":"Point","coordinates":[27.4666667,5.6]}},{"properties":{"city":"Abilene","geo_score":0.0,"id":"a67nhpopkxht","phones":8,"geo_precision":"unmatched","state":"TX"},"type":"Feature","geometry":null},{"properties":{"city":"Amarillo","geo_score":0.0,"id":"a67nhpstijbm","phones":62,"geo_precision":"unmatched","state":"TX"},"type":"Feature","geometry":null},{"properties":{"city":"Arlington","geo_score":0.0,"id":"a67nhpth64pz","phones":46,"geo_precision":"unmatched","state":"TX"},"type":"Feature","geometry":null},{"properties":{"city":"Beaumont","geo_score":0.0,"id":"a67nhpy7jbng","phones":2,"geo_precision":"unmatched","state":"TX"},"type":"Feature","geometry":null},{"properties":{"city":"Benbrook","geo_score":0.0,"id":"a67nhpozjvy7","phones":22,"geo_precision":"unmatched","state":"TX"},"type":"Feature","geometry":null},{"properties":{"city":"Dallas","geo_score":0.0,"id":"a67nhplbvb2h","phones":563,"geo_precision":"unmatched","state":"TX"},"type":"Feature","geometry":null},{"properties":{"city":"El Paso","geo_score":0.0,"id":"a67nhpmx8tkc","phones":30,"geo_precision":"unmatched","state":"TX"},"type":"Feature","geometry":null},{"properties":{"city":"Fort Worth","geo_score":0.0,"id":"a67nhpm57d1e","phones":145,"geo_precision":"unmatched","state":"TX"},"type":"Feature","geometry":null},{"properties":{"city":"Lubbock","geo_score":0.0,"id":"a67nhpwnhaj9","phones":24,"geo_precision":"unmatched","state":"TX"},"type":"Feature","geometry":null},{"properties":{"city":"Plano","geo_score":0.0,"id":"a67nhprtyrkv","phones":58,"geo_precision":"unmatched","state":"TX"},"type":"Feature","geometry":null},{"properties":{"city":"San Angelo","geo_score":0.0,"id":"a67nhpth859t","phones":10,"geo_precision":"unmatched","state":"TX"},"type":"Feature","geometry":null},{"properties":{"city":"Tyler","geo_score":0.0,"id":"a67nhpuvhb2o","phones":37,"geo_precision":"unmatched","state":"TX"},"type":"Feature","geometry":null},{"properties":{"city":"Wichita Falls","geo_score":0.0,"id":"a67nhpphp2f9","phones":12,"geo_precision":"unmatched","state":"TX"},"type":"Feature","geometry":null},{"properties":{"city":"Ogden","geo_score":0.0,"id":"a67nhpoh53o3","phones":22,"geo_precision":"unmatched","state":"UT"},"type":"Feature","geometry":null},{"properties":{"city":"Salt Lake City","geo_score":0.0,"id":"a67nhpoi6v1c","phones":50,"geo_precision":"unmatched","state":"UT"},"type":"Feature","geometry":null},{"properties":{"city":"St George","geo_score":0.0,"id":"a67nhpujy1zs","phones":8,"geo_precision":"unmatched","state":"UT"},"type":"Feature","geometry":null},{"properties":{"city":"Vernal","geo_score":0.0,"id":"a67nhpu23k06","phones":14,"geo_precision":"unmatched","state":"UT"},"type":"Feature","geometry":null},{"properties":{"city":"Spokane","geo_score":0.0,"id":"a67nhppjmv8b","phones":26,"geo_precision":"unmatched","state":"WA"},"type":"Feature","geometry":null},{"properties":{"city":"Yakima","geo_score":0.0,"id":"a67nhpuo6sy9","phones":53,"geo_precision":"unmatched","state":"WA"},"type":"Feature","geometry":null},{"properties":{"city":"Charleston","geo_score":0.0,"id":"a67nhprx8e20","phones":346,"geo_precision":"unmatched","state":"WV"},"type":"Feature","geometry":null},{"properties":{"city":"Parkersburg","geo_score":0.0,"id":"a67nhpla2239","phones":20,"geo_precision":"unmatched","state":"WV"},"type":"Feature","geometry":null},{"properties":{"city":"Casper","geo_score":0.0,"id":"a67nhpibt5x3","phones":48,"geo_precision":"unmatched","state":"WY"},"type":"Feature","geometry":null},{"properties":{"city":"Cheyenne","geo_score":0.0,"id":"a67nhpxt3rsk","phones":106,"geo_precision":"unmatched","state":"WY"},"type":"Feature","geometry":null},{"properties":{"city":"Lander","geo_score":0.0,"id":"a67nhpy4b0h8","phones":6,"geo_precision":"unmatched","state":"WY"},"type":"Feature","geometry":null}],"is_temporal":false,"author":{"url":"","metadata":null,"contact_name":null,"contact_address":null,"source":null,"contact_phone":null},"source":"","pagination":{"sort":null,"start":0,"total":145,"limit":1000000},"state":"complete","tags":"","published":"2014-08-15T02:56:26-04:00","id":248633}