{"type":"FeatureCollection","data_type":"Dataset","url_type":null,"permissions":[{"permissions":{"download":true,"view":true},"group_id":"everyone"}],"classification":null,"title":"NW_set 3_Juvenile Arrests 1-1-09 thru 1-1-10","count":485,"stream_id":24873,"contributor":{"url":"http://geocommons.com/users/11456","name":"snam"},"data_attributes":null,"calculation_params":null,"icon_link":null,"link":"http://geocommons.com/overlays/24873.json","extent":[-77.0905,38.8895,-77.009,38.9758],"geometry_types":["point"],"unique_name":null,"name":"NW_set 3_Juvenile Arrests 1-1-09 thru 1-1-10","feature_count":485,"description":"","next_feature":null,"is_raster":false,"short_classification":"Y","stats":{"geo_score":{"max":0.902,"mean":0.877348453608242,"variance":0.00176007047797565,"stdev":0.0419531938948115,"min":0.667,"median":0.902}},"features":[{"properties":{"city":"Washington","geo_score":0.902,"offensedescription":"ADW -- GUN","id":"a6qc7s2vciz7","geo_precision":"range","address":"800  INGRAHAM STREET NW","state":"D.C."},"type":"Feature","geometry":{"type":"Point","coordinates":[-77.023932,38.954187]}},{"properties":{"city":"Washington","geo_score":0.902,"offensedescription":"ADW -- OTHER DANGEROUS WEAPON/ASSAULT W/INTENT TO COMMIT SODOMY WHILE ARMED","id":"a6qc7ropf07h","geo_precision":"range","address":"3300  SHERMAN AVENUE NW","state":"D.C."},"type":"Feature","geometry":{"type":"Point","coordinates":[-77.026522,38.930783]}},{"properties":{"city":"Washington","geo_score":0.902,"offensedescription":"ADW -- OTHER DANGEROUS WEAPON/ASSAULT W/INTENT TO COMMIT SODOMY WHILE ARMED","id":"a6qc7rwre4fk","geo_precision":"range","address":"1200  CLIFTON STREET NW","state":"D.C."},"type":"Feature","geometry":{"type":"Point","coordinates":[-77.028042,38.922433]}},{"properties":{"city":"Washington","geo_score":0.857,"offensedescription":"AFFRAYS","id":"a6qc7rzyyj02","geo_precision":"street","address":"6TH STREET NW &amp; G STREET NW","state":"D.C."},"type":"Feature","geometry":{"type":"Point","coordinates":[-77.023964,38.898447]}},{"properties":{"city":"Washington","geo_score":0.902,"offensedescription":"ASSAULT ON MEMBER OF POLICE OR FIRE DEPT (ARMED OR OTHERWISE)","id":"a6qc7rq6m01s","geo_precision":"range","address":"4000  ALBEMARLE STREET NW","state":"D.C."},"type":"Feature","geometry":{"type":"Point","coordinates":[-77.078521,38.947901]}},{"properties":{"city":"Washington","geo_score":0.902,"offensedescription":"ASSAULT ON MEMBER OF POLICE OR FIRE DEPT (ARMED OR OTHERWISE)","id":"a6qc7rx7b4k7","geo_precision":"range","address":"600  H STREET NW","state":"D.C."},"type":"Feature","geometry":{"type":"Point","coordinates":[-77.01991,38.899811]}},{"properties":{"city":"Washington","geo_score":0.902,"offensedescription":"ASSAULT ON MEMBER OF POLICE OR FIRE DEPT (ARMED OR OTHERWISE)","id":"a6qc7rt11dec","geo_precision":"range","address":"600  H STREET NW","state":"D.C."},"type":"Feature","geometry":{"type":"Point","coordinates":[-77.01991,38.899811]}},{"properties":{"city":"Washington","geo_score":0.902,"offensedescription":"ASSAULT ON MEMBER OF POLICE OR FIRE DEPT (ARMED OR OTHERWISE)","id":"a6qc7ru7qko1","geo_precision":"range","address":"700  H STREET NW","state":"D.C."},"type":"Feature","geometry":{"type":"Point","coordinates":[-77.021914,38.899813]}},{"properties":{"city":"Washington","geo_score":0.902,"offensedescription":"ASSAULT ON MEMBER OF POLICE OR FIRE DEPT (ARMED OR OTHERWISE)","id":"a6qc7ruw6191","geo_precision":"range","address":"1400  GIRARD STREET NW","state":"D.C."},"type":"Feature","geometry":{"type":"Point","coordinates":[-77.032316,38.925502]}},{"properties":{"city":"Washington","geo_score":0.819,"offensedescription":"ASSAULT ON MEMBER OF POLICE OR FIRE DEPT (ARMED OR OTHERWISE)","id":"a6qc7rw3fwgj","geo_precision":"range","address":"1700  8TH STREET NW","state":"D.C."},"type":"Feature","geometry":{"type":"Point","coordinates":[-77.022945,38.912605]}},{"properties":{"city":"Washington","geo_score":0.902,"offensedescription":"ASSAULT ON MEMBER OF POLICE OR FIRE DEPT (ARMED OR OTHERWISE)","id":"a6qc7rqav4bi","geo_precision":"range","address":"200  FLORIDA AVENUE NW","state":"D.C."},"type":"Feature","geometry":{"type":"Point","coordinates":[-77.013308,38.912605]}},{"properties":{"city":"Washington","geo_score":0.902,"offensedescription":"ASSAULT SIMPLE IN MENACING MANNER","id":"a6qc7rub32ik","geo_precision":"range","address":"1400  CHAPIN STREET NW","state":"D.C."},"type":"Feature","geometry":{"type":"Point","coordinates":[-77.03193,38.921659]}},{"properties":{"city":"Washington","geo_score":0.819,"offensedescription":"ASSAULT SIMPLE IN MENACING MANNER","id":"a6qc7s1els77","geo_precision":"range","address":"600  9TH STREET NW","state":"D.C."},"type":"Feature","geometry":{"type":"Point","coordinates":[-77.023969,38.897287]}},{"properties":{"city":"Washington","geo_score":0.819,"offensedescription":"ASSAULT SIMPLE IN MENACING MANNER","id":"a6qc7ry1hm27","geo_precision":"range","address":"600  9TH STREET NW","state":"D.C."},"type":"Feature","geometry":{"type":"Point","coordinates":[-77.023969,38.897287]}},{"properties":{"city":"Washington","geo_score":0.829,"offensedescription":"ASSAULT SIMPLE IN MENACING MANNER","id":"a6qc7rsofszk","geo_precision":"range","address":"1300  14TH STREET NW","state":"D.C."},"type":"Feature","geometry":{"type":"Point","coordinates":[-77.03195,38.907239]}},{"properties":{"city":"Washington","geo_score":0.819,"offensedescription":"ASSAULT SIMPLE IN MENACING MANNER","id":"a6qc7ry8pye2","geo_precision":"range","address":"600  9TH STREET NW","state":"D.C."},"type":"Feature","geometry":{"type":"Point","coordinates":[-77.023969,38.897287]}},{"properties":{"city":"Washington","geo_score":0.902,"offensedescription":"ASSAULT SIMPLE IN MENACING MANNER","id":"a6qc7s1qjnxl","geo_precision":"range","address":"1300  GIRARD STREET NW","state":"D.C."},"type":"Feature","geometry":{"type":"Point","coordinates":[-77.02971,38.925748]}},{"properties":{"city":"Washington","geo_score":0.902,"offensedescription":"ASSAULT SIMPLE IN MENACING MANNER","id":"a6qc7rwcxv40","geo_precision":"range","address":"1300  GIRARD STREET NW","state":"D.C."},"type":"Feature","geometry":{"type":"Point","coordinates":[-77.02971,38.925748]}},{"properties":{"city":"Washington","geo_score":0.902,"offensedescription":"ASSAULT SIMPLE IN MENACING MANNER","id":"a6qc7rvpe6cx","geo_precision":"range","address":"1400  GIRARD STREET NW","state":"D.C."},"type":"Feature","geometry":{"type":"Point","coordinates":[-77.032316,38.925502]}},{"properties":{"city":"Washington","geo_score":0.902,"offensedescription":"ASSAULT SIMPLE IN MENACING MANNER","id":"a6qc7rr4i89l","geo_precision":"range","address":"5200  WESTERN AVENUE NW","state":"D.C."},"type":"Feature","geometry":{"type":"Point","coordinates":[-77.090522,38.957038]}},{"properties":{"city":"Washington","geo_score":0.819,"offensedescription":"ASSAULT SIMPLE IN MENACING MANNER","id":"a6qc7rrlv8sr","geo_precision":"range","address":"600  9TH STREET NW","state":"D.C."},"type":"Feature","geometry":{"type":"Point","coordinates":[-77.023969,38.897287]}},{"properties":{"city":"Washington","geo_score":0.819,"offensedescription":"ASSAULT SIMPLE IN MENACING MANNER","id":"a6qc7ry8cjwl","geo_precision":"range","address":"1100  7TH STREET NW","state":"D.C."},"type":"Feature","geometry":{"type":"Point","coordinates":[-77.021914,38.904168]}},{"properties":{"city":"Washington","geo_score":0.819,"offensedescription":"ASSAULT SIMPLE IN MENACING MANNER","id":"a6qc7rsuzfzb","geo_precision":"range","address":"6300  5TH STREET NW","state":"D.C."},"type":"Feature","geometry":{"type":"Point","coordinates":[-77.019899,38.966135]}},{"properties":{"city":"Washington","geo_score":0.771,"offensedescription":"ASSAULT SIMPLE IN MENACING MANNER","id":"a6qc7rv23rs0","geo_precision":"street","address":"UNIT  RHODE ISLAND AVENUE NW","state":"D.C."},"type":"Feature","geometry":{"type":"Point","coordinates":[-77.01574,38.914477]}},{"properties":{"city":"Washington","geo_score":0.902,"offensedescription":"ASSAULT SIMPLE IN MENACING MANNER","id":"a6qc7s1mpl7x","geo_precision":"range","address":"3600  CONNECTICUT AVENUE NW","state":"D.C."},"type":"Feature","geometry":{"type":"Point","coordinates":[-77.059243,38.936824]}},{"properties":{"city":"Washington","geo_score":0.819,"offensedescription":"ASSAULT SIMPLE IN MENACING MANNER","id":"a6qc7s2l6kp1","geo_precision":"range","address":"600  9TH STREET NW","state":"D.C."},"type":"Feature","geometry":{"type":"Point","coordinates":[-77.023969,38.897287]}},{"properties":{"city":"Washington","geo_score":0.829,"offensedescription":"ASSAULT SIMPLE IN MENACING MANNER","id":"a6qc7rpgbgd8","geo_precision":"range","address":"3500  13TH STREET NW","state":"D.C."},"type":"Feature","geometry":{"type":"Point","coordinates":[-77.029718,38.932364]}},{"properties":{"city":"Washington","geo_score":0.902,"offensedescription":"ASSAULT SIMPLE IN MENACING MANNER","id":"a6qc7rtpkfwb","geo_precision":"range","address":"3600  CONNECTICUT AVENUE NW","state":"D.C."},"type":"Feature","geometry":{"type":"Point","coordinates":[-77.059243,38.936824]}},{"properties":{"city":"Washington","geo_score":0.902,"offensedescription":"ASSAULT SIMPLE IN MENACING MANNER","id":"a6qc7rq32g71","geo_precision":"range","address":"1400  FAIRMONT STREET NW","state":"D.C."},"type":"Feature","geometry":{"type":"Point","coordinates":[-77.03222,38.924541]}},{"properties":{"city":"Washington","geo_score":0.829,"offensedescription":"ASSAULT SIMPLE IN MENACING MANNER","id":"a6qc7rtusmd3","geo_precision":"range","address":"3400  14TH STREET NW","state":"D.C."},"type":"Feature","geometry":{"type":"Point","coordinates":[-77.032719,38.931129]}},{"properties":{"city":"Washington","geo_score":0.902,"offensedescription":"ASSAULT SIMPLE IN MENACING MANNER","id":"a6qc7rxqyjbq","geo_precision":"range","address":"1400  GIRARD STREET NW","state":"D.C."},"type":"Feature","geometry":{"type":"Point","coordinates":[-77.032316,38.925502]}},{"properties":{"city":"Washington","geo_score":0.902,"offensedescription":"ASSAULT SIMPLE IN MENACING MANNER","id":"a6qc7rwtfikj","geo_precision":"range","address":"4500  WISCONSIN AVENUE NW","state":"D.C."},"type":"Feature","geometry":{"type":"Point","coordinates":[-77.079674,38.947908]}},{"properties":{"city":"Washington","geo_score":0.829,"offensedescription":"ASSAULT SIMPLE IN MENACING MANNER","id":"a6qc7rreojsf","geo_precision":"range","address":"4300  13TH STREET NW","state":"D.C."},"type":"Feature","geometry":{"type":"Point","coordinates":[-77.029704,38.942778]}},{"properties":{"city":"Washington","geo_score":0.902,"offensedescription":"ASSAULT SIMPLE IN MENACING MANNER","id":"a6qc7rwdrq4y","geo_precision":"range","address":"4400  IOWA AVENUE NW","state":"D.C."},"type":"Feature","geometry":{"type":"Point","coordinates":[-77.027326,38.943953]}},{"properties":{"city":"Washington","geo_score":0.819,"offensedescription":"ASSAULT SIMPLE IN MENACING MANNER","id":"a6qc7rx515rr","geo_precision":"range","address":"6300  5TH STREET NW","state":"D.C."},"type":"Feature","geometry":{"type":"Point","coordinates":[-77.019899,38.966135]}},{"properties":{"city":"Washington","geo_score":0.902,"offensedescription":"ASSAULT SIMPLE IN MENACING MANNER","id":"a6qc7rt1rdtm","geo_precision":"range","address":"500  LAMONT STREET NW","state":"D.C."},"type":"Feature","geometry":{"type":"Point","coordinates":[-77.020077,38.93125]}},{"properties":{"city":"Washington","geo_score":0.902,"offensedescription":"ASSAULT SIMPLE IN MENACING MANNER","id":"a6qc7rybf9nn","geo_precision":"range","address":"700  TAYLOR STREET NW","state":"D.C."},"type":"Feature","geometry":{"type":"Point","coordinates":[-77.02157,38.940909]}},{"properties":{"city":"Washington","geo_score":0.902,"offensedescription":"ASSAULT SIMPLE IN MENACING MANNER","id":"a6qc7rply65e","geo_precision":"range","address":"3100  M STREET NW","state":"D.C."},"type":"Feature","geometry":{"type":"Point","coordinates":[-77.061184,38.90519]}},{"properties":{"city":"Washington","geo_score":0.805,"offensedescription":"ASSAULT SIMPLE IN MENACING MANNER","id":"a6qc7s0118ok","geo_precision":"street","address":"100  PEABODY STREET NW","state":"D.C."},"type":"Feature","geometry":{"type":"Point","coordinates":[-77.01137,38.962703]}},{"properties":{"city":"Washington","geo_score":0.819,"offensedescription":"ASSAULT SIMPLE IN MENACING MANNER","id":"a6qc7rod08yo","geo_precision":"range","address":"600  7TH STREET NW","state":"D.C."},"type":"Feature","geometry":{"type":"Point","coordinates":[-77.021915,38.897276]}},{"properties":{"city":"Washington","geo_score":0.819,"offensedescription":"ASSAULT SIMPLE IN MENACING MANNER","id":"a6qc7s2fktqu","geo_precision":"range","address":"600  9TH STREET NW","state":"D.C."},"type":"Feature","geometry":{"type":"Point","coordinates":[-77.023969,38.897287]}},{"properties":{"city":"Washington","geo_score":0.902,"offensedescription":"ASSAULT SIMPLE IN MENACING MANNER","id":"a6qc7rznekfr","geo_precision":"range","address":"1300  GIRARD STREET NW","state":"D.C."},"type":"Feature","geometry":{"type":"Point","coordinates":[-77.02971,38.925748]}},{"properties":{"city":"Washington","geo_score":0.829,"offensedescription":"ASSAULT SIMPLE IN MENACING MANNER","id":"a6qc7rquzd0h","geo_precision":"range","address":"3100  14TH STREET NW","state":"D.C."},"type":"Feature","geometry":{"type":"Point","coordinates":[-77.032612,38.928805]}},{"properties":{"city":"Washington","geo_score":0.819,"offensedescription":"ASSAULT SIMPLE IN MENACING MANNER","id":"a6qc7rsvjvox","geo_precision":"range","address":"1100  7TH STREET NW","state":"D.C."},"type":"Feature","geometry":{"type":"Point","coordinates":[-77.021914,38.904168]}},{"properties":{"city":"Washington","geo_score":0.902,"offensedescription":"ASSAULT SIMPLE IN MENACING MANNER","id":"a6qc7s1zvp2v","geo_precision":"range","address":"1300  GIRARD STREET NW","state":"D.C."},"type":"Feature","geometry":{"type":"Point","coordinates":[-77.02971,38.925748]}},{"properties":{"city":"Washington","geo_score":0.829,"offensedescription":"ASSAULT SIMPLE IN MENACING MANNER","id":"a6qc7rrg2f5j","geo_precision":"range","address":"4300  13TH STREET NW","state":"D.C."},"type":"Feature","geometry":{"type":"Point","coordinates":[-77.029704,38.942778]}},{"properties":{"city":"Washington","geo_score":0.902,"offensedescription":"ASSAULT W/INTENT TO COMMIT ANY OTHER OFFENSE","id":"a6qc7s2idslo","geo_precision":"range","address":"1300  IRVING STREET NW","state":"D.C."},"type":"Feature","geometry":{"type":"Point","coordinates":[-77.029708,38.928634]}},{"properties":{"city":"Washington","geo_score":0.902,"offensedescription":"ASSAULT W/INTENT TO COMMIT ANY OTHER OFFENSE","id":"a6qc7ruom5rz","geo_precision":"range","address":"1300  IRVING STREET NW","state":"D.C."},"type":"Feature","geometry":{"type":"Point","coordinates":[-77.029708,38.928634]}},{"properties":{"city":"Washington","geo_score":0.902,"offensedescription":"ASSAULT W/INTENT TO COMMIT ANY OTHER OFFENSE","id":"a6qc7rwomlrh","geo_precision":"range","address":"600  H STREET NW","state":"D.C."},"type":"Feature","geometry":{"type":"Point","coordinates":[-77.01991,38.899811]}},{"properties":{"city":"Washington","geo_score":0.902,"offensedescription":"ASSAULT W/INTENT TO COMMIT ANY OTHER OFFENSE","id":"a6qc7rzeiv81","geo_precision":"range","address":"700  F STREET NW","state":"D.C."},"type":"Feature","geometry":{"type":"Point","coordinates":[-77.021915,38.897276]}},{"properties":{"city":"Washington","geo_score":0.819,"offensedescription":"ASSAULT W/INTENT TO COMMIT ANY OTHER OFFENSE","id":"a6qc7ryeqa7b","geo_precision":"range","address":"6200  5TH STREET NW","state":"D.C."},"type":"Feature","geometry":{"type":"Point","coordinates":[-77.019897,38.96495]}},{"properties":{"city":"Washington","geo_score":0.902,"offensedescription":"ASSAULT W/INTENT TO ROB","id":"a6qc7rvnrebb","geo_precision":"range","address":"3900  CHESAPEAKE STREET NW","state":"D.C."},"type":"Feature","geometry":{"type":"Point","coordinates":[-77.077269,38.950728]}},{"properties":{"city":"Washington","geo_score":0.902,"offensedescription":"ATTEMPT TO COMMIT ROBBERY W/ARMED","id":"a6qc7row001s","geo_precision":"range","address":"1200  KENYON STREET NW","state":"D.C."},"type":"Feature","geometry":{"type":"Point","coordinates":[-77.028551,38.929663]}},{"properties":{"city":"Washington","geo_score":0.902,"offensedescription":"ATTEMPT TO COMMIT ROBBERY W/ARMED","id":"a6qc7rsr0xdr","geo_precision":"range","address":"1100  U STREET NW","state":"D.C."},"type":"Feature","geometry":{"type":"Point","coordinates":[-77.027037,38.916999]}},{"properties":{"city":"Washington","geo_score":0.902,"offensedescription":"ATTEMPT TO COMMIT ROBBERY W/ARMED","id":"a6qc7s3gp768","geo_precision":"range","address":"1200  KENYON STREET NW","state":"D.C."},"type":"Feature","geometry":{"type":"Point","coordinates":[-77.028551,38.929663]}},{"properties":{"city":"Washington","geo_score":0.902,"offensedescription":"ATTEMPT TO COMMIT ROBBERY W/ARMED","id":"a6qc7rwm59yj","geo_precision":"range","address":"1200  KENYON STREET NW","state":"D.C."},"type":"Feature","geometry":{"type":"Point","coordinates":[-77.028551,38.929663]}},{"properties":{"city":"Washington","geo_score":0.902,"offensedescription":"ATTEMPT TO COMMIT ROBBERY W/ARMED","id":"a6qc7s3rqz2u","geo_precision":"range","address":"4700  WISCONSIN AVENUE NW","state":"D.C."},"type":"Feature","geometry":{"type":"Point","coordinates":[-77.080767,38.951054]}},{"properties":{"city":"Washington","geo_score":0.902,"offensedescription":"BOOKING ORDER","id":"a6qc7s3zc9rc","geo_precision":"range","address":"500  INDIANA AVENUE NW","state":"D.C."},"type":"Feature","geometry":{"type":"Point","coordinates":[-77.019111,38.894641]}},{"properties":{"city":"Washington","geo_score":0.819,"offensedescription":"CARRYING DANGEROUS WEAPON (CDW) OR KNIFE","id":"a6qc7rucuicy","geo_precision":"range","address":"5000  1ST STREET NW","state":"D.C."},"type":"Feature","geometry":{"type":"Point","coordinates":[-77.01239,38.950828]}},{"properties":{"city":"Washington","geo_score":0.819,"offensedescription":"CARRYING PISTOL W/OUT LICENSE, 1ST OFFENSE","id":"a6qc7rzf3pdz","geo_precision":"range","address":"5000  1ST STREET NW","state":"D.C."},"type":"Feature","geometry":{"type":"Point","coordinates":[-77.01239,38.950828]}},{"properties":{"city":"Washington","geo_score":0.902,"offensedescription":"CARRYING PISTOL W/OUT LICENSE, 1ST OFFENSE","id":"a6qc7rwznt9k","geo_precision":"range","address":"3600  GEORGIA AVENUE NW","state":"D.C."},"type":"Feature","geometry":{"type":"Point","coordinates":[-77.023973,38.93418]}},{"properties":{"city":"Washington","geo_score":0.902,"offensedescription":"CARRYING PISTOL W/OUT LICENSE, 1ST OFFENSE","id":"a6qc7rpnaoi7","geo_precision":"range","address":"2400  CALIFORNIA STREET NW","state":"D.C."},"type":"Feature","geometry":{"type":"Point","coordinates":[-77.052602,38.915572]}},{"properties":{"city":"Washington","geo_score":0.829,"offensedescription":"CARRYING PISTOL W/OUT LICENSE, 1ST OFFENSE","id":"a6qc7ryuc2gu","geo_precision":"range","address":"3000  14TH STREET NW","state":"D.C."},"type":"Feature","geometry":{"type":"Point","coordinates":[-77.032454,38.927541]}},{"properties":{"city":"Washington","geo_score":0.819,"offensedescription":"CARRYING PISTOL W/OUT LICENSE, 1ST OFFENSE","id":"a6qc7rqvjatv","geo_precision":"range","address":"4600  5TH STREET NW","state":"D.C."},"type":"Feature","geometry":{"type":"Point","coordinates":[-77.019413,38.946335]}},{"properties":{"city":"Washington","geo_score":0.673,"offensedescription":"CARRYING PISTOL W/OUT LICENSE, 1ST OFFENSE","id":"a6qc7rxoexvj","geo_precision":"street","address":"1ST STREET NW &amp; N STREET NW","state":"D.C."},"type":"Feature","geometry":{"type":"Point","coordinates":[-77.012171,38.894786]}},{"properties":{"city":"Washington","geo_score":0.902,"offensedescription":"CONDITIONS OF RELEASE VIOLATIONS","id":"a6qc7ryelj99","geo_precision":"range","address":"500  INDIANA AVENUE NW","state":"D.C."},"type":"Feature","geometry":{"type":"Point","coordinates":[-77.019111,38.894641]}},{"properties":{"city":"Washington","geo_score":0.829,"offensedescription":"CONSPIRACY/THREATS (FELONY)","id":"a6qc7s3gh31j","geo_precision":"range","address":"2500  17TH STREET NW","state":"D.C."},"type":"Feature","geometry":{"type":"Point","coordinates":[-77.038996,38.923159]}},{"properties":{"city":"Washington","geo_score":0.902,"offensedescription":"CONSPIRACY/THREATS (FELONY)","id":"a6qc7s2y5rxw","geo_precision":"range","address":"600  R STREET NW","state":"D.C."},"type":"Feature","geometry":{"type":"Point","coordinates":[-77.0199,38.912606]}},{"properties":{"city":"Washington","geo_score":0.902,"offensedescription":"CONSPIRACY/THREATS (FELONY)","id":"a6qc7rwiw21d","geo_precision":"range","address":"1000  U STREET NW","state":"D.C."},"type":"Feature","geometry":{"type":"Point","coordinates":[-77.02599,38.916996]}},{"properties":{"city":"Washington","geo_score":0.902,"offensedescription":"CONSPIRACY/THREATS (FELONY)","id":"a6qc7rsgof57","geo_precision":"range","address":"1300  TAYLOR STREET NW","state":"D.C."},"type":"Feature","geometry":{"type":"Point","coordinates":[-77.029704,38.940805]}},{"properties":{"city":"Washington","geo_score":0.902,"offensedescription":"CSA DISTRIBUTING MARIJUANA","id":"a6qc7rutkslh","geo_precision":"range","address":"1300  COLUMBIA ROAD NW","state":"D.C."},"type":"Feature","geometry":{"type":"Point","coordinates":[-77.029707,38.927637]}},{"properties":{"city":"Washington","geo_score":0.857,"offensedescription":"CSA DISTRIBUTING MARIJUANA","id":"a6qc7ruxoye3","geo_precision":"street","address":"7TH STREET NW &amp; H STREET NW","state":"D.C."},"type":"Feature","geometry":{"type":"Point","coordinates":[-77.009063,38.900208]}},{"properties":{"city":"Washington","geo_score":0.857,"offensedescription":"CSA DISTRIBUTION COCAINE (CRACK)","id":"a6qc7rucpwkg","geo_precision":"street","address":"OAK STREET NW &amp; OGDEN STREET NW","state":"D.C."},"type":"Feature","geometry":{"type":"Point","coordinates":[-77.033233,38.934142]}},{"properties":{"city":"Washington","geo_score":0.902,"offensedescription":"CSA POSSESSION COCAINE (CRACK)","id":"a6qc7s1h6lyy","geo_precision":"range","address":"1400  FAIRMONT STREET NW","state":"D.C."},"type":"Feature","geometry":{"type":"Point","coordinates":[-77.03222,38.924541]}},{"properties":{"city":"Washington","geo_score":0.829,"offensedescription":"CSA POSSESSION MARIJUANA","id":"a6qc7rossd0l","geo_precision":"range","address":"1800  12TH STREET NW","state":"D.C."},"type":"Feature","geometry":{"type":"Point","coordinates":[-77.02808,38.914093]}},{"properties":{"city":"Washington","geo_score":0.829,"offensedescription":"CSA POSSESSION MARIJUANA","id":"a6qc7rqlafcj","geo_precision":"range","address":"2800  29TH PLACE NW","state":"D.C."},"type":"Feature","geometry":{"type":"Point","coordinates":[-77.058478,38.924611]}},{"properties":{"city":"Washington","geo_score":0.819,"offensedescription":"CSA POSSESSION MARIJUANA","id":"a6qc7s3jwnsz","geo_precision":"range","address":"600  7TH STREET NW","state":"D.C."},"type":"Feature","geometry":{"type":"Point","coordinates":[-77.021915,38.897276]}},{"properties":{"city":"Washington","geo_score":0.829,"offensedescription":"CSA POSSESSION MARIJUANA","id":"a6qc7rwmk5af","geo_precision":"range","address":"2300  11TH STREET NW","state":"D.C."},"type":"Feature","geometry":{"type":"Point","coordinates":[-77.027036,38.920763]}},{"properties":{"city":"Washington","geo_score":0.902,"offensedescription":"CSA POSSESSION MARIJUANA","id":"a6qc7rqdcv07","geo_precision":"range","address":"4400  IOWA AVENUE NW","state":"D.C."},"type":"Feature","geometry":{"type":"Point","coordinates":[-77.027326,38.943953]}},{"properties":{"city":"Washington","geo_score":0.857,"offensedescription":"CSA POSSESSION MARIJUANA","id":"a6qc7s3sh5kw","geo_precision":"street","address":"15TH STREET NW &amp; V STREET NW","state":"D.C."},"type":"Feature","geometry":{"type":"Point","coordinates":[-77.012151,38.91811]}},{"properties":{"city":"Washington","geo_score":0.902,"offensedescription":"CSA POSSESSION MARIJUANA","id":"a6qc7rutt04u","geo_precision":"range","address":"6000  GEORGIA AVENUE NW","state":"D.C."},"type":"Feature","geometry":{"type":"Point","coordinates":[-77.027889,38.9627]}},{"properties":{"city":"Washington","geo_score":0.902,"offensedescription":"CSA POSSESSION MARIJUANA","id":"a6qc7rqbtpz1","geo_precision":"range","address":"7000  GEORGIA AVENUE NW","state":"D.C."},"type":"Feature","geometry":{"type":"Point","coordinates":[-77.026785,38.974725]}},{"properties":{"city":"Washington","geo_score":0.902,"offensedescription":"CSA POSSESSION MARIJUANA","id":"a6qc7rtfgxi5","geo_precision":"range","address":"1300  COLUMBIA ROAD NW","state":"D.C."},"type":"Feature","geometry":{"type":"Point","coordinates":[-77.029707,38.927637]}},{"properties":{"city":"Washington","geo_score":0.844,"offensedescription":"CSA POSSESSION MARIJUANA","id":"a6qc7rt5d9wc","geo_precision":"range","address":"200  W STREET NW","state":"D.C."},"type":"Feature","geometry":{"type":"Point","coordinates":[-77.013655,38.907233]}},{"properties":{"city":"Washington","geo_score":0.829,"offensedescription":"CSA POSSESSION MARIJUANA","id":"a6qc7rz7fmqo","geo_precision":"range","address":"3100  16TH STREET NW","state":"D.C."},"type":"Feature","geometry":{"type":"Point","coordinates":[-77.036476,38.928687]}},{"properties":{"city":"Washington","geo_score":0.819,"offensedescription":"CSA POSSESSION MARIJUANA","id":"a6qc7rryuth3","geo_precision":"range","address":"600  7TH STREET NW","state":"D.C."},"type":"Feature","geometry":{"type":"Point","coordinates":[-77.021915,38.897276]}},{"properties":{"city":"Washington","geo_score":0.902,"offensedescription":"CSA POSSESSION MARIJUANA","id":"a6qc7rxnnmhv","geo_precision":"range","address":"1300  PERRY PLACE NW","state":"D.C."},"type":"Feature","geometry":{"type":"Point","coordinates":[-77.030867,38.935784]}},{"properties":{"city":"Washington","geo_score":0.902,"offensedescription":"CSA POSSESSION MARIJUANA","id":"a6qc7rp4py38","geo_precision":"range","address":"1400  U STREET NW","state":"D.C."},"type":"Feature","geometry":{"type":"Point","coordinates":[-77.03195,38.916998]}},{"properties":{"city":"Washington","geo_score":0.829,"offensedescription":"CSA POSSESSION MARIJUANA","id":"a6qc7rs5ysaa","geo_precision":"range","address":"2800  29TH PLACE NW","state":"D.C."},"type":"Feature","geometry":{"type":"Point","coordinates":[-77.058478,38.924611]}},{"properties":{"city":"Washington","geo_score":0.819,"offensedescription":"CSA PWID COCAINE","id":"a6qc7rv9jnd8","geo_precision":"range","address":"4600  5TH STREET NW","state":"D.C."},"type":"Feature","geometry":{"type":"Point","coordinates":[-77.019413,38.946335]}},{"properties":{"city":"Washington","geo_score":0.902,"offensedescription":"CSA PWID COCAINE","id":"a6qc7s1jubbi","geo_precision":"range","address":"700  T STREET NW","state":"D.C."},"type":"Feature","geometry":{"type":"Point","coordinates":[-77.021919,38.915572]}},{"properties":{"city":"Washington","geo_score":0.667,"offensedescription":"CSA PWID COCAINE (CRACK)","id":"a6qc7ru8c5m9","geo_precision":"street","address":"UNIT  K STREET NW","state":"D.C."},"type":"Feature","geometry":{"type":"Point","coordinates":[-77.009846,38.902515]}},{"properties":{"city":"Washington","geo_score":0.667,"offensedescription":"CSA PWID COCAINE (CRACK)","id":"a6qc7rxf79ay","geo_precision":"street","address":"UNIT  K STREET NW","state":"D.C."},"type":"Feature","geometry":{"type":"Point","coordinates":[-77.009846,38.902515]}},{"properties":{"city":"Washington","geo_score":0.902,"offensedescription":"CSA PWID MARIJUANA","id":"a6qc7rwvthf5","geo_precision":"range","address":"1300  KENNEDY STREET NW","state":"D.C."},"type":"Feature","geometry":{"type":"Point","coordinates":[-77.029694,38.956216]}},{"properties":{"city":"Washington","geo_score":0.902,"offensedescription":"CSA PWID MARIJUANA","id":"a6qc7rr93oky","geo_precision":"range","address":"1300  COLUMBIA ROAD NW","state":"D.C."},"type":"Feature","geometry":{"type":"Point","coordinates":[-77.029707,38.927637]}},{"properties":{"city":"Washington","geo_score":0.667,"offensedescription":"CSA PWID MARIJUANA","id":"a6qc7rquhh71","geo_precision":"street","address":"UNIT  K STREET NW","state":"D.C."},"type":"Feature","geometry":{"type":"Point","coordinates":[-77.009846,38.902515]}},{"properties":{"city":"Washington","geo_score":0.902,"offensedescription":"CSA PWID MARIJUANA","id":"a6qc7rxax017","geo_precision":"range","address":"1300  FORT STEVENS DRIVE NW","state":"D.C."},"type":"Feature","geometry":{"type":"Point","coordinates":[-77.030046,38.964382]}},{"properties":{"city":"Washington","geo_score":0.902,"offensedescription":"CSA PWID MARIJUANA","id":"a6qc7ry9mc4a","geo_precision":"range","address":"200  FLORIDA AVENUE NW","state":"D.C."},"type":"Feature","geometry":{"type":"Point","coordinates":[-77.013308,38.912605]}},{"properties":{"city":"Washington","geo_score":0.902,"offensedescription":"DESTROYING OR DEFACING BUILDINGS/OTHER VANDALISM CHARGE","id":"a6qc7s1undh2","geo_precision":"range","address":"700  H STREET NW","state":"D.C."},"type":"Feature","geometry":{"type":"Point","coordinates":[-77.021914,38.899813]}},{"properties":{"city":"Washington","geo_score":0.902,"offensedescription":"DESTRUCTION OF PROPERTY (MISDEMEANOR)","id":"a6qc7s3my5ao","geo_precision":"range","address":"1700  P STREET NW","state":"D.C."},"type":"Feature","geometry":{"type":"Point","coordinates":[-77.038489,38.909644]}},{"properties":{"city":"Washington","geo_score":0.902,"offensedescription":"DESTRUCTION OF PROPERTY (MISDEMEANOR)","id":"a6qc7rx5nn87","geo_precision":"range","address":"1000  F STREET NW","state":"D.C."},"type":"Feature","geometry":{"type":"Point","coordinates":[-77.025984,38.897344]}},{"properties":{"city":"Washington","geo_score":0.902,"offensedescription":"DESTRUCTION OF PROPERTY (MISDEMEANOR)","id":"a6qc7rvvafk6","geo_precision":"range","address":"800  TAYLOR STREET NW","state":"D.C."},"type":"Feature","geometry":{"type":"Point","coordinates":[-77.023298,38.94086]}},{"properties":{"city":"Washington","geo_score":0.902,"offensedescription":"DESTRUCTION OF PROPERTY (MISDEMEANOR)","id":"a6qc7rtks9ct","geo_precision":"range","address":"800  TAYLOR STREET NW","state":"D.C."},"type":"Feature","geometry":{"type":"Point","coordinates":[-77.023298,38.94086]}},{"properties":{"city":"Washington","geo_score":0.819,"offensedescription":"DESTRUCTION OF PROPERTY (MISDEMEANOR)","id":"a6qc7rvjao88","geo_precision":"range","address":"600  7TH STREET NW","state":"D.C."},"type":"Feature","geometry":{"type":"Point","coordinates":[-77.021915,38.897276]}},{"properties":{"city":"Washington","geo_score":0.902,"offensedescription":"DESTRUCTION OF PROPERTY (MISDEMEANOR)","id":"a6qc7s0i3t0o","geo_precision":"range","address":"1000  F STREET NW","state":"D.C."},"type":"Feature","geometry":{"type":"Point","coordinates":[-77.025984,38.897344]}},{"properties":{"city":"Washington","geo_score":0.819,"offensedescription":"DESTRUCTION OF PROPERTY (MISDEMEANOR)","id":"a6qc7rru6dks","geo_precision":"range","address":"700  7TH STREET NW","state":"D.C."},"type":"Feature","geometry":{"type":"Point","coordinates":[-77.021914,38.898446]}},{"properties":{"city":"Washington","geo_score":0.902,"offensedescription":"DISORDERLY (CRAPS)","id":"a6qc7runumxo","geo_precision":"range","address":"600  MORTON STREET NW","state":"D.C."},"type":"Feature","geometry":{"type":"Point","coordinates":[-77.021489,38.932125]}},{"properties":{"city":"Washington","geo_score":0.902,"offensedescription":"DISORDERLY (CRAPS)","id":"a6qc7rtt9269","geo_precision":"range","address":"600  MORTON STREET NW","state":"D.C."},"type":"Feature","geometry":{"type":"Point","coordinates":[-77.021489,38.932125]}},{"properties":{"city":"Washington","geo_score":0.902,"offensedescription":"DISORDERLY (JOSTLING)/OTHER DISORDERLY CONDUCT","id":"a6qc7ryzf8fj","geo_precision":"range","address":"4000  ALBEMARLE STREET NW","state":"D.C."},"type":"Feature","geometry":{"type":"Point","coordinates":[-77.078521,38.947901]}},{"properties":{"city":"Washington","geo_score":0.819,"offensedescription":"DISORDERLY (JOSTLING)/OTHER DISORDERLY CONDUCT","id":"a6qc7s3e1pvo","geo_precision":"range","address":"600  7TH STREET NW","state":"D.C."},"type":"Feature","geometry":{"type":"Point","coordinates":[-77.021915,38.897276]}},{"properties":{"city":"Washington","geo_score":0.819,"offensedescription":"DISORDERLY (JOSTLING)/OTHER DISORDERLY CONDUCT","id":"a6qc7ry88kor","geo_precision":"range","address":"600  7TH STREET NW","state":"D.C."},"type":"Feature","geometry":{"type":"Point","coordinates":[-77.021915,38.897276]}},{"properties":{"city":"Washington","geo_score":0.819,"offensedescription":"DISORDERLY CONDUCT (LOUD &amp; BOISTEROUS)","id":"a6qc7rt7k75q","geo_precision":"range","address":"6300  5TH STREET NW","state":"D.C."},"type":"Feature","geometry":{"type":"Point","coordinates":[-77.019899,38.966135]}},{"properties":{"city":"Washington","geo_score":0.819,"offensedescription":"DISORDERLY CONDUCT (LOUD &amp; BOISTEROUS)","id":"a6qc7rxw9h6c","geo_precision":"range","address":"1700  8TH STREET NW","state":"D.C."},"type":"Feature","geometry":{"type":"Point","coordinates":[-77.022945,38.912605]}},{"properties":{"city":"Washington","geo_score":0.819,"offensedescription":"DISORDERLY CONDUCT (LOUD &amp; BOISTEROUS)","id":"a6qc7s2okyjt","geo_precision":"range","address":"6300  5TH STREET NW","state":"D.C."},"type":"Feature","geometry":{"type":"Point","coordinates":[-77.019899,38.966135]}},{"properties":{"city":"Washington","geo_score":0.819,"offensedescription":"DISORDERLY CONDUCT (LOUD &amp; BOISTEROUS)","id":"a6qc7ro2e5ee","geo_precision":"range","address":"6300  5TH STREET NW","state":"D.C."},"type":"Feature","geometry":{"type":"Point","coordinates":[-77.019899,38.966135]}},{"properties":{"city":"Washington","geo_score":0.902,"offensedescription":"DISORDERLY CONDUCT (LOUD &amp; BOISTEROUS)","id":"a6qc7rpvkm0o","geo_precision":"range","address":"600  F STREET NW","state":"D.C."},"type":"Feature","geometry":{"type":"Point","coordinates":[-77.0199,38.89734]}},{"properties":{"city":"Washington","geo_score":0.829,"offensedescription":"DISORDERLY CONDUCT (LOUD &amp; BOISTEROUS)","id":"a6qc7rntw72n","geo_precision":"range","address":"3100  14TH STREET NW","state":"D.C."},"type":"Feature","geometry":{"type":"Point","coordinates":[-77.032612,38.928805]}},{"properties":{"city":"Washington","geo_score":0.819,"offensedescription":"DISORDERLY CONDUCT (LOUD &amp; BOISTEROUS)","id":"a6qc7rr5z1nj","geo_precision":"range","address":"700  7TH STREET NW","state":"D.C."},"type":"Feature","geometry":{"type":"Point","coordinates":[-77.021914,38.898446]}},{"properties":{"city":"Washington","geo_score":0.819,"offensedescription":"DISORDERLY CONDUCT (LOUD &amp; BOISTEROUS)","id":"a6qc7s30rki6","geo_precision":"range","address":"700  7TH STREET NW","state":"D.C."},"type":"Feature","geometry":{"type":"Point","coordinates":[-77.021914,38.898446]}},{"properties":{"city":"Washington","geo_score":0.857,"offensedescription":"DISORDERLY CONDUCT (LOUD &amp; BOISTEROUS)","id":"a6qc7ro9z613","geo_precision":"street","address":"GEORGIA AVENUE NW &amp; WEBSTER STREET NW","state":"D.C."},"type":"Feature","geometry":{"type":"Point","coordinates":[-77.014391,38.944334]}},{"properties":{"city":"Washington","geo_score":0.819,"offensedescription":"DISORDERLY CONDUCT (LOUD &amp; BOISTEROUS)","id":"a6qc7rrwrltf","geo_precision":"range","address":"1700  8TH STREET NW","state":"D.C."},"type":"Feature","geometry":{"type":"Point","coordinates":[-77.022945,38.912605]}},{"properties":{"city":"Washington","geo_score":0.902,"offensedescription":"DISORDERLY CONDUCT (LOUD &amp; BOISTEROUS)","id":"a6qc7ru88dn8","geo_precision":"range","address":"1400  R STREET NW","state":"D.C."},"type":"Feature","geometry":{"type":"Point","coordinates":[-77.031953,38.912606]}},{"properties":{"city":"Washington","geo_score":0.829,"offensedescription":"DISORDERLY CONDUCT (LOUD &amp; BOISTEROUS)","id":"a6qc7rxgvmbv","geo_precision":"range","address":"3100  14TH STREET NW","state":"D.C."},"type":"Feature","geometry":{"type":"Point","coordinates":[-77.032612,38.928805]}},{"properties":{"city":"Washington","geo_score":0.902,"offensedescription":"FIRST DEGREE BURGLARY (ARMED OR OTHERWISE)","id":"a6qc7rs2fg42","geo_precision":"range","address":"3800  VAN NESS STREET NW","state":"D.C."},"type":"Feature","geometry":{"type":"Point","coordinates":[-77.074604,38.943166]}},{"properties":{"city":"Washington","geo_score":0.902,"offensedescription":"FUGITIVE FROM JUSTICE","id":"a6qc7rukolbq","geo_precision":"range","address":"500  INDIANA AVENUE NW","state":"D.C."},"type":"Feature","geometry":{"type":"Point","coordinates":[-77.019111,38.894641]}},{"properties":{"city":"Washington","geo_score":0.902,"offensedescription":"FUGITIVE FROM JUSTICE","id":"a6qc7rw1c7hi","geo_precision":"range","address":"500  INDIANA AVENUE NW","state":"D.C."},"type":"Feature","geometry":{"type":"Point","coordinates":[-77.019111,38.894641]}},{"properties":{"city":"Washington","geo_score":0.902,"offensedescription":"FUGITIVE FROM JUSTICE","id":"a6qc7s0a0aqx","geo_precision":"range","address":"500  INDIANA AVENUE NW","state":"D.C."},"type":"Feature","geometry":{"type":"Point","coordinates":[-77.019111,38.894641]}},{"properties":{"city":"Washington","geo_score":0.902,"offensedescription":"FUGITIVE FROM JUSTICE","id":"a6qc7rnnnaf4","geo_precision":"range","address":"500  INDIANA AVENUE NW","state":"D.C."},"type":"Feature","geometry":{"type":"Point","coordinates":[-77.019111,38.894641]}},{"properties":{"city":"Washington","geo_score":0.902,"offensedescription":"FUGITIVE FROM JUSTICE","id":"a6qc7s14q107","geo_precision":"range","address":"500  INDIANA AVENUE NW","state":"D.C."},"type":"Feature","geometry":{"type":"Point","coordinates":[-77.019111,38.894641]}},{"properties":{"city":"Washington","geo_score":0.902,"offensedescription":"FUGITIVE FROM JUSTICE","id":"a6qc7rq2y76r","geo_precision":"range","address":"500  INDIANA AVENUE NW","state":"D.C."},"type":"Feature","geometry":{"type":"Point","coordinates":[-77.019111,38.894641]}},{"properties":{"city":"Washington","geo_score":0.902,"offensedescription":"FUGITIVE FROM JUSTICE","id":"a6qc7rr8e8o3","geo_precision":"range","address":"500  INDIANA AVENUE NW","state":"D.C."},"type":"Feature","geometry":{"type":"Point","coordinates":[-77.019111,38.894641]}},{"properties":{"city":"Washington","geo_score":0.902,"offensedescription":"FUGITIVE FROM JUSTICE","id":"a6qc7s28xti7","geo_precision":"range","address":"500  INDIANA AVENUE NW","state":"D.C."},"type":"Feature","geometry":{"type":"Point","coordinates":[-77.019111,38.894641]}},{"properties":{"city":"Washington","geo_score":0.902,"offensedescription":"FUGITIVE FROM JUSTICE","id":"a6qc7rz6f20p","geo_precision":"range","address":"500  INDIANA AVENUE NW","state":"D.C."},"type":"Feature","geometry":{"type":"Point","coordinates":[-77.019111,38.894641]}},{"properties":{"city":"Washington","geo_score":0.902,"offensedescription":"FUGITIVE FROM JUSTICE","id":"a6qc7rzx2q3w","geo_precision":"range","address":"500  INDIANA AVENUE NW","state":"D.C."},"type":"Feature","geometry":{"type":"Point","coordinates":[-77.019111,38.894641]}},{"properties":{"city":"Washington","geo_score":0.902,"offensedescription":"FUGITIVE FROM JUSTICE","id":"a6qc7rrq14wg","geo_precision":"range","address":"500  INDIANA AVENUE NW","state":"D.C."},"type":"Feature","geometry":{"type":"Point","coordinates":[-77.019111,38.894641]}},{"properties":{"city":"Washington","geo_score":0.902,"offensedescription":"FUGITIVE FROM JUSTICE","id":"a6qc7rx454lp","geo_precision":"range","address":"500  INDIANA AVENUE NW","state":"D.C."},"type":"Feature","geometry":{"type":"Point","coordinates":[-77.019111,38.894641]}},{"properties":{"city":"Washington","geo_score":0.902,"offensedescription":"FUGITIVE FROM JUSTICE","id":"a6qc7rs6q4xd","geo_precision":"range","address":"500  INDIANA AVENUE NW","state":"D.C."},"type":"Feature","geometry":{"type":"Point","coordinates":[-77.019111,38.894641]}},{"properties":{"city":"Washington","geo_score":0.902,"offensedescription":"FUGITIVE FROM JUSTICE","id":"a6qc7rrhw434","geo_precision":"range","address":"500  INDIANA AVENUE NW","state":"D.C."},"type":"Feature","geometry":{"type":"Point","coordinates":[-77.019111,38.894641]}},{"properties":{"city":"Washington","geo_score":0.902,"offensedescription":"FUGITIVE FROM JUSTICE","id":"a6qc7rzeus6s","geo_precision":"range","address":"3800  GEORGIA AVENUE NW","state":"D.C."},"type":"Feature","geometry":{"type":"Point","coordinates":[-77.024498,38.93761]}},{"properties":{"city":"Washington","geo_score":0.902,"offensedescription":"FUGITIVE FROM JUSTICE","id":"a6qc7rrfm4hr","geo_precision":"range","address":"500  INDIANA AVENUE NW","state":"D.C."},"type":"Feature","geometry":{"type":"Point","coordinates":[-77.019111,38.894641]}},{"properties":{"city":"Washington","geo_score":0.902,"offensedescription":"FUGITIVE FROM JUSTICE","id":"a6qc7rw9g5u9","geo_precision":"range","address":"500  NEW YORK AVENUE NW","state":"D.C."},"type":"Feature","geometry":{"type":"Point","coordinates":[-77.018928,38.903915]}},{"properties":{"city":"Washington","geo_score":0.819,"offensedescription":"LEAVING SCENE OF ACCIDENTS -- PERSONAL INJURY OR PROPERTY DAMAGE","id":"a6qc7rpo28df","geo_precision":"range","address":"1400  3RD STREET NW","state":"D.C."},"type":"Feature","geometry":{"type":"Point","coordinates":[-77.015182,38.908569]}},{"properties":{"city":"Washington","geo_score":0.902,"offensedescription":"LEAVING SCENE OF ACCIDENTS -- PERSONAL INJURY OR PROPERTY DAMAGE","id":"a6qc7rt44y3u","geo_precision":"range","address":"900  NORTH CAPITOL STREET NW","state":"D.C."},"type":"Feature","geometry":{"type":"Point","coordinates":[-77.009063,38.901312]}},{"properties":{"city":"Washington","geo_score":0.819,"offensedescription":"METRO MISCONDUCT","id":"a6qc7s395bm4","geo_precision":"range","address":"600  7TH STREET NW","state":"D.C."},"type":"Feature","geometry":{"type":"Point","coordinates":[-77.021915,38.897276]}},{"properties":{"city":"Washington","geo_score":0.902,"offensedescription":"METRO MISCONDUCT","id":"a6qc7rsyr0zy","geo_precision":"range","address":"1200  U STREET NW","state":"D.C."},"type":"Feature","geometry":{"type":"Point","coordinates":[-77.028083,38.916996]}},{"properties":{"city":"Washington","geo_score":0.819,"offensedescription":"METRO MISCONDUCT","id":"a6qc7rtso1sw","geo_precision":"range","address":"600  7TH STREET NW","state":"D.C."},"type":"Feature","geometry":{"type":"Point","coordinates":[-77.021915,38.897276]}},{"properties":{"city":"Washington","geo_score":0.902,"offensedescription":"METRO MISCONDUCT","id":"a6qc7rokikil","geo_precision":"range","address":"1200  WISCONSIN AVENUE NW","state":"D.C."},"type":"Feature","geometry":{"type":"Point","coordinates":[-77.062811,38.905176]}},{"properties":{"city":"Washington","geo_score":0.902,"offensedescription":"NO PERMIT","id":"a6qc7rtkgx25","geo_precision":"range","address":"1700  LANIER PLACE NW","state":"D.C."},"type":"Feature","geometry":{"type":"Point","coordinates":[-77.040397,38.925568]}},{"properties":{"city":"Washington","geo_score":0.819,"offensedescription":"OBSTRUCTING JUSTICE","id":"a6qc7s3bm3y6","geo_precision":"range","address":"6300  5TH STREET NW","state":"D.C."},"type":"Feature","geometry":{"type":"Point","coordinates":[-77.019899,38.966135]}},{"properties":{"city":"Washington","geo_score":0.819,"offensedescription":"OBSTRUCTING JUSTICE","id":"a6qc7s0rh1bv","geo_precision":"range","address":"1700  8TH STREET NW","state":"D.C."},"type":"Feature","geometry":{"type":"Point","coordinates":[-77.022945,38.912605]}},{"properties":{"city":"Washington","geo_score":0.902,"offensedescription":"OBSTRUCTING JUSTICE","id":"a6qc7rq9561g","geo_precision":"range","address":"1200  U STREET NW","state":"D.C."},"type":"Feature","geometry":{"type":"Point","coordinates":[-77.028083,38.916996]}},{"properties":{"city":"Washington","geo_score":0.902,"offensedescription":"OTHER FELONY OFFENSE","id":"a6qc7s2ke4xu","geo_precision":"range","address":"500  INDIANA AVENUE NW","state":"D.C."},"type":"Feature","geometry":{"type":"Point","coordinates":[-77.019111,38.894641]}},{"properties":{"city":"Washington","geo_score":0.819,"offensedescription":"OTHER FELONY OFFENSE","id":"a6qc7rznkniz","geo_precision":"range","address":"6300  5TH STREET NW","state":"D.C."},"type":"Feature","geometry":{"type":"Point","coordinates":[-77.019899,38.966135]}},{"properties":{"city":"Washington","geo_score":0.902,"offensedescription":"OTHER FELONY OFFENSE","id":"a6qc7rwyykgy","geo_precision":"range","address":"200  P STREET NW","state":"D.C."},"type":"Feature","geometry":{"type":"Point","coordinates":[-77.013642,38.909641]}},{"properties":{"city":"Washington","geo_score":0.902,"offensedescription":"OTHER FELONY OFFENSE","id":"a6qc7s0lh7r1","geo_precision":"range","address":"500  INDIANA AVENUE NW","state":"D.C."},"type":"Feature","geometry":{"type":"Point","coordinates":[-77.019111,38.894641]}},{"properties":{"city":"Washington","geo_score":0.819,"offensedescription":"OTHER FELONY OFFENSE","id":"a6qc7rva97ol","geo_precision":"range","address":"6300  5TH STREET NW","state":"D.C."},"type":"Feature","geometry":{"type":"Point","coordinates":[-77.019899,38.966135]}},{"properties":{"city":"Washington","geo_score":0.902,"offensedescription":"OTHER FELONY OFFENSE","id":"a6qc7rokjve0","geo_precision":"range","address":"500  INDIANA AVENUE NW","state":"D.C."},"type":"Feature","geometry":{"type":"Point","coordinates":[-77.019111,38.894641]}},{"properties":{"city":"Washington","geo_score":0.902,"offensedescription":"OTHER FELONY OFFENSE","id":"a6qc7rquhkyk","geo_precision":"range","address":"1300  COLUMBIA ROAD NW","state":"D.C."},"type":"Feature","geometry":{"type":"Point","coordinates":[-77.029707,38.927637]}},{"properties":{"city":"Washington","geo_score":0.902,"offensedescription":"OTHER FELONY OFFENSE","id":"a6qc7rt10rrq","geo_precision":"range","address":"1300  COLUMBIA ROAD NW","state":"D.C."},"type":"Feature","geometry":{"type":"Point","coordinates":[-77.029707,38.927637]}},{"properties":{"city":"Washington","geo_score":0.902,"offensedescription":"OTHER FELONY OFFENSE","id":"a6qc7rw6epwq","geo_precision":"range","address":"700  F STREET NW","state":"D.C."},"type":"Feature","geometry":{"type":"Point","coordinates":[-77.021915,38.897276]}},{"properties":{"city":"Washington","geo_score":0.902,"offensedescription":"OTHER FELONY OFFENSE","id":"a6qc7rt29vlo","geo_precision":"range","address":"500  INDIANA AVENUE NW","state":"D.C."},"type":"Feature","geometry":{"type":"Point","coordinates":[-77.019111,38.894641]}},{"properties":{"city":"Washington","geo_score":0.902,"offensedescription":"OTHER FELONY OFFENSE","id":"a6qc7rsd7dns","geo_precision":"range","address":"500  INDIANA AVENUE NW","state":"D.C."},"type":"Feature","geometry":{"type":"Point","coordinates":[-77.019111,38.894641]}},{"properties":{"city":"Washington","geo_score":0.902,"offensedescription":"OTHER FELONY OFFENSE","id":"a6qc7rs0xjda","geo_precision":"range","address":"500  INDIANA AVENUE NW","state":"D.C."},"type":"Feature","geometry":{"type":"Point","coordinates":[-77.019111,38.894641]}},{"properties":{"city":"Washington","geo_score":0.902,"offensedescription":"OTHER FELONY OFFENSE","id":"a6qc7rwauoiw","geo_precision":"range","address":"500  INDIANA AVENUE NW","state":"D.C."},"type":"Feature","geometry":{"type":"Point","coordinates":[-77.019111,38.894641]}},{"properties":{"city":"Washington","geo_score":0.902,"offensedescription":"OTHER FELONY OFFENSE","id":"a6qc7rsfaco8","geo_precision":"range","address":"500  INDIANA AVENUE NW","state":"D.C."},"type":"Feature","geometry":{"type":"Point","coordinates":[-77.019111,38.894641]}},{"properties":{"city":"Washington","geo_score":0.902,"offensedescription":"OTHER FELONY OFFENSE","id":"a6qc7rtvko62","geo_precision":"range","address":"500  INDIANA AVENUE NW","state":"D.C."},"type":"Feature","geometry":{"type":"Point","coordinates":[-77.019111,38.894641]}},{"properties":{"city":"Washington","geo_score":0.902,"offensedescription":"OTHER FELONY OFFENSE","id":"a6qc7ry6ipnu","geo_precision":"range","address":"500  INDIANA AVENUE NW","state":"D.C."},"type":"Feature","geometry":{"type":"Point","coordinates":[-77.019111,38.894641]}},{"properties":{"city":"Washington","geo_score":0.902,"offensedescription":"OTHER FELONY OFFENSE","id":"a6qc7rtl4mfw","geo_precision":"range","address":"500  INDIANA AVENUE NW","state":"D.C."},"type":"Feature","geometry":{"type":"Point","coordinates":[-77.019111,38.894641]}},{"properties":{"city":"Washington","geo_score":0.902,"offensedescription":"OTHER FELONY OFFENSE","id":"a6qc7rwdy9yv","geo_precision":"range","address":"500  INDIANA AVENUE NW","state":"D.C."},"type":"Feature","geometry":{"type":"Point","coordinates":[-77.019111,38.894641]}},{"properties":{"city":"Washington","geo_score":0.902,"offensedescription":"OTHER FELONY OFFENSE","id":"a6qc7rumoapx","geo_precision":"range","address":"500  INDIANA AVENUE NW","state":"D.C."},"type":"Feature","geometry":{"type":"Point","coordinates":[-77.019111,38.894641]}},{"properties":{"city":"Washington","geo_score":0.902,"offensedescription":"OTHER FELONY OFFENSE","id":"a6qc7rvq1kht","geo_precision":"range","address":"500  INDIANA AVENUE NW","state":"D.C."},"type":"Feature","geometry":{"type":"Point","coordinates":[-77.019111,38.894641]}},{"properties":{"city":"Washington","geo_score":0.902,"offensedescription":"OTHER FELONY OFFENSE","id":"a6qc7s0vg9lk","geo_precision":"range","address":"500  INDIANA AVENUE NW","state":"D.C."},"type":"Feature","geometry":{"type":"Point","coordinates":[-77.019111,38.894641]}},{"properties":{"city":"Washington","geo_score":0.819,"offensedescription":"OTHER FELONY OFFENSE","id":"a6qc7rr5u0py","geo_precision":"range","address":"600  7TH STREET NW","state":"D.C."},"type":"Feature","geometry":{"type":"Point","coordinates":[-77.021915,38.897276]}},{"properties":{"city":"Washington","geo_score":0.902,"offensedescription":"OTHER FELONY OFFENSE","id":"a6qc7rv31cti","geo_precision":"range","address":"500  INDIANA AVENUE NW","state":"D.C."},"type":"Feature","geometry":{"type":"Point","coordinates":[-77.019111,38.894641]}},{"properties":{"city":"Washington","geo_score":0.829,"offensedescription":"OTHER FELONY OFFENSE","id":"a6qc7rxcggsb","geo_precision":"range","address":"3100  14TH STREET NW","state":"D.C."},"type":"Feature","geometry":{"type":"Point","coordinates":[-77.032612,38.928805]}},{"properties":{"city":"Washington","geo_score":0.902,"offensedescription":"OTHER FELONY OFFENSE","id":"a6qc7rphmfdg","geo_precision":"range","address":"1600  U STREET NW","state":"D.C."},"type":"Feature","geometry":{"type":"Point","coordinates":[-77.036492,38.917002]}},{"properties":{"city":"Washington","geo_score":0.819,"offensedescription":"OTHER FELONY OFFENSE","id":"a6qc7s053q4e","geo_precision":"range","address":"700  7TH STREET NW","state":"D.C."},"type":"Feature","geometry":{"type":"Point","coordinates":[-77.021914,38.898446]}},{"properties":{"city":"Washington","geo_score":0.902,"offensedescription":"OTHER FELONY OFFENSE","id":"a6qc7rt91szc","geo_precision":"range","address":"500  INDIANA AVENUE NW","state":"D.C."},"type":"Feature","geometry":{"type":"Point","coordinates":[-77.019111,38.894641]}},{"properties":{"city":"Washington","geo_score":0.902,"offensedescription":"OTHER FELONY OFFENSE","id":"a6qc7rp9flc3","geo_precision":"range","address":"500  INDIANA AVENUE NW","state":"D.C."},"type":"Feature","geometry":{"type":"Point","coordinates":[-77.019111,38.894641]}},{"properties":{"city":"Washington","geo_score":0.902,"offensedescription":"OTHER FELONY OFFENSE","id":"a6qc7rpma9xc","geo_precision":"range","address":"500  INDIANA AVENUE NW","state":"D.C."},"type":"Feature","geometry":{"type":"Point","coordinates":[-77.019111,38.894641]}},{"properties":{"city":"Washington","geo_score":0.902,"offensedescription":"OTHER FELONY OFFENSE","id":"a6qc7rxg7j05","geo_precision":"range","address":"500  INDIANA AVENUE NW","state":"D.C."},"type":"Feature","geometry":{"type":"Point","coordinates":[-77.019111,38.894641]}},{"properties":{"city":"Washington","geo_score":0.902,"offensedescription":"OTHER FELONY OFFENSE","id":"a6qc7rnxpqqv","geo_precision":"range","address":"500  INDIANA AVENUE NW","state":"D.C."},"type":"Feature","geometry":{"type":"Point","coordinates":[-77.019111,38.894641]}},{"properties":{"city":"Washington","geo_score":0.902,"offensedescription":"OTHER FELONY OFFENSE","id":"a6qc7rreawed","geo_precision":"range","address":"500  INDIANA AVENUE NW","state":"D.C."},"type":"Feature","geometry":{"type":"Point","coordinates":[-77.019111,38.894641]}},{"properties":{"city":"Washington","geo_score":0.902,"offensedescription":"OTHER FELONY OFFENSE","id":"a6qc7rzffm10","geo_precision":"range","address":"500  INDIANA AVENUE NW","state":"D.C."},"type":"Feature","geometry":{"type":"Point","coordinates":[-77.019111,38.894641]}},{"properties":{"city":"Washington","geo_score":0.902,"offensedescription":"OTHER FELONY OFFENSE","id":"a6qc7rtvlqea","geo_precision":"range","address":"500  INDIANA AVENUE NW","state":"D.C."},"type":"Feature","geometry":{"type":"Point","coordinates":[-77.019111,38.894641]}},{"properties":{"city":"Washington","geo_score":0.829,"offensedescription":"OTHER FELONY OFFENSE","id":"a6qc7ryyd9ok","geo_precision":"range","address":"3100  14TH STREET NW","state":"D.C."},"type":"Feature","geometry":{"type":"Point","coordinates":[-77.032612,38.928805]}},{"properties":{"city":"Washington","geo_score":0.902,"offensedescription":"OTHER FELONY OFFENSE","id":"a6qc7rsbuov1","geo_precision":"range","address":"500  INDIANA AVENUE NW","state":"D.C."},"type":"Feature","geometry":{"type":"Point","coordinates":[-77.019111,38.894641]}},{"properties":{"city":"Washington","geo_score":0.902,"offensedescription":"OTHER FELONY OFFENSE","id":"a6qc7rsue7pz","geo_precision":"range","address":"1100  ALLISON STREET NW","state":"D.C."},"type":"Feature","geometry":{"type":"Point","coordinates":[-77.026337,38.94506]}},{"properties":{"city":"Washington","geo_score":0.902,"offensedescription":"OTHER FELONY OFFENSE","id":"a6qc7rxecwki","geo_precision":"range","address":"400  F STREET NW","state":"D.C."},"type":"Feature","geometry":{"type":"Point","coordinates":[-77.016182,38.897341]}},{"properties":{"city":"Washington","geo_score":0.902,"offensedescription":"OTHER MISDEMEANOR OFFENSE","id":"a6qc7rrpb411","geo_precision":"range","address":"500  INDIANA AVENUE NW","state":"D.C."},"type":"Feature","geometry":{"type":"Point","coordinates":[-77.019111,38.894641]}},{"properties":{"city":"Washington","geo_score":0.902,"offensedescription":"OTHER MISDEMEANOR OFFENSE","id":"a6qc7ro9ass9","geo_precision":"range","address":"500  INDIANA AVENUE NW","state":"D.C."},"type":"Feature","geometry":{"type":"Point","coordinates":[-77.019111,38.894641]}},{"properties":{"city":"Washington","geo_score":0.902,"offensedescription":"OTHER MISDEMEANOR OFFENSE","id":"a6qc7s3fz0j5","geo_precision":"range","address":"500  INDIANA AVENUE NW","state":"D.C."},"type":"Feature","geometry":{"type":"Point","coordinates":[-77.019111,38.894641]}},{"properties":{"city":"Washington","geo_score":0.902,"offensedescription":"OTHER MISDEMEANOR OFFENSE","id":"a6qc7rnpk220","geo_precision":"range","address":"500  INDIANA AVENUE NW","state":"D.C."},"type":"Feature","geometry":{"type":"Point","coordinates":[-77.019111,38.894641]}},{"properties":{"city":"Washington","geo_score":0.902,"offensedescription":"OTHER MISDEMEANOR OFFENSE","id":"a6qc7rx9qdsb","geo_precision":"range","address":"1500  NORTH CAPITOL STREET NW","state":"D.C."},"type":"Feature","geometry":{"type":"Point","coordinates":[-77.009051,38.909638]}},{"properties":{"city":"Washington","geo_score":0.902,"offensedescription":"OTHER MISDEMEANOR OFFENSE","id":"a6qc7s0v9grf","geo_precision":"range","address":"500  INDIANA AVENUE NW","state":"D.C."},"type":"Feature","geometry":{"type":"Point","coordinates":[-77.019111,38.894641]}},{"properties":{"city":"Washington","geo_score":0.819,"offensedescription":"OTHER MISDEMEANOR OFFENSE","id":"a6qc7rvvdtvr","geo_precision":"range","address":"5000  9TH STREET NW","state":"D.C."},"type":"Feature","geometry":{"type":"Point","coordinates":[-77.025495,38.950845]}},{"properties":{"city":"Washington","geo_score":0.902,"offensedescription":"OTHER MISDEMEANOR OFFENSE","id":"a6qc7s0p2dif","geo_precision":"range","address":"500  INDIANA AVENUE NW","state":"D.C."},"type":"Feature","geometry":{"type":"Point","coordinates":[-77.019111,38.894641]}},{"properties":{"city":"Washington","geo_score":0.902,"offensedescription":"OTHER MISDEMEANOR OFFENSE","id":"a6qc7rrdm38d","geo_precision":"range","address":"500  INDIANA AVENUE NW","state":"D.C."},"type":"Feature","geometry":{"type":"Point","coordinates":[-77.019111,38.894641]}},{"properties":{"city":"Washington","geo_score":0.902,"offensedescription":"OTHER MISDEMEANOR OFFENSE","id":"a6qc7rx7y8vm","geo_precision":"range","address":"1700  P STREET NW","state":"D.C."},"type":"Feature","geometry":{"type":"Point","coordinates":[-77.038489,38.909644]}},{"properties":{"city":"Washington","geo_score":0.902,"offensedescription":"OTHER MISDEMEANOR OFFENSE","id":"a6qc7rqy3vha","geo_precision":"range","address":"1500  RHODE ISLAND AVENUE NW","state":"D.C."},"type":"Feature","geometry":{"type":"Point","coordinates":[-77.034564,38.907934]}},{"properties":{"city":"Washington","geo_score":0.902,"offensedescription":"OTHER MISDEMEANOR OFFENSE","id":"a6qc7ro9jrm4","geo_precision":"range","address":"500  INDIANA AVENUE NW","state":"D.C."},"type":"Feature","geometry":{"type":"Point","coordinates":[-77.019111,38.894641]}},{"properties":{"city":"Washington","geo_score":0.902,"offensedescription":"OTHER MISDEMEANOR OFFENSE","id":"a6qc7ro9pv5x","geo_precision":"range","address":"500  INDIANA AVENUE NW","state":"D.C."},"type":"Feature","geometry":{"type":"Point","coordinates":[-77.019111,38.894641]}},{"properties":{"city":"Washington","geo_score":0.902,"offensedescription":"OTHER MISDEMEANOR OFFENSE","id":"a6qc7rnlw8e3","geo_precision":"range","address":"500  INDIANA AVENUE NW","state":"D.C."},"type":"Feature","geometry":{"type":"Point","coordinates":[-77.019111,38.894641]}},{"properties":{"city":"Washington","geo_score":0.902,"offensedescription":"OTHER MISDEMEANOR OFFENSE","id":"a6qc7ry74ahj","geo_precision":"range","address":"500  INDIANA AVENUE NW","state":"D.C."},"type":"Feature","geometry":{"type":"Point","coordinates":[-77.019111,38.894641]}},{"properties":{"city":"Washington","geo_score":0.902,"offensedescription":"OTHER MISDEMEANOR OFFENSE","id":"a6qc7rst4ue2","geo_precision":"range","address":"1300  GIRARD STREET NW","state":"D.C."},"type":"Feature","geometry":{"type":"Point","coordinates":[-77.02971,38.925748]}},{"properties":{"city":"Washington","geo_score":0.902,"offensedescription":"OTHER MISDEMEANOR OFFENSE","id":"a6qc7rqtq7hq","geo_precision":"range","address":"1300  GIRARD STREET NW","state":"D.C."},"type":"Feature","geometry":{"type":"Point","coordinates":[-77.02971,38.925748]}},{"properties":{"city":"Washington","geo_score":0.902,"offensedescription":"OTHER MISDEMEANOR OFFENSE","id":"a6qc7ryk01ib","geo_precision":"range","address":"500  INDIANA AVENUE NW","state":"D.C."},"type":"Feature","geometry":{"type":"Point","coordinates":[-77.019111,38.894641]}},{"properties":{"city":"Washington","geo_score":0.902,"offensedescription":"OTHER MISDEMEANOR OFFENSE","id":"a6qc7rwpb2dt","geo_precision":"range","address":"500  INDIANA AVENUE NW","state":"D.C."},"type":"Feature","geometry":{"type":"Point","coordinates":[-77.019111,38.894641]}},{"properties":{"city":"Washington","geo_score":0.902,"offensedescription":"OTHER MISDEMEANOR OFFENSE","id":"a6qc7ruokoi6","geo_precision":"range","address":"500  INDIANA AVENUE NW","state":"D.C."},"type":"Feature","geometry":{"type":"Point","coordinates":[-77.019111,38.894641]}},{"properties":{"city":"Washington","geo_score":0.902,"offensedescription":"OTHER MISDEMEANOR OFFENSE","id":"a6qc7rwy3oyj","geo_precision":"range","address":"500  INDIANA AVENUE NW","state":"D.C."},"type":"Feature","geometry":{"type":"Point","coordinates":[-77.019111,38.894641]}},{"properties":{"city":"Washington","geo_score":0.902,"offensedescription":"OTHER MISDEMEANOR OFFENSE","id":"a6qc7ry4o083","geo_precision":"range","address":"200  FLORIDA AVENUE NW","state":"D.C."},"type":"Feature","geometry":{"type":"Point","coordinates":[-77.013308,38.912605]}},{"properties":{"city":"Washington","geo_score":0.902,"offensedescription":"OTHER MISDEMEANOR OFFENSE","id":"a6qc7rsru7cr","geo_precision":"range","address":"500  INDIANA AVENUE NW","state":"D.C."},"type":"Feature","geometry":{"type":"Point","coordinates":[-77.019111,38.894641]}},{"properties":{"city":"Washington","geo_score":0.902,"offensedescription":"OTHER MISDEMEANOR OFFENSE","id":"a6qc7s2ctxnj","geo_precision":"range","address":"500  INDIANA AVENUE NW","state":"D.C."},"type":"Feature","geometry":{"type":"Point","coordinates":[-77.019111,38.894641]}},{"properties":{"city":"Washington","geo_score":0.902,"offensedescription":"OTHER MISDEMEANOR OFFENSE","id":"a6qc7rvdm0zc","geo_precision":"range","address":"500  INDIANA AVENUE NW","state":"D.C."},"type":"Feature","geometry":{"type":"Point","coordinates":[-77.019111,38.894641]}},{"properties":{"city":"Washington","geo_score":0.829,"offensedescription":"OTHER MISDEMEANOR OFFENSE","id":"a6qc7s3osrqa","geo_precision":"range","address":"4700  14TH STREET NW","state":"D.C."},"type":"Feature","geometry":{"type":"Point","coordinates":[-77.032726,38.947193]}},{"properties":{"city":"Washington","geo_score":0.902,"offensedescription":"OTHER MISDEMEANOR OFFENSE","id":"a6qc7rukpv9u","geo_precision":"range","address":"500  INDIANA AVENUE NW","state":"D.C."},"type":"Feature","geometry":{"type":"Point","coordinates":[-77.019111,38.894641]}},{"properties":{"city":"Washington","geo_score":0.902,"offensedescription":"OTHER MISDEMEANOR OFFENSE","id":"a6qc7rzc0ylo","geo_precision":"range","address":"500  INDIANA AVENUE NW","state":"D.C."},"type":"Feature","geometry":{"type":"Point","coordinates":[-77.019111,38.894641]}},{"properties":{"city":"Washington","geo_score":0.819,"offensedescription":"OTHER MISDEMEANOR OFFENSE","id":"a6qc7rtwqpxm","geo_precision":"range","address":"600  7TH STREET NW","state":"D.C."},"type":"Feature","geometry":{"type":"Point","coordinates":[-77.021915,38.897276]}},{"properties":{"city":"Washington","geo_score":0.902,"offensedescription":"OTHER MISDEMEANOR OFFENSE","id":"a6qc7s383yk4","geo_precision":"range","address":"500  INDIANA AVENUE NW","state":"D.C."},"type":"Feature","geometry":{"type":"Point","coordinates":[-77.019111,38.894641]}},{"properties":{"city":"Washington","geo_score":0.902,"offensedescription":"OTHER MISDEMEANOR OFFENSE","id":"a6qc7rqg7s47","geo_precision":"range","address":"4000  ALBEMARLE STREET NW","state":"D.C."},"type":"Feature","geometry":{"type":"Point","coordinates":[-77.078521,38.947901]}},{"properties":{"city":"Washington","geo_score":0.902,"offensedescription":"OTHER MISDEMEANOR OFFENSE","id":"a6qc7s20idl0","geo_precision":"range","address":"1400  KENNEDY STREET NW","state":"D.C."},"type":"Feature","geometry":{"type":"Point","coordinates":[-77.033425,38.956213]}},{"properties":{"city":"Washington","geo_score":0.902,"offensedescription":"OTHER MISDEMEANOR OFFENSE","id":"a6qc7ropq8s5","geo_precision":"range","address":"500  INDIANA AVENUE NW","state":"D.C."},"type":"Feature","geometry":{"type":"Point","coordinates":[-77.019111,38.894641]}},{"properties":{"city":"Washington","geo_score":0.75,"offensedescription":"OTHER MISDEMEANOR OFFENSE","id":"a6qc7s2xeu0t","geo_precision":"street","address":"15TH STREET NW &amp; GIRARD STREET NW","state":"D.C."},"type":"Feature","geometry":{"type":"Point","coordinates":[-77.033759,38.889652]}},{"properties":{"city":"Washington","geo_score":0.902,"offensedescription":"OTHER MISDEMEANOR OFFENSE","id":"a6qc7rq2q92g","geo_precision":"range","address":"100  T STREET NW","state":"D.C."},"type":"Feature","geometry":{"type":"Point","coordinates":[-77.012659,38.915561]}},{"properties":{"city":"Washington","geo_score":0.902,"offensedescription":"OTHER MISDEMEANOR OFFENSE","id":"a6qc7rol0e4c","geo_precision":"range","address":"1700  P STREET NW","state":"D.C."},"type":"Feature","geometry":{"type":"Point","coordinates":[-77.038489,38.909644]}},{"properties":{"city":"Washington","geo_score":0.902,"offensedescription":"OTHER MISDEMEANOR OFFENSE","id":"a6qc7rz3s1d3","geo_precision":"range","address":"500  INDIANA AVENUE NW","state":"D.C."},"type":"Feature","geometry":{"type":"Point","coordinates":[-77.019111,38.894641]}},{"properties":{"city":"Washington","geo_score":0.844,"offensedescription":"OTHER MISDEMEANOR OFFENSE","id":"a6qc7ryceyfm","geo_precision":"range","address":"200  W STREET NW","state":"D.C."},"type":"Feature","geometry":{"type":"Point","coordinates":[-77.013655,38.907233]}},{"properties":{"city":"Washington","geo_score":0.902,"offensedescription":"OTHER MISDEMEANOR OFFENSE","id":"a6qc7rs4nm7s","geo_precision":"range","address":"500  INDIANA AVENUE NW","state":"D.C."},"type":"Feature","geometry":{"type":"Point","coordinates":[-77.019111,38.894641]}},{"properties":{"city":"Washington","geo_score":0.902,"offensedescription":"OTHER MISDEMEANOR OFFENSE","id":"a6qc7s3t1kv5","geo_precision":"range","address":"600  H STREET NW","state":"D.C."},"type":"Feature","geometry":{"type":"Point","coordinates":[-77.01991,38.899811]}},{"properties":{"city":"Washington","geo_score":0.902,"offensedescription":"OTHER MISDEMEANOR OFFENSE","id":"a6qc7s0eclmp","geo_precision":"range","address":"1400  FAIRMONT STREET NW","state":"D.C."},"type":"Feature","geometry":{"type":"Point","coordinates":[-77.03222,38.924541]}},{"properties":{"city":"Washington","geo_score":0.902,"offensedescription":"OTHER MISDEMEANOR OFFENSE","id":"a6qc7rqk8od5","geo_precision":"range","address":"500  INDIANA AVENUE NW","state":"D.C."},"type":"Feature","geometry":{"type":"Point","coordinates":[-77.019111,38.894641]}},{"properties":{"city":"Washington","geo_score":0.902,"offensedescription":"OTHER MISDEMEANOR OFFENSE","id":"a6qc7s3f0k3b","geo_precision":"range","address":"500  INDIANA AVENUE NW","state":"D.C."},"type":"Feature","geometry":{"type":"Point","coordinates":[-77.019111,38.894641]}},{"properties":{"city":"Washington","geo_score":0.819,"offensedescription":"OTHER MISDEMEANOR OFFENSE","id":"a6qc7s3yjdhb","geo_precision":"range","address":"6300  5TH STREET NW","state":"D.C."},"type":"Feature","geometry":{"type":"Point","coordinates":[-77.019899,38.966135]}},{"properties":{"city":"Washington","geo_score":0.902,"offensedescription":"OTHER MISDEMEANOR OFFENSE","id":"a6qc7rsl14vc","geo_precision":"range","address":"500  INDIANA AVENUE NW","state":"D.C."},"type":"Feature","geometry":{"type":"Point","coordinates":[-77.019111,38.894641]}},{"properties":{"city":"Washington","geo_score":0.902,"offensedescription":"OTHER MISDEMEANOR OFFENSE","id":"a6qc7rxn6s8u","geo_precision":"range","address":"3900  CHESAPEAKE STREET NW","state":"D.C."},"type":"Feature","geometry":{"type":"Point","coordinates":[-77.077269,38.950728]}},{"properties":{"city":"Washington","geo_score":0.902,"offensedescription":"OTHER MISDEMEANOR OFFENSE","id":"a6qc7ro8ruq6","geo_precision":"range","address":"4500  IOWA AVENUE NW","state":"D.C."},"type":"Feature","geometry":{"type":"Point","coordinates":[-77.028463,38.945063]}},{"properties":{"city":"Washington","geo_score":0.902,"offensedescription":"OTHER MISDEMEANOR OFFENSE","id":"a6qc7rxfn7y1","geo_precision":"range","address":"500  INDIANA AVENUE NW","state":"D.C."},"type":"Feature","geometry":{"type":"Point","coordinates":[-77.019111,38.894641]}},{"properties":{"city":"Washington","geo_score":0.819,"offensedescription":"OTHER MISDEMEANOR OFFENSE","id":"a6qc7ry4fdrt","geo_precision":"range","address":"700  7TH STREET NW","state":"D.C."},"type":"Feature","geometry":{"type":"Point","coordinates":[-77.021914,38.898446]}},{"properties":{"city":"Washington","geo_score":0.902,"offensedescription":"OTHER MISDEMEANOR OFFENSE","id":"a6qc7rwf42k3","geo_precision":"range","address":"500  INDIANA AVENUE NW","state":"D.C."},"type":"Feature","geometry":{"type":"Point","coordinates":[-77.019111,38.894641]}},{"properties":{"city":"Washington","geo_score":0.902,"offensedescription":"OTHER MISDEMEANOR OFFENSE","id":"a6qc7s2kr38o","geo_precision":"range","address":"3400  HOLMEAD PLACE NW","state":"D.C."},"type":"Feature","geometry":{"type":"Point","coordinates":[-77.030869,38.931973]}},{"properties":{"city":"Washington","geo_score":0.902,"offensedescription":"OTHER MISDEMEANOR OFFENSE","id":"a6qc7s1hmmeb","geo_precision":"range","address":"3700  GEORGIA AVENUE NW","state":"D.C."},"type":"Feature","geometry":{"type":"Point","coordinates":[-77.024298,38.936329]}},{"properties":{"city":"Washington","geo_score":0.902,"offensedescription":"OTHER MISDEMEANOR OFFENSE","id":"a6qc7s3bvej3","geo_precision":"range","address":"3700  GEORGIA AVENUE NW","state":"D.C."},"type":"Feature","geometry":{"type":"Point","coordinates":[-77.024298,38.936329]}},{"properties":{"city":"Washington","geo_score":0.902,"offensedescription":"OTHER MISDEMEANOR OFFENSE","id":"a6qc7s2x29z5","geo_precision":"range","address":"500  INDIANA AVENUE NW","state":"D.C."},"type":"Feature","geometry":{"type":"Point","coordinates":[-77.019111,38.894641]}},{"properties":{"city":"Washington","geo_score":0.902,"offensedescription":"OTHER MISDEMEANOR OFFENSE","id":"a6qc7rwf778z","geo_precision":"range","address":"500  INDIANA AVENUE NW","state":"D.C."},"type":"Feature","geometry":{"type":"Point","coordinates":[-77.019111,38.894641]}},{"properties":{"city":"Washington","geo_score":0.902,"offensedescription":"OTHER MISDEMEANOR OFFENSE","id":"a6qc7s3jwoui","geo_precision":"range","address":"500  INDIANA AVENUE NW","state":"D.C."},"type":"Feature","geometry":{"type":"Point","coordinates":[-77.019111,38.894641]}},{"properties":{"city":"Washington","geo_score":0.902,"offensedescription":"OTHER MISDEMEANOR OFFENSE","id":"a6qc7rvrzjmx","geo_precision":"range","address":"500  INDIANA AVENUE NW","state":"D.C."},"type":"Feature","geometry":{"type":"Point","coordinates":[-77.019111,38.894641]}},{"properties":{"city":"Washington","geo_score":0.902,"offensedescription":"OTHER MISDEMEANOR OFFENSE","id":"a6qc7rrpoc4l","geo_precision":"range","address":"500  INDIANA AVENUE NW","state":"D.C."},"type":"Feature","geometry":{"type":"Point","coordinates":[-77.019111,38.894641]}},{"properties":{"city":"Washington","geo_score":0.902,"offensedescription":"OTHER MISDEMEANOR OFFENSE","id":"a6qc7rrw3pu2","geo_precision":"range","address":"500  INDIANA AVENUE NW","state":"D.C."},"type":"Feature","geometry":{"type":"Point","coordinates":[-77.019111,38.894641]}},{"properties":{"city":"Washington","geo_score":0.902,"offensedescription":"OTHER MISDEMEANOR OFFENSE","id":"a6qc7rnocen2","geo_precision":"range","address":"500  INDIANA AVENUE NW","state":"D.C."},"type":"Feature","geometry":{"type":"Point","coordinates":[-77.019111,38.894641]}},{"properties":{"city":"Washington","geo_score":0.902,"offensedescription":"OTHER MISDEMEANOR OFFENSE","id":"a6qc7rr7a02r","geo_precision":"range","address":"500  INDIANA AVENUE NW","state":"D.C."},"type":"Feature","geometry":{"type":"Point","coordinates":[-77.019111,38.894641]}},{"properties":{"city":"Washington","geo_score":0.902,"offensedescription":"OTHER MISDEMEANOR OFFENSE","id":"a6qc7rw96goj","geo_precision":"range","address":"500  INDIANA AVENUE NW","state":"D.C."},"type":"Feature","geometry":{"type":"Point","coordinates":[-77.019111,38.894641]}},{"properties":{"city":"Washington","geo_score":0.902,"offensedescription":"OTHER MISDEMEANOR OFFENSE","id":"a6qc7rytb66x","geo_precision":"range","address":"500  INDIANA AVENUE NW","state":"D.C."},"type":"Feature","geometry":{"type":"Point","coordinates":[-77.019111,38.894641]}},{"properties":{"city":"Washington","geo_score":0.902,"offensedescription":"OTHER MISDEMEANOR OFFENSE","id":"a6qc7rnzcpib","geo_precision":"range","address":"500  INDIANA AVENUE NW","state":"D.C."},"type":"Feature","geometry":{"type":"Point","coordinates":[-77.019111,38.894641]}},{"properties":{"city":"Washington","geo_score":0.902,"offensedescription":"OTHER MISDEMEANOR OFFENSE","id":"a6qc7rwvpd1h","geo_precision":"range","address":"500  INDIANA AVENUE NW","state":"D.C."},"type":"Feature","geometry":{"type":"Point","coordinates":[-77.019111,38.894641]}},{"properties":{"city":"Washington","geo_score":0.902,"offensedescription":"OTHER MISDEMEANOR OFFENSE","id":"a6qc7rpsvq5m","geo_precision":"range","address":"500  INDIANA AVENUE NW","state":"D.C."},"type":"Feature","geometry":{"type":"Point","coordinates":[-77.019111,38.894641]}},{"properties":{"city":"Washington","geo_score":0.902,"offensedescription":"OTHER MISDEMEANOR OFFENSE","id":"a6qc7rwigyl2","geo_precision":"range","address":"500  INDIANA AVENUE NW","state":"D.C."},"type":"Feature","geometry":{"type":"Point","coordinates":[-77.019111,38.894641]}},{"properties":{"city":"Washington","geo_score":0.902,"offensedescription":"OTHER MISDEMEANOR OFFENSE","id":"a6qc7rticzmp","geo_precision":"range","address":"1100  ALLISON STREET NW","state":"D.C."},"type":"Feature","geometry":{"type":"Point","coordinates":[-77.026337,38.94506]}},{"properties":{"city":"Washington","geo_score":0.902,"offensedescription":"OTHER MISDEMEANOR OFFENSE","id":"a6qc7s2lvr2z","geo_precision":"range","address":"500  INDIANA AVENUE NW","state":"D.C."},"type":"Feature","geometry":{"type":"Point","coordinates":[-77.019111,38.894641]}},{"properties":{"city":"Washington","geo_score":0.902,"offensedescription":"OTHER MISDEMEANOR OFFENSE","id":"a6qc7ruh43ua","geo_precision":"range","address":"500  INDIANA AVENUE NW","state":"D.C."},"type":"Feature","geometry":{"type":"Point","coordinates":[-77.019111,38.894641]}},{"properties":{"city":"Washington","geo_score":0.902,"offensedescription":"OTHER MISDEMEANOR OFFENSE","id":"a6qc7rvnuiat","geo_precision":"range","address":"500  INDIANA AVENUE NW","state":"D.C."},"type":"Feature","geometry":{"type":"Point","coordinates":[-77.019111,38.894641]}},{"properties":{"city":"Washington","geo_score":0.902,"offensedescription":"OTHER MISDEMEANOR OFFENSE","id":"a6qc7rtnsivv","geo_precision":"range","address":"500  INDIANA AVENUE NW","state":"D.C."},"type":"Feature","geometry":{"type":"Point","coordinates":[-77.019111,38.894641]}},{"properties":{"city":"Washington","geo_score":0.902,"offensedescription":"OTHER MISDEMEANOR OFFENSE","id":"a6qc7rx1cubm","geo_precision":"range","address":"500  INDIANA AVENUE NW","state":"D.C."},"type":"Feature","geometry":{"type":"Point","coordinates":[-77.019111,38.894641]}},{"properties":{"city":"Washington","geo_score":0.902,"offensedescription":"OTHER MISDEMEANOR OFFENSE","id":"a6qc7rwl63cw","geo_precision":"range","address":"500  INDIANA AVENUE NW","state":"D.C."},"type":"Feature","geometry":{"type":"Point","coordinates":[-77.019111,38.894641]}},{"properties":{"city":"Washington","geo_score":0.902,"offensedescription":"OTHER MISDEMEANOR OFFENSE","id":"a6qc7rrqu9sx","geo_precision":"range","address":"600  H STREET NW","state":"D.C."},"type":"Feature","geometry":{"type":"Point","coordinates":[-77.01991,38.899811]}},{"properties":{"city":"Washington","geo_score":0.902,"offensedescription":"OTHER MISDEMEANOR OFFENSE","id":"a6qc7s298q0m","geo_precision":"range","address":"500  INDIANA AVENUE NW","state":"D.C."},"type":"Feature","geometry":{"type":"Point","coordinates":[-77.019111,38.894641]}},{"properties":{"city":"Washington","geo_score":0.902,"offensedescription":"OTHER MISDEMEANOR OFFENSE","id":"a6qc7s028ajn","geo_precision":"range","address":"500  INDIANA AVENUE NW","state":"D.C."},"type":"Feature","geometry":{"type":"Point","coordinates":[-77.019111,38.894641]}},{"properties":{"city":"Washington","geo_score":0.902,"offensedescription":"OTHER MISDEMEANOR OFFENSE","id":"a6qc7rsto531","geo_precision":"range","address":"500  INDIANA AVENUE NW","state":"D.C."},"type":"Feature","geometry":{"type":"Point","coordinates":[-77.019111,38.894641]}},{"properties":{"city":"Washington","geo_score":0.902,"offensedescription":"OTHER MISDEMEANOR OFFENSE","id":"a6qc7s2qavb3","geo_precision":"range","address":"500  INDIANA AVENUE NW","state":"D.C."},"type":"Feature","geometry":{"type":"Point","coordinates":[-77.019111,38.894641]}},{"properties":{"city":"Washington","geo_score":0.902,"offensedescription":"OTHER MISDEMEANOR OFFENSE","id":"a6qc7s29x3y9","geo_precision":"range","address":"500  INDIANA AVENUE NW","state":"D.C."},"type":"Feature","geometry":{"type":"Point","coordinates":[-77.019111,38.894641]}},{"properties":{"city":"Washington","geo_score":0.902,"offensedescription":"OTHER MISDEMEANOR OFFENSE","id":"a6qc7rph1hvn","geo_precision":"range","address":"1200  G STREET NW","state":"D.C."},"type":"Feature","geometry":{"type":"Point","coordinates":[-77.028078,38.898315]}},{"properties":{"city":"Washington","geo_score":0.829,"offensedescription":"OTHER MISDEMEANOR OFFENSE","id":"a6qc7rr5qigi","geo_precision":"range","address":"3100  14TH STREET NW","state":"D.C."},"type":"Feature","geometry":{"type":"Point","coordinates":[-77.032612,38.928805]}},{"properties":{"city":"Washington","geo_score":0.902,"offensedescription":"OTHER MISDEMEANOR OFFENSE","id":"a6qc7rwes8jd","geo_precision":"range","address":"500  INDIANA AVENUE NW","state":"D.C."},"type":"Feature","geometry":{"type":"Point","coordinates":[-77.019111,38.894641]}},{"properties":{"city":"Washington","geo_score":0.902,"offensedescription":"OTHER MISDEMEANOR OFFENSE","id":"a6qc7rqj1kv8","geo_precision":"range","address":"500  INDIANA AVENUE NW","state":"D.C."},"type":"Feature","geometry":{"type":"Point","coordinates":[-77.019111,38.894641]}},{"properties":{"city":"Washington","geo_score":0.902,"offensedescription":"OTHER MISDEMEANOR OFFENSE","id":"a6qc7rq4ukuy","geo_precision":"range","address":"500  INDIANA AVENUE NW","state":"D.C."},"type":"Feature","geometry":{"type":"Point","coordinates":[-77.019111,38.894641]}},{"properties":{"city":"Washington","geo_score":0.902,"offensedescription":"OTHER MISDEMEANOR OFFENSE","id":"a6qc7rqawlu9","geo_precision":"range","address":"1200  WISCONSIN AVENUE NW","state":"D.C."},"type":"Feature","geometry":{"type":"Point","coordinates":[-77.062811,38.905176]}},{"properties":{"city":"Washington","geo_score":0.902,"offensedescription":"OTHER MISDEMEANOR OFFENSE","id":"a6qc7rpiml7f","geo_precision":"range","address":"500  INDIANA AVENUE NW","state":"D.C."},"type":"Feature","geometry":{"type":"Point","coordinates":[-77.019111,38.894641]}},{"properties":{"city":"Washington","geo_score":0.902,"offensedescription":"OTHER MISDEMEANOR OFFENSE","id":"a6qc7ruokc7t","geo_precision":"range","address":"500  INDIANA AVENUE NW","state":"D.C."},"type":"Feature","geometry":{"type":"Point","coordinates":[-77.019111,38.894641]}},{"properties":{"city":"Washington","geo_score":0.902,"offensedescription":"OTHER MISDEMEANOR OFFENSE","id":"a6qc7rpxetrd","geo_precision":"range","address":"6000  GEORGIA AVENUE NW","state":"D.C."},"type":"Feature","geometry":{"type":"Point","coordinates":[-77.027889,38.9627]}},{"properties":{"city":"Washington","geo_score":0.902,"offensedescription":"OTHER MISDEMEANOR OFFENSE","id":"a6qc7rq0dn99","geo_precision":"range","address":"3300  IDAHO AVENUE NW","state":"D.C."},"type":"Feature","geometry":{"type":"Point","coordinates":[-77.075295,38.933485]}},{"properties":{"city":"Washington","geo_score":0.902,"offensedescription":"OTHER MISDEMEANOR OFFENSE","id":"a6qc7ry8q7up","geo_precision":"range","address":"500  INDIANA AVENUE NW","state":"D.C."},"type":"Feature","geometry":{"type":"Point","coordinates":[-77.019111,38.894641]}},{"properties":{"city":"Washington","geo_score":0.902,"offensedescription":"OTHER MISDEMEANOR OFFENSE","id":"a6qc7rtlc9cw","geo_precision":"range","address":"500  INDIANA AVENUE NW","state":"D.C."},"type":"Feature","geometry":{"type":"Point","coordinates":[-77.019111,38.894641]}},{"properties":{"city":"Washington","geo_score":0.902,"offensedescription":"OTHER MISDEMEANOR OFFENSE","id":"a6qc7rwhw64u","geo_precision":"range","address":"500  INDIANA AVENUE NW","state":"D.C."},"type":"Feature","geometry":{"type":"Point","coordinates":[-77.019111,38.894641]}},{"properties":{"city":"Washington","geo_score":0.902,"offensedescription":"OTHER MISDEMEANOR OFFENSE","id":"a6qc7rqcjto6","geo_precision":"range","address":"500  INDIANA AVENUE NW","state":"D.C."},"type":"Feature","geometry":{"type":"Point","coordinates":[-77.019111,38.894641]}},{"properties":{"city":"Washington","geo_score":0.902,"offensedescription":"OTHER MISDEMEANOR OFFENSE","id":"a6qc7ry94plx","geo_precision":"range","address":"500  INDIANA AVENUE NW","state":"D.C."},"type":"Feature","geometry":{"type":"Point","coordinates":[-77.019111,38.894641]}},{"properties":{"city":"Washington","geo_score":0.902,"offensedescription":"OTHER MISDEMEANOR OFFENSE","id":"a6qc7rqldmt4","geo_precision":"range","address":"500  INDIANA AVENUE NW","state":"D.C."},"type":"Feature","geometry":{"type":"Point","coordinates":[-77.019111,38.894641]}},{"properties":{"city":"Washington","geo_score":0.902,"offensedescription":"OTHER MISDEMEANOR OFFENSE","id":"a6qc7s0lfwcx","geo_precision":"range","address":"500  INDIANA AVENUE NW","state":"D.C."},"type":"Feature","geometry":{"type":"Point","coordinates":[-77.019111,38.894641]}},{"properties":{"city":"Washington","geo_score":0.902,"offensedescription":"OTHER MISDEMEANOR OFFENSE","id":"a6qc7rz3yw9o","geo_precision":"range","address":"500  INDIANA AVENUE NW","state":"D.C."},"type":"Feature","geometry":{"type":"Point","coordinates":[-77.019111,38.894641]}},{"properties":{"city":"Washington","geo_score":0.902,"offensedescription":"OTHER MISDEMEANOR OFFENSE","id":"a6qc7rpcpspb","geo_precision":"range","address":"500  INDIANA AVENUE NW","state":"D.C."},"type":"Feature","geometry":{"type":"Point","coordinates":[-77.019111,38.894641]}},{"properties":{"city":"Washington","geo_score":0.902,"offensedescription":"OTHER MISDEMEANOR OFFENSE","id":"a6qc7rywhghq","geo_precision":"range","address":"500  INDIANA AVENUE NW","state":"D.C."},"type":"Feature","geometry":{"type":"Point","coordinates":[-77.019111,38.894641]}},{"properties":{"city":"Washington","geo_score":0.902,"offensedescription":"OTHER MISDEMEANOR OFFENSE","id":"a6qc7s2pg4xs","geo_precision":"range","address":"500  INDIANA AVENUE NW","state":"D.C."},"type":"Feature","geometry":{"type":"Point","coordinates":[-77.019111,38.894641]}},{"properties":{"city":"Washington","geo_score":0.902,"offensedescription":"OTHER MISDEMEANOR OFFENSE","id":"a6qc7rznl2by","geo_precision":"range","address":"500  INDIANA AVENUE NW","state":"D.C."},"type":"Feature","geometry":{"type":"Point","coordinates":[-77.019111,38.894641]}},{"properties":{"city":"Washington","geo_score":0.902,"offensedescription":"OTHER MISDEMEANOR OFFENSE","id":"a6qc7s118h1r","geo_precision":"range","address":"500  INDIANA AVENUE NW","state":"D.C."},"type":"Feature","geometry":{"type":"Point","coordinates":[-77.019111,38.894641]}},{"properties":{"city":"Washington","geo_score":0.902,"offensedescription":"OTHER MISDEMEANOR OFFENSE","id":"a6qc7rztcvxg","geo_precision":"range","address":"500  INDIANA AVENUE NW","state":"D.C."},"type":"Feature","geometry":{"type":"Point","coordinates":[-77.019111,38.894641]}},{"properties":{"city":"Washington","geo_score":0.902,"offensedescription":"OTHER MISDEMEANOR OFFENSE","id":"a6qc7rzcztdn","geo_precision":"range","address":"500  INDIANA AVENUE NW","state":"D.C."},"type":"Feature","geometry":{"type":"Point","coordinates":[-77.019111,38.894641]}},{"properties":{"city":"Washington","geo_score":0.902,"offensedescription":"OTHER MISDEMEANOR OFFENSE","id":"a6qc7rscsmk0","geo_precision":"range","address":"500  INDIANA AVENUE NW","state":"D.C."},"type":"Feature","geometry":{"type":"Point","coordinates":[-77.019111,38.894641]}},{"properties":{"city":"Washington","geo_score":0.902,"offensedescription":"OTHER MISDEMEANOR OFFENSE","id":"a6qc7rr37ki3","geo_precision":"range","address":"500  INDIANA AVENUE NW","state":"D.C."},"type":"Feature","geometry":{"type":"Point","coordinates":[-77.019111,38.894641]}},{"properties":{"city":"Washington","geo_score":0.902,"offensedescription":"OTHER MISDEMEANOR OFFENSE","id":"a6qc7s1kmwzy","geo_precision":"range","address":"500  INDIANA AVENUE NW","state":"D.C."},"type":"Feature","geometry":{"type":"Point","coordinates":[-77.019111,38.894641]}},{"properties":{"city":"Washington","geo_score":0.902,"offensedescription":"OTHER MISDEMEANOR OFFENSE","id":"a6qc7s3c7tez","geo_precision":"range","address":"500  INDIANA AVENUE NW","state":"D.C."},"type":"Feature","geometry":{"type":"Point","coordinates":[-77.019111,38.894641]}},{"properties":{"city":"Washington","geo_score":0.902,"offensedescription":"OTHER MISDEMEANOR OFFENSE","id":"a6qc7rwaxh9y","geo_precision":"range","address":"500  INDIANA AVENUE NW","state":"D.C."},"type":"Feature","geometry":{"type":"Point","coordinates":[-77.019111,38.894641]}},{"properties":{"city":"Washington","geo_score":0.902,"offensedescription":"OTHER MISDEMEANOR OFFENSE","id":"a6qc7s10qivb","geo_precision":"range","address":"500  INDIANA AVENUE NW","state":"D.C."},"type":"Feature","geometry":{"type":"Point","coordinates":[-77.019111,38.894641]}},{"properties":{"city":"Washington","geo_score":0.902,"offensedescription":"OTHER MISDEMEANOR OFFENSE","id":"a6qc7s39sq8c","geo_precision":"range","address":"500  INDIANA AVENUE NW","state":"D.C."},"type":"Feature","geometry":{"type":"Point","coordinates":[-77.019111,38.894641]}},{"properties":{"city":"Washington","geo_score":0.902,"offensedescription":"OTHER MISDEMEANOR OFFENSE","id":"a6qc7ru6trdl","geo_precision":"range","address":"500  INDIANA AVENUE NW","state":"D.C."},"type":"Feature","geometry":{"type":"Point","coordinates":[-77.019111,38.894641]}},{"properties":{"city":"Washington","geo_score":0.902,"offensedescription":"OTHER MISDEMEANOR OFFENSE","id":"a6qc7rxme4l3","geo_precision":"range","address":"500  INDIANA AVENUE NW","state":"D.C."},"type":"Feature","geometry":{"type":"Point","coordinates":[-77.019111,38.894641]}},{"properties":{"city":"Washington","geo_score":0.902,"offensedescription":"OTHER MISDEMEANOR OFFENSE","id":"a6qc7rt24srb","geo_precision":"range","address":"400  KENYON STREET NW","state":"D.C."},"type":"Feature","geometry":{"type":"Point","coordinates":[-77.015633,38.931028]}},{"properties":{"city":"Washington","geo_score":0.902,"offensedescription":"OTHER MISDEMEANOR OFFENSE","id":"a6qc7rwz4olk","geo_precision":"range","address":"400  KENYON STREET NW","state":"D.C."},"type":"Feature","geometry":{"type":"Point","coordinates":[-77.015633,38.931028]}},{"properties":{"city":"Washington","geo_score":0.902,"offensedescription":"OTHER MISDEMEANOR OFFENSE","id":"a6qc7rnrtngt","geo_precision":"range","address":"1300  CLIFTON STREET NW","state":"D.C."},"type":"Feature","geometry":{"type":"Point","coordinates":[-77.029705,38.922427]}},{"properties":{"city":"Washington","geo_score":0.902,"offensedescription":"OTHER MISDEMEANOR OFFENSE","id":"a6qc7s0e2gbh","geo_precision":"range","address":"400  KENYON STREET NW","state":"D.C."},"type":"Feature","geometry":{"type":"Point","coordinates":[-77.015633,38.931028]}},{"properties":{"city":"Washington","geo_score":0.902,"offensedescription":"OTHER MISDEMEANOR OFFENSE","id":"a6qc7rq6w1w4","geo_precision":"range","address":"500  INDIANA AVENUE NW","state":"D.C."},"type":"Feature","geometry":{"type":"Point","coordinates":[-77.019111,38.894641]}},{"properties":{"city":"Washington","geo_score":0.902,"offensedescription":"OTHER MISDEMEANOR OFFENSE","id":"a6qc7rqx9wco","geo_precision":"range","address":"500  INDIANA AVENUE NW","state":"D.C."},"type":"Feature","geometry":{"type":"Point","coordinates":[-77.019111,38.894641]}},{"properties":{"city":"Washington","geo_score":0.902,"offensedescription":"OTHER MISDEMEANOR OFFENSE","id":"a6qc7rq44o4j","geo_precision":"range","address":"500  INDIANA AVENUE NW","state":"D.C."},"type":"Feature","geometry":{"type":"Point","coordinates":[-77.019111,38.894641]}},{"properties":{"city":"Washington","geo_score":0.902,"offensedescription":"OTHER MISDEMEANOR OFFENSE","id":"a6qc7rw9i861","geo_precision":"range","address":"500  INDIANA AVENUE NW","state":"D.C."},"type":"Feature","geometry":{"type":"Point","coordinates":[-77.019111,38.894641]}},{"properties":{"city":"Washington","geo_score":0.902,"offensedescription":"OTHER MISDEMEANOR OFFENSE","id":"a6qc7s2ak9t1","geo_precision":"range","address":"500  INDIANA AVENUE NW","state":"D.C."},"type":"Feature","geometry":{"type":"Point","coordinates":[-77.019111,38.894641]}},{"properties":{"city":"Washington","geo_score":0.829,"offensedescription":"OTHER MISDEMEANOR OFFENSE","id":"a6qc7rse9c2z","geo_precision":"range","address":"2400  15TH STREET NW","state":"D.C."},"type":"Feature","geometry":{"type":"Point","coordinates":[-77.03517,38.920988]}},{"properties":{"city":"Washington","geo_score":0.902,"offensedescription":"OTHER MISDEMEANOR OFFENSE","id":"a6qc7s16kget","geo_precision":"range","address":"500  INDIANA AVENUE NW","state":"D.C."},"type":"Feature","geometry":{"type":"Point","coordinates":[-77.019111,38.894641]}},{"properties":{"city":"Washington","geo_score":0.902,"offensedescription":"OTHER MISDEMEANOR OFFENSE","id":"a6qc7s3nqry4","geo_precision":"range","address":"500  INDIANA AVENUE NW","state":"D.C."},"type":"Feature","geometry":{"type":"Point","coordinates":[-77.019111,38.894641]}},{"properties":{"city":"Washington","geo_score":0.902,"offensedescription":"OTHER MISDEMEANOR OFFENSE","id":"a6qc7ro8w8ht","geo_precision":"range","address":"500  INDIANA AVENUE NW","state":"D.C."},"type":"Feature","geometry":{"type":"Point","coordinates":[-77.019111,38.894641]}},{"properties":{"city":"Washington","geo_score":0.902,"offensedescription":"OTHER MISDEMEANOR OFFENSE","id":"a6qc7s35ikjy","geo_precision":"range","address":"500  INDIANA AVENUE NW","state":"D.C."},"type":"Feature","geometry":{"type":"Point","coordinates":[-77.019111,38.894641]}},{"properties":{"city":"Washington","geo_score":0.902,"offensedescription":"OTHER MISDEMEANOR OFFENSE","id":"a6qc7ruky5xi","geo_precision":"range","address":"1200  TAYLOR STREET NW","state":"D.C."},"type":"Feature","geometry":{"type":"Point","coordinates":[-77.026725,38.940805]}},{"properties":{"city":"Washington","geo_score":0.902,"offensedescription":"OTHER MISDEMEANOR OFFENSE","id":"a6qc7s2kb1si","geo_precision":"range","address":"500  INDIANA AVENUE NW","state":"D.C."},"type":"Feature","geometry":{"type":"Point","coordinates":[-77.019111,38.894641]}},{"properties":{"city":"Washington","geo_score":0.902,"offensedescription":"OTHER MISDEMEANOR OFFENSE","id":"a6qc7roufjzo","geo_precision":"range","address":"1300  WISCONSIN AVENUE NW","state":"D.C."},"type":"Feature","geometry":{"type":"Point","coordinates":[-77.063036,38.906825]}},{"properties":{"city":"Washington","geo_score":0.902,"offensedescription":"OTHER MISDEMEANOR OFFENSE","id":"a6qc7ry7k3ih","geo_precision":"range","address":"1100  ALLISON STREET NW","state":"D.C."},"type":"Feature","geometry":{"type":"Point","coordinates":[-77.026337,38.94506]}},{"properties":{"city":"Washington","geo_score":0.819,"offensedescription":"OTHER MISDEMEANOR OFFENSE","id":"a6qc7s0xpm0h","geo_precision":"range","address":"700  7TH STREET NW","state":"D.C."},"type":"Feature","geometry":{"type":"Point","coordinates":[-77.021914,38.898446]}},{"properties":{"city":"Washington","geo_score":0.902,"offensedescription":"OTHER MISDEMEANOR OFFENSE","id":"a6qc7roiqa2p","geo_precision":"range","address":"500  INDIANA AVENUE NW","state":"D.C."},"type":"Feature","geometry":{"type":"Point","coordinates":[-77.019111,38.894641]}},{"properties":{"city":"Washington","geo_score":0.902,"offensedescription":"OTHER MISDEMEANOR OFFENSE","id":"a6qc7s41sjob","geo_precision":"range","address":"500  INDIANA AVENUE NW","state":"D.C."},"type":"Feature","geometry":{"type":"Point","coordinates":[-77.019111,38.894641]}},{"properties":{"city":"Washington","geo_score":0.902,"offensedescription":"OTHER MISDEMEANOR OFFENSE","id":"a6qc7rnrebb5","geo_precision":"range","address":"1200  G STREET NW","state":"D.C."},"type":"Feature","geometry":{"type":"Point","coordinates":[-77.028078,38.898315]}},{"properties":{"city":"Washington","geo_score":0.902,"offensedescription":"OTHER MISDEMEANOR OFFENSE","id":"a6qc7rx1q6ro","geo_precision":"range","address":"600  H STREET NW","state":"D.C."},"type":"Feature","geometry":{"type":"Point","coordinates":[-77.01991,38.899811]}},{"properties":{"city":"Washington","geo_score":0.902,"offensedescription":"OTHER MISDEMEANOR OFFENSE","id":"a6qc7rztjkzn","geo_precision":"range","address":"5600  COLORADO AVENUE NW","state":"D.C."},"type":"Feature","geometry":{"type":"Point","coordinates":[-77.032377,38.957282]}},{"properties":{"city":"Washington","geo_score":0.902,"offensedescription":"OTHER MISDEMEANOR OFFENSE","id":"a6qc7rwlyxfh","geo_precision":"range","address":"500  INDIANA AVENUE NW","state":"D.C."},"type":"Feature","geometry":{"type":"Point","coordinates":[-77.019111,38.894641]}},{"properties":{"city":"Washington","geo_score":0.902,"offensedescription":"OTHER MISDEMEANOR OFFENSE","id":"a6qc7s2jwl51","geo_precision":"range","address":"500  INDIANA AVENUE NW","state":"D.C."},"type":"Feature","geometry":{"type":"Point","coordinates":[-77.019111,38.894641]}},{"properties":{"city":"Washington","geo_score":0.902,"offensedescription":"OTHER MISDEMEANOR OFFENSE","id":"a6qc7rnx0l22","geo_precision":"range","address":"500  INDIANA AVENUE NW","state":"D.C."},"type":"Feature","geometry":{"type":"Point","coordinates":[-77.019111,38.894641]}},{"properties":{"city":"Washington","geo_score":0.902,"offensedescription":"OTHER MISDEMEANOR OFFENSE","id":"a6qc7rt5tmye","geo_precision":"range","address":"500  INDIANA AVENUE NW","state":"D.C."},"type":"Feature","geometry":{"type":"Point","coordinates":[-77.019111,38.894641]}},{"properties":{"city":"Washington","geo_score":0.902,"offensedescription":"OTHER MISDEMEANOR OFFENSE","id":"a6qc7rqm6r0p","geo_precision":"range","address":"1000  F STREET NW","state":"D.C."},"type":"Feature","geometry":{"type":"Point","coordinates":[-77.025984,38.897344]}},{"properties":{"city":"Washington","geo_score":0.902,"offensedescription":"OTHER MISDEMEANOR OFFENSE","id":"a6qc7ro3p963","geo_precision":"range","address":"3500  CONNECTICUT AVENUE NW","state":"D.C."},"type":"Feature","geometry":{"type":"Point","coordinates":[-77.058509,38.935566]}},{"properties":{"city":"Washington","geo_score":0.902,"offensedescription":"OTHER MISDEMEANOR OFFENSE","id":"a6qc7rso9iti","geo_precision":"range","address":"500  INDIANA AVENUE NW","state":"D.C."},"type":"Feature","geometry":{"type":"Point","coordinates":[-77.019111,38.894641]}},{"properties":{"city":"Washington","geo_score":0.902,"offensedescription":"OTHER MISDEMEANOR OFFENSE","id":"a6qc7s0fxfos","geo_precision":"range","address":"500  INDIANA AVENUE NW","state":"D.C."},"type":"Feature","geometry":{"type":"Point","coordinates":[-77.019111,38.894641]}},{"properties":{"city":"Washington","geo_score":0.902,"offensedescription":"OTHER MISDEMEANOR OFFENSE","id":"a6qc7ryor8xi","geo_precision":"range","address":"1700  K STREET NW","state":"D.C."},"type":"Feature","geometry":{"type":"Point","coordinates":[-77.03851,38.902522]}},{"properties":{"city":"Washington","geo_score":0.902,"offensedescription":"OTHER MISDEMEANOR OFFENSE","id":"a6qc7s1xjrk0","geo_precision":"range","address":"700  T STREET NW","state":"D.C."},"type":"Feature","geometry":{"type":"Point","coordinates":[-77.021919,38.915572]}},{"properties":{"city":"Washington","geo_score":0.902,"offensedescription":"OTHER MISDEMEANOR OFFENSE","id":"a6qc7rxcocdz","geo_precision":"range","address":"500  INDIANA AVENUE NW","state":"D.C."},"type":"Feature","geometry":{"type":"Point","coordinates":[-77.019111,38.894641]}},{"properties":{"city":"Washington","geo_score":0.902,"offensedescription":"OTHER MISDEMEANOR OFFENSE","id":"a6qc7rwnemo9","geo_precision":"range","address":"500  INDIANA AVENUE NW","state":"D.C."},"type":"Feature","geometry":{"type":"Point","coordinates":[-77.019111,38.894641]}},{"properties":{"city":"Washington","geo_score":0.902,"offensedescription":"OTHER MISDEMEANOR OFFENSE","id":"a6qc7rxbb4cs","geo_precision":"range","address":"4400  IOWA AVENUE NW","state":"D.C."},"type":"Feature","geometry":{"type":"Point","coordinates":[-77.027326,38.943953]}},{"properties":{"city":"Washington","geo_score":0.902,"offensedescription":"OTHER MISDEMEANOR OFFENSE","id":"a6qc7s0vbi3c","geo_precision":"range","address":"500  INDIANA AVENUE NW","state":"D.C."},"type":"Feature","geometry":{"type":"Point","coordinates":[-77.019111,38.894641]}},{"properties":{"city":"Washington","geo_score":0.902,"offensedescription":"OTHER MISDEMEANOR OFFENSE","id":"a6qc7rs7vlxz","geo_precision":"range","address":"1400  R STREET NW","state":"D.C."},"type":"Feature","geometry":{"type":"Point","coordinates":[-77.031953,38.912606]}},{"properties":{"city":"Washington","geo_score":0.902,"offensedescription":"OTHER MISDEMEANOR OFFENSE","id":"a6qc7rywajfs","geo_precision":"range","address":"1400  R STREET NW","state":"D.C."},"type":"Feature","geometry":{"type":"Point","coordinates":[-77.031953,38.912606]}},{"properties":{"city":"Washington","geo_score":0.902,"offensedescription":"OTHER MISDEMEANOR OFFENSE","id":"a6qc7rnre2sf","geo_precision":"range","address":"1200  G STREET NW","state":"D.C."},"type":"Feature","geometry":{"type":"Point","coordinates":[-77.028078,38.898315]}},{"properties":{"city":"Washington","geo_score":0.902,"offensedescription":"OTHER MISDEMEANOR OFFENSE","id":"a6qc7rntwbsr","geo_precision":"range","address":"500  INDIANA AVENUE NW","state":"D.C."},"type":"Feature","geometry":{"type":"Point","coordinates":[-77.019111,38.894641]}},{"properties":{"city":"Washington","geo_score":0.902,"offensedescription":"OTHER MISDEMEANOR OFFENSE","id":"a6qc7rubzkwu","geo_precision":"range","address":"500  INDIANA AVENUE NW","state":"D.C."},"type":"Feature","geometry":{"type":"Point","coordinates":[-77.019111,38.894641]}},{"properties":{"city":"Washington","geo_score":0.805,"offensedescription":"OTHER MISDEMEANOR OFFENSE","id":"a6qc7rq3lqee","geo_precision":"street","address":"4200  WISCONSIN AVENUE NW","state":"D.C."},"type":"Feature","geometry":{"type":"Point","coordinates":[-77.077029,38.943162]}},{"properties":{"city":"Washington","geo_score":0.902,"offensedescription":"OTHER MISDEMEANOR OFFENSE","id":"a6qc7rqvz0jh","geo_precision":"range","address":"1700  COLUMBIA ROAD NW","state":"D.C."},"type":"Feature","geometry":{"type":"Point","coordinates":[-77.039149,38.924945]}},{"properties":{"city":"Washington","geo_score":0.902,"offensedescription":"OTHER MISDEMEANOR OFFENSE","id":"a6qc7s0e29pt","geo_precision":"range","address":"1700  COLUMBIA ROAD NW","state":"D.C."},"type":"Feature","geometry":{"type":"Point","coordinates":[-77.039149,38.924945]}},{"properties":{"city":"Washington","geo_score":0.819,"offensedescription":"OTHER MISDEMEANOR OFFENSE","id":"a6qc7rvz4s8e","geo_precision":"range","address":"700  7TH STREET NW","state":"D.C."},"type":"Feature","geometry":{"type":"Point","coordinates":[-77.021914,38.898446]}},{"properties":{"city":"Washington","geo_score":0.902,"offensedescription":"OTHER MISDEMEANOR OFFENSE","id":"a6qc7rtbuajx","geo_precision":"range","address":"6500  GEORGIA AVENUE NW","state":"D.C."},"type":"Feature","geometry":{"type":"Point","coordinates":[-77.027348,38.968979]}},{"properties":{"city":"Washington","geo_score":0.902,"offensedescription":"OTHER MISDEMEANOR OFFENSE","id":"a6qc7rzhxrek","geo_precision":"range","address":"500  INDIANA AVENUE NW","state":"D.C."},"type":"Feature","geometry":{"type":"Point","coordinates":[-77.019111,38.894641]}},{"properties":{"city":"Washington","geo_score":0.902,"offensedescription":"OTHER MISDEMEANOR OFFENSE","id":"a6qc7rwjuuor","geo_precision":"range","address":"500  INDIANA AVENUE NW","state":"D.C."},"type":"Feature","geometry":{"type":"Point","coordinates":[-77.019111,38.894641]}},{"properties":{"city":"Washington","geo_score":0.902,"offensedescription":"OTHER MISDEMEANOR OFFENSE","id":"a6qc7ro0d4xi","geo_precision":"range","address":"500  INDIANA AVENUE NW","state":"D.C."},"type":"Feature","geometry":{"type":"Point","coordinates":[-77.019111,38.894641]}},{"properties":{"city":"Washington","geo_score":0.902,"offensedescription":"OTHER MISDEMEANOR OFFENSE","id":"a6qc7rxcbv4y","geo_precision":"range","address":"500  INDIANA AVENUE NW","state":"D.C."},"type":"Feature","geometry":{"type":"Point","coordinates":[-77.019111,38.894641]}},{"properties":{"city":"Washington","geo_score":0.902,"offensedescription":"OTHER MISDEMEANOR OFFENSE","id":"a6qc7rw99605","geo_precision":"range","address":"500  INDIANA AVENUE NW","state":"D.C."},"type":"Feature","geometry":{"type":"Point","coordinates":[-77.019111,38.894641]}},{"properties":{"city":"Washington","geo_score":0.829,"offensedescription":"OTHER MISDEMEANOR OFFENSE","id":"a6qc7rnw6efh","geo_precision":"range","address":"3100  14TH STREET NW","state":"D.C."},"type":"Feature","geometry":{"type":"Point","coordinates":[-77.032612,38.928805]}},{"properties":{"city":"Washington","geo_score":0.902,"offensedescription":"OTHER MISDEMEANOR OFFENSE","id":"a6qc7ryzatuj","geo_precision":"range","address":"500  INDIANA AVENUE NW","state":"D.C."},"type":"Feature","geometry":{"type":"Point","coordinates":[-77.019111,38.894641]}},{"properties":{"city":"Washington","geo_score":0.902,"offensedescription":"OTHER MISDEMEANOR OFFENSE","id":"a6qc7s3vcsor","geo_precision":"range","address":"500  INDIANA AVENUE NW","state":"D.C."},"type":"Feature","geometry":{"type":"Point","coordinates":[-77.019111,38.894641]}},{"properties":{"city":"Washington","geo_score":0.75,"offensedescription":"OTHER MISDEMEANOR OFFENSE","id":"a6qc7rs00ixy","geo_precision":"street","address":"14TH STREET NW &amp; FAIRMONT STREET NW","state":"D.C."},"type":"Feature","geometry":{"type":"Point","coordinates":[-77.031962,38.88951]}},{"properties":{"city":"Washington","geo_score":0.902,"offensedescription":"OTHER MISDEMEANOR OFFENSE","id":"a6qc7rverc6r","geo_precision":"range","address":"500  INDIANA AVENUE NW","state":"D.C."},"type":"Feature","geometry":{"type":"Point","coordinates":[-77.019111,38.894641]}},{"properties":{"city":"Washington","geo_score":0.902,"offensedescription":"OTHER MISDEMEANOR OFFENSE","id":"a6qc7rzgxehf","geo_precision":"range","address":"500  INDIANA AVENUE NW","state":"D.C."},"type":"Feature","geometry":{"type":"Point","coordinates":[-77.019111,38.894641]}},{"properties":{"city":"Washington","geo_score":0.902,"offensedescription":"OTHER MISDEMEANOR OFFENSE","id":"a6qc7rqtqmw0","geo_precision":"range","address":"500  INDIANA AVENUE NW","state":"D.C."},"type":"Feature","geometry":{"type":"Point","coordinates":[-77.019111,38.894641]}},{"properties":{"city":"Washington","geo_score":0.819,"offensedescription":"OTHER MISDEMEANOR OFFENSE","id":"a6qc7rzjadvc","geo_precision":"range","address":"1400  7TH STREET NW","state":"D.C."},"type":"Feature","geometry":{"type":"Point","coordinates":[-77.021914,38.90857]}},{"properties":{"city":"Washington","geo_score":0.819,"offensedescription":"OTHER MISDEMEANOR OFFENSE","id":"a6qc7rw14jfy","geo_precision":"range","address":"600  7TH STREET NW","state":"D.C."},"type":"Feature","geometry":{"type":"Point","coordinates":[-77.021915,38.897276]}},{"properties":{"city":"Washington","geo_score":0.902,"offensedescription":"OTHER MISDEMEANOR OFFENSE","id":"a6qc7ryziadp","geo_precision":"range","address":"500  INDIANA AVENUE NW","state":"D.C."},"type":"Feature","geometry":{"type":"Point","coordinates":[-77.019111,38.894641]}},{"properties":{"city":"Washington","geo_score":0.902,"offensedescription":"OTHER MISDEMEANOR OFFENSE","id":"a6qc7s3eo4se","geo_precision":"range","address":"500  INDIANA AVENUE NW","state":"D.C."},"type":"Feature","geometry":{"type":"Point","coordinates":[-77.019111,38.894641]}},{"properties":{"city":"Washington","geo_score":0.902,"offensedescription":"OTHER MISDEMEANOR OFFENSE","id":"a6qc7ru3s7mu","geo_precision":"range","address":"500  INDIANA AVENUE NW","state":"D.C."},"type":"Feature","geometry":{"type":"Point","coordinates":[-77.019111,38.894641]}},{"properties":{"city":"Washington","geo_score":0.819,"offensedescription":"OTHER MISDEMEANOR OFFENSE","id":"a6qc7s3zu2u8","geo_precision":"range","address":"600  7TH STREET NW","state":"D.C."},"type":"Feature","geometry":{"type":"Point","coordinates":[-77.021915,38.897276]}},{"properties":{"city":"Washington","geo_score":0.902,"offensedescription":"OTHER MISDEMEANOR OFFENSE","id":"a6qc7rvmxiln","geo_precision":"range","address":"500  INDIANA AVENUE NW","state":"D.C."},"type":"Feature","geometry":{"type":"Point","coordinates":[-77.019111,38.894641]}},{"properties":{"city":"Washington","geo_score":0.902,"offensedescription":"OTHER MISDEMEANOR OFFENSE","id":"a6qc7rxh3zun","geo_precision":"range","address":"500  INDIANA AVENUE NW","state":"D.C."},"type":"Feature","geometry":{"type":"Point","coordinates":[-77.019111,38.894641]}},{"properties":{"city":"Washington","geo_score":0.844,"offensedescription":"OTHER MISDEMEANOR OFFENSE","id":"a6qc7rnkw3cj","geo_precision":"range","address":"200  W STREET NW","state":"D.C."},"type":"Feature","geometry":{"type":"Point","coordinates":[-77.013655,38.907233]}},{"properties":{"city":"Washington","geo_score":0.902,"offensedescription":"OTHER MISDEMEANOR OFFENSE","id":"a6qc7rnsuekm","geo_precision":"range","address":"4200  ILLINOIS AVENUE NW","state":"D.C."},"type":"Feature","geometry":{"type":"Point","coordinates":[-77.018719,38.942327]}},{"properties":{"city":"Washington","geo_score":0.902,"offensedescription":"OTHER MISDEMEANOR OFFENSE","id":"a6qc7rs155we","geo_precision":"range","address":"4200  ILLINOIS AVENUE NW","state":"D.C."},"type":"Feature","geometry":{"type":"Point","coordinates":[-77.018719,38.942327]}},{"properties":{"city":"Washington","geo_score":0.902,"offensedescription":"OTHER MISDEMEANOR OFFENSE","id":"a6qc7rqh8e29","geo_precision":"range","address":"500  INDIANA AVENUE NW","state":"D.C."},"type":"Feature","geometry":{"type":"Point","coordinates":[-77.019111,38.894641]}},{"properties":{"city":"Washington","geo_score":0.902,"offensedescription":"OTHER MISDEMEANOR OFFENSE","id":"a6qc7s1q8yu5","geo_precision":"range","address":"500  INDIANA AVENUE NW","state":"D.C."},"type":"Feature","geometry":{"type":"Point","coordinates":[-77.019111,38.894641]}},{"properties":{"city":"Washington","geo_score":0.902,"offensedescription":"OTHER MISDEMEANOR OFFENSE","id":"a6qc7s3b28pr","geo_precision":"range","address":"500  INDIANA AVENUE NW","state":"D.C."},"type":"Feature","geometry":{"type":"Point","coordinates":[-77.019111,38.894641]}},{"properties":{"city":"Washington","geo_score":0.902,"offensedescription":"OTHER MISDEMEANOR OFFENSE","id":"a6qc7s307sdp","geo_precision":"range","address":"500  INDIANA AVENUE NW","state":"D.C."},"type":"Feature","geometry":{"type":"Point","coordinates":[-77.019111,38.894641]}},{"properties":{"city":"Washington","geo_score":0.902,"offensedescription":"OTHER MISDEMEANOR OFFENSE","id":"a6qc7s1qhnkq","geo_precision":"range","address":"600  H STREET NW","state":"D.C."},"type":"Feature","geometry":{"type":"Point","coordinates":[-77.01991,38.899811]}},{"properties":{"city":"Washington","geo_score":0.902,"offensedescription":"OTHER MISDEMEANOR OFFENSE","id":"a6qc7rrdfho3","geo_precision":"range","address":"500  INDIANA AVENUE NW","state":"D.C."},"type":"Feature","geometry":{"type":"Point","coordinates":[-77.019111,38.894641]}},{"properties":{"city":"Washington","geo_score":0.819,"offensedescription":"OTHER MISDEMEANOR OFFENSE","id":"a6qc7rrqa4uy","geo_precision":"range","address":"600  7TH STREET NW","state":"D.C."},"type":"Feature","geometry":{"type":"Point","coordinates":[-77.021915,38.897276]}},{"properties":{"city":"Washington","geo_score":0.829,"offensedescription":"OTHER MISDEMEANOR OFFENSE","id":"a6qc7s0l2e98","geo_precision":"range","address":"700  12TH STREET NW","state":"D.C."},"type":"Feature","geometry":{"type":"Point","coordinates":[-77.028078,38.898315]}},{"properties":{"city":"Washington","geo_score":0.902,"offensedescription":"OTHER MISDEMEANOR OFFENSE","id":"a6qc7rnlv67o","geo_precision":"range","address":"500  INDIANA AVENUE NW","state":"D.C."},"type":"Feature","geometry":{"type":"Point","coordinates":[-77.019111,38.894641]}},{"properties":{"city":"Washington","geo_score":0.819,"offensedescription":"OTHER MISDEMEANOR OFFENSE","id":"a6qc7s15odhw","geo_precision":"range","address":"4800  8TH STREET NW","state":"D.C."},"type":"Feature","geometry":{"type":"Point","coordinates":[-77.023654,38.948347]}},{"properties":{"city":"Washington","geo_score":0.902,"offensedescription":"OTHER MISDEMEANOR OFFENSE","id":"a6qc7s1qvold","geo_precision":"range","address":"500  INDIANA AVENUE NW","state":"D.C."},"type":"Feature","geometry":{"type":"Point","coordinates":[-77.019111,38.894641]}},{"properties":{"city":"Washington","geo_score":0.819,"offensedescription":"OTHER MISDEMEANOR OFFENSE","id":"a6qc7rvof1fv","geo_precision":"range","address":"6300  5TH STREET NW","state":"D.C."},"type":"Feature","geometry":{"type":"Point","coordinates":[-77.019899,38.966135]}},{"properties":{"city":"Washington","geo_score":0.902,"offensedescription":"OTHER MISDEMEANOR OFFENSE","id":"a6qc7s1305rj","geo_precision":"range","address":"500  INDIANA AVENUE NW","state":"D.C."},"type":"Feature","geometry":{"type":"Point","coordinates":[-77.019111,38.894641]}},{"properties":{"city":"Washington","geo_score":0.902,"offensedescription":"OTHER MISDEMEANOR OFFENSE","id":"a6qc7s3xase0","geo_precision":"range","address":"500  INDIANA AVENUE NW","state":"D.C."},"type":"Feature","geometry":{"type":"Point","coordinates":[-77.019111,38.894641]}},{"properties":{"city":"Washington","geo_score":0.902,"offensedescription":"OTHER MISDEMEANOR OFFENSE","id":"a6qc7s35szge","geo_precision":"range","address":"500  INDIANA AVENUE NW","state":"D.C."},"type":"Feature","geometry":{"type":"Point","coordinates":[-77.019111,38.894641]}},{"properties":{"city":"Washington","geo_score":0.902,"offensedescription":"OTHER MISDEMEANOR OFFENSE","id":"a6qc7ruz8f5e","geo_precision":"range","address":"4400  IOWA AVENUE NW","state":"D.C."},"type":"Feature","geometry":{"type":"Point","coordinates":[-77.027326,38.943953]}},{"properties":{"city":"Washington","geo_score":0.902,"offensedescription":"OTHER WEAPONS OFFENSE","id":"a6qc7rvug4ap","geo_precision":"range","address":"1400  GIRARD STREET NW","state":"D.C."},"type":"Feature","geometry":{"type":"Point","coordinates":[-77.032316,38.925502]}},{"properties":{"city":"Washington","geo_score":0.902,"offensedescription":"POSSESSION OF PROHIBITED WEAPONS (B)","id":"a6qc7s37m9v8","geo_precision":"range","address":"1400  GIRARD STREET NW","state":"D.C."},"type":"Feature","geometry":{"type":"Point","coordinates":[-77.032316,38.925502]}},{"properties":{"city":"Washington","geo_score":0.902,"offensedescription":"POSSESSION OF PROHIBITED WEAPONS (B)","id":"a6qc7s03vbp5","geo_precision":"range","address":"600  H STREET NW","state":"D.C."},"type":"Feature","geometry":{"type":"Point","coordinates":[-77.01991,38.899811]}},{"properties":{"city":"Washington","geo_score":0.819,"offensedescription":"POSSESSION OF PROHIBITED WEAPONS (B)","id":"a6qc7ro9lmei","geo_precision":"range","address":"600  7TH STREET NW","state":"D.C."},"type":"Feature","geometry":{"type":"Point","coordinates":[-77.021915,38.897276]}},{"properties":{"city":"Washington","geo_score":0.857,"offensedescription":"PROSTITUTION (SEXUAL SOLICITATION)","id":"a6qc7rznjxvf","geo_precision":"street","address":"1ST STREET NW &amp; K STREET NW","state":"D.C."},"type":"Feature","geometry":{"type":"Point","coordinates":[-77.009846,38.902515]}},{"properties":{"city":"Washington","geo_score":0.857,"offensedescription":"PROSTITUTION (SEXUAL SOLICITATION)","id":"a6qc7s0x8i4d","geo_precision":"street","address":"11TH STREET NW &amp; K STREET NW","state":"D.C."},"type":"Feature","geometry":{"type":"Point","coordinates":[-77.009846,38.902515]}},{"properties":{"city":"Washington","geo_score":0.902,"offensedescription":"RECEIVING STOLEN GOODS -- $100 &amp; OVER","id":"a6qc7rofx1iw","geo_precision":"range","address":"600  H STREET NW","state":"D.C."},"type":"Feature","geometry":{"type":"Point","coordinates":[-77.01991,38.899811]}},{"properties":{"city":"Washington","geo_score":0.78,"offensedescription":"RECEIVING STOLEN GOODS -- $100 &amp; OVER","id":"a6qc7rt2tcn8","geo_precision":"street","address":"400  S STREET NW","state":"D.C."},"type":"Feature","geometry":{"type":"Point","coordinates":[-77.017066,38.914207]}},{"properties":{"city":"Washington","geo_score":0.78,"offensedescription":"RECEIVING STOLEN GOODS -- $100 &amp; OVER","id":"a6qc7rxzyp9z","geo_precision":"street","address":"400  S STREET NW","state":"D.C."},"type":"Feature","geometry":{"type":"Point","coordinates":[-77.017066,38.914207]}},{"properties":{"city":"Washington","geo_score":0.819,"offensedescription":"RECEIVING STOLEN GOODS -- $100 &amp; OVER","id":"a6qc7s00dng1","geo_precision":"range","address":"4800  7TH STREET NW","state":"D.C."},"type":"Feature","geometry":{"type":"Point","coordinates":[-77.021934,38.948398]}},{"properties":{"city":"Washington","geo_score":0.902,"offensedescription":"RECEIVING STOLEN GOODS -- $100 &amp; OVER","id":"a6qc7s3cnl4i","geo_precision":"range","address":"4000  ALBEMARLE STREET NW","state":"D.C."},"type":"Feature","geometry":{"type":"Point","coordinates":[-77.078521,38.947901]}},{"properties":{"city":"Washington","geo_score":0.902,"offensedescription":"RECEIVING STOLEN GOODS -- $100 &amp; OVER","id":"a6qc7s13i0fw","geo_precision":"range","address":"800  DECATUR STREET NW","state":"D.C."},"type":"Feature","geometry":{"type":"Point","coordinates":[-77.023654,38.948347]}},{"properties":{"city":"Washington","geo_score":0.819,"offensedescription":"RECEIVING STOLEN GOODS -- $100 &amp; OVER","id":"a6qc7s0fiege","geo_precision":"range","address":"4800  7TH STREET NW","state":"D.C."},"type":"Feature","geometry":{"type":"Point","coordinates":[-77.021934,38.948398]}},{"properties":{"city":"Washington","geo_score":0.829,"offensedescription":"RECEIVING STOLEN GOODS -- $100 &amp; OVER","id":"a6qc7s2xxum0","geo_precision":"range","address":"700  12TH STREET NW","state":"D.C."},"type":"Feature","geometry":{"type":"Point","coordinates":[-77.028078,38.898315]}},{"properties":{"city":"Washington","geo_score":0.902,"offensedescription":"RECEIVING STOLEN GOODS -- $100 &amp; OVER","id":"a6qc7ru222j7","geo_precision":"range","address":"3800  VAN NESS STREET NW","state":"D.C."},"type":"Feature","geometry":{"type":"Point","coordinates":[-77.074604,38.943166]}},{"properties":{"city":"Washington","geo_score":0.829,"offensedescription":"RECEIVING STOLEN GOODS -- $100 &amp; OVER","id":"a6qc7rrmzlft","geo_precision":"range","address":"2700  13TH STREET NW","state":"D.C."},"type":"Feature","geometry":{"type":"Point","coordinates":[-77.02971,38.924755]}},{"properties":{"city":"Washington","geo_score":0.829,"offensedescription":"RECEIVING STOLEN GOODS -- $100 &amp; OVER","id":"a6qc7rtt3ujb","geo_precision":"range","address":"3100  14TH STREET NW","state":"D.C."},"type":"Feature","geometry":{"type":"Point","coordinates":[-77.032612,38.928805]}},{"properties":{"city":"Washington","geo_score":0.819,"offensedescription":"RECEIVING STOLEN GOODS -- $100 &amp; OVER","id":"a6qc7rwua2wy","geo_precision":"range","address":"4800  7TH STREET NW","state":"D.C."},"type":"Feature","geometry":{"type":"Point","coordinates":[-77.021934,38.948398]}},{"properties":{"city":"Washington","geo_score":0.805,"offensedescription":"RECEIVING STOLEN GOODS -- $100 &amp; OVER","id":"a6qc7ru2k1uy","geo_precision":"street","address":"300  CEDAR STREET NW","state":"D.C."},"type":"Feature","geometry":{"type":"Point","coordinates":[-77.016059,38.975752]}},{"properties":{"city":"Washington","geo_score":0.902,"offensedescription":"ROBBERY -- FORCE &amp; VIOLENCE","id":"a6qc7s03pcvr","geo_precision":"range","address":"3400  GEORGIA AVENUE NW","state":"D.C."},"type":"Feature","geometry":{"type":"Point","coordinates":[-77.023662,38.932038]}},{"properties":{"city":"Washington","geo_score":0.805,"offensedescription":"ROBBERY -- FORCE &amp; VIOLENCE","id":"a6qc7rnsvyu4","geo_precision":"street","address":"700  M STREET NW","state":"D.C."},"type":"Feature","geometry":{"type":"Point","coordinates":[-77.021914,38.905643]}},{"properties":{"city":"Washington","geo_score":0.902,"offensedescription":"ROBBERY -- FORCE &amp; VIOLENCE","id":"a6qc7s3dfxil","geo_precision":"range","address":"100  M STREET NW","state":"D.C."},"type":"Feature","geometry":{"type":"Point","coordinates":[-77.012171,38.905645]}},{"properties":{"city":"Washington","geo_score":0.902,"offensedescription":"ROBBERY -- FORCE &amp; VIOLENCE","id":"a6qc7s0aw6eh","geo_precision":"range","address":"100  M STREET NW","state":"D.C."},"type":"Feature","geometry":{"type":"Point","coordinates":[-77.012171,38.905645]}},{"properties":{"city":"Washington","geo_score":0.829,"offensedescription":"ROBBERY -- FORCE &amp; VIOLENCE","id":"a6qc7rnxcdht","geo_precision":"range","address":"3100  14TH STREET NW","state":"D.C."},"type":"Feature","geometry":{"type":"Point","coordinates":[-77.032612,38.928805]}},{"properties":{"city":"Washington","geo_score":0.829,"offensedescription":"ROBBERY -- FORCE &amp; VIOLENCE","id":"a6qc7ryutm4d","geo_precision":"range","address":"1300  14TH STREET NW","state":"D.C."},"type":"Feature","geometry":{"type":"Point","coordinates":[-77.03195,38.907239]}},{"properties":{"city":"Washington","geo_score":0.829,"offensedescription":"ROBBERY -- PURSESNATCH (FORCE) $100 &amp; OVER","id":"a6qc7rsoik0d","geo_precision":"range","address":"3100  14TH STREET NW","state":"D.C."},"type":"Feature","geometry":{"type":"Point","coordinates":[-77.032612,38.928805]}},{"properties":{"city":"Washington","geo_score":0.829,"offensedescription":"ROBBERY -- PURSESNATCH (FORCE) $100 &amp; OVER","id":"a6qc7s05rpoe","geo_precision":"range","address":"700  12TH STREET NW","state":"D.C."},"type":"Feature","geometry":{"type":"Point","coordinates":[-77.028078,38.898315]}},{"properties":{"city":"Washington","geo_score":0.902,"offensedescription":"ROBBERY -- PURSESNATCH (FORCE) $100 &amp; OVER","id":"a6qc7s2zlrrs","geo_precision":"range","address":"4000  ALBEMARLE STREET NW","state":"D.C."},"type":"Feature","geometry":{"type":"Point","coordinates":[-77.078521,38.947901]}},{"properties":{"city":"Washington","geo_score":0.735,"offensedescription":"ROBBERY -- PURSESNATCH (FORCE) $100 &amp; OVER","id":"a6qc7rocang5","geo_precision":"street","address":"9TH STREET NW &amp; DECATUR STREET NW","state":"D.C."},"type":"Feature","geometry":{"type":"Point","coordinates":[-77.023975,38.893876]}},{"properties":{"city":"Washington","geo_score":0.902,"offensedescription":"ROBBERY -- PURSESNATCH (FORCE) $100 &amp; OVER","id":"a6qc7rwwflbz","geo_precision":"range","address":"600  H STREET NW","state":"D.C."},"type":"Feature","geometry":{"type":"Point","coordinates":[-77.01991,38.899811]}},{"properties":{"city":"Washington","geo_score":0.902,"offensedescription":"ROBBERY/ATTEMPT TO COMMIT ROBBERY","id":"a6qc7rw3y7sz","geo_precision":"range","address":"900  K STREET NW","state":"D.C."},"type":"Feature","geometry":{"type":"Point","coordinates":[-77.024016,38.902522]}},{"properties":{"city":"Washington","geo_score":0.902,"offensedescription":"ROBBERY/ATTEMPT TO COMMIT ROBBERY","id":"a6qc7rqr3jow","geo_precision":"range","address":"900  K STREET NW","state":"D.C."},"type":"Feature","geometry":{"type":"Point","coordinates":[-77.024016,38.902522]}},{"properties":{"city":"Washington","geo_score":0.902,"offensedescription":"SECOND DEGREE BURGLARY (ARMED OR OTHERWISE)","id":"a6qc7rygl9s8","geo_precision":"range","address":"4200  ILLINOIS AVENUE NW","state":"D.C."},"type":"Feature","geometry":{"type":"Point","coordinates":[-77.018719,38.942327]}},{"properties":{"city":"Washington","geo_score":0.902,"offensedescription":"SECOND DEGREE BURGLARY (ARMED OR OTHERWISE)","id":"a6qc7rojot65","geo_precision":"range","address":"4200  ILLINOIS AVENUE NW","state":"D.C."},"type":"Feature","geometry":{"type":"Point","coordinates":[-77.018719,38.942327]}},{"properties":{"city":"Washington","geo_score":0.902,"offensedescription":"SHOPLIFTING","id":"a6qc7s2z2pd5","geo_precision":"range","address":"1200  G STREET NW","state":"D.C."},"type":"Feature","geometry":{"type":"Point","coordinates":[-77.028078,38.898315]}},{"properties":{"city":"Washington","geo_score":0.902,"offensedescription":"SHOPLIFTING","id":"a6qc7ryeewps","geo_precision":"range","address":"1200  G STREET NW","state":"D.C."},"type":"Feature","geometry":{"type":"Point","coordinates":[-77.028078,38.898315]}},{"properties":{"city":"Washington","geo_score":0.902,"offensedescription":"SHOPLIFTING","id":"a6qc7s3q03d9","geo_precision":"range","address":"1200  G STREET NW","state":"D.C."},"type":"Feature","geometry":{"type":"Point","coordinates":[-77.028078,38.898315]}},{"properties":{"city":"Washington","geo_score":0.902,"offensedescription":"SHOPLIFTING","id":"a6qc7rxurrtm","geo_precision":"range","address":"1200  G STREET NW","state":"D.C."},"type":"Feature","geometry":{"type":"Point","coordinates":[-77.028078,38.898315]}},{"properties":{"city":"Washington","geo_score":0.829,"offensedescription":"SHOPLIFTING","id":"a6qc7rzfg64h","geo_precision":"range","address":"3000  14TH STREET NW","state":"D.C."},"type":"Feature","geometry":{"type":"Point","coordinates":[-77.032454,38.927541]}},{"properties":{"city":"Washington","geo_score":0.902,"offensedescription":"SHOPLIFTING","id":"a6qc7ryfe7lp","geo_precision":"range","address":"1200  G STREET NW","state":"D.C."},"type":"Feature","geometry":{"type":"Point","coordinates":[-77.028078,38.898315]}},{"properties":{"city":"Washington","geo_score":0.902,"offensedescription":"SHOPLIFTING","id":"a6qc7ro089oo","geo_precision":"range","address":"1200  G STREET NW","state":"D.C."},"type":"Feature","geometry":{"type":"Point","coordinates":[-77.028078,38.898315]}},{"properties":{"city":"Washington","geo_score":0.902,"offensedescription":"SHOPLIFTING","id":"a6qc7ryx54o0","geo_precision":"range","address":"1200  G STREET NW","state":"D.C."},"type":"Feature","geometry":{"type":"Point","coordinates":[-77.028078,38.898315]}},{"properties":{"city":"Washington","geo_score":0.819,"offensedescription":"THEFT 1ST DEGREE","id":"a6qc7rowdgt5","geo_precision":"range","address":"600  7TH STREET NW","state":"D.C."},"type":"Feature","geometry":{"type":"Point","coordinates":[-77.021915,38.897276]}},{"properties":{"city":"Washington","geo_score":0.829,"offensedescription":"THEFT 1ST DEGREE","id":"a6qc7roayt2k","geo_precision":"range","address":"700  12TH STREET NW","state":"D.C."},"type":"Feature","geometry":{"type":"Point","coordinates":[-77.028078,38.898315]}},{"properties":{"city":"Washington","geo_score":0.829,"offensedescription":"THEFT 1ST DEGREE","id":"a6qc7ry9jrou","geo_precision":"range","address":"3100  14TH STREET NW","state":"D.C."},"type":"Feature","geometry":{"type":"Point","coordinates":[-77.032612,38.928805]}},{"properties":{"city":"Washington","geo_score":0.819,"offensedescription":"THEFT 1ST DEGREE","id":"a6qc7rzdo10p","geo_precision":"range","address":"4800  7TH STREET NW","state":"D.C."},"type":"Feature","geometry":{"type":"Point","coordinates":[-77.021934,38.948398]}},{"properties":{"city":"Washington","geo_score":0.902,"offensedescription":"THEFT 1ST DEGREE","id":"a6qc7rxu5ubw","geo_precision":"range","address":"1200  G STREET NW","state":"D.C."},"type":"Feature","geometry":{"type":"Point","coordinates":[-77.028078,38.898315]}},{"properties":{"city":"Washington","geo_score":0.902,"offensedescription":"THEFT 1ST DEGREE","id":"a6qc7rqa6dwq","geo_precision":"range","address":"5300  WISCONSIN AVENUE NW","state":"D.C."},"type":"Feature","geometry":{"type":"Point","coordinates":[-77.084846,38.959041]}},{"properties":{"city":"Washington","geo_score":0.829,"offensedescription":"THEFT 1ST DEGREE","id":"a6qc7rxmylnr","geo_precision":"range","address":"3400  14TH STREET NW","state":"D.C."},"type":"Feature","geometry":{"type":"Point","coordinates":[-77.032719,38.931129]}},{"properties":{"city":"Washington","geo_score":0.902,"offensedescription":"THEFT 1ST DEGREE","id":"a6qc7rz70193","geo_precision":"range","address":"1400  NEW YORK AVENUE NW","state":"D.C."},"type":"Feature","geometry":{"type":"Point","coordinates":[-77.031951,38.899393]}},{"properties":{"city":"Washington","geo_score":0.829,"offensedescription":"THEFT 1ST DEGREE","id":"a6qc7s217ebr","geo_precision":"range","address":"3100  14TH STREET NW","state":"D.C."},"type":"Feature","geometry":{"type":"Point","coordinates":[-77.032612,38.928805]}},{"properties":{"city":"Washington","geo_score":0.819,"offensedescription":"THEFT 1ST DEGREE","id":"a6qc7rqsju4y","geo_precision":"range","address":"4800  7TH STREET NW","state":"D.C."},"type":"Feature","geometry":{"type":"Point","coordinates":[-77.021934,38.948398]}},{"properties":{"city":"Washington","geo_score":0.819,"offensedescription":"THEFT 1ST DEGREE","id":"a6qc7rq9wewr","geo_precision":"range","address":"4800  7TH STREET NW","state":"D.C."},"type":"Feature","geometry":{"type":"Point","coordinates":[-77.021934,38.948398]}},{"properties":{"city":"Washington","geo_score":0.902,"offensedescription":"THEFT 1ST DEGREE","id":"a6qc7rxgdgim","geo_precision":"range","address":"5300  WISCONSIN AVENUE NW","state":"D.C."},"type":"Feature","geometry":{"type":"Point","coordinates":[-77.084846,38.959041]}},{"properties":{"city":"Washington","geo_score":0.819,"offensedescription":"THEFT 2ND DEGREE","id":"a6qc7rpauvh2","geo_precision":"range","address":"1100  7TH STREET NW","state":"D.C."},"type":"Feature","geometry":{"type":"Point","coordinates":[-77.021914,38.904168]}},{"properties":{"city":"Washington","geo_score":0.829,"offensedescription":"THEFT 2ND DEGREE","id":"a6qc7s0v9pzf","geo_precision":"range","address":"3100  14TH STREET NW","state":"D.C."},"type":"Feature","geometry":{"type":"Point","coordinates":[-77.032612,38.928805]}},{"properties":{"city":"Washington","geo_score":0.902,"offensedescription":"THEFT 2ND DEGREE","id":"a6qc7s2wr7km","geo_precision":"range","address":"1000  F STREET NW","state":"D.C."},"type":"Feature","geometry":{"type":"Point","coordinates":[-77.025984,38.897344]}},{"properties":{"city":"Washington","geo_score":0.902,"offensedescription":"THEFT 2ND DEGREE","id":"a6qc7rxxkyuz","geo_precision":"range","address":"1200  G STREET NW","state":"D.C."},"type":"Feature","geometry":{"type":"Point","coordinates":[-77.028078,38.898315]}},{"properties":{"city":"Washington","geo_score":0.829,"offensedescription":"THEFT 2ND DEGREE","id":"a6qc7robswcn","geo_precision":"range","address":"3100  14TH STREET NW","state":"D.C."},"type":"Feature","geometry":{"type":"Point","coordinates":[-77.032612,38.928805]}},{"properties":{"city":"Washington","geo_score":0.902,"offensedescription":"THEFT 2ND DEGREE","id":"a6qc7s2orfv8","geo_precision":"range","address":"1200  G STREET NW","state":"D.C."},"type":"Feature","geometry":{"type":"Point","coordinates":[-77.028078,38.898315]}},{"properties":{"city":"Washington","geo_score":0.902,"offensedescription":"THEFT 2ND DEGREE","id":"a6qc7rtig60s","geo_precision":"range","address":"3000  M STREET NW","state":"D.C."},"type":"Feature","geometry":{"type":"Point","coordinates":[-77.059168,38.905218]}},{"properties":{"city":"Washington","geo_score":0.819,"offensedescription":"THEFT 2ND DEGREE","id":"a6qc7rul14km","geo_precision":"range","address":"1100  7TH STREET NW","state":"D.C."},"type":"Feature","geometry":{"type":"Point","coordinates":[-77.021914,38.904168]}},{"properties":{"city":"Washington","geo_score":0.819,"offensedescription":"THEFT 2ND DEGREE","id":"a6qc7rx7hb0k","geo_precision":"range","address":"1800  7TH STREET NW","state":"D.C."},"type":"Feature","geometry":{"type":"Point","coordinates":[-77.021915,38.914088]}},{"properties":{"city":"Washington","geo_score":0.819,"offensedescription":"THEFT 2ND DEGREE","id":"a6qc7s29088l","geo_precision":"range","address":"700  7TH STREET NW","state":"D.C."},"type":"Feature","geometry":{"type":"Point","coordinates":[-77.021914,38.898446]}},{"properties":{"city":"Washington","geo_score":0.902,"offensedescription":"THEFT 2ND DEGREE","id":"a6qc7ryjy89d","geo_precision":"range","address":"1700  NEWTON STREET NW","state":"D.C."},"type":"Feature","geometry":{"type":"Point","coordinates":[-77.038817,38.934185]}},{"properties":{"city":"Washington","geo_score":0.829,"offensedescription":"THEFT 2ND DEGREE","id":"a6qc7rpmuvyx","geo_precision":"range","address":"3100  14TH STREET NW","state":"D.C."},"type":"Feature","geometry":{"type":"Point","coordinates":[-77.032612,38.928805]}},{"properties":{"city":"Washington","geo_score":0.829,"offensedescription":"THEFT 2ND DEGREE","id":"a6qc7rrjq9fv","geo_precision":"range","address":"3100  14TH STREET NW","state":"D.C."},"type":"Feature","geometry":{"type":"Point","coordinates":[-77.032612,38.928805]}},{"properties":{"city":"Washington","geo_score":0.902,"offensedescription":"THEFT 2ND DEGREE","id":"a6qc7rv5cjpe","geo_precision":"range","address":"5200  WESTERN AVENUE NW","state":"D.C."},"type":"Feature","geometry":{"type":"Point","coordinates":[-77.090522,38.957038]}},{"properties":{"city":"Washington","geo_score":0.829,"offensedescription":"THEFT 2ND DEGREE","id":"a6qc7rpaul55","geo_precision":"range","address":"3100  14TH STREET NW","state":"D.C."},"type":"Feature","geometry":{"type":"Point","coordinates":[-77.032612,38.928805]}},{"properties":{"city":"Washington","geo_score":0.902,"offensedescription":"THEFT FROM AUTO II","id":"a6qc7rpcpwfw","geo_precision":"range","address":"500  KENNEDY STREET NW","state":"D.C."},"type":"Feature","geometry":{"type":"Point","coordinates":[-77.019887,38.956449]}},{"properties":{"city":"Washington","geo_score":0.902,"offensedescription":"THEFT FROM AUTO II","id":"a6qc7rxf6lem","geo_precision":"range","address":"500  KENNEDY STREET NW","state":"D.C."},"type":"Feature","geometry":{"type":"Point","coordinates":[-77.019887,38.956449]}},{"properties":{"city":"Washington","geo_score":0.829,"offensedescription":"UCSA POSSESSION DRUG PARAPHERNALIA","id":"a6qc7rnmbm06","geo_precision":"range","address":"2800  29TH PLACE NW","state":"D.C."},"type":"Feature","geometry":{"type":"Point","coordinates":[-77.058478,38.924611]}},{"properties":{"city":"Washington","geo_score":0.829,"offensedescription":"UCSA POSSESSION DRUG PARAPHERNALIA","id":"a6qc7s17mvrk","geo_precision":"range","address":"2800  29TH PLACE NW","state":"D.C."},"type":"Feature","geometry":{"type":"Point","coordinates":[-77.058478,38.924611]}},{"properties":{"city":"Washington","geo_score":0.829,"offensedescription":"UCSA POSSESSION DRUG PARAPHERNALIA","id":"a6qc7rp4cbmp","geo_precision":"range","address":"2800  29TH PLACE NW","state":"D.C."},"type":"Feature","geometry":{"type":"Point","coordinates":[-77.058478,38.924611]}},{"properties":{"city":"Washington","geo_score":0.902,"offensedescription":"UNAUTHORIZED USE OF VEHICLE (DRIVER)","id":"a6qc7s1kry2c","geo_precision":"range","address":"1100  FLORIDA AVENUE NW","state":"D.C."},"type":"Feature","geometry":{"type":"Point","coordinates":[-77.027036,38.920763]}},{"properties":{"city":"Washington","geo_score":0.829,"offensedescription":"UNAUTHORIZED USE OF VEHICLE (DRIVER)","id":"a6qc7rw381vq","geo_precision":"range","address":"2700  13TH STREET NW","state":"D.C."},"type":"Feature","geometry":{"type":"Point","coordinates":[-77.02971,38.924755]}},{"properties":{"city":"Washington","geo_score":0.819,"offensedescription":"UNAUTHORIZED USE OF VEHICLE (DRIVER)","id":"a6qc7rpc2j7q","geo_precision":"range","address":"1400  3RD STREET NW","state":"D.C."},"type":"Feature","geometry":{"type":"Point","coordinates":[-77.015182,38.908569]}},{"properties":{"city":"Washington","geo_score":0.78,"offensedescription":"UNAUTHORIZED USE OF VEHICLE (PASSENGER)","id":"a6qc7rz1swme","geo_precision":"street","address":"400  S STREET NW","state":"D.C."},"type":"Feature","geometry":{"type":"Point","coordinates":[-77.017066,38.914207]}},{"properties":{"city":"Washington","geo_score":0.902,"offensedescription":"UNAUTHORIZED USE OF VEHICLE (PASSENGER)","id":"a6qc7rtldhua","geo_precision":"range","address":"1600  U STREET NW","state":"D.C."},"type":"Feature","geometry":{"type":"Point","coordinates":[-77.036492,38.917002]}},{"properties":{"city":"Washington","geo_score":0.78,"offensedescription":"UNAUTHORIZED USE OF VEHICLE (PASSENGER)","id":"a6qc7s3b4mpf","geo_precision":"street","address":"400  S STREET NW","state":"D.C."},"type":"Feature","geometry":{"type":"Point","coordinates":[-77.017066,38.914207]}},{"properties":{"city":"Washington","geo_score":0.829,"offensedescription":"UNAUTHORIZED USE OF VEHICLE (PASSENGER)","id":"a6qc7rnvw8v1","geo_precision":"range","address":"2300  11TH STREET NW","state":"D.C."},"type":"Feature","geometry":{"type":"Point","coordinates":[-77.027036,38.920763]}},{"properties":{"city":"Washington","geo_score":0.829,"offensedescription":"UNLAWFUL ENTRY ON PROPERTY","id":"a6qc7rpncaty","geo_precision":"range","address":"3100  14TH STREET NW","state":"D.C."},"type":"Feature","geometry":{"type":"Point","coordinates":[-77.032612,38.928805]}},{"properties":{"city":"Washington","geo_score":0.829,"offensedescription":"UNLAWFUL ENTRY ON PROPERTY","id":"a6qc7rq74w4r","geo_precision":"range","address":"3100  14TH STREET NW","state":"D.C."},"type":"Feature","geometry":{"type":"Point","coordinates":[-77.032612,38.928805]}},{"properties":{"city":"Washington","geo_score":0.829,"offensedescription":"UNLAWFUL ENTRY ON PROPERTY","id":"a6qc7ruf2dpo","geo_precision":"range","address":"3100  14TH STREET NW","state":"D.C."},"type":"Feature","geometry":{"type":"Point","coordinates":[-77.032612,38.928805]}},{"properties":{"city":"Washington","geo_score":0.902,"offensedescription":"UNLAWFUL ENTRY ON PROPERTY","id":"a6qc7rq7mkmh","geo_precision":"range","address":"4800  GEORGIA AVENUE NW","state":"D.C."},"type":"Feature","geometry":{"type":"Point","coordinates":[-77.026933,38.948256]}},{"properties":{"city":"Washington","geo_score":0.902,"offensedescription":"UNLAWFUL ENTRY ON PROPERTY","id":"a6qc7s26hyv8","geo_precision":"range","address":"800  TAYLOR STREET NW","state":"D.C."},"type":"Feature","geometry":{"type":"Point","coordinates":[-77.023298,38.94086]}},{"properties":{"city":"Washington","geo_score":0.902,"offensedescription":"UNLAWFUL ENTRY ON PROPERTY","id":"a6qc7rypm8w0","geo_precision":"range","address":"800  TAYLOR STREET NW","state":"D.C."},"type":"Feature","geometry":{"type":"Point","coordinates":[-77.023298,38.94086]}},{"properties":{"city":"Washington","geo_score":0.902,"offensedescription":"UNLAWFUL ENTRY ON PROPERTY","id":"a6qc7rwu2qe1","geo_precision":"range","address":"1000  U STREET NW","state":"D.C."},"type":"Feature","geometry":{"type":"Point","coordinates":[-77.02599,38.916996]}},{"properties":{"city":"Washington","geo_score":0.829,"offensedescription":"UNLAWFUL ENTRY ON PROPERTY","id":"a6qc7rq8neka","geo_precision":"range","address":"3100  14TH STREET NW","state":"D.C."},"type":"Feature","geometry":{"type":"Point","coordinates":[-77.032612,38.928805]}},{"properties":{"city":"Washington","geo_score":0.829,"offensedescription":"UNLAWFUL ENTRY ON PROPERTY","id":"a6qc7ruhqfs3","geo_precision":"range","address":"1300  14TH STREET NW","state":"D.C."},"type":"Feature","geometry":{"type":"Point","coordinates":[-77.03195,38.907239]}},{"properties":{"city":"Washington","geo_score":0.902,"offensedescription":"UNREGISTERED AMMUNITION","id":"a6qc7rr1mphq","geo_precision":"range","address":"500  INDIANA AVENUE NW","state":"D.C."},"type":"Feature","geometry":{"type":"Point","coordinates":[-77.019111,38.894641]}},{"properties":{"city":"Washington","geo_score":0.902,"offensedescription":"UNREGISTERED AMMUNITION","id":"a6qc7rov739f","geo_precision":"range","address":"6000  GEORGIA AVENUE NW","state":"D.C."},"type":"Feature","geometry":{"type":"Point","coordinates":[-77.027889,38.9627]}},{"properties":{"city":"Washington","geo_score":0.902,"offensedescription":"UNREGISTERED FIREARM","id":"a6qc7rqgwyvx","geo_precision":"range","address":"1000  F STREET NW","state":"D.C."},"type":"Feature","geometry":{"type":"Point","coordinates":[-77.025984,38.897344]}},{"properties":{"city":"Washington","geo_score":0.819,"offensedescription":"UNREGISTERED FIREARM","id":"a6qc7rrdduw5","geo_precision":"range","address":"5000  1ST STREET NW","state":"D.C."},"type":"Feature","geometry":{"type":"Point","coordinates":[-77.01239,38.950828]}},{"properties":{"city":"Washington","geo_score":0.819,"offensedescription":"UNREGISTERED FIREARM","id":"a6qc7rrej31w","geo_precision":"range","address":"4100  9TH STREET NW","state":"D.C."},"type":"Feature","geometry":{"type":"Point","coordinates":[-77.024993,38.940813]}}],"is_temporal":false,"author":{"url":"","metadata":"","contact_name":"","contact_address":"","source":"","contact_phone":""},"source":"","pagination":{"sort":null,"start":0,"total":485,"limit":1000000},"state":"complete","tags":"","published":"2014-08-10T17:56:21-04:00","id":24873}