{"url_type":null,"title":"Safe4thofJuly.org, 4th of July Fireworks, 2008, California","count":44,"stream_id":2491,"contributor":{"name":"tom","url":"http://geocommons.com/users/142"},"extent":[-118.831,33.34,-117.716,34.7039],"data_attributes":null,"calculation_params":null,"icon_link":null,"link":"http://geocommons.com/overlays/2491.json","features":[{"latitude":33.339973,"comments2":"","placedesc":"Isthmus Cove - Barge","comments3":"","timecmnts":"9:00 p.m.","comments4":"","town":"Avalon/Catalina","geometry":{"type":"Point","coordinates":[-118.328972,33.339973]},"longitude":-118.328972,"id":"a65psywtwv4w","address":"Avalon, Avalon/Catalina"},{"latitude":33.75191,"comments2":"9:00 p.m.","placedesc":"It bills itself as California's largest fireworks display. Girlicious and the Spazzmatics lead a lineup of more than 15 live bands.","comments3":"","timecmnts":"(562) 435-3511","comments4":"","town":"Long Beach","geometry":{"type":"Point","coordinates":[-118.193289,33.75191]},"longitude":-118.193289,"id":"a65psyx6kvuh","address":"1126 Queens highway, Long Beach, CA"},{"latitude":33.8166,"comments2":"4:00 p.m. to 9:00 p.m.","placedesc":"Barge off Coast of Torrance Beach","comments3":"","timecmnts":"9:00 p.m.","comments4":"","town":"Torrance","geometry":{"type":"Point","coordinates":[-118.385024,33.8166]},"longitude":-118.385024,"id":"a65psz05n6jx","address":"Palos Verdes &amp; Via Rivera, Torrance"},{"latitude":33.831602,"comments2":"Same great fireworks as in past years, but thanks to the many community donators, the tickets are only $5.ÿ 2 and under enter free. Bring chairs or blanket.","placedesc":"The Home Depot Center","comments3":"The fireworks are still shot from Crescenta Valley High School, but the high school will not be accessible.","timecmnts":"LA Galaxy vs. NE Revolution Soccer Game","comments4":"9:00 p.m.","town":"Carson","geometry":{"type":"Point","coordinates":[-118.262754,33.831602]},"longitude":-118.262754,"id":"a65psyvbua4p","address":"18400 Avalon Blvd, Carson, Carson"},{"latitude":33.860425,"comments2":"","placedesc":"Artesia Community Park","comments3":"","timecmnts":"Admission is free","comments4":"","town":"Artesia","geometry":{"type":"Point","coordinates":[-118.079679,33.860425]},"longitude":-118.079679,"id":"a65psz0crxt3","address":"12000 block of South Street / Elaine, Artesia"},{"latitude":33.865656,"comments2":"","placedesc":"Cerritos High School","comments3":"","timecmnts":"9:00 p.m.","comments4":"","town":"Cerritos","geometry":{"type":"Point","coordinates":[-118.065948,33.865656]},"longitude":-118.065948,"id":"a65psyza1iji","address":"12500 E. 183rd Street, Cerritos"},{"latitude":33.912274,"comments2":"www.cabrillobeachbathhouse.org","placedesc":"Rowley Park","comments3":"12:00 p.m. - 9:30 p.m., Fireworks at 9:00 p.m.","timecmnts":"Fireworks at 9:00 p.m.","comments4":"","town":"Gardena","geometry":{"type":"Point","coordinates":[-118.317695,33.912274]},"longitude":-118.317695,"id":"a65psyko64u8","address":"13220 S. Van Ness Ave., Gardena"},{"latitude":33.927838,"comments2":"","placedesc":"Lynwood City Park","comments3":"","timecmnts":"11301 Bullis Rd.","comments4":"","town":"Lynwood","geometry":{"type":"Point","coordinates":[-118.199274,33.927838]},"longitude":-118.199274,"id":"a65psyqmcgzu","address":"Baseball Field, Lynwood"},{"latitude":33.935615,"comments2":"","placedesc":"La Habra High School","comments3":"","timecmnts":"9:00 p.m.","comments4":"","town":"La Habra","geometry":{"type":"Point","coordinates":[-117.955045,33.935615]},"longitude":-117.955045,"id":"a65psz09p8mx","address":"801 Highlander, La Habra"},{"latitude":33.94171,"comments2":"","placedesc":"South Gate Park","comments3":"","timecmnts":"9:00 p.m.","comments4":"","town":"South Gate","geometry":{"type":"Point","coordinates":[-118.182959,33.94171]},"longitude":-118.182959,"id":"a65psywhoan1","address":"Pinehurst &amp; Tweedy, South Gate"},{"latitude":33.959584,"comments2":"9:00 p.m.","placedesc":"Cudahy Park - Back field","comments3":"","timecmnts":"9:00 p.m.","comments4":"","town":"Cudahy","geometry":{"type":"Point","coordinates":[-118.174994,33.959584]},"longitude":-118.174994,"id":"a65psytrhwzv","address":"5220 Santa Ana St., Cudahy"},{"latitude":33.972304,"comments2":"","placedesc":"Salt Lake Park","comments3":"","timecmnts":"9:00 p.m.","comments4":"","town":"Huntington Park","geometry":{"type":"Point","coordinates":[-118.205665,33.972304]},"longitude":-118.205665,"id":"a65psyr8s1w9","address":"3401 E. Florence Blvd., Huntington Park"},{"latitude":33.972812,"comments2":"","placedesc":"Vincent Park","comments3":"","timecmnts":"9:00 p.m.","comments4":"","town":"Inglewood","geometry":{"type":"Point","coordinates":[-118.345612,33.972812]},"longitude":-118.345612,"id":"a65psylumkwl","address":"700 Warren Lane, Inglewood"},{"latitude":33.983976,"comments2":"","placedesc":"Diamond Bar High School - Football Field","comments3":"","timecmnts":"9:00 p.m.","comments4":"","town":"Diamond Bar","geometry":{"type":"Point","coordinates":[-117.839015,33.983976]},"longitude":-117.839015,"id":"a65psywv4qqy","address":"21400 E. Pathfinder Rd., Diamond Bar"},{"latitude":33.985215,"comments2":"Studio City Chamber of Commerce","placedesc":"Barges off Beaches and Harbor near Admiralty and Fiji Way","comments3":"(818) 655-5916","timecmnts":"9:15 p.m.","comments4":"Kids: 6-12 $10","town":"Marina Del Rey","geometry":{"type":"Point","coordinates":[-118.452109,33.985215]},"longitude":-118.452109,"id":"a65psyv94efp","address":", Marina Del Rey"},{"latitude":33.987535,"comments2":"Tickets are available at the Fairplex credentials office and online at Ticketmaster.com and at Ticketmaster locations. The Fairplex credentials office, (909) 865-4070, will be open weekdays from 9:00 a.m. - 7:00 p.m., including Friday, July 4 (OR UNTIL SOLD OUT) and weekends from 10:00 a.m. - 3:00 p.m.","placedesc":"Maywood City Park","comments3":"Reserved Box Seats $19.50","timecmnts":"Walker St. &amp; 60th Street","comments4":"General Seating $14.00","town":"Maywood","geometry":{"type":"Point","coordinates":[-118.189469,33.987535]},"longitude":-118.189469,"id":"a65psylysszk","address":"Baseball Diamond, Maywood"},{"latitude":33.99162,"comments2":"","placedesc":"Meller Elementary - West grass area","comments3":"","timecmnts":"9:00 p.m.","comments4":"","town":"Pico Rivera","geometry":{"type":"Point","coordinates":[-118.090339,33.99162]},"longitude":-118.090339,"id":"a65psyvkc99o","address":"6016 Rosemead Blvd. at Mines Ave., Pico Rivera"},{"latitude":34.000479,"comments2":"6:00 p.m. Gates open","placedesc":"Rosewood Park","comments3":"7:00 p.m. Show time","timecmnts":"9:00 p.m.","comments4":"Admission: $6 - adults (13 &amp; Up);","town":"Commerce","geometry":{"type":"Point","coordinates":[-118.155463,34.000479]},"longitude":-118.155463,"id":"a65psywatakq","address":"2535 Commerce Way, Commerce"},{"latitude":34.007658,"comments2":"Phone: (626) 577-3101","placedesc":"","comments3":"10:00 a.m. - 9:00 p.m., Drum Corps performance begins at 7:00 p.m.","timecmnts":"Gates open at 5PM, entertainment begins at 6:30 p.m., and the fireworks start at 9:00 p.m.","comments4":"Website: www.rosebowlstadium.com/RoseBowl_Americafest.htm","town":"Culver City","geometry":{"type":"Point","coordinates":[-118.40214,34.007658]},"longitude":-118.40214,"id":"a65psyw42gwq","address":"4401 Elenda Street, Culver City"},{"latitude":34.022401,"comments2":"10:00 a.m. - 9:00 p.m.","placedesc":"Barge off the Coast","comments3":"Check out the Queen Mary website for more information.","timecmnts":"9:00 p.m.","comments4":"","town":"Malibu","geometry":{"type":"Point","coordinates":[-118.830691,34.022401]},"longitude":-118.830691,"id":"a65psyni05zb","address":"30100 Pacific Coast Highway, Malibu"},{"latitude":34.026775,"comments2":"","placedesc":"Walnut High School","comments3":"5-Jul","timecmnts":"South end of Baseball Field","comments4":"","town":"Walnut","geometry":{"type":"Point","coordinates":[-117.840879,34.026775]},"longitude":-117.840879,"id":"a65psyoep16o","address":"21207 La Puente Road, Walnut"},{"latitude":34.032017,"comments2":"","placedesc":"Barge off the Coast","comments3":"","timecmnts":"9:00 p.m.","comments4":"","town":"Malibu","geometry":{"type":"Point","coordinates":[-118.686983,34.032017]},"longitude":-118.686983,"id":"a65psypmuw4q","address":"80 Malibu Colony Road, Malibu"},{"latitude":34.035278,"comments2":"","placedesc":"South El Monte High School","comments3":"","timecmnts":"9:00 p.m.","comments4":"","town":"South El Monte","geometry":{"type":"Point","coordinates":[-118.045065,34.035278]},"longitude":-118.045065,"id":"a65psymvgpem","address":"1001 N. Durfee Ave., South El Monte"},{"latitude":34.047275,"comments2":"","placedesc":"Boyle Heights Concert &amp; Firework Show","comments3":"","timecmnts":"","comments4":"","town":"Los Angeles - Boyle Heights","geometry":{"type":"Point","coordinates":[-118.207514,34.047275]},"longitude":-118.207514,"id":"a65psyxld50r","address":"415 St. Louis Street, Hollenbeck Recreation Center, Los Angeles - Boyle Heights"},{"latitude":34.05329,"comments2":"7:30 p.m.","placedesc":"July 4th Fireworks Spectacular: A Ball at the Bowl with the LA Dodgers","comments3":"","timecmnts":"The 2008 Celebration honors our own Los Angeles Dodgers. Randy Newman performs and Dodgers stars make guest appearances. Catch the next game at one of LA's great Dodger bars.","comments4":"","town":"Hollywood Bowl - Los Angeles","geometry":{"type":"Point","coordinates":[-118.245009,34.05329]},"longitude":-118.245009,"id":"a65psylukcb0","address":"2301 N Highland Ave, Hollywood, Hollywood Bowl - Los Angeles"},{"latitude":34.05329,"comments2":"","placedesc":"Los Angeles Coliseum","comments3":"","timecmnts":"Music and fireworks at the LA Coliseum. This is a patriotic tribute to our men and women in uniform. There is no seating in side the Coliseum itself so head to the seating areas on Christmas Tree Lane or the South Lawn near the Natural History Museum.","comments4":"","town":"Los Angeles","geometry":{"type":"Point","coordinates":[-118.245009,34.05329]},"longitude":-118.245009,"id":"a65psyt5eqs5","address":"3939 South Figueroa St, Los Angeles, Los Angeles"},{"latitude":34.076711,"comments2":"","placedesc":"Sierra Vista High School","comments3":"","timecmnts":"9:00 p.m.","comments4":"","town":"Baldwin Park","geometry":{"type":"Point","coordinates":[-117.980414,34.076711]},"longitude":-117.980414,"id":"a65psyp28q8l","address":"3600 Frazier Ave., Baldwin Park"},{"latitude":34.081018,"comments2":"","placedesc":"Pomona Fairplex","comments3":"","timecmnts":"","comments4":"","town":"Pomona","geometry":{"type":"Point","coordinates":[-117.766411,34.081018]},"longitude":-117.766411,"id":"a65psypmi51j","address":"1101 W. McKinley Ave., Pomona"},{"latitude":34.082427,"comments2":"","placedesc":"Rosemead Park","comments3":"","timecmnts":"9:00 p.m.","comments4":"","town":"Rosemead","geometry":{"type":"Point","coordinates":[-118.067574,34.082427]},"longitude":-118.067574,"id":"a65psynqs9t8","address":"9200 Mission Ave. at Encinitas, Rosemead"},{"latitude":34.0961,"comments2":"Phone: (323) 850-2000","placedesc":"Pomona College","comments3":"When: July 2, 3, 4: 7:30pm","timecmnts":"9:00 p.m.","comments4":"","town":"Claremont","geometry":{"type":"Point","coordinates":[-117.716404,34.0961]},"longitude":-117.716404,"id":"a65psyjtu37t","address":"6th Street / N. Mills, Claremont"},{"latitude":34.10389,"comments2":"www.cabrillobeachbathhouse.org","placedesc":"Open Lot at Water Reservoir","comments3":"12:00 p.m. - 9:30 p.m., fireworks at 9:00 p.m.","timecmnts":"9:00 p.m.","comments4":"","town":"Irwindale","geometry":{"type":"Point","coordinates":[-117.929699,34.10389]},"longitude":-117.929699,"id":"a65psyllgs08","address":"Calle Del Paseo &amp; Allen Drive, Irwindale"},{"latitude":34.107688,"comments2":"","placedesc":"Bonita High School Stadium","comments3":"","timecmnts":"5:00 p.m. Ticket booth, open","comments4":"","town":"La Verne","geometry":{"type":"Point","coordinates":[-117.76724,34.107688]},"longitude":-117.76724,"id":"a65psyzz9wtc","address":"3102 D Street, La Verne"},{"latitude":34.137839,"comments2":"","placedesc":"Calabasas High School","comments3":"","timecmnts":"9:00 p.m.","comments4":"","town":"Calabasas","geometry":{"type":"Point","coordinates":[-118.625093,34.137839]},"longitude":-118.625093,"id":"a65psyzea0b6","address":"22855 W. Mulholland Hwy., Calabasas"},{"latitude":34.147235,"comments2":"","placedesc":"The Rose Bowl - AmericaFest 2008","comments3":"","timecmnts":"This marks the 82nd annual Rose Bowl July 4th celebration. In addition to spectacular fireworks there will be a performance from the California Philharmonic Orchestra.","comments4":"","town":"Pasadena","geometry":{"type":"Point","coordinates":[-118.144264,34.147235]},"longitude":-118.144264,"id":"a65psyk7aeje","address":"1001 Rose Bowl Dr, Pasadena, Pasadena"},{"latitude":34.147339,"comments2":"9:15 p.m.","placedesc":"The Studio City Chamber of Commerce hosts this bash on the CBS lot. Great party, family friendly.","comments3":"","timecmnts":"4:30 p.m. - 9:30 p.m.","comments4":"","town":"Studio City","geometry":{"type":"Point","coordinates":[-118.391968,34.147339]},"longitude":-118.391968,"id":"a65psyn6ypdq","address":"CBS Studio Center, 4204 Radford Ave., Studio City, Studio City"},{"latitude":34.150046,"comments2":"Parking lot of Youth Center","placedesc":"Agoura Hills High School","comments3":"","timecmnts":"9:00 p.m.","comments4":"","town":"Agoura Hills","geometry":{"type":"Point","coordinates":[-118.749251,34.150046]},"longitude":-118.749251,"id":"a65psyrettsa","address":"28545 W. Driver Ave., Agoura Hills"},{"latitude":34.175388,"comments2":"","placedesc":"Warner Center Park","comments3":"","timecmnts":"The Annual Dennis P. Zine July 4th Extravaganza!","comments4":"","town":"Woodland Hills","geometry":{"type":"Point","coordinates":[-118.60562,34.175388]},"longitude":-118.60562,"id":"a65psywa3htq","address":"5800 Topanga Canyon Blvd., Woodland Hills"},{"latitude":34.220507,"comments2":"","placedesc":"La Crescenta Elementary School","comments3":"","timecmnts":"Gates open at 4pm, food booths, carnival rides.ÿ","comments4":"","town":"La Crescenta","geometry":{"type":"Point","coordinates":[-118.24011,34.220507]},"longitude":-118.24011,"id":"a65psysc5fn8","address":"4343 La Crescenta Avenue, La Crescenta"},{"latitude":34.27298,"comments2":"Show starts at 6:00 p.m., Fireworks at 9:05 p.m.","placedesc":"","comments3":"Presented by the Valley Cultural Center and Keyes Automotive Group","timecmnts":"http://www.hansen4th.com","comments4":"Admission is Free; parking nearby may be for fee.","town":"Hansen Dam (This will be a laser light show. There will be no fireworks show this year.)","geometry":{"type":"Point","coordinates":[-118.392782,34.27298]},"longitude":-118.392782,"id":"a65psyx7dh0p","address":"11770 Foothill Blvd. Lake View Terrace, CA. 91342,"},{"latitude":34.39068,"comments2":"","placedesc":"Dr. Richard Rioux Memorial Park","comments3":"","timecmnts":"9:00 p.m.","comments4":"","town":"Stevenson Ranch","geometry":{"type":"Point","coordinates":[-118.597961,34.39068]},"longitude":-118.597961,"id":"a65psyqfd9j0","address":"26233 Faulkner Drive, Stevenson Ranch"},{"latitude":34.416748,"comments2":"","placedesc":"Valencia Town Center","comments3":"","timecmnts":"Off top of parking structure","comments4":"","town":"Santa Clarita","geometry":{"type":"Point","coordinates":[-118.555278,34.416748]},"longitude":-118.555278,"id":"a65psykfreiq","address":"26735 Circle Drive, Santa Clarita"},{"latitude":34.505381,"comments2":"","placedesc":"Castaic Lake Recreation Area","comments3":"","timecmnts":"Picnic and swim all morning and then enjoy children's rides, games, face painting, jumpers, rock climbers, etc. in the afternoon. Adults will be able to enjoy music, food, craft booths and family games such as: water-balloon toss, potato sack races etc.","comments4":"","town":"Castaic","geometry":{"type":"Point","coordinates":[-118.616122,34.505381]},"longitude":-118.616122,"id":"a65psymm8l9t","address":"32132 Castaic Lake, Castaic"},{"latitude":34.572629,"comments2":"","placedesc":"Palmdale High School","comments3":"","timecmnts":"9:15 p.m.","comments4":"","town":"Palmdale","geometry":{"type":"Point","coordinates":[-118.128719,34.572629]},"longitude":-118.128719,"id":"a65psynf8eh2","address":"C2137 E. Avenue R, Palmdale"},{"latitude":34.703914,"comments2":"The Fireworks are the big finale for the day and begin at 9:00 p.m.","placedesc":"Lancaster Jets Hawks Ball Field - Clear Channel Stadium","comments3":"$25.00 per carload","timecmnts":"7:00 &amp; 9:30 p.m.","comments4":"5 years old and under are free","town":"Lancaster","geometry":{"type":"Point","coordinates":[-118.173707,34.703914]},"longitude":-118.173707,"id":"a65psyna1utv","address":"2400 W. Avenue I, Lancaster"}],"geometry_types":["point"],"unique_name":null,"name":"Safe4thofJuly.org, 4th of July Fireworks, 2008, California","feature_count":44,"state":"complete","published":"2008-06-25T12:00:00Z","description":"Describes relevant information about public fireworks shows on the 4th of July.","stats":{"latitude":{"max": 34.703914, "mean": 34.0614461818182, "variance": 0.050258539901501, "stdev": 0.224184165144421, "min": 33.339973, "median": 34.035278},"longitude":{"max": -117.716404, "mean": -118.235800272727, "variance": 0.0722068285256915, "stdev": 0.268713283121046, "min": -118.830691, "median": -118.199274}},"next_feature":null,"is_raster":false,"pagination":{"sort":null,"start":0,"limit":1000000,"total":44},"short_classification":"Y","is_temporal":false,"author":{"metadata":"","url":"http://www.safejuly4th.org/fw/fwshows.htm","contact_name":"","contact_address":"","source":"Los Angeles Fire Department","contact_phone":""},"source":"http://www.safejuly4th.org/fw/fwshows.htm","data_type":"Dataset","permissions":[{"group_id":"everyone","permissions":{"download":true,"view":true}}],"classification":null,"tags":"4th,entertainment,fireworks,july,shows","id":2491}