{"type":"FeatureCollection","data_type":"Dataset","url_type":null,"permissions":[{"permissions":{"download":true,"view":true},"group_id":"everyone"}],"classification":null,"title":"Map Class","count":4,"stream_id":250199,"contributor":{"url":"http://geocommons.com/users/47186","name":"rachelcriss"},"data_attributes":null,"calculation_params":null,"icon_link":null,"link":"http://geocommons.com/overlays/250199.json","extent":[-86.3128,39.6538,-85.9551,40.0136],"geometry_types":["point"],"unique_name":null,"name":"Map Class","feature_count":4,"description":"","next_feature":null,"is_raster":false,"short_classification":"Y","stats":{},"features":[{"properties":{"name":"Rebecca","city":"Camby","zip":"46113","geo_score":0.844,"id":"a6a5alnehzh5","address":"7644 Clifton Bridge Lane","geo_precision":"range","state":"IN"},"type":"Feature","geometry":{"type":"Point","coordinates":[-86.312764,39.653818]}},{"properties":{"name":"Gleaners","city":"Indianapolis","zip":"46241","geo_score":0.911,"id":"a6a5alg3jmqj","address":"3737 Waldemere Avenue","geo_precision":"range","state":"IN"},"type":"Feature","geometry":{"type":"Point","coordinates":[-86.261291,39.71017]}},{"properties":{"name":"Bob","city":"Noblesville","zip":"46060","geo_score":0.798,"id":"a6a5al89a4ja","address":"15473 Ten Point Drive","geo_precision":"range","state":"IN"},"type":"Feature","geometry":{"type":"Point","coordinates":[-85.955056,40.013567]}},{"properties":{"name":"Eddie","city":"Indianapolis","zip":"46202","geo_score":0.61,"id":"a6a5alk8fywb","address":"1434 N. Delaware St.","geo_precision":"street","state":"IN"},"type":"Feature","geometry":{"type":"Point","coordinates":[-86.153998,39.779295]}}],"is_temporal":false,"author":{"url":"","metadata":"","contact_name":"","contact_address":"","source":"","contact_phone":""},"source":"","pagination":{"sort":null,"start":0,"total":4,"limit":1000000},"state":"complete","tags":"","published":"2014-08-14T15:06:40-04:00","id":250199}