{"type":"FeatureCollection","data_type":"Dataset","url_type":null,"permissions":[{"permissions":{"download":true,"view":true},"group_id":"everyone"}],"classification":null,"title":"Locations - Trevino","count":214,"stream_id":250840,"contributor":{"url":"http://geocommons.com/users/47257","name":"brett.romanoff"},"data_attributes":null,"calculation_params":null,"icon_link":null,"link":"http://geocommons.com/overlays/250840.json","extent":[-112.467,25.9057,-93.7152,36.119],"geometry_types":["point"],"unique_name":null,"name":"Locations - Trevino","feature_count":214,"description":"","next_feature":null,"is_raster":false,"short_classification":"Y","stats":{},"features":[{"properties":{"city":"Texarkana","store number":"WB00475","account":"Whataburger of Texarkana, TX; WB00475","neededbydate":"6/25/2012 20:00:00","geo_score":0.849,"street address":"4110 North Stateline","zip code":"71854","notes":null,"assigned to":null,"id":"a6cpvyyhvuju","scs ticket":"12-200983","geo_precision":"range","state":"AR"},"type":"Feature","geometry":{"type":"Point","coordinates":[-94.043087,33.383452]}},{"properties":{"city":"Goodyear","store number":"WB00764","account":"Whataburger of Goodyear, AZ; WB00764","neededbydate":"6/24/2012 20:00:00","geo_score":0.6,"street address":"14251 W. Indian School Bypass","zip code":"85395","notes":null,"assigned to":null,"id":"a6cpvyxct99v","scs ticket":"12-200938","geo_precision":"street","state":"AZ"},"type":"Feature","geometry":{"type":"Point","coordinates":[-112.375284,33.493448]}},{"properties":{"city":"Peoria","store number":"WB00715","account":"Whataburger of Peoria, AZ; WB00715","neededbydate":"6/24/2012 20:00:00","geo_score":0.633,"street address":"8922 W. Bell Rd.","zip code":"85382","notes":null,"assigned to":null,"id":"a6cpvyr83hh8","scs ticket":"12-200937","geo_precision":"street","state":"AZ"},"type":"Feature","geometry":{"type":"Point","coordinates":[-112.236032,33.638169]}},{"properties":{"city":"Prescott","store number":"WB00225","account":"Whataburger of Prescott, AZ; WB00225","neededbydate":"6/26/2012 20:00:00","geo_score":0.476,"street address":"715 E. Gurley","zip code":"86301","notes":null,"assigned to":null,"id":"a6cpvysq3ik3","scs ticket":"12-201015","geo_precision":"street","state":"AZ"},"type":"Feature","geometry":{"type":"Point","coordinates":[-112.467325,34.541865]}},{"properties":{"city":"Bossier City","store number":"WB00516","account":"Whataburger of Bossier City, LA; WB00516","neededbydate":"6/24/2012 20:00:00","geo_score":0.927,"street address":"112 Benton Spur Rd.","zip code":"71111","notes":null,"assigned to":null,"id":"a6cpvyt1hi9m","scs ticket":"12-200945","geo_precision":"range","state":"LA"},"type":"Feature","geometry":{"type":"Point","coordinates":[-93.715214,32.517789]}},{"properties":{"city":"Shreveport","store number":"WB00497","account":"Whataburger of Shreveport, LA; WB00497","neededbydate":"6/24/2012 20:00:00","geo_score":0.922,"street address":"2900 North Market Street","zip code":"71107","notes":null,"assigned to":null,"id":"a6cpvyyw21s9","scs ticket":"12-200943","geo_precision":"range","state":"LA"},"type":"Feature","geometry":{"type":"Point","coordinates":[-93.783284,32.557713]}},{"properties":{"city":"Shreveport","store number":"WB00489","account":"Whataburger of Shreveport, LA; WB00489","neededbydate":"6/24/2012 20:00:00","geo_score":0.824,"street address":"4010 Jewella Rd.","zip code":"71109","notes":null,"assigned to":null,"id":"a6cpvz3em1d7","scs ticket":"12-200944","geo_precision":"range","state":"LA"},"type":"Feature","geometry":{"type":"Point","coordinates":[-93.797307,32.474853]}},{"properties":{"city":"Shreveport","store number":"WB00506","account":"Whataburger of Shreveport, LA; WB00506","neededbydate":"6/25/2012 20:00:00","geo_score":0.64,"street address":"2544 Bert Kouns Rd.","zip code":"71118","notes":null,"assigned to":null,"id":"a6cpvz3tj3ob","scs ticket":"12-200981","geo_precision":"street","state":"LA"},"type":"Feature","geometry":{"type":"Point","coordinates":[-93.772364,32.400126]}},{"properties":{"city":"Shreveport","store number":"WB00760","account":"Whataburger of Shreveport, LA; WB00760","neededbydate":"6/25/2012 20:00:00","geo_score":1.0,"street address":"6707 Pines Rd.","zip code":"71129","notes":null,"assigned to":null,"id":"a6cpvyv5z5r1","scs ticket":"12-200982","geo_precision":"range","state":"LA"},"type":"Feature","geometry":{"type":"Point","coordinates":[-93.86525,32.44817]}},{"properties":{"city":"Albuquerque","store number":"WB00247","account":"Whataburger of Albuquerque, NM; WB00247","neededbydate":"6/28/2012 20:00:00","geo_score":0.756,"street address":"200 Menaul","zip code":"87107","notes":null,"assigned to":null,"id":"a6cpvypw2q7b","scs ticket":"12-201066","geo_precision":"range","state":"NM"},"type":"Feature","geometry":{"type":"Point","coordinates":[-106.641332,35.110237]}},{"properties":{"city":"Albuquerque","store number":"WB00697","account":"Whataburger of Albuquerque, NM; WB00697","neededbydate":"7/1/2012 20:00:00","geo_score":0.935,"street address":"4201 Osuna Rd.","zip code":"87109","notes":null,"assigned to":null,"id":"a6cpvyzdsr67","scs ticket":"12-201088","geo_precision":"range","state":"NM"},"type":"Feature","geometry":{"type":"Point","coordinates":[-106.595131,35.156317]}},{"properties":{"city":"Albuquerque","store number":"WB00245","account":"Whataburger of Albuquerque, NM; WB00245","neededbydate":"7/1/2012 20:00:00","geo_score":0.875,"street address":"2808 Carlisle","zip code":"87110","notes":null,"assigned to":null,"id":"a6cpvz2nzlak","scs ticket":"12-201089","geo_precision":"range","state":"NM"},"type":"Feature","geometry":{"type":"Point","coordinates":[-106.604181,35.113082]}},{"properties":{"city":"Albuquerque","store number":"WB00842","account":"Whataburger of Albuquerque, NM; WB00842","neededbydate":"7/1/2012 20:00:00","geo_score":0.878,"street address":"9500 Candelaria NE","zip code":"87112","notes":null,"assigned to":null,"id":"a6cpvz1639jg","scs ticket":"12-201090","geo_precision":"range","state":"NM"},"type":"Feature","geometry":{"type":"Point","coordinates":[-106.535653,35.116234]}},{"properties":{"city":"Albuquerque","store number":"WB00780","account":"Whataburger of Albuquerque, NM; WB00780","neededbydate":"7/2/2012 20:00:00","geo_score":0.604,"street address":"8100-L1 Wyoming Blvd.","zip code":"87113","notes":null,"assigned to":null,"id":"a6cpvyv39aaq","scs ticket":"12-201112","geo_precision":"street","state":"NM"},"type":"Feature","geometry":{"type":"Point","coordinates":[-106.560015,35.170088]}},{"properties":{"city":"Albuquerque","store number":"WB00714","account":"Whataburger of Albuquerque, NM; WB00714","neededbydate":"7/2/2012 20:00:00","geo_score":0.49,"street address":"3531 NM  528  N. w.","zip code":"87114","notes":null,"assigned to":null,"id":"a6cpvyvjsk0d","scs ticket":"12-201113","geo_precision":"street","state":"NM"},"type":"Feature","geometry":{"type":"Point","coordinates":[-106.61388,35.188119]}},{"properties":{"city":"Roswell","store number":"WB00731","account":"Whataburger of Roswell, NM; WB00731","neededbydate":"6/28/2012 20:00:00","geo_score":0.915,"street address":"2110 North Main Street","zip code":"88201","notes":null,"assigned to":null,"id":"a6cpvynhwwel","scs ticket":"12-201065","geo_precision":"range","state":"NM"},"type":"Feature","geometry":{"type":"Point","coordinates":[-104.523051,33.417774]}},{"properties":{"city":"Shawnee","store number":"WB01004","account":"Whataburger of Shawnee, OK; WB01004","neededbydate":"6/25/2012 20:00:00","geo_score":0.61,"street address":"4836 N. Kickapoo","zip code":"74804","notes":null,"assigned to":null,"id":"a6cpvz3o7zgp","scs ticket":"12-200964","geo_precision":"street","state":"OK"},"type":"Feature","geometry":{"type":"Point","coordinates":[-96.929886,35.34848]}},{"properties":{"city":"Tulsa","store number":"WB00303","account":"Whataburger of Tulsa, OK; WB00303","neededbydate":"6/24/2012 20:00:00","geo_score":0.916,"street address":"5726 East 41st Street","zip code":"74135","notes":null,"assigned to":null,"id":"a6cpvyt07xjp","scs ticket":"12-200925","geo_precision":"range","state":"OK"},"type":"Feature","geometry":{"type":"Point","coordinates":[-95.912921,36.104379]}},{"properties":{"city":"Tulsa","store number":"WB00395","account":"Whataburger of Tulsa, OK; WB00395","neededbydate":"6/24/2012 20:00:00","geo_score":0.947,"street address":"6004 South Sheridan","zip code":"74145","notes":null,"assigned to":null,"id":"a6cpvyx86nue","scs ticket":"12-200926","geo_precision":"range","state":"OK"},"type":"Feature","geometry":{"type":"Point","coordinates":[-95.904323,36.078047]}},{"properties":{"city":"Tulsa","store number":"WB00426","account":"Whataburger of Tulsa, OK; WB00426","neededbydate":"6/24/2012 20:00:00","geo_score":0.833,"street address":"10675 East 31st","zip code":"74146","notes":null,"assigned to":null,"id":"a6cpvywxutl6","scs ticket":"12-200927","geo_precision":"range","state":"OK"},"type":"Feature","geometry":{"type":"Point","coordinates":[-95.857435,36.118978]}},{"properties":{"city":"Abilene","store number":"WB00524","account":"Whataburger of Abilene, TX; WB00524","neededbydate":"6/24/2012 20:00:00","geo_score":0.877,"street address":"3141 South Danville","zip code":"79605","notes":null,"assigned to":null,"id":"a6cpvypkqka6","scs ticket":"12-200934","geo_precision":"range","state":"TX"},"type":"Feature","geometry":{"type":"Point","coordinates":[-99.773991,32.412672]}},{"properties":{"city":"Alvin","store number":"WB00450","account":"Whataburger of Alvin, TX; WB00450","neededbydate":"7/8/2012 20:00:00","geo_score":0.881,"street address":"2510 Highway 35 Bypass","zip code":"77511","notes":null,"assigned to":null,"id":"a6cpvywtgkuw","scs ticket":"12-201157","geo_precision":"range","state":"TX"},"type":"Feature","geometry":{"type":"Point","coordinates":[-95.236775,29.44612]}},{"properties":{"city":"Angleton","store number":"WB00419","account":"Whataburger of Angleton, TX; WB00419","neededbydate":"7/9/2012 20:00:00","geo_score":0.852,"street address":"1120 North Velasco","zip code":"77515","notes":null,"assigned to":null,"id":"a6cpvyuaf73m","scs ticket":"12-201170","geo_precision":"range","state":"TX"},"type":"Feature","geometry":{"type":"Point","coordinates":[-95.432943,29.182563]}},{"properties":{"city":"Austin","store number":"WB00162","account":"Whataburger of Austin, TX; WB00162","neededbydate":"6/24/2012 20:00:00","geo_score":0.962,"street address":"3210 Martin Luther King Blvd.","zip code":"78721","notes":null,"assigned to":null,"id":"a6cpvz2g37hh","scs ticket":"12-200931","geo_precision":"range","state":"TX"},"type":"Feature","geometry":{"type":"Point","coordinates":[-97.703747,30.282607]}},{"properties":{"city":"Austin","store number":"WB00084","account":"Whataburger of Austin, TX; WB00084","neededbydate":"6/24/2012 20:00:00","geo_score":0.878,"street address":"6106 Cameron Road","zip code":"78723","notes":null,"assigned to":null,"id":"a6cpvz2t2aa8","scs ticket":"12-200932","geo_precision":"range","state":"TX"},"type":"Feature","geometry":{"type":"Point","coordinates":[-97.698031,30.318728]}},{"properties":{"city":"Austin","store number":"WB00736","account":"Whataburger of Austin, TX; WB00736","neededbydate":"6/24/2012 20:00:00","geo_score":0.571,"street address":"14310-A IH 35","zip code":"78728","notes":null,"assigned to":null,"id":"a6cpvytdnw9m","scs ticket":"12-200933","geo_precision":"street","state":"TX"},"type":"Feature","geometry":{"type":"Point","coordinates":[-97.683881,30.434288]}},{"properties":{"city":"Austin","store number":"WB00907","account":"Whataburger of Austin, TX; WB00907","neededbydate":"6/25/2012 20:00:00","geo_score":0.49,"street address":"6301 W. Parmer ln.","zip code":"78729","notes":null,"assigned to":null,"id":"a6cpvz1ra9pb","scs ticket":"12-200970","geo_precision":"street","state":"TX"},"type":"Feature","geometry":{"type":"Point","coordinates":[-97.742348,30.443859]}},{"properties":{"city":"Austin","store number":"WB00182","account":"Whataburger of Austin, TX; WB00182","neededbydate":"6/25/2012 20:00:00","geo_score":0.794,"street address":"2305 Burleson at Oltorf","zip code":"78741","notes":null,"assigned to":null,"id":"a6cpvz322f8d","scs ticket":"12-200972","geo_precision":"range","state":"TX"},"type":"Feature","geometry":{"type":"Point","coordinates":[-97.735996,30.231601]}},{"properties":{"city":"Austin","store number":"WB00910","account":"Whataburger of Austin, TX; WB00910","neededbydate":"6/27/2012 20:00:00","geo_score":0.614,"street address":"6611 S. Mopac NB Expressway","zip code":"78749","notes":null,"assigned to":null,"id":"a6cpvyrlc0u6","scs ticket":"12-201037","geo_precision":"street","state":"TX"},"type":"Feature","geometry":{"type":"Point","coordinates":[-97.833159,30.223623]}},{"properties":{"city":"Austin","store number":"WB00576","account":"Whataburger of Austin, TX; WB00576","neededbydate":"6/27/2012 20:00:00","geo_score":0.614,"street address":"6205 N. Lamar Blvd.","zip code":"78752","notes":null,"assigned to":null,"id":"a6cpvysehaog","scs ticket":"12-201038","geo_precision":"street","state":"TX"},"type":"Feature","geometry":{"type":"Point","coordinates":[-97.726624,30.3255]}},{"properties":{"city":"Austin","store number":"WB00132","account":"Whataburger of Austin, TX; WB00132","neededbydate":"6/27/2012 20:00:00","geo_score":0.495,"street address":"9516 N. Lamar Blvd.","zip code":"78753","notes":null,"assigned to":null,"id":"a6cpvysmbqf4","scs ticket":"12-201039","geo_precision":"street","state":"TX"},"type":"Feature","geometry":{"type":"Point","coordinates":[-97.710487,30.350057]}},{"properties":{"city":"Austin","store number":"WB00321","account":"Whataburger of Austin, TX; WB00321","neededbydate":"6/26/2012 20:00:00","geo_score":0.89,"street address":"801 East William Cannon #300","zip code":"78745","notes":null,"assigned to":null,"id":"a6cpvz0uhjo3","scs ticket":"12-201008","geo_precision":"range","state":"TX"},"type":"Feature","geometry":{"type":"Point","coordinates":[-97.776612,30.192499]}},{"properties":{"city":"Austin","store number":"WB00809","account":"Whataburger of Austin, TX; WB00809","neededbydate":"6/26/2012 20:00:00","geo_score":0.496,"street address":"3400 W. Slaughter Lane","zip code":"78748","notes":null,"assigned to":null,"id":"a6cpvz2t3n45","scs ticket":"12-201009","geo_precision":"street","state":"TX"},"type":"Feature","geometry":{"type":"Point","coordinates":[-97.788557,30.167105]}},{"properties":{"city":"Austin","store number":"WB00884","account":"Whataburger of Austin, TX; WB00884","neededbydate":"6/26/2012 20:00:00","geo_score":0.505,"street address":"9300 South IH-35 Service Rd.","zip code":"78748","notes":null,"assigned to":null,"id":"a6cpvysvp1go","scs ticket":"12-201010","geo_precision":"street","state":"TX"},"type":"Feature","geometry":{"type":"Point","coordinates":[-97.746283,30.358493]}},{"properties":{"city":"Austin","store number":"WB00481","account":"Whataburger of Austin, TX; WB00481","neededbydate":"6/28/2012 20:00:00","geo_score":0.452,"street address":"11135 N. I-35 Service Road","zip code":"78753","notes":null,"assigned to":null,"id":"a6cpvyv1j2q7","scs ticket":"12-201061","geo_precision":"street","state":"TX"},"type":"Feature","geometry":{"type":"Point","coordinates":[-97.689576,30.355089]}},{"properties":{"city":"Austin","store number":"WB00347","account":"Whataburger of Austin, TX; WB00347","neededbydate":"6/28/2012 20:00:00","geo_score":1.0,"street address":"2801 West Anderson Lane","zip code":"78757","notes":null,"assigned to":null,"id":"a6cpvz1sg1fm","scs ticket":"12-201062","geo_precision":"range","state":"TX"},"type":"Feature","geometry":{"type":"Point","coordinates":[-97.737217,30.359171]}},{"properties":{"city":"Azle","store number":"WB00752","account":"Whataburger of Azle, TX; WB00752","neededbydate":"6/26/2012 20:00:00","geo_score":0.78,"street address":"440 Northwest Parkway","zip code":"76020","notes":null,"assigned to":null,"id":"a6cpvyuzgqib","scs ticket":"12-200988","geo_precision":"range","state":"TX"},"type":"Feature","geometry":{"type":"Point","coordinates":[-97.541883,32.897097]}},{"properties":{"city":"Balcones Heights","store number":"WB00285","account":"Whataburger of Balcones Heights, TX; WB00285","neededbydate":"7/10/2012 20:00:00","geo_score":0.922,"street address":"4502 Fredericksburg Rd.","zip code":"78201","notes":null,"assigned to":null,"id":"a6cpvyxcpzng","scs ticket":"12-201186","geo_precision":"range","state":"TX"},"type":"Feature","geometry":{"type":"Point","coordinates":[-98.553625,29.49251]}},{"properties":{"city":"Baytown","store number":"WB00377","account":"Whataburger of Baytown, TX; WB00377","neededbydate":"7/9/2012 20:00:00","geo_score":0.902,"street address":"1930 Garth Road","zip code":"77520","notes":null,"assigned to":null,"id":"a6cpvyxjgu3w","scs ticket":"12-201171","geo_precision":"range","state":"TX"},"type":"Feature","geometry":{"type":"Point","coordinates":[-94.977235,29.745191]}},{"properties":{"city":"Baytown","store number":"WB00514","account":"Whataburger of Baytown, TX; WB00514","neededbydate":"7/9/2012 20:00:00","geo_score":0.537,"street address":"5151 I-10 E","zip code":"77521","notes":null,"assigned to":null,"id":"a6cpvyx25hen","scs ticket":"12-201172","geo_precision":"street","state":"TX"},"type":"Feature","geometry":{"type":"Point","coordinates":[-94.729666,29.839353]}},{"properties":{"city":"Beeville","store number":"WB00034","account":"Whataburger of Beeville, TX; WB00034","neededbydate":"6/27/2012 20:00:00","geo_score":0.505,"street address":"1710 N. St. Mary's St.","zip code":"78102","notes":null,"assigned to":null,"id":"a6cpvyngh3u9","scs ticket":"12-201029","geo_precision":"street","state":"TX"},"type":"Feature","geometry":{"type":"Point","coordinates":[-97.758089,28.404059]}},{"properties":{"city":"Big Spring","store number":"WB00308","account":"Whataburger of Big Spring, TX; WB00308","neededbydate":"6/25/2012 20:00:00","geo_score":0.919,"street address":"1110 Gregg Street","zip code":"79720","notes":null,"assigned to":null,"id":"a6cpvysk2duo","scs ticket":"12-200975","geo_precision":"range","state":"TX"},"type":"Feature","geometry":{"type":"Point","coordinates":[-101.474761,32.243893]}},{"properties":{"city":"Boerne","store number":"WB00844","account":"Whataburger of Boerne, TX; WB00844","neededbydate":"6/26/2012 20:00:00","geo_score":0.858,"street address":"621 Bandera Road W.","zip code":"78006","notes":null,"assigned to":null,"id":"a6cpvynvi88v","scs ticket":"12-200998","geo_precision":"range","state":"TX"},"type":"Feature","geometry":{"type":"Point","coordinates":[-98.720776,29.780515]}},{"properties":{"city":"Brownsville","store number":"WB00801","account":"Whataburger of Brownsville, TX; WB00801","neededbydate":"7/5/2012 20:00:00","geo_score":0.902,"street address":"1400 Central Blvd.","zip code":"78520","notes":null,"assigned to":null,"id":"a6cpvyr3d2q6","scs ticket":"12-201146","geo_precision":"range","state":"TX"},"type":"Feature","geometry":{"type":"Point","coordinates":[-97.511362,25.926655]}},{"properties":{"city":"Brownsville","store number":"WB00280","account":"Whataburger of Brownsville, TX; WB00280","neededbydate":"7/5/2012 20:00:00","geo_score":0.429,"street address":"2290 N.Expressway","zip code":"78521","notes":null,"assigned to":null,"id":"a6cpvyro26ow","scs ticket":"12-201147","geo_precision":"street","state":"TX"},"type":"Feature","geometry":{"type":"Point","coordinates":[-98.838263,26.399893]}},{"properties":{"city":"Brownsville","store number":"WB00283","account":"Whataburger of Brownsville, TX; WB00283","neededbydate":"7/5/2012 20:00:00","geo_score":0.91,"street address":"2419 Boca Chica","zip code":"78521","notes":null,"assigned to":null,"id":"a6cpvyp8jjj7","scs ticket":"12-201148","geo_precision":"range","state":"TX"},"type":"Feature","geometry":{"type":"Point","coordinates":[-97.485252,25.921837]}},{"properties":{"city":"Brownsville","store number":"WB00500","account":"Whataburger of Brownsville, TX; WB00500","neededbydate":"7/8/2012 20:00:00","geo_score":1.0,"street address":"2021 International Blvd.","zip code":"78521","notes":null,"assigned to":null,"id":"a6cpvyymmxqg","scs ticket":"12-201161","geo_precision":"range","state":"TX"},"type":"Feature","geometry":{"type":"Point","coordinates":[-97.483294,25.905714]}},{"properties":{"city":"Brownsville","store number":"WB00740","account":"Whataburger of Brownsville, TX; WB00740","neededbydate":"7/8/2012 20:00:00","geo_score":0.735,"street address":"6100 FM 802","zip code":"78521","notes":null,"assigned to":null,"id":"a6cpvz23vvoy","scs ticket":"12-201162","geo_precision":"range","state":"TX"},"type":"Feature","geometry":{"type":"Point","coordinates":[-97.425967,25.941675]}},{"properties":{"city":"Brownsville","store number":"WB00777","account":"Whataburger of Brownsville, TX; WB00777","neededbydate":"7/8/2012 20:00:00","geo_score":0.624,"street address":"3580 Alton Gloor","zip code":"78521","notes":null,"assigned to":null,"id":"a6cpvythateq","scs ticket":"12-201163","geo_precision":"street","state":"TX"},"type":"Feature","geometry":{"type":"Point","coordinates":[-97.540911,25.953039]}},{"properties":{"city":"Brownwood","store number":"WB00534","account":"Whataburger of Brownwood, TX; WB00534","neededbydate":"6/27/2012 20:00:00","geo_score":0.849,"street address":"411 East Commerce","zip code":"76801","notes":null,"assigned to":null,"id":"a6cpvz23o81k","scs ticket":"12-201040","geo_precision":"range","state":"TX"},"type":"Feature","geometry":{"type":"Point","coordinates":[-98.975404,31.730342]}},{"properties":{"city":"Burkburnett","store number":"WB00491","account":"Whataburger of Burkburnett, TX; WB00491","neededbydate":"6/26/2012 20:00:00","geo_score":0.932,"street address":"920 Red River Expressway","zip code":"76354","notes":null,"assigned to":null,"id":"a6cpvyoo3vnw","scs ticket":"12-201003","geo_precision":"range","state":"TX"},"type":"Feature","geometry":{"type":"Point","coordinates":[-98.557973,34.081037]}},{"properties":{"city":"Channelview","store number":"WB00551","account":"Whataburger of Channelview, TX; WB00551","neededbydate":"7/10/2012 20:00:00","geo_score":0.537,"street address":"15811 I-10E","zip code":"77530","notes":null,"assigned to":null,"id":"a6cpvywiy6oq","scs ticket":"12-201185","geo_precision":"street","state":"TX"},"type":"Feature","geometry":{"type":"Point","coordinates":[-94.803303,29.830213]}},{"properties":{"city":"Clute","store number":"WB00139","account":"Whataburger of Clute, TX; WB00139","neededbydate":"7/5/2012 20:00:00","geo_score":0.684,"street address":"1405 West Hwy 332","zip code":"77531","notes":null,"assigned to":null,"id":"a6cpvyt60nga","scs ticket":"12-201139","geo_precision":"street","state":"TX"},"type":"Feature","geometry":{"type":"Point","coordinates":[-95.420453,29.010403]}},{"properties":{"city":"Columbus","store number":"WB00578","account":"Whataburger of Columbus, TX; WB00578","neededbydate":"7/2/2012 20:00:00","geo_score":0.466,"street address":"2204 Hwy. 71 South","zip code":"78934","notes":null,"assigned to":null,"id":"a6cpvyygsekf","scs ticket":"12-201109","geo_precision":"street","state":"TX"},"type":"Feature","geometry":{"type":"Point","coordinates":[-96.539543,29.692504]}},{"properties":{"city":"Corinth","store number":"WB00735","account":"Whataburger of Corinth, TX; WB00735","neededbydate":"6/28/2012 20:00:00","geo_score":0.711,"street address":"4250 FM 2181","zip code":"75065","notes":null,"assigned to":null,"id":"a6cpvz36879l","scs ticket":"12-201044","geo_precision":"street","state":"TX"},"type":"Feature","geometry":{"type":"Point","coordinates":[-97.105431,33.154026]}},{"properties":{"city":"Crosby","store number":"WB00898","account":"Whataburger of Crosby, TX; WB00898","neededbydate":"7/8/2012 20:00:00","geo_score":0.916,"street address":"14460 FM 2100","zip code":"77532","notes":null,"assigned to":null,"id":"a6cpvynz8j0v","scs ticket":"12-201152","geo_precision":"range","state":"TX"},"type":"Feature","geometry":{"type":"Point","coordinates":[-95.063345,29.892208]}},{"properties":{"city":"Cuero","store number":"WB00360","account":"Whataburger of Cuero, TX; WB00360","neededbydate":"6/25/2012 20:00:00","geo_score":0.841,"street address":"905 Esplanade","zip code":"77954","notes":null,"assigned to":null,"id":"a6cpvz3tbnjh","scs ticket":"12-200959","geo_precision":"range","state":"TX"},"type":"Feature","geometry":{"type":"Point","coordinates":[-97.288267,29.097303]}},{"properties":{"city":"Cypress","store number":"WB00824","account":"Whataburger of Cypress, TX; WB00824","neededbydate":"6/27/2012 20:00:00","geo_score":0.707,"street address":"26040 Northwest Freeway","zip code":"77429","notes":null,"assigned to":null,"id":"a6cpvyqhqqnv","scs ticket":"12-201026","geo_precision":"range","state":"TX"},"type":"Feature","geometry":{"type":"Point","coordinates":[-95.691687,29.969083]}},{"properties":{"city":"Del Rio","store number":"WB00107","account":"Whataburger of Del Rio, TX; WB00107","neededbydate":"7/1/2012 20:00:00","geo_score":0.585,"street address":"2113 Veteran Blvd.","zip code":"78840","notes":null,"assigned to":null,"id":"a6cpvyslx0sv","scs ticket":"12-201085","geo_precision":"zip","state":"TX"},"type":"Feature","geometry":{"type":"Point","coordinates":[-100.774543,29.917987]}},{"properties":{"city":"Dickinson","store number":"WB00458","account":"Whataburger of Dickinson, TX; WB00458","neededbydate":"7/8/2012 20:00:00","geo_score":0.735,"street address":"3300 Gulf Freeway","zip code":"77539","notes":null,"assigned to":null,"id":"a6cpvz0xgw7c","scs ticket":"12-201153","geo_precision":"street","state":"TX"},"type":"Feature","geometry":{"type":"Point","coordinates":[-95.079169,29.451152]}},{"properties":{"city":"Donna","store number":"WB00595","account":"Whataburger of Donna, TX; WB00595","neededbydate":"7/9/2012 20:00:00","geo_score":0.607,"street address":"615 N. Daniel Salinas Blvd.","zip code":"78537","notes":null,"assigned to":null,"id":"a6cpvysae5be","scs ticket":"12-201176","geo_precision":"street","state":"TX"},"type":"Feature","geometry":{"type":"Point","coordinates":[-98.043011,26.169027]}},{"properties":{"city":"Eagle Pass","store number":"WB00829","account":"Whataburger of Eagle Pass, TX; WB00829","neededbydate":"7/1/2012 20:00:00","geo_score":0.913,"street address":"454 South Bibb Avenue","zip code":"78852","notes":null,"assigned to":null,"id":"a6cpvz357h1n","scs ticket":"12-201086","geo_precision":"range","state":"TX"},"type":"Feature","geometry":{"type":"Point","coordinates":[-100.483204,28.701659]}},{"properties":{"city":"Edinburg","store number":"WB00060","account":"Whataburger of Edinburg, TX; WB00060","neededbydate":"7/9/2012 20:00:00","geo_score":0.727,"street address":"2107 South 281 Highway","zip code":"78539","notes":null,"assigned to":null,"id":"a6cpvyym6k8l","scs ticket":"12-201177","geo_precision":"range","state":"TX"},"type":"Feature","geometry":{"type":"Point","coordinates":[-98.158974,26.321223]}},{"properties":{"city":"Edinburg","store number":"WB00571","account":"Whataburger of Edinburg, TX; WB00571","neededbydate":"7/9/2012 20:00:00","geo_score":0.477,"street address":"1812 W. University","zip code":"78539","notes":null,"assigned to":null,"id":"a6cpvyuknjmk","scs ticket":"12-201178","geo_precision":"street","state":"TX"},"type":"Feature","geometry":{"type":"Point","coordinates":[-98.163558,26.301536]}},{"properties":{"city":"Edinburg","store number":"WB00793","account":"Whataburger of Edinburg, TX; WB00793","neededbydate":"7/10/2012 20:00:00","geo_score":0.462,"street address":"1717 E. University Dr.","zip code":"78542","notes":null,"assigned to":null,"id":"a6cpvyq28s1y","scs ticket":"12-201187","geo_precision":"street","state":"TX"},"type":"Feature","geometry":{"type":"Point","coordinates":[-98.169039,26.302318]}},{"properties":{"city":"Edna","store number":"WB00428","account":"Whataburger of Edna, TX; WB00428","neededbydate":"6/25/2012 20:00:00","geo_score":0.722,"street address":"112 East Houston Hwy.","zip code":"77957","notes":null,"assigned to":null,"id":"a6cpvytjrbb1","scs ticket":"12-200960","geo_precision":"street","state":"TX"},"type":"Feature","geometry":{"type":"Point","coordinates":[-96.650778,28.987181]}},{"properties":{"city":"El Campo","store number":"WB00373","account":"Whataburger of El Campo, TX; WB00373","neededbydate":"6/27/2012 20:00:00","geo_score":0.515,"street address":"909 N. Mechanic St.","zip code":"77437","notes":null,"assigned to":null,"id":"a6cpvyqavi5q","scs ticket":"12-201027","geo_precision":"street","state":"TX"},"type":"Feature","geometry":{"type":"Point","coordinates":[-96.267298,29.193583]}},{"properties":{"city":"Elsa","store number":"WB00583","account":"Whataburger of Elsa, TX; WB00583","neededbydate":"7/10/2012 20:00:00","geo_score":0.61,"street address":"623 East Edinburg (PO Box 9)","zip code":"78543","notes":null,"assigned to":null,"id":"a6cpvyt5aqs2","scs ticket":"12-201188","geo_precision":"street","state":"TX"},"type":"Feature","geometry":{"type":"Point","coordinates":[-98.002919,26.293225]}},{"properties":{"city":"Floresville","store number":"WB00952","account":"Whataburger of Floresville, TX; WB00952","neededbydate":"7/5/2012 20:00:00","geo_score":0.814,"street address":"911 10th Street","zip code":"78114","notes":null,"assigned to":null,"id":"a6cpvz1b9082","scs ticket":"12-201145","geo_precision":"range","state":"TX"},"type":"Feature","geometry":{"type":"Point","coordinates":[-98.156738,29.145225]}},{"properties":{"city":"Friendswood","store number":"WB00486","account":"Whataburger of Friendswood, TX; WB00486","neededbydate":"7/8/2012 20:00:00","geo_score":0.393,"street address":"106 North Friendswood","zip code":"77546","notes":null,"assigned to":null,"id":"a6cpvyw0ixqk","scs ticket":"12-201154","geo_precision":"street","state":"TX"},"type":"Feature","geometry":{"type":"Point","coordinates":[-94.996971,29.375538]}},{"properties":{"city":"Friendswood","store number":"WB00778","account":"Whataburger of Friendswood, TX; WB00778","neededbydate":"7/9/2012 20:00:00","geo_score":1.0,"street address":"18190 Gulf Frwy.","zip code":"77546","notes":null,"assigned to":null,"id":"a6cpvyz5wckc","scs ticket":"12-201167","geo_precision":"range","state":"TX"},"type":"Feature","geometry":{"type":"Point","coordinates":[-95.156294,29.552876]}},{"properties":{"city":"Friendswood","store number":"WB00838","account":"Whataburger of Friendswood, TX; WB00838","neededbydate":"7/9/2012 20:00:00","geo_score":1.0,"street address":"214 East Parkwood Ave.","zip code":"77546","notes":null,"assigned to":null,"id":"a6cpvynq1i1o","scs ticket":"12-201168","geo_precision":"range","state":"TX"},"type":"Feature","geometry":{"type":"Point","coordinates":[-95.187031,29.510608]}},{"properties":{"city":"Galveston","store number":"WB00490","account":"Whataburger of Galveston, TX; WB00490","neededbydate":"7/9/2012 20:00:00","geo_score":0.917,"street address":"528 University Blvd.","zip code":"77550","notes":null,"assigned to":null,"id":"a6cpvynksv1c","scs ticket":"12-201169","geo_precision":"range","state":"TX"},"type":"Feature","geometry":{"type":"Point","coordinates":[-94.773996,29.309358]}},{"properties":{"city":"Galveston","store number":"WB00081","account":"Whataburger of Galveston, TX; WB00081","neededbydate":"7/10/2012 20:00:00","geo_score":0.922,"street address":"6327 Stewart Road","zip code":"77551","notes":null,"assigned to":null,"id":"a6cpvypr38pl","scs ticket":"12-201182","geo_precision":"range","state":"TX"},"type":"Feature","geometry":{"type":"Point","coordinates":[-94.83314,29.274654]}},{"properties":{"city":"Garland","store number":"WB00400","account":"Whataburger of Garland, TX; WB00400","neededbydate":"6/24/2012 20:00:00","geo_score":0.604,"street address":"1506 W. Buckingham Blvd.","zip code":"75042","notes":null,"assigned to":null,"id":"a6cpvyv7uwh1","scs ticket":"12-200908","geo_precision":"street","state":"TX"},"type":"Feature","geometry":{"type":"Point","coordinates":[-96.630798,32.930731]}},{"properties":{"city":"Giddings","store number":"WB00795","account":"Whataburger of Giddings, TX; WB00795","neededbydate":"7/2/2012 20:00:00","geo_score":0.512,"street address":"2050 E. Austin","zip code":"78942","notes":null,"assigned to":null,"id":"a6cpvyrla17u","scs ticket":"12-201110","geo_precision":"street","state":"TX"},"type":"Feature","geometry":{"type":"Point","coordinates":[-96.936254,30.182677]}},{"properties":{"city":"Goliad","store number":"WB00630","account":"Whataburger of Goliad, TX; WB00630","neededbydate":"6/26/2012 20:00:00","geo_score":0.829,"street address":"348 East Pearl","zip code":"77963","notes":null,"assigned to":null,"id":"a6cpvz2dybfn","scs ticket":"12-200996","geo_precision":"range","state":"TX"},"type":"Feature","geometry":{"type":"Point","coordinates":[-97.389406,28.668237]}},{"properties":{"city":"Graham","store number":"WB00425","account":"Whataburger of Graham, TX; WB00425","neededbydate":"6/27/2012 20:00:00","geo_score":0.824,"street address":"1228 Hwy 16 South","zip code":"76450","notes":null,"assigned to":null,"id":"a6cpvyos2rr9","scs ticket":"12-201033","geo_precision":"range","state":"TX"},"type":"Feature","geometry":{"type":"Point","coordinates":[-98.57653,33.120306]}},{"properties":{"city":"Grand Prairie","store number":"WB00339","account":"Whataburger of Grand Prairie, TX; WB00339","neededbydate":"6/25/2012 20:00:00","geo_score":0.518,"street address":"1404 N.W. 19th Street","zip code":"75050","notes":null,"assigned to":null,"id":"a6cpvyzh9rqn","scs ticket":"12-200946","geo_precision":"street","state":"TX"},"type":"Feature","geometry":{"type":"Point","coordinates":[-96.977993,32.748761]}},{"properties":{"city":"Grand Prairie","store number":"WB00781","account":"Whataburger of Grand Prairie, TX; WB00781","neededbydate":"6/25/2012 20:00:00","geo_score":0.526,"street address":"2710 N. Hwy 360","zip code":"75050","notes":null,"assigned to":null,"id":"a6cpvz061hdg","scs ticket":"12-200947","geo_precision":"street","state":"TX"},"type":"Feature","geometry":{"type":"Point","coordinates":[-97.0629,32.764339]}},{"properties":{"city":"Grand Prairie","store number":"WB00430","account":"Whataburger of Grand Prairie, TX; WB00430","neededbydate":"6/25/2012 20:00:00","geo_score":1.0,"street address":"421 West Pioneer Parkway","zip code":"75051","notes":null,"assigned to":null,"id":"a6cpvz1d5fjd","scs ticket":"12-200948","geo_precision":"range","state":"TX"},"type":"Feature","geometry":{"type":"Point","coordinates":[-97.009406,32.709594]}},{"properties":{"city":"Grand Prairie","store number":"WB00742","account":"Whataburger of Grand Prairie, TX; WB00742","neededbydate":"6/26/2012 20:00:00","geo_score":1.0,"street address":"3845 South Carrier Parkway","zip code":"75052","notes":null,"assigned to":null,"id":"a6cpvz3tu7p4","scs ticket":"12-200984","geo_precision":"range","state":"TX"},"type":"Feature","geometry":{"type":"Point","coordinates":[-97.006981,32.679626]}},{"properties":{"city":"Grapevine","store number":"WB00460","account":"Whataburger of Grapevine, TX; WB00460","neededbydate":"6/27/2012 20:00:00","geo_score":0.604,"street address":"401 E. Northwest Hwy.","zip code":"76051","notes":null,"assigned to":null,"id":"a6cpvz2qk3zk","scs ticket":"12-201020","geo_precision":"street","state":"TX"},"type":"Feature","geometry":{"type":"Point","coordinates":[-97.077523,32.941046]}},{"properties":{"city":"Grapevine","store number":"WB00751","account":"Whataburger of Grapevine, TX; WB00751","neededbydate":"6/27/2012 20:00:00","geo_score":1.0,"street address":"2000 State Hwy 26","zip code":"76051","notes":null,"assigned to":null,"id":"a6cpvyucuyjg","scs ticket":"12-201021","geo_precision":"range","state":"TX"},"type":"Feature","geometry":{"type":"Point","coordinates":[-97.043229,32.959576]}},{"properties":{"city":"Harlingen","store number":"WB00041","account":"Whataburger of Harlingen, TX; WB00041","neededbydate":"7/10/2012 20:00:00","geo_score":0.847,"street address":"1522 East Harrison","zip code":"78550","notes":null,"assigned to":null,"id":"a6cpvz0e10yx","scs ticket":"12-201189","geo_precision":"range","state":"TX"},"type":"Feature","geometry":{"type":"Point","coordinates":[-97.679841,26.190739]}},{"properties":{"city":"Harlingen","store number":"WB00085","account":"Whataburger of Harlingen, TX; WB00085","neededbydate":"7/11/2012 20:00:00","geo_score":0.49,"street address":"1605 W. Harrison","zip code":"78550","notes":null,"assigned to":null,"id":"a6cpvyrnk059","scs ticket":"12-201195","geo_precision":"street","state":"TX"},"type":"Feature","geometry":{"type":"Point","coordinates":[-97.696877,26.190666]}},{"properties":{"city":"Harlingen","store number":"WB00504","account":"Whataburger of Harlingen, TX; WB00504","neededbydate":"7/11/2012 20:00:00","geo_score":0.891,"street address":"613 Ed Carey Dr.","zip code":"78550","notes":null,"assigned to":null,"id":"a6cpvyykr869","scs ticket":"12-201196","geo_precision":"range","state":"TX"},"type":"Feature","geometry":{"type":"Point","coordinates":[-97.679132,26.164728]}},{"properties":{"city":"Hidalgo","store number":"WB00566","account":"Whataburger of Hidalgo, TX; WB00566","neededbydate":"7/11/2012 20:00:00","geo_score":0.571,"street address":"824 S. International Blvd.","zip code":"78557","notes":null,"assigned to":null,"id":"a6cpvytcpzls","scs ticket":"12-201197","geo_precision":"street","state":"TX"},"type":"Feature","geometry":{"type":"Point","coordinates":[-98.268971,26.099117]}},{"properties":{"city":"Hondo","store number":"WB00930","account":"Whataburger of Hondo, TX; WB00930","neededbydate":"7/1/2012 20:00:00","geo_score":0.823,"street address":"229 19th St.","zip code":"78861","notes":null,"assigned to":null,"id":"a6cpvz0xszf4","scs ticket":"12-201087","geo_precision":"range","state":"TX"},"type":"Feature","geometry":{"type":"Point","coordinates":[-99.130148,29.348119]}},{"properties":{"city":"Houston","store number":"WB00542","account":"Whataburger of Houston, TX; WB00542","neededbydate":"6/24/2012 20:00:00","geo_score":0.947,"street address":"9517 Bissonnet","zip code":"77036","notes":null,"assigned to":null,"id":"a6cpvytoa1s9","scs ticket":"12-200913","geo_precision":"range","state":"TX"},"type":"Feature","geometry":{"type":"Point","coordinates":[-95.54307,29.675803]}},{"properties":{"city":"Houston","store number":"WB00292","account":"Whataburger of Houston, TX; WB00292","neededbydate":"6/24/2012 20:00:00","geo_score":0.6,"street address":"1410 W. Mount Houston Road","zip code":"77038","notes":null,"assigned to":null,"id":"a6cpvyo1emsm","scs ticket":"12-200914","geo_precision":"street","state":"TX"},"type":"Feature","geometry":{"type":"Point","coordinates":[-95.412618,29.898301]}},{"properties":{"city":"Houston","store number":"WB00601","account":"Whataburger of Houston, TX; WB00601","neededbydate":"6/24/2012 20:00:00","geo_score":0.854,"street address":"211 West Road","zip code":"77038","notes":null,"assigned to":null,"id":"a6cpvyxyxd1u","scs ticket":"12-200915","geo_precision":"range","state":"TX"},"type":"Feature","geometry":{"type":"Point","coordinates":[-95.413068,29.915052]}},{"properties":{"city":"Houston","store number":"WB00605","account":"Whataburger of Houston, TX; WB00605","neededbydate":"6/25/2012 20:00:00","geo_score":0.371,"street address":"13270 N.W. Freeway","zip code":"77040","notes":null,"assigned to":null,"id":"a6cpvys69bnl","scs ticket":"12-200953","geo_precision":"street","state":"TX"},"type":"Feature","geometry":{"type":"Point","coordinates":[-95.229506,29.641019]}},{"properties":{"city":"Houston","store number":"WB00745","account":"Whataburger of Houston, TX; WB00745","neededbydate":"6/25/2012 20:00:00","geo_score":0.963,"street address":"2720 SW Sam Houston Pkwy","zip code":"77042","notes":null,"assigned to":null,"id":"a6cpvyshfgnt","scs ticket":"12-200954","geo_precision":"range","state":"TX"},"type":"Feature","geometry":{"type":"Point","coordinates":[-95.558384,29.73588]}},{"properties":{"city":"Houston","store number":"WB00131","account":"Whataburger of Houston, TX; WB00131","neededbydate":"7/5/2012 20:00:00","geo_score":0.902,"street address":"12121 Katy Freeway","zip code":"77079","notes":null,"assigned to":null,"id":"a6cpvyyl3hxk","scs ticket":"12-201137","geo_precision":"range","state":"TX"},"type":"Feature","geometry":{"type":"Point","coordinates":[-95.598452,29.784234]}},{"properties":{"city":"Houston","store number":"WB00137","account":"Whataburger of Houston, TX; WB00137","neededbydate":"7/5/2012 20:00:00","geo_score":0.935,"street address":"2429 Gessner","zip code":"77080","notes":null,"assigned to":null,"id":"a6cpvyq56h3w","scs ticket":"12-201138","geo_precision":"range","state":"TX"},"type":"Feature","geometry":{"type":"Point","coordinates":[-95.5452,29.815322]}},{"properties":{"city":"Houston","store number":"WB00813","account":"Whataburger of Houston, TX; WB00813","neededbydate":"6/26/2012 20:00:00","geo_score":0.917,"street address":"15329 Wallisville Rd.","zip code":"77049","notes":null,"assigned to":null,"id":"a6cpvywezk0s","scs ticket":"12-200990","geo_precision":"range","state":"TX"},"type":"Feature","geometry":{"type":"Point","coordinates":[-95.164354,29.808478]}},{"properties":{"city":"Houston","store number":"WB00138","account":"Whataburger of Houston, TX; WB00138","neededbydate":"6/26/2012 20:00:00","geo_score":0.85,"street address":"1040 Gessner","zip code":"77055","notes":null,"assigned to":null,"id":"a6cpvyzcf4tb","scs ticket":"12-200991","geo_precision":"range","state":"TX"},"type":"Feature","geometry":{"type":"Point","coordinates":[-95.544009,29.785805]}},{"properties":{"city":"Houston","store number":"WB00141","account":"Whataburger of Houston, TX; WB00141","neededbydate":"6/26/2012 20:00:00","geo_score":0.862,"street address":"8941 Longpoint","zip code":"77055","notes":null,"assigned to":null,"id":"a6cpvynimo8t","scs ticket":"12-200992","geo_precision":"range","state":"TX"},"type":"Feature","geometry":{"type":"Point","coordinates":[-95.508897,29.802924]}},{"properties":{"city":"Houston","store number":"WB00263","account":"Whataburger of Houston, TX; WB00263","neededbydate":"6/27/2012 20:00:00","geo_score":0.955,"street address":"2820 Chimney Rock","zip code":"77056","notes":null,"assigned to":null,"id":"a6cpvyqa2iwu","scs ticket":"12-201022","geo_precision":"range","state":"TX"},"type":"Feature","geometry":{"type":"Point","coordinates":[-95.476568,29.736123]}},{"properties":{"city":"Houston","store number":"WB00265","account":"Whataburger of Houston, TX; WB00265","neededbydate":"6/27/2012 20:00:00","geo_score":0.947,"street address":"6405 San Felipe","zip code":"77057","notes":null,"assigned to":null,"id":"a6cpvyw79iza","scs ticket":"12-201023","geo_precision":"range","state":"TX"},"type":"Feature","geometry":{"type":"Point","coordinates":[-95.496353,29.7499]}},{"properties":{"city":"Houston","store number":"WB00591","account":"Whataburger of Houston, TX; WB00591","neededbydate":"6/27/2012 20:00:00","geo_score":0.571,"street address":"181 E. Sam Houston Pkwy. N.","zip code":"77060","notes":null,"assigned to":null,"id":"a6cpvyzr76cw","scs ticket":"12-201024","geo_precision":"street","state":"TX"},"type":"Feature","geometry":{"type":"Point","coordinates":[-95.410251,29.94002]}},{"properties":{"city":"Houston","store number":"WB00262","account":"Whataburger of Houston, TX; WB00262","neededbydate":"6/28/2012 20:00:00","geo_score":1.0,"street address":"6402 Telephone Road","zip code":"77061","notes":null,"assigned to":null,"id":"a6cpvyx0knks","scs ticket":"12-201049","geo_precision":"range","state":"TX"},"type":"Feature","geometry":{"type":"Point","coordinates":[-95.289016,29.671339]}},{"properties":{"city":"Houston","store number":"WB00986","account":"Whataburger of Houston, TX; WB00986","neededbydate":"6/28/2012 20:00:00","geo_score":0.602,"street address":"9232 W. Sam Houston Pkwy.","zip code":"77064","notes":null,"assigned to":null,"id":"a6cpvyv6b8y1","scs ticket":"12-201050","geo_precision":"street","state":"TX"},"type":"Feature","geometry":{"type":"Point","coordinates":[-95.549386,29.884059]}},{"properties":{"city":"Houston","store number":"WB00365","account":"Whataburger of Houston, TX; WB00365","neededbydate":"6/28/2012 20:00:00","geo_score":1.0,"street address":"7210 FM 1960 West","zip code":"77069","notes":null,"assigned to":null,"id":"a6cpvyp1nhtn","scs ticket":"12-201051","geo_precision":"range","state":"TX"},"type":"Feature","geometry":{"type":"Point","coordinates":[-95.53609,29.967073]}},{"properties":{"city":"Houston","store number":"WB00279","account":"Whataburger of Houston, TX; WB00279","neededbydate":"7/1/2012 20:00:00","geo_score":0.805,"street address":"10843 FM 1960 West","zip code":"77070","notes":null,"assigned to":null,"id":"a6cpvyyyfd6n","scs ticket":"12-201073","geo_precision":"street","state":"TX"},"type":"Feature","geometry":{"type":"Point","coordinates":[-95.554937,29.954345]}},{"properties":{"city":"Houston","store number":"WB00518","account":"Whataburger of Houston, TX; WB00518","neededbydate":"7/1/2012 20:00:00","geo_score":0.61,"street address":"7629 W. Bellfort","zip code":"77071","notes":null,"assigned to":null,"id":"a6cpvysq5ypa","scs ticket":"12-201074","geo_precision":"street","state":"TX"},"type":"Feature","geometry":{"type":"Point","coordinates":[-95.508673,29.656011]}},{"properties":{"city":"Houston","store number":"WB01019","account":"Whataburger of Houston, TX; WB01019","neededbydate":"7/1/2012 20:00:00","geo_score":0.459,"street address":"3134 W. Sam Houston S.","zip code":"77072","notes":null,"assigned to":null,"id":"a6cpvywm8p23","scs ticket":"12-201075","geo_precision":"street","state":"TX"},"type":"Feature","geometry":{"type":"Point","coordinates":[-95.557683,29.702579]}},{"properties":{"city":"Houston","store number":"WB00324","account":"Whataburger of Houston, TX; WB00324","neededbydate":"7/2/2012 20:00:00","geo_score":1.0,"street address":"2627 FM 1960 E.","zip code":"77073","notes":null,"assigned to":null,"id":"a6cpvz27feyl","scs ticket":"12-201097","geo_precision":"range","state":"TX"},"type":"Feature","geometry":{"type":"Point","coordinates":[-95.388133,30.022343]}},{"properties":{"city":"Houston","store number":"WB00694","account":"Whataburger of Houston, TX; WB00694","neededbydate":"7/2/2012 20:00:00","geo_score":0.829,"street address":"6520 Southwest Freeway","zip code":"77074","notes":null,"assigned to":null,"id":"a6cpvz0dfmhl","scs ticket":"12-201098","geo_precision":"range","state":"TX"},"type":"Feature","geometry":{"type":"Point","coordinates":[-95.497709,29.718437]}},{"properties":{"city":"Houston","store number":"WB00459","account":"Whataburger of Houston, TX; WB00459","neededbydate":"7/2/2012 20:00:00","geo_score":0.947,"street address":"8927 Clearwood","zip code":"77075","notes":null,"assigned to":null,"id":"a6cpvz2lyu92","scs ticket":"12-201099","geo_precision":"range","state":"TX"},"type":"Feature","geometry":{"type":"Point","coordinates":[-95.243877,29.640281]}},{"properties":{"city":"Houston","store number":"WB00134","account":"Whataburger of Houston, TX; WB00134","neededbydate":"7/3/2012 20:00:00","geo_score":0.604,"street address":"444 W. Little York Road","zip code":"77076","notes":null,"assigned to":null,"id":"a6cpvyxytsza","scs ticket":"12-201120","geo_precision":"street","state":"TX"},"type":"Feature","geometry":{"type":"Point","coordinates":[-95.399712,29.869888]}},{"properties":{"city":"Houston","store number":"WB00432","account":"Whataburger of Houston, TX; WB00432","neededbydate":"7/3/2012 20:00:00","geo_score":1.0,"street address":"14144 Westheimer Road","zip code":"77077","notes":null,"assigned to":null,"id":"a6cpvyq2kw3i","scs ticket":"12-201121","geo_precision":"range","state":"TX"},"type":"Feature","geometry":{"type":"Point","coordinates":[-95.638405,29.735735]}},{"properties":{"city":"Houston","store number":"WB00833","account":"Whataburger of Houston, TX; WB00833","neededbydate":"7/3/2012 20:00:00","geo_score":0.951,"street address":"12401 Westheimer","zip code":"77077","notes":null,"assigned to":null,"id":"a6cpvyvsrfhk","scs ticket":"12-201122","geo_precision":"range","state":"TX"},"type":"Feature","geometry":{"type":"Point","coordinates":[-95.600413,29.736149]}},{"properties":{"city":"Houston","store number":"WB00893","account":"Whataburger of Houston, TX; WB00893","neededbydate":"TBD","geo_score":0.878,"street address":null,"zip code":"77002","notes":null,"assigned to":null,"id":"a6cpvyswmd4t","scs ticket":"12-181032","geo_precision":"zip","state":"TX"},"type":"Feature","geometry":{"type":"Point","coordinates":[-95.302435,29.91189]}},{"properties":{"city":"Houston - Tomball","store number":"WB00828","account":"Whataburger of Houston, TX; WB00828","neededbydate":"6/25/2012 20:00:00","geo_score":0.735,"street address":"22603 Tomball Parkway","zip code":"77375","notes":null,"assigned to":null,"id":"a6cpvz2dlqwj","scs ticket":"12-200957","geo_precision":"street","state":"TX"},"type":"Feature","geometry":{"type":"Point","coordinates":[-95.616175,30.05434]}},{"properties":{"city":"Humble","store number":"WB00943","account":"Whataburger of Humble, TX; WB00943","neededbydate":"6/27/2012 20:00:00","geo_score":0.805,"street address":"4831 Wilson Rd.","zip code":"77396","notes":null,"assigned to":null,"id":"a6cpvz1fsoh4","scs ticket":"12-201025","geo_precision":"street","state":"TX"},"type":"Feature","geometry":{"type":"Point","coordinates":[-95.249656,29.946921]}},{"properties":{"city":"Jersey Village","store number":"WB00501","account":"Whataburger of Jersey Village, TX; WB00501","neededbydate":"6/25/2012 20:00:00","geo_score":0.649,"street address":"17234 Northwest Freeway","zip code":"77040","notes":null,"assigned to":null,"id":"a6cpvyza90dw","scs ticket":"12-200952","geo_precision":"range","state":"TX"},"type":"Feature","geometry":{"type":"Point","coordinates":[-95.576535,29.885454]}},{"properties":{"city":"Katy","store number":"WB01002","account":"Whataburger of Katy, TX; WB01002","neededbydate":"7/5/2012 20:00:00","geo_score":0.806,"street address":"25635 Katy Freeway","zip code":"77494","notes":null,"assigned to":null,"id":"a6cpvyu8t1h8","scs ticket":"12-201140","geo_precision":"street","state":"TX"},"type":"Feature","geometry":{"type":"Point","coordinates":[-95.819566,29.777182]}},{"properties":{"city":"Katy","store number":"WB00725","account":"Whataburger of Katy, TX; WB00725","neededbydate":"6/28/2012 20:00:00","geo_score":1.0,"street address":"1225 Fry Road","zip code":"77449","notes":null,"assigned to":null,"id":"a6cpvyy13xgg","scs ticket":"12-201052","geo_precision":"range","state":"TX"},"type":"Feature","geometry":{"type":"Point","coordinates":[-95.71892,29.786695]}},{"properties":{"city":"Katy","store number":"WB00987","account":"Whataburger of Katy, TX; WB00987","neededbydate":"6/28/2012 20:00:00","geo_score":1.0,"street address":"6131 North Fry Rd.","zip code":"77449","notes":null,"assigned to":null,"id":"a6cpvyzmikmw","scs ticket":"12-201053","geo_precision":"range","state":"TX"},"type":"Feature","geometry":{"type":"Point","coordinates":[-95.718611,29.855309]}},{"properties":{"city":"Katy","store number":"WB00392","account":"Whataburger of Katy, TX; WB00392","neededbydate":"6/28/2012 20:00:00","geo_score":1.0,"street address":"514 South Mason Road","zip code":"77450","notes":null,"assigned to":null,"id":"a6cpvyodi30a","scs ticket":"12-201054","geo_precision":"range","state":"TX"},"type":"Feature","geometry":{"type":"Point","coordinates":[-95.751788,29.776778]}},{"properties":{"city":"Katy","store number":"WB00950","account":"Whataburger of Katy, TX; WB00950","neededbydate":"7/3/2012 20:00:00","geo_score":0.61,"street address":"23540 Westheimer Parkway","zip code":"77494","notes":null,"assigned to":null,"id":"a6cpvyrszq0v","scs ticket":"12-201125","geo_precision":"street","state":"TX"},"type":"Feature","geometry":{"type":"Point","coordinates":[-95.765564,29.734555]}},{"properties":{"city":"La Feria","store number":"WB00594","account":"Whataburger of La Feria, TX; WB00594","neededbydate":"7/12/2012 20:00:00","geo_score":0.633,"street address":"90 W. Expressway 83 &amp; FM 506","zip code":"78559","notes":null,"assigned to":null,"id":"a6cpvyw1iyhc","scs ticket":"12-201201","geo_precision":"street","state":"TX"},"type":"Feature","geometry":{"type":"Point","coordinates":[-97.813617,26.167795]}},{"properties":{"city":"La Porte","store number":"WB00852","account":"Whataburger of La Porte, TX; WB00852","neededbydate":"7/11/2012 20:00:00","geo_score":0.92,"street address":"9029 Spencer Hwy","zip code":"77571","notes":null,"assigned to":null,"id":"a6cpvyttpxzm","scs ticket":"12-201193","geo_precision":"range","state":"TX"},"type":"Feature","geometry":{"type":"Point","coordinates":[-95.098228,29.664137]}},{"properties":{"city":"LaJoya","store number":"WB00603","account":"Whataburger of LaJoya, TX; WB00603","neededbydate":"7/12/2012 20:00:00","geo_score":0.571,"street address":"450 Highway 83 (P.O.Box 1597)","zip code":"78560","notes":null,"assigned to":null,"id":"a6cpvz0n72r1","scs ticket":"12-201202","geo_precision":"street","state":"TX"},"type":"Feature","geometry":{"type":"Point","coordinates":[-98.330118,26.201936]}},{"properties":{"city":"Lake Jackson","store number":"WB00532","account":"Whataburger of Lake Jackson, TX; WB00532","neededbydate":"7/10/2012 20:00:00","geo_score":0.97,"street address":"123 Highway 332 West","zip code":"77566","notes":null,"assigned to":null,"id":"a6cpvz3oozb0","scs ticket":"12-201183","geo_precision":"range","state":"TX"},"type":"Feature","geometry":{"type":"Point","coordinates":[-95.459114,29.047884]}},{"properties":{"city":"Lakeway","store number":"WB00796","account":"Whataburger of Lakeway, TX; WB00796","neededbydate":"6/25/2012 20:00:00","geo_score":1.0,"street address":"2011 Ranch Road 620 South","zip code":"78734","notes":null,"assigned to":null,"id":"a6cpvyqghqes","scs ticket":"12-200971","geo_precision":"range","state":"TX"},"type":"Feature","geometry":{"type":"Point","coordinates":[-97.966142,30.344263]}},{"properties":{"city":"LaMarque","store number":"WB00599","account":"Whataburger of LaMarque, TX; WB00599","neededbydate":"7/10/2012 20:00:00","geo_score":1.0,"street address":"1004 FM 1764","zip code":"77568","notes":null,"assigned to":null,"id":"a6cpvz046mag","scs ticket":"12-201184","geo_precision":"range","state":"TX"},"type":"Feature","geometry":{"type":"Point","coordinates":[-95.033315,29.402392]}},{"properties":{"city":"LaPorte","store number":"WB00513","account":"Whataburger of LaPorte, TX; WB00513","neededbydate":"7/11/2012 20:00:00","geo_score":0.764,"street address":"117 Highway 146 South","zip code":"77571","notes":null,"assigned to":null,"id":"a6cpvysjxw3q","scs ticket":"12-201192","geo_precision":"range","state":"TX"},"type":"Feature","geometry":{"type":"Point","coordinates":[-95.019433,29.665514]}},{"properties":{"city":"League City","store number":"WB00592","account":"Whataburger of League City, TX; WB00592","neededbydate":"7/11/2012 20:00:00","geo_score":0.916,"street address":"2212 East Main","zip code":"77573","notes":null,"assigned to":null,"id":"a6cpvyx8r11y","scs ticket":"12-201194","geo_precision":"range","state":"TX"},"type":"Feature","geometry":{"type":"Point","coordinates":[-95.077159,29.521659]}},{"properties":{"city":"League City","store number":"WB00933","account":"Whataburger of League City, TX; WB00933","neededbydate":"7/12/2012 20:00:00","geo_score":1.0,"street address":"2990 Gulf Freeway South","zip code":"77573","notes":null,"assigned to":null,"id":"a6cpvz16l79f","scs ticket":"12-201198","geo_precision":"range","state":"TX"},"type":"Feature","geometry":{"type":"Point","coordinates":[-95.091946,29.468122]}},{"properties":{"city":"Leon Valley","store number":"WB00316","account":"Whataburger of Leon Valley, TX; WB00316","neededbydate":"6/27/2012 20:00:00","geo_score":1.0,"street address":"7016 Bandera Road","zip code":"78238","notes":null,"assigned to":null,"id":"a6cpvynd85m3","scs ticket":"12-201031","geo_precision":"range","state":"TX"},"type":"Feature","geometry":{"type":"Point","coordinates":[-98.624364,29.499915]}},{"properties":{"city":"Live Oak","store number":"WB00398","account":"Whataburger of Live Oak, TX; WB00398","neededbydate":"6/26/2012 20:00:00","geo_score":0.415,"street address":"12806 IH 35 North","zip code":"78233","notes":null,"assigned to":null,"id":"a6cpvyx61e3g","scs ticket":"12-201000","geo_precision":"street","state":"TX"},"type":"Feature","geometry":{"type":"Point","coordinates":[-98.475259,29.438131]}},{"properties":{"city":"Magnolia","store number":"WB00901","account":"Whataburger of Magnolia, TX; WB00901","neededbydate":"6/24/2012 20:00:00","geo_score":1.0,"street address":"6203 FM 1488","zip code":"77354","notes":null,"assigned to":null,"id":"a6cpvz31p7c9","scs ticket":"12-200916","geo_precision":"range","state":"TX"},"type":"Feature","geometry":{"type":"Point","coordinates":[-95.49513,30.232092]}},{"properties":{"city":"Magnolia","store number":"WB00948","account":"Whataburger of Magnolia, TX; WB00948","neededbydate":"6/24/2012 20:00:00","geo_score":1.0,"street address":"30330 FM 2978","zip code":"77354","notes":null,"assigned to":null,"id":"a6cpvys7x6oq","scs ticket":"12-200917","geo_precision":"range","state":"TX"},"type":"Feature","geometry":{"type":"Point","coordinates":[-95.591048,30.191336]}},{"properties":{"city":"Mercedes","store number":"WB00527","account":"Whataburger of Mercedes, TX; WB00527","neededbydate":"7/12/2012 20:00:00","geo_score":0.5,"street address":"4801 E. Expressway 83","zip code":"78570","notes":null,"assigned to":null,"id":"a6cpvyynyl1y","scs ticket":"12-201203","geo_precision":"street","state":"TX"},"type":"Feature","geometry":{"type":"Point","coordinates":[-97.922404,26.153579]}},{"properties":{"city":"Midland","store number":"WB00177","account":"Whataburger of Midland, TX; WB00177","neededbydate":"6/24/2012 20:00:00","geo_score":1.0,"street address":"800 Andrews Highway","zip code":"79701","notes":null,"assigned to":null,"id":"a6cpvysb1k86","scs ticket":"12-200935","geo_precision":"range","state":"TX"},"type":"Feature","geometry":{"type":"Point","coordinates":[-102.108634,31.998894]}},{"properties":{"city":"Midland","store number":"WB00704","account":"Whataburger of Midland, TX; WB00704","neededbydate":"6/24/2012 20:00:00","geo_score":0.797,"street address":"2517 East Interstate 20","zip code":"79701","notes":null,"assigned to":null,"id":"a6cpvyyfdcfu","scs ticket":"12-200936","geo_precision":"range","state":"TX"},"type":"Feature","geometry":{"type":"Point","coordinates":[-102.036181,31.983908]}},{"properties":{"city":"Midland","store number":"WB00295","account":"Whataburger of Midland, TX; WB00295","neededbydate":"6/25/2012 20:00:00","geo_score":0.913,"street address":"1905 North Big Spring Street","zip code":"79705","notes":null,"assigned to":null,"id":"a6cpvynioa63","scs ticket":"12-200973","geo_precision":"range","state":"TX"},"type":"Feature","geometry":{"type":"Point","coordinates":[-102.079227,32.015976]}},{"properties":{"city":"Midland","store number":"WB00297","account":"Whataburger of Midland, TX; WB00297","neededbydate":"6/25/2012 20:00:00","geo_score":0.825,"street address":"3206 Midkiff","zip code":"79705","notes":null,"assigned to":null,"id":"a6cpvz1lbd6w","scs ticket":"12-200974","geo_precision":"range","state":"TX"},"type":"Feature","geometry":{"type":"Point","coordinates":[-102.124248,32.017786]}},{"properties":{"city":"Missouri City","store number":"WB00990","account":"Whataburger of Missouri City, TX; WB00990","neededbydate":"7/1/2012 20:00:00","geo_score":0.643,"street address":"8820 Highway 6","zip code":"77459","notes":null,"assigned to":null,"id":"a6cpvz1zjgyp","scs ticket":"12-201076","geo_precision":"street","state":"TX"},"type":"Feature","geometry":{"type":"Point","coordinates":[-95.542023,29.540048]}},{"properties":{"city":"Odessa","store number":"WB00030","account":"Whataburger of Odessa, TX; WB00030","neededbydate":"6/26/2012 20:00:00","geo_score":0.643,"street address":"1900 E.  Eighth  Street","zip code":"79761","notes":null,"assigned to":null,"id":"a6cpvyot5386","scs ticket":"12-201011","geo_precision":"street","state":"TX"},"type":"Feature","geometry":{"type":"Point","coordinates":[-102.370383,31.851636]}},{"properties":{"city":"Odessa","store number":"WB00024","account":"Whataburger of Odessa, TX; WB00024","neededbydate":"6/26/2012 20:00:00","geo_score":1.0,"street address":"3716 Andrews Highway","zip code":"79762","notes":null,"assigned to":null,"id":"a6cpvysv93po","scs ticket":"12-201012","geo_precision":"range","state":"TX"},"type":"Feature","geometry":{"type":"Point","coordinates":[-102.38345,31.877938]}},{"properties":{"city":"Odessa","store number":"WB00302","account":"Whataburger of Odessa, TX; WB00302","neededbydate":"6/26/2012 20:00:00","geo_score":0.916,"street address":"4960  East 42nd Street","zip code":"79762","notes":null,"assigned to":null,"id":"a6cpvyo16xit","scs ticket":"12-201013","geo_precision":"range","state":"TX"},"type":"Feature","geometry":{"type":"Point","coordinates":[-102.335659,31.893283]}},{"properties":{"city":"Pasadena","store number":"WB00143","account":"Whataburger of Pasadena, TX; WB00143","neededbydate":"7/5/2012 20:00:00","geo_score":0.666,"street address":"810 East Southmore","zip code":"77503","notes":null,"assigned to":null,"id":"a6cpvywr8ef4","scs ticket":"12-201141","geo_precision":"street","state":"TX"},"type":"Feature","geometry":{"type":"Point","coordinates":[-95.171956,29.691786]}},{"properties":{"city":"Pasadena","store number":"WB00144","account":"Whataburger of Pasadena, TX; WB00144","neededbydate":"7/5/2012 20:00:00","geo_score":0.929,"street address":"4015 Red Bluff Road","zip code":"77503","notes":null,"assigned to":null,"id":"a6cpvyo3m2r9","scs ticket":"12-201142","geo_precision":"range","state":"TX"},"type":"Feature","geometry":{"type":"Point","coordinates":[-95.150681,29.681454]}},{"properties":{"city":"Pasadena","store number":"WB00035","account":"Whataburger of Pasadena, TX; WB00035","neededbydate":"7/8/2012 20:00:00","geo_score":1.0,"street address":"2301 Spencer Highway","zip code":"77504","notes":null,"assigned to":null,"id":"a6cpvyzxevgm","scs ticket":"12-201155","geo_precision":"range","state":"TX"},"type":"Feature","geometry":{"type":"Point","coordinates":[-95.206137,29.664824]}},{"properties":{"city":"Pasadena","store number":"WB00325","account":"Whataburger of Pasadena, TX; WB00325","neededbydate":"7/8/2012 20:00:00","geo_score":1.0,"street address":"4831 Fairmont Parkway","zip code":"77505","notes":null,"assigned to":null,"id":"a6cpvz1xzfkj","scs ticket":"12-201156","geo_precision":"range","state":"TX"},"type":"Feature","geometry":{"type":"Point","coordinates":[-95.170713,29.649523]}},{"properties":{"city":"Pearland","store number":"WB00433","account":"Whataburger of Pearland, TX; WB00433","neededbydate":"7/12/2012 20:00:00","geo_score":0.837,"street address":"2406 South Main","zip code":"77581","notes":null,"assigned to":null,"id":"a6cpvyqij6zw","scs ticket":"12-201199","geo_precision":"range","state":"TX"},"type":"Feature","geometry":{"type":"Point","coordinates":[-95.286062,29.563583]}},{"properties":{"city":"Pearland","store number":"WB00810","account":"Whataburger of Pearland, TX; WB00810","neededbydate":"7/12/2012 20:00:00","geo_score":1.0,"street address":"3040 Silverlake Village Dr.","zip code":"77584","notes":null,"assigned to":null,"id":"a6cpvyw3nyqy","scs ticket":"12-201200","geo_precision":"range","state":"TX"},"type":"Feature","geometry":{"type":"Point","coordinates":[-95.385768,29.553607]}},{"properties":{"city":"Pleasanton","store number":"WB00872","account":"Whataburger of Pleasanton, TX; WB00872","neededbydate":"6/27/2012 20:00:00","geo_score":0.854,"street address":"2173 west Oaklawn","zip code":"78064","notes":null,"assigned to":null,"id":"a6cpvyxd5gem","scs ticket":"12-201028","geo_precision":"range","state":"TX"},"type":"Feature","geometry":{"type":"Point","coordinates":[-98.513694,28.939503]}},{"properties":{"city":"Port Isabel","store number":"WB00328","account":"Whataburger of Port Isabel, TX; WB00328","neededbydate":"7/17/2012 20:00:00","geo_score":0.769,"street address":"1629 West Highway 100","zip code":"78578","notes":null,"assigned to":null,"id":"a6cpvz0n2o5o","scs ticket":"12-201213","geo_precision":"range","state":"TX"},"type":"Feature","geometry":{"type":"Point","coordinates":[-97.224723,26.072334]}},{"properties":{"city":"Port Lavaca","store number":"WB00323","account":"Whataburger of Port Lavaca, TX; WB00323","neededbydate":"6/26/2012 20:00:00","geo_score":0.525,"street address":"468 Hwy. 35 Bypass","zip code":"77979","notes":null,"assigned to":null,"id":"a6cpvynyw10c","scs ticket":"12-200997","geo_precision":"street","state":"TX"},"type":"Feature","geometry":{"type":"Point","coordinates":[-96.636005,28.625981]}},{"properties":{"city":"Porter","store number":"WB00607","account":"Whataburger of Porter, TX; WB00607","neededbydate":"6/24/2012 20:00:00","geo_score":0.875,"street address":"23607 US Highway 59 North","zip code":"77365","notes":null,"assigned to":null,"id":"a6cpvypt3ex9","scs ticket":"12-200918","geo_precision":"range","state":"TX"},"type":"Feature","geometry":{"type":"Point","coordinates":[-95.235779,30.10489]}},{"properties":{"city":"Richmond","store number":"WB00802","account":"Whataburger of Richmond, TX; WB00802","neededbydate":"7/1/2012 20:00:00","geo_score":0.634,"street address":"5400 FM 1640 Rd. #500","zip code":"77469","notes":null,"assigned to":null,"id":"a6cpvynyr3ye","scs ticket":"12-201077","geo_precision":"street","state":"TX"},"type":"Feature","geometry":{"type":"Point","coordinates":[-95.766177,29.558372]}},{"properties":{"city":"Richmond","store number":"WB00974","account":"Whataburger of Richmond, TX; WB00974","neededbydate":"7/1/2012 20:00:00","geo_score":0.61,"street address":"22710 Bellaire Boulevard","zip code":"77469","notes":null,"assigned to":null,"id":"a6cpvyvodr8p","scs ticket":"12-201078","geo_precision":"street","state":"TX"},"type":"Feature","geometry":{"type":"Point","coordinates":[-95.478383,29.70562]}},{"properties":{"city":"Sachse","store number":"WB00882","account":"Whataburger of Sachse, TX; WB00882","neededbydate":"6/24/2012 20:00:00","geo_score":0.63,"street address":"5060 SH 78","zip code":"75048","notes":null,"assigned to":null,"id":"a6cpvz26cdsg","scs ticket":"12-200909","geo_precision":"street","state":"TX"},"type":"Feature","geometry":{"type":"Point","coordinates":[-96.598305,32.97459]}},{"properties":{"city":"San Angelo","store number":"WB00147","account":"Whataburger of San Angelo, TX; WB00147","neededbydate":"6/27/2012 20:00:00","geo_score":0.913,"street address":"3202 Sherwood Way","zip code":"76901","notes":null,"assigned to":null,"id":"a6cpvz0qcfoq","scs ticket":"12-201041","geo_precision":"range","state":"TX"},"type":"Feature","geometry":{"type":"Point","coordinates":[-100.478879,31.445826]}},{"properties":{"city":"San Angelo","store number":"WB00519","account":"Whataburger of San Angelo, TX; WB00519","neededbydate":"6/28/2012 20:00:00","geo_score":0.894,"street address":"1830 North Bryant","zip code":"76903","notes":null,"assigned to":null,"id":"a6cpvyoh79ws","scs ticket":"12-201042","geo_precision":"range","state":"TX"},"type":"Feature","geometry":{"type":"Point","coordinates":[-100.452832,31.476191]}},{"properties":{"city":"San Angelo","store number":"WB00703","account":"Whataburger of San Angelo, TX; WB00703","neededbydate":"6/28/2012 20:00:00","geo_score":1.0,"street address":"4646 Knickerbocker  Road","zip code":"76904","notes":null,"assigned to":null,"id":"a6cpvytq8ovx","scs ticket":"12-201064","geo_precision":"range","state":"TX"},"type":"Feature","geometry":{"type":"Point","coordinates":[-100.474787,31.414056]}},{"properties":{"city":"San Antonio","store number":"WB00112","account":"Whataburger of San Antonio, TX; WB00112","neededbydate":"6/24/2012 20:00:00","geo_score":1.0,"street address":"7007 South Zarzamora","zip code":"78224","notes":null,"assigned to":null,"id":"a6cpvyw5av7z","scs ticket":"12-200922","geo_precision":"range","state":"TX"},"type":"Feature","geometry":{"type":"Point","coordinates":[-98.534107,29.357875]}},{"properties":{"city":"San Antonio","store number":"WB00320","account":"Whataburger of San Antonio, TX; WB00320","neededbydate":"6/24/2012 20:00:00","geo_score":0.857,"street address":"8214 Marbach","zip code":"78227","notes":null,"assigned to":null,"id":"a6cpvz1y95x9","scs ticket":"12-200923","geo_precision":"range","state":"TX"},"type":"Feature","geometry":{"type":"Point","coordinates":[-98.651073,29.41783]}},{"properties":{"city":"San Antonio","store number":"WB00985","account":"Whataburger of San Antonio, TX; WB00985","neededbydate":"6/24/2012 20:00:00","geo_score":0.35,"street address":"4590 NX Loop 410","zip code":"78229","notes":null,"assigned to":null,"id":"a6cpvyva185j","scs ticket":"12-200924","geo_precision":"street","state":"TX"},"type":"Feature","geometry":{"type":"Point","coordinates":[-98.419281,29.363028]}},{"properties":{"city":"San Antonio","store number":"WB00755","account":"Whataburger of San Antonio, TX; WB00755","neededbydate":"6/25/2012 20:00:00","geo_score":0.886,"street address":"2557 N. W. Loop 410","zip code":"78230","notes":null,"assigned to":null,"id":"a6cpvysankei","scs ticket":"12-200961","geo_precision":"zip","state":"TX"},"type":"Feature","geometry":{"type":"Point","coordinates":[-98.551686,29.488009]}},{"properties":{"city":"San Antonio","store number":"WB00327","account":"Whataburger of San Antonio, TX; WB00327","neededbydate":"6/25/2012 20:00:00","geo_score":0.72,"street address":"11003 NW Military HW","zip code":"78231","notes":null,"assigned to":null,"id":"a6cpvyq2jgsb","scs ticket":"12-200962","geo_precision":"street","state":"TX"},"type":"Feature","geometry":{"type":"Point","coordinates":[-98.533988,29.555176]}},{"properties":{"city":"San Antonio","store number":"WB00200","account":"Whataburger of San Antonio, TX; WB00200","neededbydate":"6/25/2012 20:00:00","geo_score":0.832,"street address":"14543 Brook Hollow","zip code":"78232","notes":null,"assigned to":null,"id":"a6cpvyq4ha9z","scs ticket":"12-200963","geo_precision":"range","state":"TX"},"type":"Feature","geometry":{"type":"Point","coordinates":[-98.475573,29.579588]}},{"properties":{"city":"San Antonio","store number":"WB00839","account":"Whataburger of San Antonio, TX; WB00839","neededbydate":"7/5/2012 20:00:00","geo_score":0.347,"street address":"2203  E. Evans Rd.","zip code":"78258","notes":null,"assigned to":null,"id":"a6cpvz0sqx1v","scs ticket":"12-201143","geo_precision":"street","state":"TX"},"type":"Feature","geometry":{"type":"Point","coordinates":[-98.42496,29.647539]}},{"properties":{"city":"San Antonio","store number":"WB00919","account":"Whataburger of San Antonio, TX; WB00919","neededbydate":"7/5/2012 20:00:00","geo_score":0.607,"street address":"4125 S. Loop 1604 E","zip code":"78264","notes":null,"assigned to":null,"id":"a6cpvyvtn6pt","scs ticket":"12-201144","geo_precision":"street","state":"TX"},"type":"Feature","geometry":{"type":"Point","coordinates":[-98.501369,29.213348]}},{"properties":{"city":"San Antonio","store number":"WB00362","account":"Whataburger of San Antonio, TX; WB00362","neededbydate":"6/26/2012 20:00:00","geo_score":0.48,"street address":"13900 O'Connor Road","zip code":"78233","notes":null,"assigned to":null,"id":"a6cpvyvuz6z6","scs ticket":"12-200999","geo_precision":"street","state":"TX"},"type":"Feature","geometry":{"type":"Point","coordinates":[-98.502029,29.393196]}},{"properties":{"city":"San Antonio","store number":"WB00149","account":"Whataburger of San Antonio, TX; WB00149","neededbydate":"6/26/2012 20:00:00","geo_score":0.947,"street address":"4646 West Commerce","zip code":"78237","notes":null,"assigned to":null,"id":"a6cpvypwp85l","scs ticket":"12-201001","geo_precision":"range","state":"TX"},"type":"Feature","geometry":{"type":"Point","coordinates":[-98.552897,29.43065]}},{"properties":{"city":"San Antonio","store number":"WB00315","account":"Whataburger of San Antonio, TX; WB00315","neededbydate":"6/27/2012 20:00:00","geo_score":0.844,"street address":"3202 Wurzbach","zip code":"78238","notes":null,"assigned to":null,"id":"a6cpvyvxt9px","scs ticket":"12-201030","geo_precision":"range","state":"TX"},"type":"Feature","geometry":{"type":"Point","coordinates":[-98.623126,29.466707]}},{"properties":{"city":"San Antonio","store number":"WB00699","account":"Whataburger of San Antonio, TX; WB00699","neededbydate":"6/27/2012 20:00:00","geo_score":1.0,"street address":"6391 Babcock Rd","zip code":"78240","notes":null,"assigned to":null,"id":"a6cpvyx6s2b4","scs ticket":"12-201032","geo_precision":"range","state":"TX"},"type":"Feature","geometry":{"type":"Point","coordinates":[-98.612581,29.54197]}},{"properties":{"city":"San Antonio","store number":"WB00710","account":"Whataburger of San Antonio, TX; WB00710","neededbydate":"6/28/2012 20:00:00","geo_score":1.0,"street address":"7725 FM 78","zip code":"78244","notes":null,"assigned to":null,"id":"a6cpvyplomyl","scs ticket":"12-201055","geo_precision":"range","state":"TX"},"type":"Feature","geometry":{"type":"Point","coordinates":[-98.334383,29.49156]}},{"properties":{"city":"San Antonio","store number":"WB00924","account":"Whataburger of San Antonio, TX; WB00924","neededbydate":"6/28/2012 20:00:00","geo_score":0.683,"street address":"8319 State Hwy 151","zip code":"78245","notes":null,"assigned to":null,"id":"a6cpvz3apit4","scs ticket":"12-201056","geo_precision":"street","state":"TX"},"type":"Feature","geometry":{"type":"Point","coordinates":[-98.658943,29.438789]}},{"properties":{"city":"San Antonio","store number":"WB00693","account":"Whataburger of San Antonio, TX; WB00693","neededbydate":"6/28/2012 20:00:00","geo_score":0.39,"street address":"6950 N. F.M. 1604 East","zip code":"78247","notes":null,"assigned to":null,"id":"a6cpvyzq51rk","scs ticket":"12-201057","geo_precision":"street","state":"TX"},"type":"Feature","geometry":{"type":"Point","coordinates":[-98.415324,29.406183]}},{"properties":{"city":"San Antonio","store number":"WB00596","account":"Whataburger of San Antonio, TX; WB00596","neededbydate":"7/1/2012 20:00:00","geo_score":0.659,"street address":"6803 North Loop 1604 West","zip code":"78249","notes":null,"assigned to":null,"id":"a6cpvyw70pz5","scs ticket":"12-201079","geo_precision":"range","state":"TX"},"type":"Feature","geometry":{"type":"Point","coordinates":[-98.622488,29.588242]}},{"properties":{"city":"San Antonio","store number":"WB00698","account":"Whataburger of San Antonio, TX; WB00698","neededbydate":"7/1/2012 20:00:00","geo_score":0.464,"street address":"9263 North FM 1604 West","zip code":"78249","notes":null,"assigned to":null,"id":"a6cpvyxemxjs","scs ticket":"12-201080","geo_precision":"street","state":"TX"},"type":"Feature","geometry":{"type":"Point","coordinates":[-98.631141,29.587239]}},{"properties":{"city":"San Antonio","store number":"WB00717","account":"Whataburger of San Antonio, TX; WB00717","neededbydate":"7/1/2012 20:00:00","geo_score":0.376,"street address":"12808 IH-10 West","zip code":"78249","notes":null,"assigned to":null,"id":"a6cpvyyqr0ab","scs ticket":"12-201081","geo_precision":"street","state":"TX"},"type":"Feature","geometry":{"type":"Point","coordinates":[-98.422738,29.405458]}},{"properties":{"city":"San Antonio","store number":"WB00329","account":"Whataburger of San Antonio, TX; WB00329","neededbydate":"7/2/2012 20:00:00","geo_score":0.951,"street address":"8756 FM 471 West","zip code":"78251","notes":null,"assigned to":null,"id":"a6cpvyp3lbvg","scs ticket":"12-201103","geo_precision":"range","state":"TX"},"type":"Feature","geometry":{"type":"Point","coordinates":[-98.657183,29.479639]}},{"properties":{"city":"San Antonio","store number":"WB00790","account":"Whataburger of San Antonio, TX; WB00790","neededbydate":"7/2/2012 20:00:00","geo_score":0.607,"street address":"5760 W. Loop 1604 N.","zip code":"78251","notes":null,"assigned to":null,"id":"a6cpvyo89egw","scs ticket":"12-201104","geo_precision":"street","state":"TX"},"type":"Feature","geometry":{"type":"Point","coordinates":[-98.711148,29.435664]}},{"properties":{"city":"San Antonio","store number":"WB00946","account":"Whataburger of San Antonio, TX; WB00946","neededbydate":"7/2/2012 20:00:00","geo_score":0.805,"street address":"530 West 1604 North (Potranco &amp; 1604)","zip code":"78251","notes":null,"assigned to":null,"id":"a6cpvytmsa4w","scs ticket":"12-201105","geo_precision":"range","state":"TX"},"type":"Feature","geometry":{"type":"Point","coordinates":[-98.711257,29.450757]}},{"properties":{"city":"San Antonio","store number":"WB01008","account":"Whataburger of San Antonio, TX; WB01008","neededbydate":"7/3/2012 20:00:00","geo_score":0.376,"street address":"18303 IH 10 W.","zip code":"78257","notes":null,"assigned to":null,"id":"a6cpvysraupo","scs ticket":"12-201126","geo_precision":"street","state":"TX"},"type":"Feature","geometry":{"type":"Point","coordinates":[-98.422738,29.405458]}},{"properties":{"city":"San Antonio","store number":"WB00660","account":"Whataburger of San Antonio, TX; WB00660","neededbydate":"7/3/2012 20:00:00","geo_score":0.854,"street address":"18417 North US 281","zip code":"78258","notes":null,"assigned to":null,"id":"a6cpvz1jkav7","scs ticket":"12-201127","geo_precision":"range","state":"TX"},"type":"Feature","geometry":{"type":"Point","coordinates":[-98.467833,29.611573]}},{"properties":{"city":"San Antonio","store number":"WB00749","account":"Whataburger of San Antonio, TX; WB00749","neededbydate":"7/3/2012 20:00:00","geo_score":1.0,"street address":"18330 Blanco Rd.","zip code":"78258","notes":null,"assigned to":null,"id":"a6cpvz2w1c17","scs ticket":"12-201128","geo_precision":"range","state":"TX"},"type":"Feature","geometry":{"type":"Point","coordinates":[-98.508585,29.611281]}},{"properties":{"city":"San Antonio","store number":"WB00814","account":"Whataburger of San Antonio, TX; WB00814","neededbydate":"TBD","geo_score":0.857,"street address":null,"zip code":"78219","notes":"site is in AT&amp;T Center","assigned to":null,"id":"a6cpvytqly7p","scs ticket":"12-181193","geo_precision":"zip","state":"TX"},"type":"Feature","geometry":{"type":"Point","coordinates":[-98.38557,29.463288]}},{"properties":{"city":"Schertz","store number":"WB00918","account":"Whataburger of Schertz, TX; WB00918","neededbydate":"7/9/2012 20:00:00","geo_score":0.93,"street address":"5570 FM 3009","zip code":"78154","notes":null,"assigned to":null,"id":"a6cpvyz7r1bf","scs ticket":"12-201173","geo_precision":"range","state":"TX"},"type":"Feature","geometry":{"type":"Point","coordinates":[-98.277804,29.60107]}},{"properties":{"city":"Schulenburg","store number":"WB00789","account":"Whataburger of Schulenburg, TX; WB00789","neededbydate":"7/2/2012 20:00:00","geo_score":0.481,"street address":"40 N. Kessler","zip code":"78956","notes":null,"assigned to":null,"id":"a6cpvypf0zo8","scs ticket":"12-201111","geo_precision":"street","state":"TX"},"type":"Feature","geometry":{"type":"Point","coordinates":[-96.902662,29.690873]}},{"properties":{"city":"Seabrook","store number":"WB00487","account":"Whataburger of Seabrook, TX; WB00487","neededbydate":"7/15/2012 20:00:00","geo_score":0.914,"street address":"1408 Bayport Blvd.","zip code":"77586","notes":null,"assigned to":null,"id":"a6cpvyuh8lxp","scs ticket":"12-201204","geo_precision":"range","state":"TX"},"type":"Feature","geometry":{"type":"Point","coordinates":[-95.026036,29.565282]}},{"properties":{"city":"Sealy","store number":"WB00418","account":"Whataburger of Sealy, TX; WB00418","neededbydate":"7/2/2012 20:00:00","geo_score":0.919,"street address":"2013 Meyer St.","zip code":"77474","notes":null,"assigned to":null,"id":"a6cpvyzi5ezm","scs ticket":"12-201100","geo_precision":"range","state":"TX"},"type":"Feature","geometry":{"type":"Point","coordinates":[-96.152516,29.763915]}},{"properties":{"city":"Seguin","store number":"WB00406","account":"Whataburger of Seguin, TX; WB00406","neededbydate":"7/9/2012 20:00:00","geo_score":0.351,"street address":"318 North Hwy. 123 Bypass","zip code":"78155","notes":null,"assigned to":null,"id":"a6cpvz1s6w4m","scs ticket":"12-201174","geo_precision":"street","state":"TX"},"type":"Feature","geometry":{"type":"Point","coordinates":[-98.289926,29.553485]}},{"properties":{"city":"Seguin","store number":"WB00897","account":"Whataburger of Seguin, TX; WB00897","neededbydate":"7/9/2012 20:00:00","geo_score":0.476,"street address":"1520 N. State Hwy 46","zip code":"78155","notes":null,"assigned to":null,"id":"a6cpvyrlfcy4","scs ticket":"12-201175","geo_precision":"street","state":"TX"},"type":"Feature","geometry":{"type":"Point","coordinates":[-97.988771,29.569962]}},{"properties":{"city":"Spring","store number":"WB00750","account":"Whataburger of Spring, TX; WB00750","neededbydate":"6/25/2012 20:00:00","geo_score":0.683,"street address":"20550 Interstate 45","zip code":"77373","notes":null,"assigned to":null,"id":"a6cpvz2kxkjf","scs ticket":"12-200955","geo_precision":"range","state":"TX"},"type":"Feature","geometry":{"type":"Point","coordinates":[-95.433471,30.061103]}},{"properties":{"city":"Spring","store number":"WB00903","account":"Whataburger of Spring, TX; WB00903","neededbydate":"6/26/2012 20:00:00","geo_score":0.708,"street address":"21310 Kuykendahl Rd.","zip code":"77379","notes":null,"assigned to":null,"id":"a6cpvywfel5w","scs ticket":"12-200993","geo_precision":"street","state":"TX"},"type":"Feature","geometry":{"type":"Point","coordinates":[-95.513421,30.074102]}},{"properties":{"city":"Spring","store number":"WB00439","account":"Whataburger of Spring, TX; WB00439","neededbydate":"6/26/2012 20:00:00","geo_score":0.911,"street address":"316 Sawdust Road","zip code":"77380","notes":null,"assigned to":null,"id":"a6cpvz2nt1gg","scs ticket":"12-200994","geo_precision":"range","state":"TX"},"type":"Feature","geometry":{"type":"Point","coordinates":[-95.447716,30.126696]}},{"properties":{"city":"Stafford","store number":"WB00434","account":"Whataburger of Stafford, TX; WB00434","neededbydate":"7/2/2012 20:00:00","geo_score":0.911,"street address":"13030 Murphy road","zip code":"77477","notes":null,"assigned to":null,"id":"a6cpvyqki4z6","scs ticket":"12-201101","geo_precision":"range","state":"TX"},"type":"Feature","geometry":{"type":"Point","coordinates":[-95.565033,29.633445]}},{"properties":{"city":"Stephenville","store number":"WB00476","account":"Whataburger of Stephenville, TX; WB00476","neededbydate":"6/26/2012 20:00:00","geo_score":0.505,"street address":"2830 W. Washington St.","zip code":"76401","notes":null,"assigned to":null,"id":"a6cpvz1dsny4","scs ticket":"12-201004","geo_precision":"street","state":"TX"},"type":"Feature","geometry":{"type":"Point","coordinates":[-98.204304,32.219574]}},{"properties":{"city":"Sugarland","store number":"WB00569","account":"Whataburger of Sugarland, TX; WB00569","neededbydate":"7/2/2012 20:00:00","geo_score":0.805,"street address":"4530 Highway 6 South","zip code":"77478","notes":null,"assigned to":null,"id":"a6cpvyyefw7h","scs ticket":"12-201102","geo_precision":"range","state":"TX"},"type":"Feature","geometry":{"type":"Point","coordinates":[-95.585348,29.582284]}},{"properties":{"city":"Sugarland","store number":"WB00797","account":"Whataburger of Sugarland, TX; WB00797","neededbydate":"7/3/2012 20:00:00","geo_score":0.333,"street address":"17480 W. Grand Pkwy. South","zip code":"77479","notes":null,"assigned to":null,"id":"a6cpvyqrpy3t","scs ticket":"12-201123","geo_precision":"street","state":"TX"},"type":"Feature","geometry":{"type":"Point","coordinates":[-95.776916,29.779116]}},{"properties":{"city":"Texas City","store number":"WB00040","account":"Whataburger of Texas City, TX; WB00040","neededbydate":"7/15/2012 20:00:00","geo_score":0.954,"street address":"2411 Palmer Highway","zip code":"77590","notes":null,"assigned to":null,"id":"a6cpvypm2ty2","scs ticket":"12-201205","geo_precision":"range","state":"TX"},"type":"Feature","geometry":{"type":"Point","coordinates":[-94.929319,29.394523]}},{"properties":{"city":"The Colony","store number":"WB00748","account":"Whataburger of The Colony, TX; WB00748","neededbydate":"6/26/2012 20:00:00","geo_score":1.0,"street address":"4687 State Highway 121","zip code":"75056","notes":null,"assigned to":null,"id":"a6cpvyt9z3lj","scs ticket":"12-200985","geo_precision":"range","state":"TX"},"type":"Feature","geometry":{"type":"Point","coordinates":[-96.876846,33.071762]}},{"properties":{"city":"The Woodlands","store number":"WB00823","account":"Whataburger of The Woodlands, TX; WB00823","neededbydate":"6/26/2012 20:00:00","geo_score":0.717,"street address":"3073 College Park Drive","zip code":"77384","notes":null,"assigned to":null,"id":"a6cpvyufhauk","scs ticket":"12-200995","geo_precision":"street","state":"TX"},"type":"Feature","geometry":{"type":"Point","coordinates":[-95.458854,30.207095]}},{"properties":{"city":"Tomball","store number":"WB00560","account":"Whataburger of Tomball, TX; WB00560","neededbydate":"6/25/2012 20:00:00","geo_score":0.939,"street address":"28315 Tomball Pkwy","zip code":"77375","notes":null,"assigned to":null,"id":"a6cpvys9zmjd","scs ticket":"12-200956","geo_precision":"range","state":"TX"},"type":"Feature","geometry":{"type":"Point","coordinates":[-95.631479,30.085503]}},{"properties":{"city":"Uvalde","store number":"WB00409","account":"Whataburger of Uvalde, TX; WB00409","neededbydate":"6/28/2012 20:00:00","geo_score":0.633,"street address":"2111 E. Main St.","zip code":"78802","notes":null,"assigned to":null,"id":"a6cpvz33xfgf","scs ticket":"12-201063","geo_precision":"street","state":"TX"},"type":"Feature","geometry":{"type":"Point","coordinates":[-99.762988,29.222744]}},{"properties":{"city":"Victoria","store number":"WB00010","account":"Whataburger of Victoria, TX; WB00010","neededbydate":"6/24/2012 20:00:00","geo_score":0.532,"street address":"509 E. Rio Grande","zip code":"77901","notes":null,"assigned to":null,"id":"a6cpvyu32ve7","scs ticket":"12-200919","geo_precision":"street","state":"TX"},"type":"Feature","geometry":{"type":"Point","coordinates":[-96.99337,28.792952]}},{"properties":{"city":"Victoria","store number":"WB00175","account":"Whataburger of Victoria, TX; WB00175","neededbydate":"6/24/2012 20:00:00","geo_score":0.489,"street address":"4302 N. Navarro","zip code":"77901","notes":null,"assigned to":null,"id":"a6cpvysd4ihs","scs ticket":"12-200920","geo_precision":"street","state":"TX"},"type":"Feature","geometry":{"type":"Point","coordinates":[-97.001161,28.79757]}},{"properties":{"city":"Victoria","store number":"WB00788","account":"Whataburger of Victoria, TX; WB00788","neededbydate":"6/24/2012 20:00:00","geo_score":0.915,"street address":"3603 Houston Hwy.","zip code":"77901","notes":null,"assigned to":null,"id":"a6cpvyuatsr2","scs ticket":"12-200921","geo_precision":"range","state":"TX"},"type":"Feature","geometry":{"type":"Point","coordinates":[-96.966274,28.815561]}},{"properties":{"city":"Victoria","store number":"WB00616","account":"Whataburger of Victoria, TX; WB00616","neededbydate":"6/25/2012 20:00:00","geo_score":0.941,"street address":"8908 North Navarro","zip code":"77904","notes":null,"assigned to":null,"id":"a6cpvypo7b1d","scs ticket":"12-200958","geo_precision":"range","state":"TX"},"type":"Feature","geometry":{"type":"Point","coordinates":[-96.997301,28.876568]}},{"properties":{"city":"Webster","store number":"WB00375","account":"Whataburger of Webster, TX; WB00375","neededbydate":"7/15/2012 20:00:00","geo_score":0.963,"street address":"100 NASA Road 1","zip code":"77598","notes":null,"assigned to":null,"id":"a6cpvyp1vbmk","scs ticket":"12-201206","geo_precision":"range","state":"TX"},"type":"Feature","geometry":{"type":"Point","coordinates":[-95.118042,29.537778]}},{"properties":{"city":"Wharton","store number":"WB00467","account":"Whataburger of Wharton, TX; WB00467","neededbydate":"7/3/2012 20:00:00","geo_score":0.667,"street address":"10319 Us 59","zip code":"77488","notes":null,"assigned to":null,"id":"a6cpvyx5kt1y","scs ticket":"12-201124","geo_precision":"range","state":"TX"},"type":"Feature","geometry":{"type":"Point","coordinates":[-96.121086,29.32713]}},{"properties":{"city":"Wichita Falls","store number":"WB00435","account":"Whataburger of Wichita Falls, TX; WB00435","neededbydate":"6/25/2012 20:00:00","geo_score":0.78,"street address":"1040 Central Expressway (Maurine)","zip code":"76305","notes":null,"assigned to":null,"id":"a6cpvz0k612i","scs ticket":"12-200965","geo_precision":"street","state":"TX"},"type":"Feature","geometry":{"type":"Point","coordinates":[-98.51619,33.93627]}},{"properties":{"city":"Wichita Falls","store number":"WB00384","account":"Whataburger of Wichita Falls, TX; WB00384","neededbydate":"6/25/2012 20:00:00","geo_score":0.748,"street address":"3404 McNeil Street","zip code":"76308","notes":null,"assigned to":null,"id":"a6cpvyx650j4","scs ticket":"12-200966","geo_precision":"range","state":"TX"},"type":"Feature","geometry":{"type":"Point","coordinates":[-98.547753,33.877234]}},{"properties":{"city":"Wichita Falls","store number":"WB00520","account":"Whataburger of Wichita Falls, TX; WB00520","neededbydate":"6/26/2012 20:00:00","geo_score":0.753,"street address":"2725 Southwest Parkway","zip code":"76308","notes":null,"assigned to":null,"id":"a6cpvys5xv50","scs ticket":"12-201002","geo_precision":"range","state":"TX"},"type":"Feature","geometry":{"type":"Point","coordinates":[-98.531999,33.857779]}},{"properties":{"city":"Willow Park","store number":"WB00771","account":"Whataburger of Willow Park, TX; WB00771","neededbydate":"7/1/2012 20:00:00","geo_score":0.371,"street address":"4915 E. IH-20","zip code":"76087","notes":null,"assigned to":null,"id":"a6cpvz18eft3","scs ticket":"12-201070","geo_precision":"street","state":"TX"},"type":"Feature","geometry":{"type":"Point","coordinates":[-96.994013,32.479593]}}],"is_temporal":false,"author":{"url":"","metadata":"","contact_name":"","contact_address":"","source":"","contact_phone":""},"source":"","pagination":{"sort":null,"start":0,"total":214,"limit":1000000},"state":"complete","tags":"","published":"2014-08-14T15:57:50-04:00","id":250840}