{"type":"FeatureCollection","data_type":"Dataset","url_type":null,"permissions":[{"permissions":{"download":true,"view":true},"group_id":"everyone"}],"classification":null,"title":"CPR","count":29,"stream_id":252145,"contributor":{"url":"http://geocommons.com/users/47419","name":"sandra.richman"},"data_attributes":null,"calculation_params":null,"icon_link":null,"link":"http://geocommons.com/overlays/252145.json","extent":[-122.332,25.7743,-74.006,47.6062],"geometry_types":["point"],"unique_name":null,"name":"CPR","feature_count":29,"description":"cost per referral for theravance phase 2","next_feature":null,"is_raster":false,"short_classification":"Y","stats":{"cost/referral":{"max":4046.07,"variance":566376.710174877,"mean":739.779655172414,"stdev":752.580035727016,"min":178.14,"median":486.64},"spending category":{"max":5,"count":5,"variance":1.33743842364532,"mean":2.86206896551724,"counts_by_value":{"5":4,"1":1,"2":14,"3":6,"4":4},"list":[1,2,3,4,5],"stdev":1.156476728536,"min":1,"median":2}},"features":[{"properties":{"city":"Springfield","designated market area":"Springfield, MO","cost/referral":178.14,"column_6":null,"column_7":null,"geo_score":0.792,"spending category":1,"id":"a6f2ko2kjoqw","geo_precision":"city","state":"MO"},"type":"Feature","geometry":{"type":"Point","coordinates":[-91.237925,38.295605]}},{"properties":{"city":"Fresno - Visalia","designated market area":"Fresno - Visalia, CA","cost/referral":260.56,"column_6":null,"column_7":null,"geo_score":0.78,"spending category":2,"id":"a6f2ko1vmm29","geo_precision":"city","state":"CA"},"type":"Feature","geometry":{"type":"Point","coordinates":[-119.772366,36.747727]}},{"properties":{"city":"Columbus","designated market area":"Columbus, OH","cost/referral":261.81,"column_6":null,"column_7":null,"geo_score":0.776,"spending category":2,"id":"a6f2ko3wtq3j","geo_precision":"city","state":"OH"},"type":"Feature","geometry":{"type":"Point","coordinates":[-82.695724,39.998397]}},{"properties":{"city":"Atlanta","designated market area":"Atlanta, GA","cost/referral":290.87,"column_6":null,"column_7":null,"geo_score":0.857,"spending category":2,"id":"a6f2kny55p85","geo_precision":"city","state":"GA"},"type":"Feature","geometry":{"type":"Point","coordinates":[-84.387982,33.748995]}},{"properties":{"city":"Pensacola","designated market area":"Mobile, AL / Pensacola, FL","cost/referral":294.35,"column_6":null,"column_7":null,"geo_score":0.857,"spending category":2,"id":"a6f2kodt0vxv","geo_precision":"city","state":"FL"},"type":"Feature","geometry":{"type":"Point","coordinates":[-87.216915,30.421309]}},{"properties":{"city":"Roanoke","designated market area":"Roanoke - Lynchburg, VA","cost/referral":299.03,"column_6":null,"column_7":null,"geo_score":0.857,"spending category":2,"id":"a6f2kocx2tkt","geo_precision":"city","state":"VA"},"type":"Feature","geometry":{"type":"Point","coordinates":[-79.941427,37.27097]}},{"properties":{"city":"Champaign","designated market area":"Champaign - Springfield - Decatur, IL","cost/referral":308.28,"column_6":null,"column_7":null,"geo_score":0.857,"spending category":2,"id":"a6f2ko0dh3ra","geo_precision":"city","state":"IL"},"type":"Feature","geometry":{"type":"Point","coordinates":[-88.243383,40.116421]}},{"properties":{"city":"Chattanooga","designated market area":"Chattanooga, TN","cost/referral":319.51,"column_6":null,"column_7":null,"geo_score":0.857,"spending category":2,"id":"a6f2ko77ks4s","geo_precision":"city","state":"TN"},"type":"Feature","geometry":{"type":"Point","coordinates":[-85.30968,35.04563]}},{"properties":{"city":"Indianapolis","designated market area":"Indianapolis, IN","cost/referral":353.84,"column_6":null,"column_7":null,"geo_score":0.857,"spending category":2,"id":"a6f2ko3u9zh4","geo_precision":"city","state":"IN"},"type":"Feature","geometry":{"type":"Point","coordinates":[-86.158042,39.768377]}},{"properties":{"city":"Birmingham","designated market area":"Birmingham, AL","cost/referral":396.4,"column_6":null,"column_7":null,"geo_score":0.857,"spending category":2,"id":"a6f2koo2gcwb","geo_precision":"city","state":"AL"},"type":"Feature","geometry":{"type":"Point","coordinates":[-86.80249,33.520661]}},{"properties":{"city":"Phoenix","designated market area":"Phoenix, AZ","cost/referral":405.11,"column_6":null,"column_7":null,"geo_score":0.857,"spending category":2,"id":"a6f2komu8evq","geo_precision":"city","state":"AZ"},"type":"Feature","geometry":{"type":"Point","coordinates":[-112.074037,33.448377]}},{"properties":{"city":"Des Moines","designated market area":"Des Moines - Ames, IA","cost/referral":450.95,"column_6":null,"column_7":null,"geo_score":0.857,"spending category":2,"id":"a6f2koq6gts8","geo_precision":"city","state":"IA"},"type":"Feature","geometry":{"type":"Point","coordinates":[-93.609106,41.600545]}},{"properties":{"city":"El Dorado","designated market area":"Monroe, LA / El Dorado, AR","cost/referral":469.03,"column_6":null,"column_7":null,"geo_score":0.75,"spending category":2,"id":"a6f2kolls371","geo_precision":"city","state":"AR"},"type":"Feature","geometry":{"type":"Point","coordinates":[-92.896003,35.902299]}},{"properties":{"city":"Dayton","designated market area":"Dayton, OH","cost/referral":471.29,"column_6":null,"column_7":null,"geo_score":0.857,"spending category":2,"id":"a6f2kopob6yn","geo_precision":"city","state":"OH"},"type":"Feature","geometry":{"type":"Point","coordinates":[-84.191607,39.758948]}},{"properties":{"city":"Houston","designated market area":"Houston, TX","cost/referral":486.64,"column_6":null,"column_7":null,"geo_score":0.816,"spending category":2,"id":"a6f2kor7qum7","geo_precision":"city","state":"TX"},"type":"Feature","geometry":{"type":"Point","coordinates":[-96.919704,29.845783]}},{"properties":{"city":"Brunswick","designated market area":"Jacksonville, FL / Brunswick, GA","cost/referral":577.55,"column_6":null,"column_7":null,"geo_score":0.857,"spending category":3,"id":"a6f2konn0cxz","geo_precision":"city","state":"GA"},"type":"Feature","geometry":{"type":"Point","coordinates":[-81.492883,31.230428]}},{"properties":{"city":"Tampa","designated market area":"Tampa - St. Petersburg - Sarasota, FL","cost/referral":642.67,"column_6":null,"column_7":null,"geo_score":0.857,"spending category":3,"id":"a6f2koeeli8n","geo_precision":"city","state":"FL"},"type":"Feature","geometry":{"type":"Point","coordinates":[-82.458428,27.947522]}},{"properties":{"city":"Dallas","designated market area":"Dallas - Ft. Worth, TX","cost/referral":668.0,"column_6":null,"column_7":null,"geo_score":0.857,"spending category":3,"id":"a6f2kogiv6us","geo_precision":"city","state":"TX"},"type":"Feature","geometry":{"type":"Point","coordinates":[-96.806667,32.783056]}},{"properties":{"city":"Seattle","designated market area":"Seattle - Tacoma, WA","cost/referral":683.22,"column_6":null,"column_7":null,"geo_score":0.857,"spending category":3,"id":"a6f2koeibd36","geo_precision":"city","state":"WA"},"type":"Feature","geometry":{"type":"Point","coordinates":[-122.332071,47.60621]}},{"properties":{"city":"Charleston","designated market area":"Charleston, SC","cost/referral":742.92,"column_6":null,"column_7":null,"geo_score":0.798,"spending category":3,"id":"a6f2kodzugca","geo_precision":"city","state":"SC"},"type":"Feature","geometry":{"type":"Point","coordinates":[-79.970643,32.85712]}},{"properties":{"city":"Lexington","designated market area":"Lexington, KY","cost/referral":743.2,"column_6":null,"column_7":null,"geo_score":0.857,"spending category":3,"id":"a6f2kof3kaah","geo_precision":"city","state":"KY"},"type":"Feature","geometry":{"type":"Point","coordinates":[-84.477715,37.988689]}},{"properties":{"city":"New York","designated market area":"New York, NY","cost/referral":756.81,"column_6":null,"column_7":null,"geo_score":0.857,"spending category":4,"id":"a6f2kok2t2gl","geo_precision":"city","state":"NY"},"type":"Feature","geometry":{"type":"Point","coordinates":[-74.005973,40.714269]}},{"properties":{"city":"Beaumont","designated market area":"Beaumont - Port Arthur, TX","cost/referral":814.79,"column_6":null,"column_7":null,"geo_score":0.857,"spending category":4,"id":"a6f2koigour9","geo_precision":"city","state":"TX"},"type":"Feature","geometry":{"type":"Point","coordinates":[-94.101846,30.086046]}},{"properties":{"city":"Tucson","designated market area":"Tucson, AZ","cost/referral":928.72,"column_6":null,"column_7":null,"geo_score":0.857,"spending category":4,"id":"a6f2kou26owi","geo_precision":"city","state":"AZ"},"type":"Feature","geometry":{"type":"Point","coordinates":[-110.926479,32.221743]}},{"properties":{"city":"Orlando","designated market area":"Orlando - Daytona Beach - Melbourne, FL","cost/referral":936.27,"column_6":null,"column_7":null,"geo_score":0.857,"spending category":4,"id":"a6f2kologpjq","geo_precision":"city","state":"FL"},"type":"Feature","geometry":{"type":"Point","coordinates":[-81.379237,28.538336]}},{"properties":{"city":"Biloxi","designated market area":"Biloxi - Gulfport, MS","cost/referral":1158.29,"column_6":null,"column_7":null,"geo_score":0.857,"spending category":5,"id":"a6f2kopfa3z5","geo_precision":"city","state":"MS"},"type":"Feature","geometry":{"type":"Point","coordinates":[-88.978634,30.432454]}},{"properties":{"city":"Philadelphia","designated market area":"Philadelphia, PA","cost/referral":1467.17,"column_6":null,"column_7":null,"geo_score":0.857,"spending category":5,"id":"a6f2koi73e7a","geo_precision":"city","state":"PA"},"type":"Feature","geometry":{"type":"Point","coordinates":[-75.163789,39.952335]}},{"properties":{"city":"Memphis","designated market area":"Memphis, TN","cost/referral":2042.12,"column_6":null,"column_7":null,"geo_score":0.857,"spending category":5,"id":"a6f2koj3k0v4","geo_precision":"city","state":"TN"},"type":"Feature","geometry":{"type":"Point","coordinates":[-90.04898,35.149534]}},{"properties":{"city":"Miami","designated market area":"Miami - Ft. Lauderdale, FL","cost/referral":4046.07,"column_6":null,"column_7":null,"geo_score":0.857,"spending category":5,"id":"a6f2koovoq6w","geo_precision":"city","state":"FL"},"type":"Feature","geometry":{"type":"Point","coordinates":[-80.193659,25.774266]}}],"is_temporal":false,"author":{"url":"","metadata":"","contact_name":"","contact_address":"","source":"","contact_phone":""},"source":"","pagination":{"sort":null,"start":0,"total":29,"limit":1000000},"state":"complete","tags":"","published":"2014-08-14T17:41:21-04:00","id":252145}