{"type":"FeatureCollection","data_type":"Dataset","url_type":null,"permissions":[{"permissions":{"download":true,"view":true},"group_id":"everyone"}],"classification":null,"title":"Pedestrian12HrCounts","count":83,"stream_id":252228,"contributor":{"url":"http://geocommons.com/users/47460","name":"acklepper"},"data_attributes":null,"calculation_params":null,"icon_link":null,"link":"http://geocommons.com/overlays/252228.json","extent":[-79.1214,35.8811,-78.8696,36.0905],"geometry_types":["point"],"unique_name":null,"name":"Pedestrian12HrCounts","feature_count":83,"description":"","next_feature":null,"is_raster":false,"short_classification":"Y","stats":{"EB_Total":{"max":747.0,"variance":20757.0361445783,"mean":92.1566265060241,"stdev":144.07302365321,"min":0.0,"median":37.0},"SB_Total":{"max":526.0,"variance":13690.0534822216,"mean":96.566265060241,"stdev":117.004501974162,"min":0.0,"median":48.0},"ID_1":{"max":85.0,"variance":624.012048192771,"mean":42.9879518072289,"stdev":24.9802331492877,"min":1.0,"median":42.0},"Id":{"max":0,"variance":0.0,"mean":0.0,"stdev":0.0,"min":0,"median":0},"NB_Total":{"max":844.0,"variance":21137.3444019982,"mean":93.578313253012,"stdev":145.386878369398,"min":0.0,"median":39.0},"Total":{"max":2875.0,"variance":262604.518366148,"mean":389.44578313253,"stdev":512.449527627988,"min":1.0,"median":226.0},"WB_Total":{"max":1671.0,"variance":46299.734939759,"mean":107.144578313253,"stdev":215.173731992915,"min":0.0,"median":38.0},"IDD":{"max":31.0,"variance":67.8709961798413,"mean":12.6265060240964,"stdev":8.23838553236259,"min":1.0,"median":11.0},"LocID":{"max":85,"variance":624.012048192771,"mean":42.9879518072289,"stdev":24.9802331492877,"min":1,"median":42}},"features":[{"properties":{"NS_Street":"Hamilton Rd","City":"Chapel hill","ID_1":1.0,"SB_Total":67.0,"EB_Total":96.0,"Location":"NC 54 @ Hamilton Rd","County":"Orange","Id":0,"NB_Total":81.0,"Total":306.0,"id":"a6f6zhk074v6","LocID":1,"IDD":1.0,"EW_Street":"NC 54","WB_Total":62.0},"type":"Feature","geometry":{"type":"Point","coordinates":[-79.0238107025801,35.9081060779666]}},{"properties":{"NS_Street":"MLK Blvd","City":"Chapel hill","ID_1":2.0,"SB_Total":24.0,"EB_Total":0.0,"Location":"MLK Blvd @ Perkins Dr","County":"Orange","Id":0,"NB_Total":34.0,"Total":86.0,"id":"a6f6zhqbasr1","LocID":2,"IDD":2.0,"EW_Street":"Perkins Dr","WB_Total":28.0},"type":"Feature","geometry":{"type":"Point","coordinates":[-79.0591038555036,35.9661355692397]}},{"properties":{"NS_Street":"MLK Blvd","City":"Chapel hill","ID_1":3.0,"SB_Total":124.0,"EB_Total":0.0,"Location":"MLK Blvd @ Shadow Dr","County":"Orange","Id":0,"NB_Total":147.0,"Total":368.0,"id":"a6f6zhyunoky","LocID":3,"IDD":3.0,"EW_Street":"Shadow Dr","WB_Total":97.0},"type":"Feature","geometry":{"type":"Point","coordinates":[-79.0563854277381,35.9367791397364]}},{"properties":{"NS_Street":"MLK Blvd","City":"Chapel hill","ID_1":4.0,"SB_Total":0.0,"EB_Total":20.0,"Location":"MLK Blvd @ YMCA Driveway","County":"Orange","Id":0,"NB_Total":0.0,"Total":171.0,"id":"a6f6zhli8et4","LocID":4,"IDD":4.0,"EW_Street":"YMCA Driveway","WB_Total":151.0},"type":"Feature","geometry":{"type":"Point","coordinates":[-79.0558803890063,35.9342411962782]}},{"properties":{"NS_Street":"MLK Blvd","City":"Chapel hill","ID_1":5.0,"SB_Total":32.0,"EB_Total":88.0,"Location":"MLK Blvd @ Bolin Creek Greenway","County":"Orange","Id":0,"NB_Total":104.0,"Total":304.0,"id":"a6f6zhvm8qpt","LocID":5,"IDD":5.0,"EW_Street":"Bolin Creek Trail","WB_Total":80.0},"type":"Feature","geometry":{"type":"Point","coordinates":[-79.0539512226103,35.9258537020578]}},{"properties":{"NS_Street":"MLK Blvd","City":"Chapel hill","ID_1":6.0,"SB_Total":15.0,"EB_Total":0.0,"Location":"MLK Blvd North of Piney Mtn Rd","County":"Orange","Id":0,"NB_Total":23.0,"Total":150.0,"id":"a6f6zht4zig2","LocID":6,"IDD":6.0,"EW_Street":"Crosswalk","WB_Total":112.0},"type":"Feature","geometry":{"type":"Point","coordinates":[-79.0571456007267,35.9405666264701]}},{"properties":{"NS_Street":"MLK Blvd","City":"Chapel hill","ID_1":7.0,"SB_Total":12.0,"EB_Total":46.0,"Location":"MLK Blvd South of Hillsborough St","County":"Orange","Id":0,"NB_Total":75.0,"Total":313.0,"id":"a6f6zhpodqel","LocID":7,"IDD":7.0,"EW_Street":"Hillsborough St","WB_Total":180.0},"type":"Feature","geometry":{"type":"Point","coordinates":[-79.0545680351268,35.9241412716491]}},{"properties":{"NS_Street":"MLK Blvd","City":"Chapel hill","ID_1":8.0,"SB_Total":146.0,"EB_Total":76.0,"Location":"Columbia St @ Town Hall","County":"Orange","Id":0,"NB_Total":393.0,"Total":670.0,"id":"a6f6zhsjaqtt","LocID":8,"IDD":8.0,"EW_Street":"Crosswalk","WB_Total":55.0},"type":"Feature","geometry":{"type":"Point","coordinates":[-79.05785,35.9165200000242]}},{"properties":{"NS_Street":"Franklin St","City":"Chapel hill","ID_1":9.0,"SB_Total":80.0,"EB_Total":95.0,"Location":"Franklin @ Franklin Woods bus stop","County":"Orange","Id":0,"NB_Total":0.0,"Total":187.0,"id":"a6f6zhqc32l7","LocID":9,"IDD":9.0,"EW_Street":"Crosswalk","WB_Total":12.0},"type":"Feature","geometry":{"type":"Point","coordinates":[-79.03219,35.9323500000243]}},{"properties":{"NS_Street":"Franklin St","City":"Chapel hill","ID_1":10.0,"SB_Total":1.0,"EB_Total":68.0,"Location":"Franklin St @ Elizabeth St","County":"Orange","Id":0,"NB_Total":43.0,"Total":197.0,"id":"a6f6zhmjcfmi","LocID":10,"IDD":10.0,"EW_Street":"Elizabeth St","WB_Total":85.0},"type":"Feature","geometry":{"type":"Point","coordinates":[-79.0383900007323,35.9239493292953]}},{"properties":{"NS_Street":"Kenan St","City":"Chapel hill","ID_1":11.0,"SB_Total":268.0,"EB_Total":267.0,"Location":"Franklin St @ Kenan St","County":"Orange","Id":0,"NB_Total":844.0,"Total":1600.0,"id":"a6f6zhnxl6hf","LocID":11,"IDD":11.0,"EW_Street":"Franklin St","WB_Total":221.0},"type":"Feature","geometry":{"type":"Point","coordinates":[-79.0605550476212,35.9112959243121]}},{"properties":{"NS_Street":"Caswell","City":"Chapel hill","ID_1":12.0,"SB_Total":1.0,"EB_Total":34.0,"Location":"Estes Dr @ Phillips Middle School","County":"Orange","Id":0,"NB_Total":0.0,"Total":70.0,"id":"a6f6zhmnte2n","LocID":12,"IDD":12.0,"EW_Street":"Estes Dr","WB_Total":35.0},"type":"Feature","geometry":{"type":"Point","coordinates":[-79.0478938115684,35.9351277320028]}},{"properties":{"NS_Street":"Church St","City":"Chapel hill","ID_1":13.0,"SB_Total":468.0,"EB_Total":331.0,"Location":"Rosemary St @ Church St","County":"Orange","Id":0,"NB_Total":138.0,"Total":1387.0,"id":"a6f6zhyf1nh7","LocID":13,"IDD":13.0,"EW_Street":"Rosemary St","WB_Total":450.0},"type":"Feature","geometry":{"type":"Point","coordinates":[-79.0586575664679,35.91315896406]}},{"properties":{"NS_Street":"Kingston Dr","City":"Chapel hill","ID_1":14.0,"SB_Total":48.0,"EB_Total":45.0,"Location":"Weaver Dairy Rd@ Kingston Dr","County":"Orange","Id":0,"NB_Total":22.0,"Total":126.0,"id":"a6f6zhnduoao","LocID":14,"IDD":14.0,"EW_Street":"Weaver Dairy Rd","WB_Total":11.0},"type":"Feature","geometry":{"type":"Point","coordinates":[-79.0519149494629,35.963941834156]}},{"properties":{"NS_Street":"N/A","City":"Chapel hill","ID_1":15.0,"SB_Total":0.0,"EB_Total":0.0,"Location":"Culbreth Rd west of Adams Wy","County":"Orange","Id":0,"NB_Total":61.0,"Total":97.0,"id":"a6f6zhwfao6x","LocID":15,"IDD":15.0,"EW_Street":"Culbreth Rd","WB_Total":36.0},"type":"Feature","geometry":{"type":"Point","coordinates":[-79.0701795826982,35.8925014906418]}},{"properties":{"NS_Street":"Curtis Rd","City":"Chapel hill","ID_1":16.0,"SB_Total":283.0,"EB_Total":94.0,"Location":"Curtis Rd @ Elliot Rd","County":"Orange","Id":0,"NB_Total":1.0,"Total":387.0,"id":"a6f6zhyg02j4","LocID":16,"IDD":16.0,"EW_Street":"Elliot Red","WB_Total":9.0},"type":"Feature","geometry":{"type":"Point","coordinates":[-79.0417853448733,35.9363533341412]}},{"properties":{"NS_Street":"Churchill Dr","City":"Chapel hill","ID_1":17.0,"SB_Total":92.0,"EB_Total":113.0,"Location":"Ephesus Church Rd @ Churchill Dr","County":"Orange","Id":0,"NB_Total":7.0,"Total":234.0,"id":"a6f6zhq32ijg","LocID":17,"IDD":17.0,"EW_Street":"Ephesus Church Rd","WB_Total":22.0},"type":"Feature","geometry":{"type":"Point","coordinates":[-79.0148945852625,35.9324397580416]}},{"properties":{"NS_Street":"Sunrise Ln","City":"Chapel hill","ID_1":18.0,"SB_Total":1.0,"EB_Total":0.0,"Location":"Weaver Dairy Rd @ Sunrise Ln","County":"Orange","Id":0,"NB_Total":0.0,"Total":18.0,"id":"a6f6zhxmdw28","LocID":18,"IDD":18.0,"EW_Street":"Weaver Dairy Rd","WB_Total":17.0},"type":"Feature","geometry":{"type":"Point","coordinates":[-79.0335680489738,35.9615224907511]}},{"properties":{"NS_Street":"Ransom St","City":"Chapel hill","ID_1":19.0,"SB_Total":201.0,"EB_Total":38.0,"Location":"McCauley St @ Ransom St","County":"Orange","Id":0,"NB_Total":335.0,"Total":924.0,"id":"a6f6zhmc7i2c","LocID":19,"IDD":19.0,"EW_Street":"McCauley St","WB_Total":350.0},"type":"Feature","geometry":{"type":"Point","coordinates":[-79.0578301790833,35.9069944713604]}},{"properties":{"NS_Street":"US 15-501","City":"Chapel hill","ID_1":20.0,"SB_Total":2.0,"EB_Total":20.0,"Location":"US 15-501 @ Bennett Rd","County":"Orange","Id":0,"NB_Total":8.0,"Total":45.0,"id":"a6f6zhx2hy4w","LocID":20,"IDD":20.0,"EW_Street":"Bennett Rd","WB_Total":15.0},"type":"Feature","geometry":{"type":"Point","coordinates":[-79.0612738268008,35.8856442545947]}},{"properties":{"NS_Street":"Pinehurst Dr","City":"Chapel hill","ID_1":21.0,"SB_Total":53.0,"EB_Total":3.0,"Location":"Meadowmont Bike Path @ Pinehurst Dr","County":"Orange","Id":0,"NB_Total":40.0,"Total":101.0,"id":"a6f6zhyrqj24","LocID":21,"IDD":21.0,"EW_Street":"Meadowmont Bike Path","WB_Total":5.0},"type":"Feature","geometry":{"type":"Point","coordinates":[-79.0137584865187,35.9156755893656]}},{"properties":{"NS_Street":"Woodshire Ln","City":"Chapel hill","ID_1":22.0,"SB_Total":0.0,"EB_Total":29.0,"Location":"Piney Mountain Rd @ Woodshire Ln","County":"Orange","Id":0,"NB_Total":8.0,"Total":77.0,"id":"a6f6zhxmdori","LocID":22,"IDD":22.0,"EW_Street":"Piney Mountain Rd","WB_Total":40.0},"type":"Feature","geometry":{"type":"Point","coordinates":[-79.0532038961219,35.9399042039389]}},{"properties":{"NS_Street":"Hamilton Rd","City":"Chapel hill","ID_1":23.0,"SB_Total":168.0,"EB_Total":379.0,"Location":"Rosemary St @ Hillsborough Rd","County":"Orange","Id":0,"NB_Total":109.0,"Total":824.0,"id":"a6f6zhuhxq6b","LocID":23,"IDD":23.0,"EW_Street":"NC 54","WB_Total":168.0},"type":"Feature","geometry":{"type":"Point","coordinates":[-79.0497504628685,35.9165744702053]}},{"properties":{"NS_Street":"Henderson St","City":"Chapel hill","ID_1":24.0,"SB_Total":142.0,"EB_Total":227.0,"Location":"Rosemary St @ Henderson St","County":"Orange","Id":0,"NB_Total":83.0,"Total":548.0,"id":"a6f6zhq0qo11","LocID":24,"IDD":24.0,"EW_Street":"Rosemary St","WB_Total":96.0},"type":"Feature","geometry":{"type":"Point","coordinates":[-79.0533825546117,35.9151879062596]}},{"properties":{"NS_Street":"Parking Lot","City":"Chapel hill","ID_1":25.0,"SB_Total":254.0,"EB_Total":270.0,"Location":"Rosemary St @ UNC Parking Lots","County":"Orange","Id":0,"NB_Total":268.0,"Total":819.0,"id":"a6f6zhmkmccv","LocID":25,"IDD":25.0,"EW_Street":"Rosemary St","WB_Total":27.0},"type":"Feature","geometry":{"type":"Point","coordinates":[-79.0614650587613,35.912070322615]}},{"properties":{"NS_Street":"Market St","City":"Chapel hill","ID_1":26.0,"SB_Total":326.0,"EB_Total":157.0,"Location":"Southern Village Core","County":"Orange","Id":0,"NB_Total":246.0,"Total":915.0,"id":"a6f6zhxbbldq","LocID":26,"IDD":26.0,"EW_Street":"Aberdeen St","WB_Total":186.0},"type":"Feature","geometry":{"type":"Point","coordinates":[-79.0656158903387,35.8810777141784]}},{"properties":{"NS_Street":"Banks Dr","City":"Chapel hill","ID_1":27.0,"SB_Total":101.0,"EB_Total":51.0,"Location":"Westminster Dr @ Banks Dr","County":"Orange","Id":0,"NB_Total":49.0,"Total":250.0,"id":"a6f6zhyva2qx","LocID":27,"IDD":27.0,"EW_Street":"Westminster Dr","WB_Total":49.0},"type":"Feature","geometry":{"type":"Point","coordinates":[-79.0551875552333,35.961483858114]}},{"properties":{"NS_Street":"Meadowmont Ln","City":"Chapel hill","ID_1":28.0,"SB_Total":71.0,"EB_Total":37.0,"Location":"Meadowmont Ln @ Sprunt","County":"Orange","Id":0,"NB_Total":43.0,"Total":226.0,"id":"a6f6zhnkvt4p","LocID":28,"IDD":28.0,"EW_Street":"Sprunt","WB_Total":75.0},"type":"Feature","geometry":{"type":"Point","coordinates":[-79.0090476426214,35.9073764777957]}},{"properties":{"NS_Street":"Burning Tree Dr","City":"Chapel hill","ID_1":29.0,"SB_Total":50.0,"EB_Total":17.0,"Location":"Pinehurst Dr @ Burning Tree Dr","County":"Orange","Id":0,"NB_Total":32.0,"Total":136.0,"id":"a6f6zhjxso69","LocID":29,"IDD":29.0,"EW_Street":"Pinehurst Dr","WB_Total":37.0},"type":"Feature","geometry":{"type":"Point","coordinates":[-79.0135523063508,35.9160029773855]}},{"properties":{"NS_Street":"Sage Rd","City":"Chapel hill","ID_1":30.0,"SB_Total":28.0,"EB_Total":22.0,"Location":"Sage Rd @ Old Sterling Dr","County":"Orange","Id":0,"NB_Total":31.0,"Total":100.0,"id":"a6f6zhndavym","LocID":30,"IDD":30.0,"EW_Street":"Old Sterling Dr","WB_Total":19.0},"type":"Feature","geometry":{"type":"Point","coordinates":[-79.0155726163856,35.9499745423714]}},{"properties":{"NS_Street":"Meadowmont Ln","City":"Chapel hill","ID_1":31.0,"SB_Total":44.0,"EB_Total":39.0,"Location":"Meadowmont Village Core","County":"Orange","Id":0,"NB_Total":23.0,"Total":187.0,"id":"a6f6zhsjz918","LocID":31,"IDD":31.0,"EW_Street":"Village Crossing Dr","WB_Total":81.0},"type":"Feature","geometry":{"type":"Point","coordinates":[-79.0093599573468,35.9045711060678]}},{"properties":{"NS_Street":"Estes Dr","City":"Carrboro","ID_1":32.0,"SB_Total":39.0,"EB_Total":112.0,"Location":"Greensboro St Btw Oak St &amp; Estes Dr","County":"Orange","Id":0,"NB_Total":31.0,"Total":308.0,"id":"a6f6zhvs1k6h","LocID":32,"IDD":1.0,"EW_Street":"Greensboro St","WB_Total":126.0},"type":"Feature","geometry":{"type":"Point","coordinates":[-79.0745150785147,35.917269878893]}},{"properties":{"NS_Street":"Greensboro St","City":"Carrboro","ID_1":33.0,"SB_Total":208.0,"EB_Total":3.0,"Location":"Greensboro St Btw Main St @ Weaver St","County":"Orange","Id":0,"NB_Total":171.0,"Total":382.0,"id":"a6f6zhoelqib","LocID":33,"IDD":2.0,"EW_Street":"Weaver St","WB_Total":0.0},"type":"Feature","geometry":{"type":"Point","coordinates":[-79.0722923339018,35.9106514823921]}},{"properties":{"NS_Street":"Hillsborough Rd","City":"Carrboro","ID_1":34.0,"SB_Total":320.0,"EB_Total":7.0,"Location":"Hillsborough Rd @ McDougle School","County":"Orange","Id":0,"NB_Total":2.0,"Total":515.0,"id":"a6f6zhpbf3oe","LocID":34,"IDD":3.0,"EW_Street":"Crosswalk","WB_Total":186.0},"type":"Feature","geometry":{"type":"Point","coordinates":[-79.0975573990887,35.9307099156583]}},{"properties":{"NS_Street":"W Main St","City":"Carrboro","ID_1":35.0,"SB_Total":176.0,"EB_Total":0.0,"Location":"Hillsborough Rd @ Carrboro Elementary School","County":"Orange","Id":0,"NB_Total":44.0,"Total":359.0,"id":"a6f6zhtlipvq","LocID":35,"IDD":4.0,"EW_Street":"Hillsborough Rd","WB_Total":139.0},"type":"Feature","geometry":{"type":"Point","coordinates":[-79.079595881624,35.9135767303095]}},{"properties":{"NS_Street":"N/A","City":"Carrboro","ID_1":36.0,"SB_Total":0.0,"EB_Total":34.0,"Location":"Jones Ferry Rd Btw Barnes &amp; Davie St","County":"Orange","Id":0,"NB_Total":0.0,"Total":72.0,"id":"a6f6zhtvf3k4","LocID":36,"IDD":5.0,"EW_Street":"Jones Ferry Rd","WB_Total":38.0},"type":"Feature","geometry":{"type":"Point","coordinates":[-79.0816074523489,35.9073785483196]}},{"properties":{"NS_Street":"James St","City":"Carrboro","ID_1":37.0,"SB_Total":30.0,"EB_Total":37.0,"Location":"Main St Btw James &amp; NC 54","County":"Orange","Id":0,"NB_Total":57.0,"Total":145.0,"id":"a6f6zhmwxa23","LocID":37,"IDD":6.0,"EW_Street":"Main St","WB_Total":21.0},"type":"Feature","geometry":{"type":"Point","coordinates":[-79.0932984194202,35.9176830839958]}},{"properties":{"NS_Street":"Main St","City":"Carrboro","ID_1":38.0,"SB_Total":126.0,"EB_Total":0.0,"Location":"Main st Btw Blackwood &amp; Fidelity","County":"Orange","Id":0,"NB_Total":116.0,"Total":244.0,"id":"a6f6zhnlm14g","LocID":38,"IDD":7.0,"EW_Street":"Poplar Ave","WB_Total":2.0},"type":"Feature","geometry":{"type":"Point","coordinates":[-79.0788271749506,35.9131348567634]}},{"properties":{"NS_Street":"N/A","City":"Carrboro","ID_1":39.0,"SB_Total":67.0,"EB_Total":96.0,"Location":"Main St Btw Jones Ferry Rd &amp; Greensboro St","County":"Orange","Id":0,"NB_Total":81.0,"Total":306.0,"id":"a6f6zhxp7lxa","LocID":39,"IDD":8.0,"EW_Street":"Main St","WB_Total":62.0},"type":"Feature","geometry":{"type":"Point","coordinates":[-79.0738115220606,35.9101241002598]}},{"properties":{"NS_Street":"Crosswalk","City":"Carrboro","ID_1":40.0,"SB_Total":526.0,"EB_Total":331.0,"Location":"Main St Btw Greensboro St &amp; Weaver St","County":"Orange","Id":0,"NB_Total":572.0,"Total":1663.0,"id":"a6f6zhk6bgz1","LocID":40,"IDD":9.0,"EW_Street":"Main St","WB_Total":234.0},"type":"Feature","geometry":{"type":"Point","coordinates":[-79.0711684564924,35.9104282350764]}},{"properties":{"NS_Street":"N/A","City":"Carrboro","ID_1":41.0,"SB_Total":190.0,"EB_Total":10.0,"Location":"Main St Btw Lloyd St &amp; Rosemary St","County":"Orange","Id":0,"NB_Total":205.0,"Total":411.0,"id":"a6f6zhwyoz50","LocID":41,"IDD":10.0,"EW_Street":"Main St","WB_Total":6.0},"type":"Feature","geometry":{"type":"Point","coordinates":[-79.0681073436212,35.9107934260375]}},{"properties":{"NS_Street":"N/A","City":"Carrboro","ID_1":42.0,"SB_Total":152.0,"EB_Total":112.0,"Location":"Main St Btw Rosemary &amp; Merritt Mill","County":"Orange","Id":0,"NB_Total":166.0,"Total":695.0,"id":"a6f6zhnt1n64","LocID":42,"IDD":11.0,"EW_Street":"Main St","WB_Total":265.0},"type":"Feature","geometry":{"type":"Point","coordinates":[-79.0662519343076,35.9102642813572]}},{"properties":{"NS_Street":"N/A","City":"Carrboro","ID_1":45.0,"SB_Total":4.0,"EB_Total":8.0,"Location":"Estes Dr Btw Greensboro St &amp; Hillcrest Dr","County":"Orange","Id":0,"NB_Total":11.0,"Total":26.0,"id":"a6f6zhz77980","LocID":45,"IDD":14.0,"EW_Street":"Estes Dr","WB_Total":3.0},"type":"Feature","geometry":{"type":"Point","coordinates":[-79.0735868289632,35.9189341096407]}},{"properties":{"NS_Street":"Bikepath","City":"Carrboro","ID_1":46.0,"SB_Total":29.0,"EB_Total":97.0,"Location":"Francis Shetley Bikepath Btw Greensboro St &amp; Shelton St","County":"Orange","Id":0,"NB_Total":85.0,"Total":274.0,"id":"a6f6zhxmublj","LocID":46,"IDD":15.0,"EW_Street":"Greensboro St","WB_Total":63.0},"type":"Feature","geometry":{"type":"Point","coordinates":[-79.0761636916671,35.9163149189491]}},{"properties":{"NS_Street":"Roberson St","City":"Carrboro","ID_1":47.0,"SB_Total":75.0,"EB_Total":58.0,"Location":"Libba Cotton &amp; Roberson","County":"Orange","Id":0,"NB_Total":70.0,"Total":291.0,"id":"a6f6zhsnbxye","LocID":47,"IDD":16.0,"EW_Street":"Libba Cotton Bikeway","WB_Total":88.0},"type":"Feature","geometry":{"type":"Point","coordinates":[-79.0640018451669,35.9071625492226]}},{"properties":{"NS_Street":"NC 54 Byp","City":"Carrboro","ID_1":48.0,"SB_Total":105.0,"EB_Total":44.0,"Location":"NC 54 byp @ Westbrook Dr","County":"Orange","Id":0,"NB_Total":10.0,"Total":248.0,"id":"a6f6zhx6ece2","LocID":48,"IDD":17.0,"EW_Street":"Westbrook Dr","WB_Total":89.0},"type":"Feature","geometry":{"type":"Point","coordinates":[-79.0817086784832,35.9032405981724]}},{"properties":{"NS_Street":"Abbey Ln","City":"Carrboro","ID_1":49.0,"SB_Total":122.0,"EB_Total":5.0,"Location":"NC 54 byp @ Abbey Ln","County":"Orange","Id":0,"NB_Total":28.0,"Total":184.0,"id":"a6f6zhyo619s","LocID":49,"IDD":18.0,"EW_Street":"NC 54 byp","WB_Total":29.0},"type":"Feature","geometry":{"type":"Point","coordinates":[-79.0774700465319,35.9026405194792]}},{"properties":{"NS_Street":"Hill St","City":"Hillsborough","ID_1":50.0,"SB_Total":0.0,"EB_Total":0.0,"Location":"Cornelius St @ Hill St","County":"Orange","Id":0,"NB_Total":0.0,"Total":1.0,"id":"a6f6zhtldaar","LocID":50,"IDD":1.0,"EW_Street":"Cornelius St","WB_Total":1.0},"type":"Feature","geometry":{"type":"Point","coordinates":[-79.1093493286182,36.0871861808223]}},{"properties":{"NS_Street":"N Nash St","City":"Hillsborough","ID_1":51.0,"SB_Total":8.0,"EB_Total":28.0,"Location":"Nash St @ Hayes St","County":"Orange","Id":0,"NB_Total":10.0,"Total":66.0,"id":"a6f6zhwdsjc2","LocID":51,"IDD":2.0,"EW_Street":"Union St","WB_Total":20.0},"type":"Feature","geometry":{"type":"Point","coordinates":[-79.1113182158776,36.0801719603692]}},{"properties":{"NS_Street":"Churton St","City":"Hillsborough","ID_1":52.0,"SB_Total":0.0,"EB_Total":7.0,"Location":"Orange Grove rd @ Oakdale Dr","County":"Orange","Id":0,"NB_Total":6.0,"Total":17.0,"id":"a6f6zhuolwje","LocID":52,"IDD":3.0,"EW_Street":"US 70, Orange Grove Rd","WB_Total":4.0},"type":"Feature","geometry":{"type":"Point","coordinates":[-79.1214192630834,36.0532315355962]}},{"properties":{"NS_Street":"Orange High Sch Rd","City":"Hillsborough","ID_1":53.0,"SB_Total":5.0,"EB_Total":0.0,"Location":"Orange High Sch Rd Btw Harold Latta Rd and US 70","County":"Orange","Id":0,"NB_Total":16.0,"Total":21.0,"id":"a6f6zhn4h9yk","LocID":53,"IDD":4.0,"EW_Street":"N/A","WB_Total":0.0},"type":"Feature","geometry":{"type":"Point","coordinates":[-79.0928817149308,36.0905410515564]}},{"properties":{"NS_Street":"Churton St","City":"Hillsborough","ID_1":54.0,"SB_Total":192.0,"EB_Total":256.0,"Location":"Churton St @ Margaret Ln","County":"Orange","Id":0,"NB_Total":154.0,"Total":687.0,"id":"a6f6zhm0rvke","LocID":54,"IDD":5.0,"EW_Street":"N/A","WB_Total":85.0},"type":"Feature","geometry":{"type":"Point","coordinates":[-79.0993667343215,36.0745190584014]}},{"properties":{"NS_Street":"Churton St","City":"Hillsborough","ID_1":55.0,"SB_Total":2.0,"EB_Total":11.0,"Location":"Churton St from US 70 to Orange Grove St","County":"Orange","Id":0,"NB_Total":3.0,"Total":22.0,"id":"a6f6zhqha44x","LocID":55,"IDD":6.0,"EW_Street":"N/A","WB_Total":6.0},"type":"Feature","geometry":{"type":"Point","coordinates":[-79.0997444432082,36.0681269612942]}},{"properties":{"NS_Street":"Churton St","City":"Hillsborough","ID_1":56.0,"SB_Total":9.0,"EB_Total":0.0,"Location":"Churton from Windmill St to Mayo St","County":"Orange","Id":0,"NB_Total":9.0,"Total":23.0,"id":"a6f6zhmzg48p","LocID":56,"IDD":7.0,"EW_Street":"N/A","WB_Total":5.0},"type":"Feature","geometry":{"type":"Point","coordinates":[-79.1032403727131,36.0602033809507]}},{"properties":{"NS_Street":"Churton St","City":"Hillsborough","ID_1":57.0,"SB_Total":0.0,"EB_Total":10.0,"Location":"Churton from Cardinal to Clarence Walters Rd","County":"Orange","Id":0,"NB_Total":0.0,"Total":14.0,"id":"a6f6zhs1vhal","LocID":57,"IDD":8.0,"EW_Street":"N/A","WB_Total":4.0},"type":"Feature","geometry":{"type":"Point","coordinates":[-79.1042840317376,36.0542823694889]}},{"properties":{"NS_Street":"Thomas Rufin St","City":"Hillsborough","ID_1":58.0,"SB_Total":8.0,"EB_Total":7.0,"Location":"Thomas Ruffin St Btw St Marys &amp; Queen St","County":"Orange","Id":0,"NB_Total":11.0,"Total":26.0,"id":"a6f6zhwlyivz","LocID":58,"IDD":9.0,"EW_Street":"N/A","WB_Total":0.0},"type":"Feature","geometry":{"type":"Point","coordinates":[-79.0936858029062,36.0783602169977]}},{"properties":{"NS_Street":"N/A","City":"Hillsborough","ID_1":59.0,"SB_Total":0.0,"EB_Total":19.0,"Location":"US 70 Btw Churton &amp; Orange High Scho","County":"Orange","Id":0,"NB_Total":0.0,"Total":35.0,"id":"a6f6zhjtlrp8","LocID":59,"IDD":10.0,"EW_Street":"US 70","WB_Total":16.0},"type":"Feature","geometry":{"type":"Point","coordinates":[-79.0972946643851,36.0859181935186]}},{"properties":{"NS_Street":"American Tobacco Trail","City":"Durham","ID_1":60.0,"SB_Total":37.0,"EB_Total":77.0,"Location":"ATT @ Morehead Ave","County":"Durham","Id":0,"NB_Total":29.0,"Total":151.0,"id":"a6f6zhynpuur","LocID":60,"IDD":1.0,"EW_Street":"Morehead Ave","WB_Total":8.0},"type":"Feature","geometry":{"type":"Point","coordinates":[-78.9061861331804,35.9905831069541]}},{"properties":{"NS_Street":"American Tobacco Trail","City":"Durham","ID_1":61.0,"SB_Total":1.0,"EB_Total":1.0,"Location":"ATT @ Riddle Rd","County":"Durham","Id":0,"NB_Total":1.0,"Total":29.0,"id":"a6f6zho6xler","LocID":61,"IDD":2.0,"EW_Street":"Riddle Rd","WB_Total":26.0},"type":"Feature","geometry":{"type":"Point","coordinates":[-78.901786999399,35.9503818583365]}},{"properties":{"NS_Street":"American Tobacco Trail","City":"Durham","ID_1":62.0,"SB_Total":9.0,"EB_Total":20.0,"Location":"ATT @ Cornwallis","County":"Durham","Id":0,"NB_Total":15.0,"Total":68.0,"id":"a6f6zhsqavkc","LocID":62,"IDD":3.0,"EW_Street":"Cornwallis Rd","WB_Total":24.0},"type":"Feature","geometry":{"type":"Point","coordinates":[-78.9030583756109,35.9475656471836]}},{"properties":{"NS_Street":"Fayetteville Rd","City":"Durham","ID_1":63.0,"SB_Total":45.0,"EB_Total":59.0,"Location":"ATT @ MLK","County":"Durham","Id":0,"NB_Total":37.0,"Total":185.0,"id":"a6f6zhtwdoyo","LocID":63,"IDD":4.0,"EW_Street":"MLK Jr Pkwy","WB_Total":44.0},"type":"Feature","geometry":{"type":"Point","coordinates":[-78.9064578972323,35.9394472756101]}},{"properties":{"NS_Street":"NC 55","City":"Durham","ID_1":64.0,"SB_Total":36.0,"EB_Total":127.0,"Location":"Cornwallis St @ NC 55","County":"Durham","Id":0,"NB_Total":103.0,"Total":297.0,"id":"a6f6zhkiolxf","LocID":64,"IDD":5.0,"EW_Street":"Cornwallis Rd","WB_Total":31.0},"type":"Feature","geometry":{"type":"Point","coordinates":[-78.8881543023868,35.9336083664486]}},{"properties":{"NS_Street":"Usher St","City":"Durham","ID_1":65.0,"SB_Total":15.0,"EB_Total":16.0,"Location":"Dearborn Dr @ Usher St","County":"Durham","Id":0,"NB_Total":32.0,"Total":64.0,"id":"a6f6zhpalwrg","LocID":65,"IDD":6.0,"EW_Street":"Dearborn Dr","WB_Total":1.0},"type":"Feature","geometry":{"type":"Point","coordinates":[-78.8774821368777,36.0382560715362]}},{"properties":{"NS_Street":"Mt Moriah","City":"Durham","ID_1":66.0,"SB_Total":10.0,"EB_Total":16.0,"Location":"Durham Chapel Hill Blvd @ Mt Moriah","County":"Durham","Id":0,"NB_Total":18.0,"Total":49.0,"id":"a6f6zhxhl0ku","LocID":66,"IDD":7.0,"EW_Street":"Durham-Chapel Hill Blvd","WB_Total":5.0},"type":"Feature","geometry":{"type":"Point","coordinates":[-78.9944662903242,35.9528083237233]}},{"properties":{"NS_Street":"Garrett Rd","City":"Durham","ID_1":67.0,"SB_Total":39.0,"EB_Total":9.0,"Location":"Durham Chapel Hill Blvd @ Garrett Rd","County":"Durham","Id":0,"NB_Total":39.0,"Total":99.0,"id":"a6f6zhzi1prl","LocID":67,"IDD":8.0,"EW_Street":"Durham-Chapel Hill Blvd","WB_Total":12.0},"type":"Feature","geometry":{"type":"Point","coordinates":[-78.9769738786893,35.9615847484693]}},{"properties":{"NS_Street":"Morreene Rd","City":"Durham","ID_1":68.0,"SB_Total":93.0,"EB_Total":46.0,"Location":"Erwin Rd @ Morreene Rd","County":"Durham","Id":0,"NB_Total":90.0,"Total":268.0,"id":"a6f6zhlndmmd","LocID":68,"IDD":9.0,"EW_Street":"Erwin Rd","WB_Total":39.0},"type":"Feature","geometry":{"type":"Point","coordinates":[-78.9514056543033,36.0031239820131]}},{"properties":{"NS_Street":"Lasalle St","City":"Durham","ID_1":69.0,"SB_Total":197.0,"EB_Total":712.0,"Location":"Erwin Rd @ Lasalle St","County":"Durham","Id":0,"NB_Total":62.0,"Total":1322.0,"id":"a6f6zhya40vq","LocID":69,"IDD":10.0,"EW_Street":"Erwin Rd","WB_Total":351.0},"type":"Feature","geometry":{"type":"Point","coordinates":[-78.9462537739053,36.0075113232204]}},{"properties":{"NS_Street":"Douglas St","City":"Durham","ID_1":70.0,"SB_Total":410.0,"EB_Total":498.0,"Location":"Erwin Rd @ Douglas St","County":"Durham","Id":0,"NB_Total":338.0,"Total":1939.0,"id":"a6f6zhy5wr3o","LocID":70,"IDD":11.0,"EW_Street":"Erwin Rd","WB_Total":693.0},"type":"Feature","geometry":{"type":"Point","coordinates":[-78.942641548882,36.0088183046015]}},{"properties":{"NS_Street":"Fulton St","City":"Durham","ID_1":71.0,"SB_Total":263.0,"EB_Total":747.0,"Location":"Erwin Rd @ Fulton St","County":"Durham","Id":0,"NB_Total":194.0,"Total":2875.0,"id":"a6f6zhvwokg0","LocID":71,"IDD":12.0,"EW_Street":"Erwin Rd","WB_Total":1671.0},"type":"Feature","geometry":{"type":"Point","coordinates":[-78.9373020995743,36.0081816295091]}},{"properties":{"NS_Street":"Anderson St","City":"Durham","ID_1":72.0,"SB_Total":168.0,"EB_Total":107.0,"Location":"Erwin Rd @ Anderson St","County":"Durham","Id":0,"NB_Total":68.0,"Total":366.0,"id":"a6f6zhysludz","LocID":72,"IDD":13.0,"EW_Street":"Erwin Rd","WB_Total":23.0},"type":"Feature","geometry":{"type":"Point","coordinates":[-78.9297886836822,36.0067021981397]}},{"properties":{"NS_Street":"Fayetteville Rd","City":"Durham","ID_1":73.0,"SB_Total":430.0,"EB_Total":214.0,"Location":"Fayetteville St @ Formosa Ave","County":"Durham","Id":0,"NB_Total":454.0,"Total":1569.0,"id":"a6f6zhms3qw5","LocID":73,"IDD":14.0,"EW_Street":"Formosa Ave","WB_Total":471.0},"type":"Feature","geometry":{"type":"Point","coordinates":[-78.9011821897904,35.9745003730994]}},{"properties":{"NS_Street":"Fayetteville Rd","City":"Durham","ID_1":74.0,"SB_Total":24.0,"EB_Total":13.0,"Location":"Fayetteville St @ Cook Rd","County":"Durham","Id":0,"NB_Total":30.0,"Total":70.0,"id":"a6f6zhpoby2p","LocID":74,"IDD":15.0,"EW_Street":"Cook Rd","WB_Total":3.0},"type":"Feature","geometry":{"type":"Point","coordinates":[-78.9198987788723,35.9290278849101]}},{"properties":{"NS_Street":"Fayetteville Rd","City":"Durham","ID_1":75.0,"SB_Total":38.0,"EB_Total":9.0,"Location":"Fayetteville St @ MLK Jr Pkwy","County":"Durham","Id":0,"NB_Total":39.0,"Total":243.0,"id":"a6f6zhnhy5bp","LocID":75,"IDD":16.0,"EW_Street":"MLK Jr Pkwy","WB_Total":157.0},"type":"Feature","geometry":{"type":"Point","coordinates":[-78.9069465425898,35.9395576253441]}},{"properties":{"NS_Street":"Foster St","City":"Durham","ID_1":76.0,"SB_Total":125.0,"EB_Total":246.0,"Location":"Foster St @ Great Jones St","County":"Durham","Id":0,"NB_Total":291.0,"Total":688.0,"id":"a6f6zhvzzr4k","LocID":76,"IDD":17.0,"EW_Street":"Great Jones St","WB_Total":26.0},"type":"Feature","geometry":{"type":"Point","coordinates":[-78.9016590258762,35.9981481360702]}},{"properties":{"NS_Street":"Anderson St","City":"Durham","ID_1":77.0,"SB_Total":93.0,"EB_Total":14.0,"Location":"Anderson St @ Duke Univ Rd","County":"Durham","Id":0,"NB_Total":17.0,"Total":212.0,"id":"a6f6zhr7eygj","LocID":77,"IDD":18.0,"EW_Street":"Duke University Rd","WB_Total":88.0},"type":"Feature","geometry":{"type":"Point","coordinates":[-78.9303072346712,35.998389831204]}},{"properties":{"NS_Street":"Anderson St","City":"Durham","ID_1":78.0,"SB_Total":121.0,"EB_Total":74.0,"Location":"Anderson St @ Campus Dr","County":"Durham","Id":0,"NB_Total":63.0,"Total":409.0,"id":"a6f6zhzbq91r","LocID":78,"IDD":19.0,"EW_Street":"Campus Dr","WB_Total":151.0},"type":"Feature","geometry":{"type":"Point","coordinates":[-78.9302060725768,36.0000465941596]}},{"properties":{"NS_Street":"Anderson St","City":"Durham","ID_1":79.0,"SB_Total":22.0,"EB_Total":31.0,"Location":"Anderson St @ Morehead Ave","County":"Durham","Id":0,"NB_Total":28.0,"Total":112.0,"id":"a6f6zhy2p4z7","LocID":79,"IDD":20.0,"EW_Street":"Morehead Ave","WB_Total":31.0},"type":"Feature","geometry":{"type":"Point","coordinates":[-78.9329385244361,35.9923722691678]}},{"properties":{"NS_Street":"Gregson St","City":"Durham","ID_1":80.0,"SB_Total":63.0,"EB_Total":196.0,"Location":"Gregson St @ Minerva Ave","County":"Durham","Id":0,"NB_Total":78.0,"Total":381.0,"id":"a6f6zhzjp0wc","LocID":80,"IDD":21.0,"EW_Street":"Minerva Ave","WB_Total":44.0},"type":"Feature","geometry":{"type":"Point","coordinates":[-78.9082727361242,36.0044605811062]}},{"properties":{"NS_Street":"N/A","City":"Durham","ID_1":81.0,"SB_Total":24.0,"EB_Total":6.0,"Location":"Cornwallis Rd from TW Alexander to NC147","County":"Durham","Id":0,"NB_Total":6.0,"Total":59.0,"id":"a6f6zhql6p1i","LocID":81,"IDD":22.0,"EW_Street":"Cornwallis Rd","WB_Total":23.0},"type":"Feature","geometry":{"type":"Point","coordinates":[-78.8696419023238,35.9164065744524]}},{"properties":{"NS_Street":"Broad St","City":"Durham","ID_1":82.0,"SB_Total":134.0,"EB_Total":350.0,"Location":"Broad St @ Perry St","County":"Durham","Id":0,"NB_Total":516.0,"Total":1508.0,"id":"a6f6zhntwbh6","LocID":82,"IDD":23.0,"EW_Street":"Perry St","WB_Total":508.0},"type":"Feature","geometry":{"type":"Point","coordinates":[-78.9197452263915,36.0074567888486]}},{"properties":{"NS_Street":"Broad St","City":"Durham","ID_1":83.0,"SB_Total":13.0,"EB_Total":24.0,"Location":"Broad ST @ Murray Ave","County":"Durham","Id":0,"NB_Total":65.0,"Total":154.0,"id":"a6f6zhnrbjs5","LocID":83,"IDD":24.0,"EW_Street":"Murray Ave","WB_Total":52.0},"type":"Feature","geometry":{"type":"Point","coordinates":[-78.9125063941341,36.029038929305]}},{"properties":{"NS_Street":"Buchanan Blvd","City":"Durham","ID_1":84.0,"SB_Total":94.0,"EB_Total":66.0,"Location":"Buchanan Blvd @ W Main St","County":"Durham","Id":0,"NB_Total":20.0,"Total":277.0,"id":"a6f6zhmfvo6o","LocID":84,"IDD":25.0,"EW_Street":"W Main St","WB_Total":97.0},"type":"Feature","geometry":{"type":"Point","coordinates":[-78.9129317658782,36.0023247027744]}},{"properties":{"NS_Street":"Barbee Rd","City":"Durham","ID_1":85.0,"SB_Total":16.0,"EB_Total":17.0,"Location":"Woodcroft Pkwy @ Barbee Rd","County":"Durham","Id":0,"NB_Total":28.0,"Total":72.0,"id":"a6f6zhtbaao2","LocID":85,"IDD":26.0,"EW_Street":"Woodcroft Pkwy","WB_Total":11.0},"type":"Feature","geometry":{"type":"Point","coordinates":[-78.9158657736091,35.9173337660554]}}],"is_temporal":false,"author":{"url":"","metadata":"","contact_name":"","contact_address":"","source":"","contact_phone":""},"source":"","pagination":{"sort":null,"start":0,"total":83,"limit":1000000},"state":"complete","tags":"","published":"2014-08-14T17:48:52-04:00","id":252228}