{"type":"FeatureCollection","data_type":"Dataset","url_type":null,"permissions":[{"permissions":{"download":true,"view":true},"group_id":"everyone"}],"classification":null,"title":"Services_and_Server","count":78,"stream_id":252943,"contributor":{"url":"http://geocommons.com/users/47629","name":"bwobst7531"},"data_attributes":null,"calculation_params":null,"icon_link":null,"link":"http://geocommons.com/overlays/252943.json","extent":[-124.146,29.4241,-70.6846,47.6062],"geometry_types":["point"],"unique_name":null,"name":"Services_and_Server","feature_count":78,"description":"","next_feature":null,"is_raster":false,"short_classification":"Y","stats":{},"features":[{"properties":{"name":"Jackson Thornton Technologies Llc","geo_score":0.857,"id":"a6iioapb7ins","geo_precision":"city","state":"AL","location":"Montgomery, AL"},"type":"Feature","geometry":{"type":"Point","coordinates":[-86.299969,32.366805]}},{"properties":{"name":"The Computer Hut Llc","geo_score":0.857,"id":"a6iioaui398v","geo_precision":"city","state":"AR","location":"Little Rock, AR"},"type":"Feature","geometry":{"type":"Point","coordinates":[-92.289595,34.746481]}},{"properties":{"name":"Edafio Technologies Llc","geo_score":0.429,"id":"a6iioanjn9og","geo_precision":"street","state":"AR","location":"N Little Rock, AR"},"type":"Feature","geometry":{"type":"Point","coordinates":[-92.353929,34.765356]}},{"properties":{"name":"Frontier Technology Llc","geo_score":0.857,"id":"a6iioaoku1iw","geo_precision":"city","state":"AZ","location":"Tempe, AZ"},"type":"Feature","geometry":{"type":"Point","coordinates":[-111.90931,33.414768]}},{"properties":{"name":"Valor It Inc","geo_score":0.857,"id":"a6iioap9wtz8","geo_precision":"city","state":"AZ","location":"Scottsdale, AZ"},"type":"Feature","geometry":{"type":"Point","coordinates":[-111.899033,33.50921]}},{"properties":{"name":"Technology Integration Group","geo_score":0.857,"id":"a6iioam7iykr","geo_precision":"city","state":"CA","location":"San Diego, CA"},"type":"Feature","geometry":{"type":"Point","coordinates":[-117.157255,32.715329]}},{"properties":{"name":"Gst/E-Systems Design","geo_score":0.857,"id":"a6iioazh56w2","geo_precision":"city","state":"CA","location":"Cerritos, CA"},"type":"Feature","geometry":{"type":"Point","coordinates":[-118.064787,33.858348]}},{"properties":{"name":"Intelligent Var Technology","geo_score":0.393,"id":"a6iioanwbyju","geo_precision":"street","state":"CA","location":"San Dimas, CA"},"type":"Feature","geometry":{"type":"Point","coordinates":[-124.145952,40.796532]}},{"properties":{"name":"Network Designs Integration Svcs In","geo_score":0.857,"id":"a6iiob0jln18","geo_precision":"city","state":"CA","location":"Fremont, CA"},"type":"Feature","geometry":{"type":"Point","coordinates":[-121.988572,37.54827]}},{"properties":{"name":"Hpm Inc","geo_score":0.857,"id":"a6iioaq1tzzy","geo_precision":"city","state":"CA","location":"Fremont, CA"},"type":"Feature","geometry":{"type":"Point","coordinates":[-121.988572,37.54827]}},{"properties":{"name":"Eaton &amp; Associates","geo_score":0.857,"id":"a6iioatadx22","geo_precision":"city","state":"CA","location":"San Francisco, CA"},"type":"Feature","geometry":{"type":"Point","coordinates":[-122.419416,37.77493]}},{"properties":{"name":"Kis Computer Center","geo_score":0.857,"id":"a6iioaqgmgne","geo_precision":"city","state":"CA","location":"Fremont, CA"},"type":"Feature","geometry":{"type":"Point","coordinates":[-121.988572,37.54827]}},{"properties":{"name":"Optimum Networking Inc","geo_score":0.857,"id":"a6iioayvclgy","geo_precision":"city","state":"CO","location":"Aurora, CO"},"type":"Feature","geometry":{"type":"Point","coordinates":[-104.83192,39.729432]}},{"properties":{"name":"Platte River Networks Inc","geo_score":0.857,"id":"a6iioas8tnpw","geo_precision":"city","state":"CO","location":"Denver, CO"},"type":"Feature","geometry":{"type":"Point","coordinates":[-104.984703,39.739154]}},{"properties":{"name":"Innovative Computer Systems","geo_score":0.857,"id":"a6iioas3hd94","geo_precision":"city","state":"CT","location":"Farmington, CT"},"type":"Feature","geometry":{"type":"Point","coordinates":[-72.718832,41.791776]}},{"properties":{"name":"Pace Systems","geo_score":0.857,"id":"a6iioaog7wve","geo_precision":"city","state":"IL","location":"Naperville, IL"},"type":"Feature","geometry":{"type":"Point","coordinates":[-88.152381,41.759029]}},{"properties":{"name":"Augmentity Systems Inc","geo_score":0.857,"id":"a6iioavh9cu7","geo_precision":"city","state":"IL","location":"Lisle, IL"},"type":"Feature","geometry":{"type":"Point","coordinates":[-88.037714,41.79818]}},{"properties":{"name":"Matrix Integration Llc","geo_score":0.857,"id":"a6iioarxsfu5","geo_precision":"city","state":"IN","location":"Jasper, IN"},"type":"Feature","geometry":{"type":"Point","coordinates":[-86.929481,38.360357]}},{"properties":{"name":"Nex Tech Inc","geo_score":0.857,"id":"a6iioakv9y6i","geo_precision":"city","state":"KS","location":"Hays, KS"},"type":"Feature","geometry":{"type":"Point","coordinates":[-99.334803,38.878202]}},{"properties":{"name":"Netstandard  Inc","geo_score":0.857,"id":"a6iioas3o0uf","geo_precision":"city","state":"KS","location":"Kansas City, KS"},"type":"Feature","geometry":{"type":"Point","coordinates":[-94.627457,39.114171]}},{"properties":{"name":"Results Technology Inc","geo_score":0.857,"id":"a6iioazkxp1q","geo_precision":"city","state":"KS","location":"Lenexa, KS"},"type":"Feature","geometry":{"type":"Point","coordinates":[-94.733571,38.953617]}},{"properties":{"name":"Isg Technology Llc","geo_score":0.857,"id":"a6iioan4o0wv","geo_precision":"city","state":"KS","location":"Salina, KS"},"type":"Feature","geometry":{"type":"Point","coordinates":[-97.642113,38.823673]}},{"properties":{"name":"Netgain Technologies Inc","geo_score":0.857,"id":"a6iioal7hx38","geo_precision":"city","state":"KY","location":"Lexington, KY"},"type":"Feature","geometry":{"type":"Point","coordinates":[-84.477715,37.988689]}},{"properties":{"name":"Pc Plus Technologies  Inc.","geo_score":0.857,"id":"a6iioazuhmqq","geo_precision":"city","state":"MA","location":"Auburn, MA"},"type":"Feature","geometry":{"type":"Point","coordinates":[-71.947184,42.184835]}},{"properties":{"name":"Eze Castle Integration Inc","geo_score":0.857,"id":"a6iioay1roqb","geo_precision":"city","state":"MA","location":"Boston, MA"},"type":"Feature","geometry":{"type":"Point","coordinates":[-71.059773,42.358431]}},{"properties":{"name":"Daly Computers","geo_score":0.613,"id":"a6iioalx51yc","geo_precision":"street","state":"MD","location":"Clarksburg, MD"},"type":"Feature","geometry":{"type":"Point","coordinates":[-76.536677,38.319576]}},{"properties":{"name":"Data Processing Solutions  Inc","geo_score":0.857,"id":"a6iioan7ol8s","geo_precision":"city","state":"MD","location":"Columbia, MD"},"type":"Feature","geometry":{"type":"Point","coordinates":[-76.887905,39.206132]}},{"properties":{"name":"Greenpages Inc","geo_score":0.857,"id":"a6iioas62o8g","geo_precision":"city","state":"ME","location":"Kittery, ME"},"type":"Feature","geometry":{"type":"Point","coordinates":[-70.684607,43.191554]}},{"properties":{"name":"Dynamic Computer Corporation","geo_score":0.464,"id":"a6iioap3ukn0","geo_precision":"street","state":"MI","location":"Farmingtn Hls, MI"},"type":"Feature","geometry":{"type":"Point","coordinates":[-83.227047,42.50625]}},{"properties":{"name":"Yeo &amp; Yeo Consulting","geo_score":0.857,"id":"a6iioaw6dtzj","geo_precision":"city","state":"MI","location":"Saginaw, MI"},"type":"Feature","geometry":{"type":"Point","coordinates":[-83.886873,43.41242]}},{"properties":{"name":"First Byte Computers Inc","geo_score":0.633,"id":"a6iioakwulqp","geo_precision":"street","state":"MN","location":"Minnetonka, MN"},"type":"Feature","geometry":{"type":"Point","coordinates":[-93.400379,44.928197]}},{"properties":{"name":"Success Computer Consulting  Inc.","geo_score":0.381,"id":"a6iioay0vayf","geo_precision":"street","state":"MN","location":"Golden Valley, MN"},"type":"Feature","geometry":{"type":"Point","coordinates":[-92.33885,44.064379]}},{"properties":{"name":"Portico Computers Ii Inc.","geo_score":0.857,"id":"a6iioald4d5e","geo_precision":"city","state":"MN","location":"Savage, MN"},"type":"Feature","geometry":{"type":"Point","coordinates":[-93.367975,44.751113]}},{"properties":{"name":"Marlow Entertainment  Inc.","geo_score":0.857,"id":"a6iioaup7suf","geo_precision":"city","state":"MT","location":"Helena, MT"},"type":"Feature","geometry":{"type":"Point","coordinates":[-112.197616,46.70934]}},{"properties":{"name":"Computer Service Partners Inc.","geo_score":0.857,"id":"a6iioaoga0is","geo_precision":"city","state":"NC","location":"Raleigh, NC"},"type":"Feature","geometry":{"type":"Point","coordinates":[-78.638615,35.772096]}},{"properties":{"name":"Network Center Inc","geo_score":0.857,"id":"a6iioapqang3","geo_precision":"city","state":"ND","location":"Fargo, ND"},"type":"Feature","geometry":{"type":"Point","coordinates":[-96.990615,46.92536]}},{"properties":{"name":"Corporate Technologies Llc","geo_score":0.857,"id":"a6iioaznl5p2","geo_precision":"city","state":"ND","location":"Fargo, ND"},"type":"Feature","geometry":{"type":"Point","coordinates":[-96.990615,46.92536]}},{"properties":{"name":"Real Time Consultants  Inc.","geo_score":0.857,"id":"a6iioayedfhw","geo_precision":"city","state":"NJ","location":"Mahwah, NJ"},"type":"Feature","geometry":{"type":"Point","coordinates":[-74.172766,41.053446]}},{"properties":{"name":"Baroan Technologies Inc","geo_score":0.857,"id":"a6iioakvpnwo","geo_precision":"city","state":"NJ","location":"Elmwood Park, NJ"},"type":"Feature","geometry":{"type":"Point","coordinates":[-74.117736,40.905848]}},{"properties":{"name":"Micro Strategies Inc","geo_score":0.482,"id":"a6iiob0qcski","geo_precision":"street","state":"NJ","location":"Denville, NJ"},"type":"Feature","geometry":{"type":"Point","coordinates":[-73.971972,40.913616]}},{"properties":{"name":"Advanced Network Management Inc","geo_score":0.857,"id":"a6iioaqyyss9","geo_precision":"city","state":"NY","location":"Williamsville, NY"},"type":"Feature","geometry":{"type":"Point","coordinates":[-78.737809,42.963947]}},{"properties":{"name":"Info-Link Technologies  Inc.","geo_score":0.857,"id":"a6iioasagvc1","geo_precision":"city","state":"NY","location":"Williamsville, NY"},"type":"Feature","geometry":{"type":"Point","coordinates":[-78.737809,42.963947]}},{"properties":{"name":"Computer Equipment Services","geo_score":0.857,"id":"a6iioasw4nnj","geo_precision":"city","state":"NY","location":"Bay Shore, NY"},"type":"Feature","geometry":{"type":"Point","coordinates":[-73.243004,40.705138]}},{"properties":{"name":"Bit By Bit Computer Consultants Inc","geo_score":0.857,"id":"a6iioaszi86o","geo_precision":"city","state":"NY","location":"New York, NY"},"type":"Feature","geometry":{"type":"Point","coordinates":[-74.005973,40.714269]}},{"properties":{"name":"Dox Electronics Inc","geo_score":0.857,"id":"a6iioaz9s4qk","geo_precision":"city","state":"NY","location":"Rochester, NY"},"type":"Feature","geometry":{"type":"Point","coordinates":[-77.615557,43.154785]}},{"properties":{"name":"Synergy Global Solutions  Inc","geo_score":0.543,"id":"a6iioamf6gsd","geo_precision":"street","state":"NY","location":"Victor, NY"},"type":"Feature","geometry":{"type":"Point","coordinates":[-73.762754,43.086802]}},{"properties":{"name":"New England Systems Inc","geo_score":0.857,"id":"a6iioax8tcuq","geo_precision":"city","state":"NY","location":"Williamsville, NY"},"type":"Feature","geometry":{"type":"Point","coordinates":[-78.737809,42.963947]}},{"properties":{"name":"Lincoln Computer Svc","geo_score":0.857,"id":"a6iioarxl3hn","geo_precision":"city","state":"NY","location":"Hicksville, NY"},"type":"Feature","geometry":{"type":"Point","coordinates":[-73.525125,40.768433]}},{"properties":{"name":"Maureen Data Systems  Inc.","geo_score":0.857,"id":"a6iioawbkkr4","geo_precision":"city","state":"NY","location":"New York, NY"},"type":"Feature","geometry":{"type":"Point","coordinates":[-74.005973,40.714269]}},{"properties":{"name":"Compulink Technologies Inc","geo_score":0.857,"id":"a6iioarhoivp","geo_precision":"city","state":"NY","location":"New York, NY"},"type":"Feature","geometry":{"type":"Point","coordinates":[-74.005973,40.714269]}},{"properties":{"name":"Systems Management Planning Inc","geo_score":0.857,"id":"a6iioax0uoef","geo_precision":"city","state":"NY","location":"Rochester, NY"},"type":"Feature","geometry":{"type":"Point","coordinates":[-77.615557,43.154785]}},{"properties":{"name":"G And G Group Inc","geo_score":0.857,"id":"a6iioawgrd53","geo_precision":"city","state":"NY","location":"New York, NY"},"type":"Feature","geometry":{"type":"Point","coordinates":[-74.005973,40.714269]}},{"properties":{"name":"Infinity Solutions Group Inc","geo_score":0.857,"id":"a6iioapu6q1d","geo_precision":"city","state":"NY","location":"New York, NY"},"type":"Feature","geometry":{"type":"Point","coordinates":[-74.005973,40.714269]}},{"properties":{"name":"Global Computer Corp","geo_score":0.536,"id":"a6iioavymmtg","geo_precision":"street","state":"NY","location":"Prt Jefferson, NY"},"type":"Feature","geometry":{"type":"Point","coordinates":[-75.474831,44.338156]}},{"properties":{"name":"The Elect. Off./ Asheville Inc #972","geo_score":0.857,"id":"a6iioayrpih2","geo_precision":"city","state":"NY","location":"White Plains, NY"},"type":"Feature","geometry":{"type":"Point","coordinates":[-73.769626,41.031397]}},{"properties":{"name":"Logos Communications Systems  Inc.","geo_score":0.629,"id":"a6iioau0g060","geo_precision":"street","state":"OH","location":"Westlake, OH"},"type":"Feature","geometry":{"type":"Point","coordinates":[-83.147813,39.9142]}},{"properties":{"name":"Bpi Information Systems Of Ohio Inc","geo_score":0.857,"id":"a6iioaltkqm6","geo_precision":"city","state":"OH","location":"Brecksville, OH"},"type":"Feature","geometry":{"type":"Point","coordinates":[-81.643247,41.362052]}},{"properties":{"name":"Data Recovery Services Llc","geo_score":0.857,"id":"a6iioap3dlls","geo_precision":"city","state":"OH","location":"Youngstown, OH"},"type":"Feature","geometry":{"type":"Point","coordinates":[-80.649519,41.09978]}},{"properties":{"name":"Link Computer Corp.","geo_score":0.857,"id":"a6iioasodjpj","geo_precision":"city","state":"PA","location":"Bellwood, PA"},"type":"Feature","geometry":{"type":"Point","coordinates":[-78.363835,40.562667]}},{"properties":{"name":"Weidenhammer Systems Corporation","geo_score":0.667,"id":"a6iioanu1q90","geo_precision":"street","state":"PA","location":"Wyomissing, PA"},"type":"Feature","geometry":{"type":"Point","coordinates":[-75.993957,40.326279]}},{"properties":{"name":"Micro Technology Groupe Inc","geo_score":0.857,"id":"a6iioaoe60pl","geo_precision":"city","state":"PA","location":"Bristol, PA"},"type":"Feature","geometry":{"type":"Point","coordinates":[-74.853608,40.115859]}},{"properties":{"name":"Velocity Network Inc.","geo_score":0.857,"id":"a6iioayv3zdq","geo_precision":"city","state":"PA","location":"Erie, PA"},"type":"Feature","geometry":{"type":"Point","coordinates":[-80.085059,42.129224]}},{"properties":{"name":"Jms Inc","geo_score":0.857,"id":"a6iioavfvivo","geo_precision":"city","state":"SD","location":"Rapid City, SD"},"type":"Feature","geometry":{"type":"Point","coordinates":[-103.231015,44.080543]}},{"properties":{"name":"Ultra Inc.","geo_score":0.857,"id":"a6iioawep01f","geo_precision":"city","state":"SD","location":"Watertown, SD"},"type":"Feature","geometry":{"type":"Point","coordinates":[-97.177954,44.955643]}},{"properties":{"name":"Unistar-Sparco Computers  Inc","geo_score":0.857,"id":"a6iioay7f9dy","geo_precision":"city","state":"TN","location":"Millington, TN"},"type":"Feature","geometry":{"type":"Point","coordinates":[-89.892286,35.320197]}},{"properties":{"name":"Corporate Technology Group","geo_score":0.857,"id":"a6iioayjgswx","geo_precision":"city","state":"TX","location":"Arlington, TX"},"type":"Feature","geometry":{"type":"Point","coordinates":[-97.108066,32.735687]}},{"properties":{"name":"Great South Texas Corp","geo_score":0.857,"id":"a6iioayj9t23","geo_precision":"city","state":"TX","location":"San Antonio, TX"},"type":"Feature","geometry":{"type":"Point","coordinates":[-98.493628,29.424122]}},{"properties":{"name":"Computex  Inc.","geo_score":0.721,"id":"a6iiob03j316","geo_precision":"street","state":"TX","location":"Houston, TX"},"type":"Feature","geometry":{"type":"Point","coordinates":[-97.01502,30.011492]}},{"properties":{"name":"Synetra Inc","geo_score":0.857,"id":"a6iioarge4jd","geo_precision":"city","state":"TX","location":"Odessa, TX"},"type":"Feature","geometry":{"type":"Point","coordinates":[-102.367643,31.845682]}},{"properties":{"name":"White Glove Technologies Llc","geo_score":0.857,"id":"a6iioavhrpf0","geo_precision":"city","state":"TX","location":"Austin, TX"},"type":"Feature","geometry":{"type":"Point","coordinates":[-97.743061,30.267153]}},{"properties":{"name":"B &amp; V Technology Group Llc","geo_score":0.721,"id":"a6iioazltjxh","geo_precision":"street","state":"TX","location":"Houston, TX"},"type":"Feature","geometry":{"type":"Point","coordinates":[-97.01502,30.011492]}},{"properties":{"name":"Preferred Technology Solutions","geo_score":0.857,"id":"a6iioaugyr6e","geo_precision":"city","state":"TX","location":"Richardson, TX"},"type":"Feature","geometry":{"type":"Point","coordinates":[-96.729721,32.948179]}},{"properties":{"name":"Enetsolutions Llc","geo_score":0.721,"id":"a6iioaxjnjqw","geo_precision":"street","state":"TX","location":"Houston, TX"},"type":"Feature","geometry":{"type":"Point","coordinates":[-97.01502,30.011492]}},{"properties":{"name":"Vintage Computer Brokers Inc","geo_score":0.857,"id":"a6iioavxm0x3","geo_precision":"city","state":"TX","location":"Austin, TX"},"type":"Feature","geometry":{"type":"Point","coordinates":[-97.743061,30.267153]}},{"properties":{"name":"Datec  Inc.","geo_score":0.857,"id":"a6iioale1nhh","geo_precision":"city","state":"WA","location":"Seattle, WA"},"type":"Feature","geometry":{"type":"Point","coordinates":[-122.332071,47.60621]}},{"properties":{"name":"Heartland Label Printers Inc","geo_score":0.351,"id":"a6iiob0dl36g","geo_precision":"street","state":"WI","location":"Little Chute, WI"},"type":"Feature","geometry":{"type":"Point","coordinates":[-87.66156,44.175128]}},{"properties":{"name":"Applied Tech Solutions Inc","geo_score":0.857,"id":"a6iioaxvarht","geo_precision":"city","state":"WI","location":"Madison, WI"},"type":"Feature","geometry":{"type":"Point","coordinates":[-89.40123,43.073052]}},{"properties":{"name":"Technology Services Group Inc","geo_score":0.857,"id":"a6iioaz1qlmv","geo_precision":"city","state":"WV","location":"Wheeling, WV"},"type":"Feature","geometry":{"type":"Point","coordinates":[-80.647599,40.102703]}}],"is_temporal":false,"author":{"url":"","metadata":"","contact_name":"","contact_address":"","source":"","contact_phone":""},"source":"","pagination":{"sort":null,"start":0,"total":78,"limit":1000000},"state":"complete","tags":"","published":"2014-08-14T18:51:40-04:00","id":252943}