{"type":"FeatureCollection","data_type":"Dataset","url_type":null,"permissions":[{"permissions":{"download":true,"view":true},"group_id":"everyone"}],"classification":null,"title":"NC Stores","count":46,"stream_id":254390,"contributor":{"url":"http://geocommons.com/users/47772","name":"wel5027"},"data_attributes":null,"calculation_params":null,"icon_link":null,"link":"http://geocommons.com/overlays/254390.json","extent":[-81.4731,35.3302,-77.3138,36.5035],"geometry_types":["point"],"unique_name":null,"name":"NC Stores","feature_count":46,"description":"","next_feature":null,"is_raster":false,"short_classification":"Y","stats":{"margin":{"max":27,"variance":69.1270531400966,"mean":14.3695652173913,"stdev":8.31426804596151,"min":0,"median":15}},"features":[{"properties":{"city":"WALKERTOWN","districtmanager":"Hostetler,Kelly S","county":"FORSYTH","margin":26,"geo_score":1.0,"zip code":"27051-9770","street":"5198 REIDSVILLE RD","phone":"336-595-1126","fax":"336-595-1142","regionalmanager":"Kociban,Deborah","id":"a6l6xskxv0cs","rmd":null,"geo_precision":"range","open":"4/8/2004","state":"NC"},"type":"Feature","geometry":{"type":"Point","coordinates":[-80.140475,36.161823]}},{"properties":{"city":"GREENSBORO","districtmanager":"Murphy,Patrick M","county":"GUILFORD","margin":18,"geo_score":1.0,"zip code":"27407-1910","street":"4319 W WENDOVER AVE","phone":"336-855-8898","fax":"336-855-5677","regionalmanager":"Kociban,Deborah","id":"a6l6xsm3vhac","rmd":null,"geo_precision":"range","open":"9/2/2004","state":"NC"},"type":"Feature","geometry":{"type":"Point","coordinates":[-79.891154,36.056519]}},{"properties":{"city":"RALEIGH","districtmanager":"Campbell,Jennifer L","county":"WAKE","margin":0,"geo_score":0.878,"zip code":"27616-3110","street":"4801 THORNTON RD","phone":"919-862-0904","fax":"919-862-0913","regionalmanager":"Kociban,Deborah","id":"a6l6xss4dnv9","rmd":null,"geo_precision":"range","open":"3/10/2005","state":"NC"},"type":"Feature","geometry":{"type":"Point","coordinates":[-78.556666,35.898295]}},{"properties":{"city":"FUQUAY-VARINA","districtmanager":"Campbell,Jennifer L","county":"WAKE","margin":24,"geo_score":1.0,"zip code":"27526-9021","street":"1655 N MAIN ST","phone":"919-577-2215","fax":"919-577-2296","regionalmanager":"Kociban,Deborah","id":"a6l6xsxulm1v","rmd":null,"geo_precision":"range","open":"1/27/2005","state":"NC"},"type":"Feature","geometry":{"type":"Point","coordinates":[-78.760434,35.596388]}},{"properties":{"city":"GREENSBORO","districtmanager":"Murphy,Patrick M","county":"GUILFORD","margin":15,"geo_score":1.0,"zip code":"274072747","street":"5421 HORNADAY RD","phone":"336-852-1003","fax":"336-852-1014","regionalmanager":"Kociban,Deborah","id":"a6l6xspkjzeb","rmd":null,"geo_precision":"range","open":"2/17/2005","state":"NC"},"type":"Feature","geometry":{"type":"Point","coordinates":[-79.904645,36.059369]}},{"properties":{"city":"RALEIGH","districtmanager":"Campbell,Jennifer L","county":"WAKE","margin":13,"geo_score":0.902,"zip code":"27610-1428","street":"5200 NEW BERN AVE","phone":"919-212-2506","fax":"919-231-8834","regionalmanager":"Kociban,Deborah","id":"a6l6xsxg426m","rmd":null,"geo_precision":"street","open":"7/28/2005","state":"NC"},"type":"Feature","geometry":{"type":"Point","coordinates":[-78.55066,35.794837]}},{"properties":{"city":"MEBANE","districtmanager":"Campbell,Jennifer L","county":"ALAMANCE","margin":25,"geo_score":1.0,"zip code":"27302-9680","street":"1237 MEBANE OAKS RD","phone":"919-304-9536","fax":"919-304-9539","regionalmanager":"Kociban,Deborah","id":"a6l6xstvjf1w","rmd":null,"geo_precision":"range","open":"11/23/2005","state":"NC"},"type":"Feature","geometry":{"type":"Point","coordinates":[-79.270702,36.069556]}},{"properties":{"city":"YOUNGSVILLE","districtmanager":"Hengst,Rainey E","county":"FRANKLIN","margin":15,"geo_score":0.854,"zip code":"27596-9184","street":"564 US 1 HWY","phone":"919-554-0838","fax":"919-554-8532","regionalmanager":"Kociban,Deborah","id":"a6l6xsp6xbzw","rmd":null,"geo_precision":"range","open":"3/18/2006","state":"NC"},"type":"Feature","geometry":{"type":"Point","coordinates":[-78.507219,36.027846]}},{"properties":{"city":"WINSTON-SALEM","districtmanager":"Hostetler,Kelly S","county":"FORSYTH","margin":12,"geo_score":0.691,"zip code":"27103-6767","street":"2505 SOMERSET CENTER DR","phone":"336-760-5081","fax":"336-760-5084","regionalmanager":"Kociban,Deborah","id":"a6l6xsujy2w5","rmd":null,"geo_precision":"street","open":"6/29/2006","state":"NC"},"type":"Feature","geometry":{"type":"Point","coordinates":[-80.342838,36.053199]}},{"properties":{"city":"GREENVILLE","districtmanager":"Hengst,Rainey E","county":"PITT","margin":18,"geo_score":0.807,"zip code":"27858-9567","street":"2100 COUNTY HOME RD","phone":"252-353-9021","fax":"252-353-2194","regionalmanager":"Kociban,Deborah","id":"a6l6xsvnqqcc","rmd":null,"geo_precision":"street","open":"9/20/2006","state":"NC"},"type":"Feature","geometry":{"type":"Point","coordinates":[-77.355051,35.560918]}},{"properties":{"city":"WILSON","districtmanager":"Hengst,Rainey E","county":"WILSON","margin":14,"geo_score":0.878,"zip code":"27893-9296","street":"2835 FOREST HILLS RD SW","phone":"252-291-1389","fax":"252-291-8276","regionalmanager":"Kociban,Deborah","id":"a6l6xsmubcvo","rmd":null,"geo_precision":"range","open":"1/26/2012","state":"NC"},"type":"Feature","geometry":{"type":"Point","coordinates":[-77.952239,35.709184]}},{"properties":{"city":"GREENVILLE","districtmanager":"Hengst,Rainey E","county":"PITT","margin":21,"geo_score":1.0,"zip code":"27858-3313","street":"1000 CHARLES BLVD","phone":"252-758-2174","fax":"252-758-2873","regionalmanager":"Kociban,Deborah","id":"a6l6xsuz55ad","rmd":null,"geo_precision":"range","open":"3/1/2007","state":"NC"},"type":"Feature","geometry":{"type":"Point","coordinates":[-77.372239,35.605655]}},{"properties":{"city":"DURHAM","districtmanager":"Campbell,Jennifer L","county":"DURHAM","margin":2,"geo_score":0.878,"zip code":"27703-9045","street":"3021 S MIAMI BLVD","phone":"919-485-8000","fax":"919-485-8007","regionalmanager":"Kociban,Deborah","id":"a6l6xss9f2wq","rmd":null,"geo_precision":"range","open":"4/4/2007","state":"NC"},"type":"Feature","geometry":{"type":"Point","coordinates":[-78.846577,35.924512]}},{"properties":{"city":"MORRISVILLE","districtmanager":"Campbell,Jennifer L","county":"WAKE","margin":22,"geo_score":0.805,"zip code":"27560","street":"1600 AVIATION PARKWAY","phone":"919-840-0466","fax":"919-840-0469","regionalmanager":"Kociban,Deborah","id":"a6l6xsn0ltsj","rmd":null,"geo_precision":"street","open":"6/20/2007","state":"NC"},"type":"Feature","geometry":{"type":"Point","coordinates":[-78.812638,35.836065]}},{"properties":{"city":"STATESVILLE","districtmanager":"Hostetler,Kelly S","county":"IREDELL","margin":26,"geo_score":0.806,"zip code":"28625-3214","street":"1244 WILKESBORO HWY","phone":"704-873-1193","fax":"704-873-4317","regionalmanager":"Kociban,Deborah","id":"a6l6xsnkk2gf","rmd":null,"geo_precision":"street","open":"12/12/2007","state":"NC"},"type":"Feature","geometry":{"type":"Point","coordinates":[-80.907623,35.803709]}},{"properties":{"city":"WINTERVILLE","districtmanager":"Hengst,Rainey E","county":"PITT","margin":0,"geo_score":0.61,"zip code":"28590-7931","street":"650 WHITLEY DR","phone":"252-355-3717","fax":"252-355-2721","regionalmanager":"Kociban,Deborah","id":"a6l6xsnz672x","rmd":null,"geo_precision":"street","open":"2/21/2008","state":"NC"},"type":"Feature","geometry":{"type":"Point","coordinates":[-77.557268,35.330183]}},{"properties":{"city":"WINSTON-SALEM","districtmanager":"Hostetler,Kelly S","county":"DAVIDSON","margin":9,"geo_score":0.887,"zip code":"27127-9730","street":"12290 N NC HIGHWAY 150","phone":"336-775-2126","fax":"336-775-2129","regionalmanager":"Kociban,Deborah","id":"a6l6xswvrho9","rmd":null,"geo_precision":"range","open":"4/24/2008","state":"NC"},"type":"Feature","geometry":{"type":"Point","coordinates":[-80.268066,35.994723]}},{"properties":{"city":"HIGH POINT","districtmanager":"Murphy,Patrick M","county":"GUILFORD","margin":25,"geo_score":0.756,"zip code":"27265","street":"2980 NC 68 SOUTH","phone":"336-841-8900","fax":"336-841-8970","regionalmanager":"Kociban,Deborah","id":"a6l6xsu9b1a9","rmd":null,"geo_precision":"range","open":"9/17/2008","state":"NC"},"type":"Feature","geometry":{"type":"Point","coordinates":[-79.961592,36.059363]}},{"properties":{"city":"GREENVILLE","districtmanager":"Hengst,Rainey E","county":"PITT","margin":10,"geo_score":0.807,"zip code":"27858","street":"1201 PORTERTOWN RD","phone":"252-758-4583","fax":"252-758-5136","regionalmanager":"Kociban,Deborah","id":"a6l6xstaxsdk","rmd":null,"geo_precision":"street","open":"10/29/2008","state":"NC"},"type":"Feature","geometry":{"type":"Point","coordinates":[-77.313763,35.58066]}},{"properties":{"city":"ZEBULON","districtmanager":"Campbell,Jennifer L","county":"WAKE","margin":16,"geo_score":1.0,"zip code":"27597-8734","street":"1406 N ARENDELL AVE","phone":"919-404-2347","fax":"919-404-2350","regionalmanager":"Kociban,Deborah","id":"a6l6xsry85p2","rmd":null,"geo_precision":"range","open":"11/26/2008","state":"NC"},"type":"Feature","geometry":{"type":"Point","coordinates":[-78.325718,35.839786]}},{"properties":{"city":"BURLINGTON","districtmanager":"Campbell,Jennifer L","county":"ALAMANCE","margin":8,"geo_score":1.0,"zip code":"27215-6256","street":"2628 ALAMANCE RD","phone":"336-227-3730","fax":"336-227-0792","regionalmanager":"Kociban,Deborah","id":"a6l6xsngwad8","rmd":null,"geo_precision":"range","open":"4/9/2009","state":"NC"},"type":"Feature","geometry":{"type":"Point","coordinates":[-79.468008,36.067132]}},{"properties":{"city":"TRINITY","districtmanager":"Murphy,Patrick M","county":"RANDOLPH","margin":6,"geo_score":1.0,"zip code":"27370-8847","street":"5905 FINCH FARM RD","phone":"336-476-0128","fax":"336-476-0143","regionalmanager":"Kociban,Deborah","id":"a6l6xswgk3qz","rmd":null,"geo_precision":"range","open":"5/13/2009","state":"NC"},"type":"Feature","geometry":{"type":"Point","coordinates":[-80.036626,35.868551]}},{"properties":{"city":"EDEN","districtmanager":"Murphy,Patrick M","county":"ROCKINGHAM","margin":26,"geo_score":1.0,"zip code":"27288","street":"102 N VAN BUREN RD","phone":"336-627-0740","fax":"336-627-0794","regionalmanager":"Kociban,Deborah","id":"a6l6xsu5m5mv","rmd":null,"geo_precision":"range","open":"9/3/2009","state":"NC"},"type":"Feature","geometry":{"type":"Point","coordinates":[-79.743692,36.503547]}},{"properties":{"city":"JAMESTOWN","districtmanager":"Murphy,Patrick M","county":"GUILFORD","margin":16,"geo_score":0.688,"zip code":"27282-8901","street":"1001 GARDNER HILL DR","phone":"336-454-3200","fax":"336-454-3216","regionalmanager":"Kociban,Deborah","id":"a6l6xsx5bs19","rmd":null,"geo_precision":"street","open":"11/11/2009","state":"NC"},"type":"Feature","geometry":{"type":"Point","coordinates":[-79.928834,36.028819]}},{"properties":{"city":"KERNERSVILLE","districtmanager":"Hostetler,Kelly S","county":"FORSYTH","margin":2,"geo_score":1.0,"zip code":"27284","street":"790 NORTH MAIN STREET","phone":"336-992-2313","fax":"336-992-2149","regionalmanager":"Kociban,Deborah","id":"a6l6xsv0hgaz","rmd":null,"geo_precision":"range","open":"4/15/2010","state":"NC"},"type":"Feature","geometry":{"type":"Point","coordinates":[-80.060876,36.128725]}},{"properties":{"city":"ROCKY MOUNT","districtmanager":"Hengst,Rainey E","county":"NASH","margin":13,"geo_score":1.0,"zip code":"27804","street":"1690 BENVENUE ROAD","phone":"252-212-1580","fax":"252-212-1563","regionalmanager":"Kociban,Deborah","id":"a6l6xsoxsjan","rmd":null,"geo_precision":"range","open":"6/17/2010","state":"NC"},"type":"Feature","geometry":{"type":"Point","coordinates":[-77.808894,35.98081]}},{"properties":{"city":"ROCKY MOUNT","districtmanager":"Hengst,Rainey E","county":"NASH","margin":22,"geo_score":0.817,"zip code":"27804","street":"3715 NORTH WESLEYAN BLVD","phone":"252-212-3363","fax":"252-212-3368","regionalmanager":"Kociban,Deborah","id":"a6l6xswvo7n6","rmd":null,"geo_precision":"street","open":"9/1/2010","state":"NC"},"type":"Feature","geometry":{"type":"Point","coordinates":[-77.77065,36.017914]}},{"properties":{"city":"WINSTON SALEM","districtmanager":"Hostetler,Kelly S","county":"DAVIDSON","margin":1,"geo_score":0.992,"zip code":"27107","street":"5519 GUMTREE ROAD","phone":"336-771-4099","fax":"336-771-4133","regionalmanager":"Kociban,Deborah","id":"a6l6xsz3zy2d","rmd":null,"geo_precision":"range","open":"3/17/2011","state":"NC"},"type":"Feature","geometry":{"type":"Point","coordinates":[-80.159797,36.026592]}},{"properties":{"city":"ASHEBORO","districtmanager":"Murphy,Patrick M","county":"RANDOLPH","margin":10,"geo_score":0.585,"zip code":"27203","street":"1065 EAST DIXIE DRIVE","phone":"336-328-0213","fax":"336-328-0215","regionalmanager":"Kociban,Deborah","id":"a6l6xswu2j2a","rmd":null,"geo_precision":"zip","open":"2/24/2011","state":"NC"},"type":"Feature","geometry":{"type":"Point","coordinates":[-79.976987,35.65347]}},{"properties":{"city":"MOCKSVILLE","districtmanager":"Hostetler,Kelly S","county":"DAVIE","margin":21,"geo_score":0.685,"zip code":"27028","street":"1449 YADKINVILLE ROAD","phone":"336-751-1071","fax":"336-679-2215","regionalmanager":"Kociban,Deborah","id":"a6l6xswlxbt6","rmd":null,"geo_precision":"street","open":"3/3/2011","state":"NC"},"type":"Feature","geometry":{"type":"Point","coordinates":[-80.591265,35.923738]}},{"properties":{"city":"GREENSBORO","districtmanager":"Murphy,Patrick M","county":"GUILFORD","margin":27,"geo_score":1.0,"zip code":"27409","street":"6930 WEST MARKET ST","phone":"336-393-0014","fax":"336-393-0041","regionalmanager":"Kociban,Deborah","id":"a6l6xsmjlo8h","rmd":null,"geo_precision":"range","open":"6/23/2011","state":"NC"},"type":"Feature","geometry":{"type":"Point","coordinates":[-79.92716,36.07934]}},{"properties":{"city":"SALISBURY","districtmanager":"Hostetler,Kelly S","county":"ROWAN","margin":0,"geo_score":0.373,"zip code":"28146","street":"1520 JAKE ALEXANDER BOULEVARD SOUTH","phone":"704-633-1051","fax":"704-633-1408","regionalmanager":"Kociban,Deborah","id":"a6l6xswucpoo","rmd":null,"geo_precision":"street","open":"9/15/2011","state":"NC"},"type":"Feature","geometry":{"type":"Point","coordinates":[-81.473103,35.592754]}},{"properties":{"city":"HENDERSON","districtmanager":"Hengst,Rainey E","county":"VANCE","margin":13,"geo_score":0.683,"zip code":"27536","street":"619 RUIN CREEK ROAD","phone":"252-492-1530","fax":"252-492-1556","regionalmanager":"Kociban,Deborah","id":"a6l6xsx10t7p","rmd":null,"geo_precision":"street","open":"9/29/2011","state":"NC"},"type":"Feature","geometry":{"type":"Point","coordinates":[-78.452921,36.320959]}},{"properties":{"city":"ARCHDALE","districtmanager":"Murphy,Patrick M","county":"RANDOLPH","margin":22,"geo_score":1.0,"zip code":"27263","street":"10206 SOUTH MAIN STREET","phone":"3364310613","fax":"336-431-7563","regionalmanager":"Kociban,Deborah","id":"a6l6xsl8dijw","rmd":null,"geo_precision":"range","open":"9/29/2011","state":"NC"},"type":"Feature","geometry":{"type":"Point","coordinates":[-79.944509,35.898229]}},{"properties":{"city":"BENSON","districtmanager":"Campbell,Jennifer L","county":"JOHNSTON","margin":17,"geo_score":0.887,"zip code":"27504","street":"13433 NC HIGHWAY 210","phone":"919-207-1440","fax":"919-207-1443","regionalmanager":"Kociban,Deborah","id":"a6l6xsl8fwpg","rmd":null,"geo_precision":"range","open":"1/26/2012","state":"NC"},"type":"Feature","geometry":{"type":"Point","coordinates":[-78.567002,35.515305]}},{"properties":{"city":"RALEIGH","districtmanager":"Campbell,Jennifer L","county":"WAKE","margin":21,"geo_score":0.807,"zip code":"27607","street":"600 CORPORATE CENTER DR","phone":"919-859-9577","fax":"919-859-9575","regionalmanager":"Kociban,Deborah","id":"a6l6xsy6i93s","rmd":null,"geo_precision":"street","open":"4/18/2012","state":"NC"},"type":"Feature","geometry":{"type":"Point","coordinates":[-78.740038,35.790407]}},{"properties":{"city":"WENDELL","districtmanager":"Campbell,Jennifer L","county":"WAKE","margin":27,"geo_score":0.805,"zip code":"27591","street":"505 WENDELL BLVD","phone":"919-365-9032","fax":"919-365-9089","regionalmanager":"Kociban,Deborah","id":"a6l6xst2adoj","rmd":null,"geo_precision":"street","open":"2/2/2012","state":"NC"},"type":"Feature","geometry":{"type":"Point","coordinates":[-78.398423,35.802246]}},{"properties":{"city":"KING","districtmanager":"Hostetler,Kelly S","county":"STOKES","margin":6,"geo_score":1.0,"zip code":"27021","street":"703 EAST KING ST","phone":"336-985-0501","fax":"336-985-0513","regionalmanager":"Kociban,Deborah","id":"a6l6xsqsk281","rmd":null,"geo_precision":"range","open":"3/15/2012","state":"NC"},"type":"Feature","geometry":{"type":"Point","coordinates":[-80.339526,36.276922]}},{"properties":{"city":"GREENSBORO","districtmanager":"Murphy,Patrick M","county":"GUILFORD","margin":8,"geo_score":1.0,"zip code":"27407","street":"3941 WEST MARKET ST","phone":"336-315-7595","fax":"336-315-7599","regionalmanager":"Kociban,Deborah","id":"a6l6xsuw8y9a","rmd":null,"geo_precision":"range","open":"3/22/2012","state":"NC"},"type":"Feature","geometry":{"type":"Point","coordinates":[-79.852323,36.069185]}},{"properties":{"city":"LOUISBURG","districtmanager":"Hengst,Rainey E","county":"FRANKLIN","margin":24,"geo_score":0.585,"zip code":"27549","street":"108 SOUTH BICKETT BLVD","phone":"919-340-4406","fax":"919-340-4409","regionalmanager":"Kociban,Deborah","id":"a6l6xspllw7j","rmd":null,"geo_precision":"zip","open":"4/19/2012","state":"NC"},"type":"Feature","geometry":{"type":"Point","coordinates":[-78.227215,36.07654]}},{"properties":{"city":"GREENVILLE","districtmanager":"Hengst,Rainey E","county":"PITT","margin":4,"geo_score":1.0,"zip code":"27834","street":"2521 NORTH MEMORIAL DRIVE","phone":"252-353-0161","fax":"252-353-0165","regionalmanager":"Kociban,Deborah","id":"a6l6xsvigy62","rmd":null,"geo_precision":"range","open":"5/3/2012","state":"NC"},"type":"Feature","geometry":{"type":"Point","coordinates":[-77.364006,35.656911]}},{"properties":{"city":"GREENSBORO","districtmanager":"Murphy,Patrick M","county":"GUILFORD","margin":16,"geo_score":1.0,"zip code":"27410","street":"1620 NEW GARDEN ROAD","phone":"336-315-2212","fax":"336-315-2215","regionalmanager":"Kociban,Deborah","id":"a6l6xspllhv1","rmd":null,"geo_precision":"range","open":"4/19/2012","state":"NC"},"type":"Feature","geometry":{"type":"Point","coordinates":[-79.876263,36.116543]}},{"properties":{"city":"MT AIRY","districtmanager":"Hostetler,Kelly S","county":"SURRY","margin":12,"geo_score":0.585,"zip code":"27030","street":"2905 ROCKFORD ST","phone":"336-719-2478","fax":"336-719-2482","regionalmanager":"Kociban,Deborah","id":"a6l6xszf7vgx","rmd":null,"geo_precision":"zip","open":"6/14/2012","state":"NC"},"type":"Feature","geometry":{"type":"Point","coordinates":[-80.83785,36.482354]}},{"properties":{"city":"GRAHAM","districtmanager":"Campbell,Jennifer L","county":"ALAMANCE","margin":5,"geo_score":1.0,"zip code":"27253","street":"1138 SOUTH MAIN ST","phone":"336-226-9488","fax":"336-226-9491","regionalmanager":"Kociban,Deborah","id":"a6l6xsuregmg","rmd":null,"geo_precision":"range","open":"6/21/2012","state":"NC"},"type":"Feature","geometry":{"type":"Point","coordinates":[-79.395879,36.047122]}},{"properties":{"city":"DOBSON","districtmanager":"Hostetler,Kelly S","county":"SURRY","margin":13,"geo_score":1.0,"zip code":"27017","street":"119 SOUTH MAIN ST","phone":"336-386-1006","fax":"336-386-1025","regionalmanager":"Kociban,Deborah","id":"a6l6xssv35rf","rmd":null,"geo_precision":"range","open":null,"state":"NC"},"type":"Feature","geometry":{"type":"Point","coordinates":[-80.722379,36.395516]}},{"properties":{"city":"LEXINGTON","districtmanager":"Hostetler,Kelly S","county":"DAVIDSON","margin":10,"geo_score":1.0,"zip code":"27295","street":"8283 OLD US HIGHWAY 52","phone":null,"fax":null,"regionalmanager":"Kociban,Deborah","id":"a6l6xsxmk9m8","rmd":null,"geo_precision":"range","open":null,"state":"NC"},"type":"Feature","geometry":{"type":"Point","coordinates":[-80.237087,35.935342]}}],"is_temporal":false,"author":{"url":"","metadata":"","contact_name":"","contact_address":"","source":"","contact_phone":""},"source":"","pagination":{"sort":null,"start":0,"total":46,"limit":1000000},"state":"complete","tags":"","published":"2014-08-14T20:46:30-04:00","id":254390}