{"type":"FeatureCollection","data_type":"Dataset","url_type":null,"permissions":[{"permissions":{"download":true,"view":true},"group_id":"everyone"}],"classification":null,"title":"Ohio Stores","count":32,"stream_id":254378,"contributor":{"url":"http://geocommons.com/users/47772","name":"wel5027"},"data_attributes":null,"calculation_params":null,"icon_link":null,"link":"http://geocommons.com/overlays/254378.json","extent":[-82.0679,39.9085,-80.5741,41.8761],"geometry_types":["point"],"unique_name":null,"name":"Ohio Stores","feature_count":32,"description":"","next_feature":null,"is_raster":false,"short_classification":"Y","stats":{"margin":{"max":30,"variance":81.7409274193548,"mean":14.53125,"stdev":9.04106893123567,"min":2,"median":14}},"features":[{"properties":{"city":"GIRARD","districtmanager":"Fajohn,Robert","county":"TRUMBALL","margin":27,"geo_score":1.0,"zip code":"44420-3148","street":"2721 SALT SPRINGS RD","phone":"330-530-2375","fax":"330-530-2378","regionalmanager":"Kociban,Deborah","id":"a6l6r24zktmu","rmd":null,"geo_precision":"range","open":"1/1/1998","state":"OH"},"type":"Feature","geometry":{"type":"Point","coordinates":[-80.722881,41.143959]}},{"properties":{"city":"EAST LIVERPOOL","districtmanager":"Fajohn,Robert","county":"COLUMBIANA","margin":21,"geo_score":0.805,"zip code":"439209626","street":"15744 SAINT CLAIR AVE","phone":"330-386-5550","fax":"330-386-5015","regionalmanager":"Kociban,Deborah","id":"a6l6r2564eyu","rmd":null,"geo_precision":"street","open":"7/17/1998","state":"OH"},"type":"Feature","geometry":{"type":"Point","coordinates":[-80.574129,40.652194]}},{"properties":{"city":"STREETSBORO","districtmanager":"Carlson,Kathryn A","county":"PORTAGE","margin":9,"geo_score":1.0,"zip code":"44241-5210","street":"9745 STATE ROUTE 14","phone":"330-422-0165","fax":"330-422-0167","regionalmanager":"Kociban,Deborah","id":"a6l6r2152366","rmd":null,"geo_precision":"range","open":"5/27/1999","state":"OH"},"type":"Feature","geometry":{"type":"Point","coordinates":[-81.36513,41.251103]}},{"properties":{"city":"ASHTABULA","districtmanager":"Fajohn,Robert","county":"ASHTABULA","margin":4,"geo_score":1.0,"zip code":"44004-5305","street":"2411 N RIDGE RD E","phone":"440-998-1009","fax":"440-998-0891","regionalmanager":"Kociban,Deborah","id":"a6l6r29tbsgv","rmd":null,"geo_precision":"range","open":"10/8/1999","state":"OH"},"type":"Feature","geometry":{"type":"Point","coordinates":[-80.763452,41.876075]}},{"properties":{"city":"AUSTINTOWN","districtmanager":"Fajohn,Robert","county":"MAHONING","margin":18,"geo_score":1.0,"zip code":"44515-2420","street":"5499 MAHONING AVE","phone":"330-270-1803","fax":"330-270-1447","regionalmanager":"Kociban,Deborah","id":"a6l6r28ui4ww","rmd":null,"geo_precision":"range","open":"1/20/2000","state":"OH"},"type":"Feature","geometry":{"type":"Point","coordinates":[-80.760696,41.09961]}},{"properties":{"city":"WARREN","districtmanager":"Fajohn,Robert","county":"TRUMBALL","margin":2,"geo_score":1.0,"zip code":"44484-2541","street":"1162 NILES CORTLAND RD SE","phone":"330-856-9803","fax":"330-856-9849","regionalmanager":"Kociban,Deborah","id":"a6l6r25eu12o","rmd":null,"geo_precision":"range","open":"7/6/2000","state":"OH"},"type":"Feature","geometry":{"type":"Point","coordinates":[-80.740549,41.225478]}},{"properties":{"city":"WARREN","districtmanager":"Fajohn,Robert","county":"TRUMBALL","margin":3,"geo_score":0.805,"zip code":"44484-2613","street":"3379 ELM RD NE","phone":"330-372-6077","fax":"330-372-6242","regionalmanager":"Kociban,Deborah","id":"a6l6r28abj5j","rmd":null,"geo_precision":"range","open":"8/24/2000","state":"OH"},"type":"Feature","geometry":{"type":"Point","coordinates":[-80.78302,41.265465]}},{"properties":{"city":"STOW","districtmanager":"Carlson,Kathryn A","county":"SUMMIT","margin":8,"geo_score":0.954,"zip code":"44224-4976","street":"950 E STEELS CORNERS RD","phone":"330-929-5673","fax":"330-929-5783","regionalmanager":"Kociban,Deborah","id":"a6l6r25nuixu","rmd":null,"geo_precision":"range","open":"9/28/2000","state":"OH"},"type":"Feature","geometry":{"type":"Point","coordinates":[-81.475122,41.181187]}},{"properties":{"city":"RAVENNA","districtmanager":"Carlson,Kathryn A","county":"PORTAGE","margin":27,"geo_score":1.0,"zip code":"44266-9736","street":"6941 STATE ROUTE 44","phone":"330-296-2107","fax":"330-296-2174","regionalmanager":"Kociban,Deborah","id":"a6l6r2e367aq","rmd":null,"geo_precision":"range","open":"6/21/2001","state":"OH"},"type":"Feature","geometry":{"type":"Point","coordinates":[-81.246445,41.179767]}},{"properties":{"city":"NORTH LIMA","districtmanager":"Fajohn,Robert","county":"MAHONING","margin":28,"geo_score":1.0,"zip code":"44452-9557","street":"9010 MARKET ST","phone":"330-965-7857","fax":"330-965-8387","regionalmanager":"Kociban,Deborah","id":"a6l6r22pd6qf","rmd":null,"geo_precision":"range","open":"6/7/2001","state":"OH"},"type":"Feature","geometry":{"type":"Point","coordinates":[-80.662834,40.987695]}},{"properties":{"city":"AKRON","districtmanager":"Redman,Amanda M","county":"SUMMIT","margin":22,"geo_score":1.0,"zip code":"44319-1117","street":"20 W WATERLOO RD","phone":"330-773-1477","fax":"330-773-1536","regionalmanager":"Kociban,Deborah","id":"a6l6r29a42ck","rmd":null,"geo_precision":"range","open":"7/17/2001","state":"OH"},"type":"Feature","geometry":{"type":"Point","coordinates":[-81.528722,41.02867]}},{"properties":{"city":"CUYAHOGA FALLS","districtmanager":"Carlson,Kathryn A","county":"SUMMIT","margin":9,"geo_score":1.0,"zip code":"44221-4923","street":"1210 MAIN ST","phone":"330-922-4093","fax":"330-922-4137","regionalmanager":"Kociban,Deborah","id":"a6l6r21r0m4u","rmd":null,"geo_precision":"range","open":"9/6/2001","state":"OH"},"type":"Feature","geometry":{"type":"Point","coordinates":[-81.485025,41.117384]}},{"properties":{"city":"WADSWORTH","districtmanager":"Carlson,Kathryn A","county":"MEDINA","margin":13,"geo_score":1.0,"zip code":"44281-9708","street":"5100 RIDGE RD","phone":"330-239-0801","fax":"330-239-0502","regionalmanager":"Kociban,Deborah","id":"a6l6r26srb6q","rmd":null,"geo_precision":"range","open":"5/23/2002","state":"OH"},"type":"Feature","geometry":{"type":"Point","coordinates":[-81.735115,41.129539]}},{"properties":{"city":"CANFIELD","districtmanager":"Fajohn,Robert","county":"MAHONING","margin":14,"geo_score":1.0,"zip code":"44406-8130","street":"4585 BOARDMAN CANFIELD RD","phone":"330-533-6442","fax":"330-533-5091","regionalmanager":"Kociban,Deborah","id":"a6l6r272jr8s","rmd":null,"geo_precision":"range","open":"8/22/2002","state":"OH"},"type":"Feature","geometry":{"type":"Point","coordinates":[-80.735723,41.024776]}},{"properties":{"city":"CANTON","districtmanager":"Redman,Amanda M","county":"STARK","margin":3,"geo_score":1.0,"zip code":"44708-5013","street":"5057 TUSCARAWAS ST W","phone":"330-479-8515","fax":"330-479-8516","regionalmanager":"Kociban,Deborah","id":"a6l6r29fntzo","rmd":null,"geo_precision":"range","open":"5/15/2003","state":"OH"},"type":"Feature","geometry":{"type":"Point","coordinates":[-81.446001,40.792595]}},{"properties":{"city":"NORTH RIDGEVILLE","districtmanager":"Carlson,Kathryn A","county":"LORAIN","margin":29,"geo_score":1.0,"zip code":"44039-3420","street":"32390 LORAIN RD","phone":"440-327-1822","fax":"440-327-0974","regionalmanager":"Kociban,Deborah","id":"a6l6r2e5ni0o","rmd":null,"geo_precision":"range","open":"8/7/2003","state":"OH"},"type":"Feature","geometry":{"type":"Point","coordinates":[-81.975769,41.386483]}},{"properties":{"city":"NEW PHILADELPHIA","districtmanager":"Redman,Amanda M","county":"TUSCARAWAS","margin":16,"geo_score":0.43,"zip code":"44663-6943","street":"1281 W HIGH AVE","phone":"330-339-3740","fax":"330-339-4810","regionalmanager":"Kociban,Deborah","id":"a6l6r20mjafn","rmd":null,"geo_precision":"street","open":"4/22/2004","state":"OH"},"type":"Feature","geometry":{"type":"Point","coordinates":[-81.733409,40.799185]}},{"properties":{"city":"AKRON","districtmanager":"Redman,Amanda M","county":"SUMMIT","margin":19,"geo_score":1.0,"zip code":"44312-5368","street":"1651 E TURKEYFOOT LAKE RD","phone":"330-899-1100","fax":"330-899-1107","regionalmanager":"Kociban,Deborah","id":"a6l6r21qqp6d","rmd":null,"geo_precision":"range","open":"6/16/2005","state":"OH"},"type":"Feature","geometry":{"type":"Point","coordinates":[-81.461313,40.973743]}},{"properties":{"city":"ALLIANCE","districtmanager":"Fajohn,Robert","county":"STARK","margin":2,"geo_score":1.0,"zip code":"44601-4717","street":"236 W STATE ST","phone":"330-829-9970","fax":"330-829-9983","regionalmanager":"Kociban,Deborah","id":"a6l6r2dhklg6","rmd":null,"geo_precision":"range","open":"9/29/2005","state":"OH"},"type":"Feature","geometry":{"type":"Point","coordinates":[-81.108998,40.901647]}},{"properties":{"city":"CAMBRIDGE","districtmanager":"Redman,Amanda M","county":"GUERNSEY","margin":30,"geo_score":0.902,"zip code":"43725-3080","street":"2101 SOUTHGATE PKWY","phone":"740-432-8410","fax":"740-432-8472","regionalmanager":"Kociban,Deborah","id":"a6l6r2ecbsf6","rmd":null,"geo_precision":"street","open":"7/20/2006","state":"OH"},"type":"Feature","geometry":{"type":"Point","coordinates":[-81.576799,40.006959]}},{"properties":{"city":"CANTON","districtmanager":"Redman,Amanda M","county":"STARK","margin":26,"geo_score":1.0,"zip code":"44708-1533","street":"2939 WHIPPLE AVE NW","phone":"330-478-3002","fax":"330-478-3009","regionalmanager":"Kociban,Deborah","id":"a6l6r2gf4ytu","rmd":null,"geo_precision":"range","open":"8/17/2006","state":"OH"},"type":"Feature","geometry":{"type":"Point","coordinates":[-81.424557,40.828986]}},{"properties":{"city":"KENT","districtmanager":"Carlson,Kathryn A","county":"PORTAGE","margin":13,"geo_score":1.0,"zip code":"44240-2850","street":"1762 E MAIN ST","phone":"330-673-3060","fax":"330-673-3085","regionalmanager":"Kociban,Deborah","id":"a6l6r285d9zz","rmd":null,"geo_precision":"range","open":"9/21/2006","state":"OH"},"type":"Feature","geometry":{"type":"Point","coordinates":[-81.329624,41.15465]}},{"properties":{"city":"TWINSBURG","districtmanager":"Carlson,Kathryn A","county":"SUMMIT","margin":5,"geo_score":0.807,"zip code":"44087-2145","street":"2495 E AURORA RD","phone":"330-405-3001","fax":"330-405-3016","regionalmanager":"Kociban,Deborah","id":"a6l6r2axeo6l","rmd":null,"geo_precision":"street","open":"1/4/2007","state":"OH"},"type":"Feature","geometry":{"type":"Point","coordinates":[-81.452322,41.311332]}},{"properties":{"city":"MENTOR","districtmanager":"Carlson,Kathryn A","county":"LAKE","margin":8,"geo_score":1.0,"zip code":"44060-5320","street":"7777 REYNOLDS RD","phone":"440-946-7650","fax":"440-946-7654","regionalmanager":"Kociban,Deborah","id":"a6l6r217nhs1","rmd":null,"geo_precision":"range","open":"1/29/2007","state":"OH"},"type":"Feature","geometry":{"type":"Point","coordinates":[-81.377536,41.658522]}},{"properties":{"city":"PERRY","districtmanager":"Carlson,Kathryn A","county":"LAKE","margin":10,"geo_score":1.0,"zip code":"44081-9557","street":"2800 N RIDGE RD","phone":"440-358-1734","fax":"440-358-1864","regionalmanager":"Kociban,Deborah","id":"a6l6r2e9seqq","rmd":null,"geo_precision":"range","open":"11/29/2007","state":"OH"},"type":"Feature","geometry":{"type":"Point","coordinates":[-81.167015,41.773257]}},{"properties":{"city":"ZANESVILLE","districtmanager":"Redman,Amanda M","county":"MUSKINGUM","margin":14,"geo_score":1.0,"zip code":"43701-6171","street":"225 N MAYSVILLE AVE","phone":"740-452-7701","fax":"740-452-7734","regionalmanager":"Kociban,Deborah","id":"a6l6r2dt20ps","rmd":null,"geo_precision":"range","open":"12/6/2007","state":"OH"},"type":"Feature","geometry":{"type":"Point","coordinates":[-82.017375,39.908536]}},{"properties":{"city":"STRONGSVILLE","districtmanager":"Carlson,Kathryn A","county":"CUYAHOGA","margin":11,"geo_score":0.911,"zip code":"44149-3802","street":"21034 ROYALTON RD","phone":"440-572-1805","fax":"440-572-1815","regionalmanager":"Kociban,Deborah","id":"a6l6r20mt8yz","rmd":null,"geo_precision":"range","open":"6/29/2009","state":"OH"},"type":"Feature","geometry":{"type":"Point","coordinates":[-81.859637,41.31249]}},{"properties":{"city":"NORTH CANTON","districtmanager":"Redman,Amanda M","county":"STARK","margin":23,"geo_score":0.625,"zip code":"44720","street":"1415 PITTSBURG AVENUE, NW","phone":"330-498-8440","fax":"330-498-8446","regionalmanager":"Kociban,Deborah","id":"a6l6r22wlnze","rmd":null,"geo_precision":"street","open":"9/30/2009","state":"OH"},"type":"Feature","geometry":{"type":"Point","coordinates":[-81.416891,40.881996]}},{"properties":{"city":"CHARDON","districtmanager":"Carlson,Kathryn A","county":"GEAUGA","margin":22,"geo_score":1.0,"zip code":"44024","street":"435 WATER STREET","phone":"440-279-0683","fax":"440-279-0687","regionalmanager":"Kociban,Deborah","id":"a6l6r22nxygf","rmd":null,"geo_precision":"range","open":"11/25/2009","state":"OH"},"type":"Feature","geometry":{"type":"Point","coordinates":[-81.210429,41.580825]}},{"properties":{"city":"SHEFFIELD VILLAGE","districtmanager":"Carlson,Kathryn A","county":"LORAIN","margin":6,"geo_score":0.784,"zip code":"44054","street":"5295 DETROIT RD","phone":"440-934-3598","fax":"440-934-3597","regionalmanager":"Kociban,Deborah","id":"a6l6r24vst7n","rmd":null,"geo_precision":"street","open":"6/24/2010","state":"OH"},"type":"Feature","geometry":{"type":"Point","coordinates":[-82.067869,41.430026]}},{"properties":{"city":"KENT","districtmanager":"Carlson,Kathryn A","county":"PORTAGE","margin":3,"geo_score":1.0,"zip code":"44240","street":"600 NORTH MANTUA ST","phone":"330-346-0059","fax":"330-346-0097","regionalmanager":"Kociban,Deborah","id":"a6l6r2g960n9","rmd":null,"geo_precision":"range","open":"12/8/2010","state":"OH"},"type":"Feature","geometry":{"type":"Point","coordinates":[-81.359369,41.159625]}},{"properties":{"city":"PARMA","districtmanager":"Carlson,Kathryn A","county":"CUYAHOGA","margin":20,"geo_score":1.0,"zip code":"44129","street":"6767 RIDGE ROAD","phone":"440-842-6155","fax":"440-842-6415","regionalmanager":"Kociban,Deborah","id":"a6l6r23skd88","rmd":null,"geo_precision":"range","open":"8/23/2011","state":"OH"},"type":"Feature","geometry":{"type":"Point","coordinates":[-81.734619,41.381996]}}],"is_temporal":false,"author":{"url":"","metadata":"","contact_name":"","contact_address":"","source":"","contact_phone":""},"source":"","pagination":{"sort":null,"start":0,"total":32,"limit":1000000},"state":"complete","tags":"","published":"2014-08-14T20:45:41-04:00","id":254378}