{"type":"FeatureCollection","data_type":"Dataset","url_type":null,"permissions":[{"permissions":{"download":true,"view":true},"group_id":"everyone"}],"classification":null,"title":"Copy of stores22323","count":437,"stream_id":254322,"contributor":{"url":"http://geocommons.com/users/19917","name":"diethrick@gmail.com"},"data_attributes":null,"calculation_params":null,"icon_link":null,"link":"http://geocommons.com/overlays/254322.json","extent":[0.0,0.0,0.0,0.0],"geometry_types":[],"unique_name":null,"name":"Copy of stores22323","feature_count":437,"description":"","next_feature":null,"is_raster":false,"short_classification":"Y","stats":{"margin":{"max":30,"variance":74.8836469880554,"mean":15.2685185185185,"stdev":8.65353378615092,"min":0,"median":15},"storeno":{"max":9225,"variance":205101.081088741,"mean":304.922196796339,"stdev":452.880868539113,"min":3,"median":287}},"features":[{"properties":{"city":"HOLLIDAYSBURG","districtmanager":"Kuntz,Pamela S","county":"BLAIR","margin":15,"geo_score":1.0,"zip code":"166482444","storeno":3,"street":"1100 BLAIR ST","phone":"814-695-0931","fax":"814-695-0368","regionalmanager":"Campbell,John E","id":"a6l5nusdqxie","rmd":"3/1/1994","geo_precision":"range","open":"9/1/1968","state":"PA"},"type":"Feature","geometry":{"type":"Point","coordinates":[-78.383077,40.430233]}},{"properties":{"city":"ALTOONA","districtmanager":"Kuntz,Pamela S","county":"BLAIR","margin":26,"geo_score":0.916,"zip code":"16602-1111","storeno":7,"street":"5706 6TH AVE","phone":"814-941-3730","fax":"814-949-7246","regionalmanager":"Campbell,John E","id":"a6l5nv65wlsf","rmd":"7/4/2005","geo_precision":"range","open":"10/1/1971","state":"PA"},"type":"Feature","geometry":{"type":"Point","coordinates":[-78.425028,40.472375]}},{"properties":{"city":"HUNTINGDON","districtmanager":"Williams,Thomas L","county":"HUNTINGDON","margin":14,"geo_score":1.0,"zip code":"16652-1932","storeno":10,"street":"1330 MOORE ST","phone":"814-643-3352","fax":"814-643-1363","regionalmanager":"Faulk,Peggy","id":"a6l5nuyiuqib","rmd":"3/1/1992","geo_precision":"range","open":"6/1/1972","state":"PA"},"type":"Feature","geometry":{"type":"Point","coordinates":[-78.016191,40.494686]}},{"properties":{"city":"ALTOONA","districtmanager":"Kuntz,Pamela S","county":"BLAIR","margin":28,"geo_score":0.927,"zip code":"166013438","storeno":11,"street":"1230 14TH AVE","phone":"814-946-1918","fax":"814-940-8394","regionalmanager":"Campbell,John E","id":"a6l5nv2km3ro","rmd":"10/1/1982","geo_precision":"range","open":"7/1/1972","state":"PA"},"type":"Feature","geometry":{"type":"Point","coordinates":[-78.403708,40.517306]}},{"properties":{"city":"ALTOONA","districtmanager":"Kuntz,Pamela S","county":"BLAIR","margin":3,"geo_score":1.0,"zip code":"166011714","storeno":14,"street":"3315 BEALE AVE","phone":"814-942-2020","fax":"814-942-2307","regionalmanager":"Campbell,John E","id":"a6l5nuzxumgt","rmd":"8/1/1997","geo_precision":"range","open":"12/1/1972","state":"PA"},"type":"Feature","geometry":{"type":"Point","coordinates":[-78.417302,40.494462]}},{"properties":{"city":"TYRONE","districtmanager":"Schmitt,Tabitha A","county":"BLAIR","margin":5,"geo_score":1.0,"zip code":"166861638","storeno":15,"street":"1400 LOGAN AVE","phone":"814-684-1370","fax":"814-686-0468","regionalmanager":"Faulk,Peggy","id":"a6l5nv63p27x","rmd":"6/1/2000","geo_precision":"range","open":"1/1/1973","state":"PA"},"type":"Feature","geometry":{"type":"Point","coordinates":[-78.237321,40.676601]}},{"properties":{"city":"INDIANA","districtmanager":"Hazelet,Virginia","county":"INDIANA","margin":26,"geo_score":1.0,"zip code":"157013075","storeno":19,"street":"768 WAYNE AVE","phone":"724-349-3545","fax":"724-349-2403","regionalmanager":"Faulk,Peggy","id":"a6l5nuvz54yk","rmd":"8/1/1987","geo_precision":"range","open":"1/1/1974","state":"PA"},"type":"Feature","geometry":{"type":"Point","coordinates":[-79.1527,40.618416]}},{"properties":{"city":"JOHNSTOWN","districtmanager":"Buzzard,Karen","county":"CAMBRIA","margin":15,"geo_score":1.0,"zip code":"159022602","storeno":21,"street":"490 CENTRAL AVE","phone":"814-536-2908","fax":"814-534-0523","regionalmanager":"Campbell,John E","id":"a6l5nuzq30xk","rmd":"11/14/2002","geo_precision":"range","open":"4/1/1974","state":"PA"},"type":"Feature","geometry":{"type":"Point","coordinates":[-78.911163,40.300308]}},{"properties":{"city":"JOHNSTOWN","districtmanager":"Buzzard,Karen","county":"CAMBRIA","margin":13,"geo_score":1.0,"zip code":"159012528","storeno":22,"street":"208 HAYNES ST","phone":"814-533-2670","fax":"814-533-2673","regionalmanager":"Campbell,John E","id":"a6l5nv2is16k","rmd":"7/15/2010","geo_precision":"range","open":"6/1/1974","state":"PA"},"type":"Feature","geometry":{"type":"Point","coordinates":[-78.918889,40.321162]}},{"properties":{"city":"EVERETT","districtmanager":"Hudson,Shawna M","county":"BEDFORD","margin":3,"geo_score":1.0,"zip code":"155371169","storeno":23,"street":"11 W MAIN ST","phone":"814-652-9272","fax":"814-652-9604","regionalmanager":"Campbell,John E","id":"a6l5nv6je5jf","rmd":"10/1/1994","geo_precision":"range","open":"6/1/1974","state":"PA"},"type":"Feature","geometry":{"type":"Point","coordinates":[-78.373293,40.011289]}},{"properties":{"city":"WINDBER","districtmanager":"Buzzard,Karen","county":"SOMERSET","margin":13,"geo_score":1.0,"zip code":"15963-1711","storeno":27,"street":"1500 GRAHAM AVE","phone":"814-467-4223","fax":"814-467-4588","regionalmanager":"Campbell,John E","id":"a6l5nv18ged4","rmd":"11/25/2009","geo_precision":"range","open":"1/1/1975","state":"PA"},"type":"Feature","geometry":{"type":"Point","coordinates":[-78.829532,40.234244]}},{"properties":{"city":"BEDFORD","districtmanager":"Hudson,Shawna M","county":"BEDFORD","margin":4,"geo_score":1.0,"zip code":"15522-3703","storeno":28,"street":"9402 LINCOLN HWY","phone":"814-623-9392","fax":"814-623-2924","regionalmanager":"Campbell,John E","id":"a6l5nuvs47w0","rmd":"9/1/1994","geo_precision":"range","open":"1/1/1975","state":"PA"},"type":"Feature","geometry":{"type":"Point","coordinates":[-78.467485,40.016006]}},{"properties":{"city":"BLAIRSVILLE","districtmanager":"Hazelet,Virginia","county":"INDIANA","margin":27,"geo_score":1.0,"zip code":"157171323","storeno":29,"street":"5 E MARKET ST","phone":"724-459-0870","fax":"724-459-0790","regionalmanager":"Faulk,Peggy","id":"a6l5nur78x1b","rmd":"8/28/2003","geo_precision":"range","open":"2/1/1975","state":"PA"},"type":"Feature","geometry":{"type":"Point","coordinates":[-79.26312,40.431002]}},{"properties":{"city":"INDIANA","districtmanager":"Hazelet,Virginia","county":"INDIANA","margin":8,"geo_score":1.0,"zip code":"157012069","storeno":31,"street":"380 PHILADELPHIA ST","phone":"724-349-1129","fax":"724-349-1766","regionalmanager":"Faulk,Peggy","id":"a6l5nuuzw806","rmd":"12/10/2009","geo_precision":"range","open":"5/1/1975","state":"PA"},"type":"Feature","geometry":{"type":"Point","coordinates":[-79.14522,40.622769]}},{"properties":{"city":"MCCONNELLSBURG","districtmanager":"Hudson,Shawna M","county":"FULTON","margin":29,"geo_score":1.0,"zip code":"172331508","storeno":32,"street":"720 LINCOLN WAY E","phone":"717-987-9957","fax":"717-987-9960","regionalmanager":"Campbell,John E","id":"a6l5nusb5nzs","rmd":"8/30/2007","geo_precision":"range","open":"8/1/1975","state":"PA"},"type":"Feature","geometry":{"type":"Point","coordinates":[-77.99054,39.929726]}},{"properties":{"city":"ALTOONA","districtmanager":"Kuntz,Pamela S","county":"BLAIR","margin":24,"geo_score":0.537,"zip code":"166019405","storeno":33,"street":"718 BELLWOOD RD","phone":"814-742-7180","fax":"814-742-7183","regionalmanager":"Campbell,John E","id":"a6l5nv2agxca","rmd":"7/1/1997","geo_precision":"street","open":"9/1/1975","state":"PA"},"type":"Feature","geometry":{"type":"Point","coordinates":[-78.390262,40.521575]}},{"properties":{"city":"ALTOONA","districtmanager":"Kuntz,Pamela S","county":"BLAIR","margin":26,"geo_score":0.916,"zip code":"166022301","storeno":34,"street":"1701 7TH AVE","phone":"814-941-2710","fax":"814-941-2976","regionalmanager":"Campbell,John E","id":"a6l5nux2o5p8","rmd":"6/28/2007","geo_precision":"range","open":"10/1/1975","state":"PA"},"type":"Feature","geometry":{"type":"Point","coordinates":[-78.401694,40.50844]}},{"properties":{"city":"DUNCANSVILLE","districtmanager":"Kuntz,Pamela S","county":"BLAIR","margin":2,"geo_score":0.61,"zip code":"16635-8456","storeno":35,"street":"1371 PLANK RD","phone":"814-695-0179","fax":"814-696-7952","regionalmanager":"Campbell,John E","id":"a6l5nuuq1p08","rmd":"6/16/2005","geo_precision":"street","open":"11/1/1975","state":"PA"},"type":"Feature","geometry":{"type":"Point","coordinates":[-78.310313,40.118432]}},{"properties":{"city":"ALTOONA","districtmanager":"Kuntz,Pamela S","county":"BLAIR","margin":11,"geo_score":0.941,"zip code":"166014029","storeno":38,"street":"405 EAST 25TH AVE","phone":"814-943-6653","fax":"814-940-8865","regionalmanager":"Campbell,John E","id":"a6l5nv1xct4i","rmd":"4/1/2000","geo_precision":"range","open":"3/1/1976","state":"PA"},"type":"Feature","geometry":{"type":"Point","coordinates":[-78.400721,40.536046]}},{"properties":{"city":"MOUNT UNION","districtmanager":"Williams,Thomas L","county":"HUNTINGDON","margin":24,"geo_score":1.0,"zip code":"17066-1224","storeno":40,"street":"201 N JEFFERSON ST","phone":"814-542-8561","fax":"814-542-2539","regionalmanager":"Faulk,Peggy","id":"a6l5nuzz63et","rmd":"9/1/1992","geo_precision":"range","open":"5/1/1976","state":"PA"},"type":"Feature","geometry":{"type":"Point","coordinates":[-77.882446,40.387536]}},{"properties":{"city":"CUMBERLAND","districtmanager":"Hudson,Shawna M","county":"ALLEGANY","margin":12,"geo_score":1.0,"zip code":"21502","storeno":41,"street":"2045  BEDFORD ST","phone":"301-722-0435","fax":"301-722-0438","regionalmanager":"Campbell,John E","id":"a6l5nuw1jdhr","rmd":"5/24/2012","geo_precision":"range","open":"6/1/1976","state":"MD"},"type":"Feature","geometry":{"type":"Point","coordinates":[-78.737313,39.677864]}},{"properties":{"city":"HANCOCK","districtmanager":"Hudson,Shawna M","county":"WASHINGTON","margin":19,"geo_score":1.0,"zip code":"217501433","storeno":43,"street":"192 W MAIN ST","phone":"301-678-6393","fax":"301-678-5834","regionalmanager":"Campbell,John E","id":"a6l5nuze97eq","rmd":"11/1/1994","geo_precision":"range","open":"10/1/1976","state":"MD"},"type":"Feature","geometry":{"type":"Point","coordinates":[-78.191526,39.6983]}},{"properties":{"city":"EBENSBURG","districtmanager":"Hazelet,Virginia","county":"CAMBRIA","margin":15,"geo_score":0.619,"zip code":"159311806","storeno":45,"street":"948 W HIGH ST","phone":"814-472-5870","fax":"814-472-5261","regionalmanager":"Faulk,Peggy","id":"a6l5nuycme78","rmd":"9/1/1992","geo_precision":"street","open":"3/1/1977","state":"PA"},"type":"Feature","geometry":{"type":"Point","coordinates":[-78.691851,40.510678]}},{"properties":{"city":"CRESAPTOWN","districtmanager":"Hudson,Shawna M","county":"ALLEGANY","margin":20,"geo_score":1.0,"zip code":"21502-5608","storeno":46,"street":"14606 MCMULLEN HWY SW","phone":"301-729-0679","fax":"301-729-4331","regionalmanager":"Campbell,John E","id":"a6l5nv77qn9u","rmd":"9/1/1997","geo_precision":"range","open":"9/1/1977","state":"MD"},"type":"Feature","geometry":{"type":"Point","coordinates":[-78.829804,39.595171]}},{"properties":{"city":"NANTY GLO","districtmanager":"Hazelet,Virginia","county":"CAMBRIA","margin":28,"geo_score":1.0,"zip code":"15943-3403","storeno":48,"street":"115 PACE ST","phone":"814-749-7355","fax":"814-749-6311","regionalmanager":"Faulk,Peggy","id":"a6l5nuqurfzd","rmd":"10/1/1995","geo_precision":"range","open":"10/1/1977","state":"PA"},"type":"Feature","geometry":{"type":"Point","coordinates":[-78.838877,40.450696]}},{"properties":{"city":"PORTAGE","districtmanager":"Buzzard,Karen","county":"CAMBRIA","margin":11,"geo_score":1.0,"zip code":"159461307","storeno":49,"street":"411 MAIN ST","phone":"814-736-3166","fax":"814-736-3822","regionalmanager":"Campbell,John E","id":"a6l5nur602ym","rmd":"12/17/2009","geo_precision":"range","open":"11/1/1977","state":"PA"},"type":"Feature","geometry":{"type":"Point","coordinates":[-78.672238,40.389673]}},{"properties":{"city":"CUMBERLAND","districtmanager":"Hudson,Shawna M","county":"ALLEGANY","margin":2,"geo_score":1.0,"zip code":"215022838","storeno":51,"street":"210 GREENE ST","phone":"301-777-2852","fax":"301-777-2850","regionalmanager":"Campbell,John E","id":"a6l5nuxel847","rmd":"5/1/1987","geo_precision":"range","open":"6/1/1978","state":"MD"},"type":"Feature","geometry":{"type":"Point","coordinates":[-78.769725,39.650125]}},{"properties":{"city":"PATTON","districtmanager":"Hazelet,Virginia","county":"CAMBRIA","margin":5,"geo_score":1.0,"zip code":"166681016","storeno":52,"street":"304 MAGEE AVE","phone":"814-674-5328","fax":"814-674-8790","regionalmanager":"Faulk,Peggy","id":"a6l5nv1jdk0e","rmd":"9/1/1990","geo_precision":"range","open":"6/1/1978","state":"PA"},"type":"Feature","geometry":{"type":"Point","coordinates":[-78.646389,40.633949]}},{"properties":{"city":"NORTHERN CAMBRIA","districtmanager":"Hazelet,Virginia","county":"CAMBRIA","margin":11,"geo_score":1.0,"zip code":"15714-2038","storeno":55,"street":"4025 CRAWFORD AVE","phone":"814-948-4303","fax":"814-948-4571","regionalmanager":"Faulk,Peggy","id":"a6l5nuskljoz","rmd":"6/5/2008","geo_precision":"range","open":"9/1/1978","state":"PA"},"type":"Feature","geometry":{"type":"Point","coordinates":[-78.781926,40.660798]}},{"properties":{"city":"SOMERSET","districtmanager":"Buzzard,Karen","county":"SOMERSET","margin":28,"geo_score":1.0,"zip code":"155012106","storeno":57,"street":"457 E MAIN ST","phone":"814-443-6712","fax":"814-443-6715","regionalmanager":"Campbell,John E","id":"a6l5nuxtnzvp","rmd":"8/28/2008","geo_precision":"range","open":"12/1/1978","state":"PA"},"type":"Feature","geometry":{"type":"Point","coordinates":[-79.070501,40.007271]}},{"properties":{"city":"CLARION","districtmanager":"Thompson,Sheila L","county":"CLARION","margin":28,"geo_score":1.0,"zip code":"162141211","storeno":58,"street":"1281 E MAIN ST","phone":"814-226-4510","fax":"814-223-9472","regionalmanager":"Faulk,Peggy","id":"a6l5nv6xtzf2","rmd":"9/1/1998","geo_precision":"range","open":"4/1/1979","state":"PA"},"type":"Feature","geometry":{"type":"Point","coordinates":[-79.368315,41.208791]}},{"properties":{"city":"LATROBE","districtmanager":"Hazelet,Virginia","county":"WESTMORELAND","margin":18,"geo_score":1.0,"zip code":"156503250","storeno":59,"street":"2853 LIGONIER ST","phone":"724-537-0698","fax":"724-537-6051","regionalmanager":"Faulk,Peggy","id":"a6l5nuzy2f6j","rmd":"8/16/2007","geo_precision":"range","open":"4/1/1979","state":"PA"},"type":"Feature","geometry":{"type":"Point","coordinates":[-79.371762,40.30079]}},{"properties":{"city":"SOMERSET","districtmanager":"Buzzard,Karen","county":"SOMERSET","margin":19,"geo_score":1.0,"zip code":"15501-1554","storeno":60,"street":"118 S ROSINA AVE","phone":"814-443-4429","fax":"814-445-5285","regionalmanager":"Campbell,John E","id":"a6l5nuwhqhvv","rmd":"8/1/2000","geo_precision":"range","open":"5/1/1979","state":"PA"},"type":"Feature","geometry":{"type":"Point","coordinates":[-79.082994,40.008297]}},{"properties":{"city":"CLYMER","districtmanager":"Hazelet,Virginia","county":"INDIANA","margin":16,"geo_score":1.0,"zip code":"15728-1178","storeno":61,"street":"825 FRANKLIN ST","phone":"724-254-2934","fax":"724-254-2937","regionalmanager":"Faulk,Peggy","id":"a6l5nv17g6nq","rmd":"9/1/2010","geo_precision":"range","open":"6/1/1979","state":"PA"},"type":"Feature","geometry":{"type":"Point","coordinates":[-79.014476,40.665626]}},{"properties":{"city":"FROSTBURG","districtmanager":"Hudson,Shawna M","county":"ALLEGANY","margin":1,"geo_score":0.878,"zip code":"21532-1451","storeno":62,"street":"10601 NEW GEORGES CREEK RD SW","phone":"301-689-3872","fax":"301-689-6598","regionalmanager":"Campbell,John E","id":"a6l5nv55cult","rmd":"3/1/1997","geo_precision":"range","open":"6/1/1979","state":"MD"},"type":"Feature","geometry":{"type":"Point","coordinates":[-78.915597,39.619698]}},{"properties":{"city":"DUBOIS","districtmanager":"Bennett,Joann L","county":"CLEARFIELD","margin":0,"geo_score":1.0,"zip code":"158012539","storeno":63,"street":"701 E DUBOIS AVE","phone":"814-371-0139","fax":"814-371-1681","regionalmanager":"Faulk,Peggy","id":"a6l5nuuhq680","rmd":"8/5/2004","geo_precision":"range","open":"8/1/1979","state":"PA"},"type":"Feature","geometry":{"type":"Point","coordinates":[-78.743817,41.124877]}},{"properties":{"city":"PHILIPSBURG","districtmanager":"Bennett,Joann L","county":"CLEARFIELD","margin":16,"geo_score":1.0,"zip code":"16866-8261","storeno":64,"street":"808 N FRONT ST","phone":"814-342-6433","fax":"814-342-4705","regionalmanager":"Faulk,Peggy","id":"a6l5nurt39zt","rmd":"9/19/2002","geo_precision":"range","open":"8/1/1979","state":"PA"},"type":"Feature","geometry":{"type":"Point","coordinates":[-78.228466,40.902458]}},{"properties":{"city":"JOHNSTOWN","districtmanager":"Buzzard,Karen","county":"CAMBRIA","margin":6,"geo_score":1.0,"zip code":"15906-2438","storeno":65,"street":"1000 BROAD ST","phone":"814-539-9126","fax":"814-539-9344","regionalmanager":"Campbell,John E","id":"a6l5nv6lwunp","rmd":"12/19/2002","geo_precision":"range","open":"9/1/1979","state":"PA"},"type":"Feature","geometry":{"type":"Point","coordinates":[-78.935358,40.343244]}},{"properties":{"city":"BROOKVILLE","districtmanager":"Thompson,Sheila L","county":"JEFFERSON","margin":10,"geo_score":0.902,"zip code":"158251552","storeno":66,"street":"300 W MAIN ST","phone":"814-849-7900","fax":"814-849-7926","regionalmanager":"Faulk,Peggy","id":"a6l5nuxfmuv9","rmd":"2/27/2003","geo_precision":"street","open":"11/1/1979","state":"PA"},"type":"Feature","geometry":{"type":"Point","coordinates":[-79.096134,41.162744]}},{"properties":{"city":"WILLIAMSPORT","districtmanager":"Towns,Elisabeth A","county":"WASHINGTON","margin":16,"geo_score":1.0,"zip code":"217951108","storeno":68,"street":"100 E POTOMAC ST","phone":"301-223-6161","fax":"301-223-4383","regionalmanager":"Campbell,John E","id":"a6l5nuwrgozk","rmd":"4/1/1989","geo_precision":"range","open":"1/1/1980","state":"MD"},"type":"Feature","geometry":{"type":"Point","coordinates":[-77.818731,39.600422]}},{"properties":{"city":"CHAMBERSBURG","districtmanager":"Myers,Elizabeth A","county":"FRANKLIN","margin":5,"geo_score":0.932,"zip code":"172012101","storeno":69,"street":"1 MONTICELLO CT","phone":"717-264-3820","fax":"717-264-7296","regionalmanager":"Campbell,John E","id":"a6l5nv46ewcj","rmd":"9/23/2004","geo_precision":"range","open":"1/1/1980","state":"PA"},"type":"Feature","geometry":{"type":"Point","coordinates":[-77.671983,39.937802]}},{"properties":{"city":"SHIPPENSBURG","districtmanager":"Myers,Elizabeth A","county":"CUMBERLAND","margin":14,"geo_score":1.0,"zip code":"172571425","storeno":70,"street":"359 E KING ST","phone":"717-532-3838","fax":"717-532-3480","regionalmanager":"Campbell,John E","id":"a6l5nv2hey0h","rmd":"9/1/1993","geo_precision":"range","open":"5/1/1980","state":"PA"},"type":"Feature","geometry":{"type":"Point","coordinates":[-77.51489,40.053279]}},{"properties":{"city":"YOUNGWOOD","districtmanager":"Pacovsky,Linda K","county":"WESTMORELAND","margin":20,"geo_score":0.927,"zip code":"15697-1613","storeno":72,"street":"301 N 3RD ST","phone":"724-925-1504","fax":"724-925-7836","regionalmanager":"Faulk,Peggy","id":"a6l5nv6nbhml","rmd":"8/29/2002","geo_precision":"range","open":"10/1/1980","state":"PA"},"type":"Feature","geometry":{"type":"Point","coordinates":[-79.573859,40.247226]}},{"properties":{"city":"CLEARFIELD","districtmanager":"Bennett,Joann L","county":"CLEARFIELD","margin":10,"geo_score":1.0,"zip code":"168302433","storeno":73,"street":"101 NICHOLS ST","phone":"814-765-4310","fax":"814-765-5234","regionalmanager":"Faulk,Peggy","id":"a6l5nv3szwiw","rmd":"3/24/2005","geo_precision":"range","open":"12/1/1980","state":"PA"},"type":"Feature","geometry":{"type":"Point","coordinates":[-78.44047,41.027355]}},{"properties":{"city":"HAGERSTOWN","districtmanager":"Towns,Elisabeth A","county":"WASHINGTON","margin":1,"geo_score":1.0,"zip code":"217403840","storeno":74,"street":"700 POTOMAC AVE","phone":"301-791-5757","fax":"301-791-5969","regionalmanager":"Campbell,John E","id":"a6l5nuujousk","rmd":"2/1/1992","geo_precision":"range","open":"2/1/1981","state":"MD"},"type":"Feature","geometry":{"type":"Point","coordinates":[-77.711599,39.65099]}},{"properties":{"city":"SLIPPERY ROCK","districtmanager":"Chamberlin,Judy E","county":"BUTLER","margin":9,"geo_score":1.0,"zip code":"160571249","storeno":75,"street":"304 S MAIN ST","phone":"724-794-6001","fax":"724-794-0075","regionalmanager":"Faulk,Peggy","id":"a6l5nurvm41o","rmd":"8/1/1989","geo_precision":"range","open":"8/1/1981","state":"PA"},"type":"Feature","geometry":{"type":"Point","coordinates":[-80.054408,41.062173]}},{"properties":{"city":"CHAMBERSBURG","districtmanager":"Myers,Elizabeth A","county":"FRANKLIN","margin":13,"geo_score":0.807,"zip code":"17201-3082","storeno":76,"street":"1315 LINCOLN WAY E","phone":"717-264-4502","fax":"717-264-1872","regionalmanager":"Campbell,John E","id":"a6l5nuwwf4ur","rmd":"6/1/1995","geo_precision":"street","open":"3/1/1982","state":"PA"},"type":"Feature","geometry":{"type":"Point","coordinates":[-77.632379,39.928233]}},{"properties":{"city":"PUNXSUTAWNEY","districtmanager":"Bennett,Joann L","county":"JEFFERSON","margin":17,"geo_score":1.0,"zip code":"157671618","storeno":79,"street":"100 ELK RUN AVE","phone":"814-938-0293","fax":"814-938-3485","regionalmanager":"Faulk,Peggy","id":"a6l5nuxr6w7o","rmd":"8/19/2004","geo_precision":"range","open":"6/1/1982","state":"PA"},"type":"Feature","geometry":{"type":"Point","coordinates":[-78.964568,40.95097]}},{"properties":{"city":"HAGERSTOWN","districtmanager":"Towns,Elisabeth A","county":"WASHINGTON","margin":6,"geo_score":1.0,"zip code":"217405766","storeno":82,"street":"301 E WASHINGTON ST","phone":"301-733-3167","fax":"301-745-5221","regionalmanager":"Campbell,John E","id":"a6l5nur2q9zu","rmd":"10/7/2011","geo_precision":"range","open":"8/1/1982","state":"MD"},"type":"Feature","geometry":{"type":"Point","coordinates":[-77.714199,39.63932]}},{"properties":{"city":"FRANKLIN","districtmanager":"Thompson,Sheila L","county":"VENANGO","margin":20,"geo_score":1.0,"zip code":"16323-1281","storeno":84,"street":"1107 LIBERTY ST","phone":"814-432-9814","fax":"814-432-9817","regionalmanager":"Faulk,Peggy","id":"a6l5nv4fo4mi","rmd":"9/4/2008","geo_precision":"range","open":"11/1/1982","state":"PA"},"type":"Feature","geometry":{"type":"Point","coordinates":[-79.826621,41.395158]}},{"properties":{"city":"JOHNSTOWN","districtmanager":"Buzzard,Karen","county":"CAMBRIA","margin":21,"geo_score":1.0,"zip code":"159051205","storeno":86,"street":"1791 GOUCHER ST","phone":"814-255-4614","fax":"814-255-4638","regionalmanager":"Campbell,John E","id":"a6l5nv4vxz10","rmd":"12/23/2010","geo_precision":"range","open":"12/1/1982","state":"PA"},"type":"Feature","geometry":{"type":"Point","coordinates":[-78.952033,40.325367]}},{"properties":{"city":"SCOTTDALE","districtmanager":"Sowers,Dayna M","county":"WESTMORELAND","margin":4,"geo_score":1.0,"zip code":"156831950","storeno":87,"street":"5 S BROADWAY ST","phone":"724-887-3220","fax":"724-887-3186","regionalmanager":"Faulk,Peggy","id":"a6l5nv077c9n","rmd":"5/1/1993","geo_precision":"range","open":"12/1/1982","state":"PA"},"type":"Feature","geometry":{"type":"Point","coordinates":[-79.587082,40.100208]}},{"properties":{"city":"MEYERSDALE","districtmanager":"Hudson,Shawna M","county":"SOMERSET","margin":29,"geo_score":1.0,"zip code":"155521142","storeno":89,"street":"24 CENTER ST","phone":"814-634-0890","fax":"814-634-0978","regionalmanager":"Campbell,John E","id":"a6l5nuuiv9ov","rmd":"5/7/2009","geo_precision":"range","open":"3/1/1983","state":"PA"},"type":"Feature","geometry":{"type":"Point","coordinates":[-79.025757,39.812907]}},{"properties":{"city":"MONONGAHELA","districtmanager":"Sowers,Dayna M","county":"WASHINGTON","margin":27,"geo_score":1.0,"zip code":"150632308","storeno":92,"street":"111 E MAIN ST","phone":"724-258-6386","fax":"724-258-6407","regionalmanager":"Faulk,Peggy","id":"a6l5nut2nezh","rmd":"10/6/2005","geo_precision":"range","open":"6/1/1983","state":"PA"},"type":"Feature","geometry":{"type":"Point","coordinates":[-79.921499,40.199708]}},{"properties":{"city":"RIDGWAY","districtmanager":"Bennett,Joann L","county":"ELK","margin":12,"geo_score":1.0,"zip code":"15853-1004","storeno":96,"street":"138 N BROAD ST","phone":"814-776-0531","fax":"814-776-0535","regionalmanager":"Faulk,Peggy","id":"a6l5nv0m6gaf","rmd":"9/26/2003","geo_precision":"range","open":"7/1/1983","state":"PA"},"type":"Feature","geometry":{"type":"Point","coordinates":[-78.731389,41.424845]}},{"properties":{"city":"NEW KENSINGTON","districtmanager":"Acker,Georgette M","county":"WESTMORELAND","margin":14,"geo_score":0.902,"zip code":"150686023","storeno":99,"street":"700 7TH ST","phone":"724-339-2239","fax":"724-339-4376","regionalmanager":"Faulk,Peggy","id":"a6l5nv11alco","rmd":null,"geo_precision":"range","open":"9/1/1983","state":"PA"},"type":"Feature","geometry":{"type":"Point","coordinates":[-79.76185,40.562889]}},{"properties":{"city":"ALTOONA","districtmanager":"Kuntz,Pamela S","county":"BLAIR","margin":2,"geo_score":1.0,"zip code":"166027340","storeno":100,"street":"1661 E PLEASANT VALLEY BLVD","phone":"814-946-1329","fax":"814-946-1528","regionalmanager":"Campbell,John E","id":"a6l5nuvyc26q","rmd":"11/23/2011","geo_precision":"range","open":"7/1/1983","state":"PA"},"type":"Feature","geometry":{"type":"Point","coordinates":[-78.354407,40.540852]}},{"properties":{"city":"FORD CITY","districtmanager":"Thompson,Sheila L","county":"ARMSTRONG","margin":12,"geo_score":1.0,"zip code":"162261813","storeno":101,"street":"503 MAIN ST","phone":"724-763-2789","fax":"724-763-4293","regionalmanager":"Faulk,Peggy","id":"a6l5nuqxttpj","rmd":null,"geo_precision":"range","open":"9/1/1983","state":"PA"},"type":"Feature","geometry":{"type":"Point","coordinates":[-79.527224,40.765699]}},{"properties":{"city":"SIDMAN","districtmanager":"Buzzard,Karen","county":"CAMBRIA","margin":6,"geo_score":0.71,"zip code":"159550188","storeno":113,"street":"101 FOREST HILLS DR BOX 188","phone":"814-487-4428","fax":"814-487-7085","regionalmanager":"Campbell,John E","id":"a6l5nuyuv7ef","rmd":null,"geo_precision":"street","open":"5/1/1984","state":"PA"},"type":"Feature","geometry":{"type":"Point","coordinates":[-78.747228,40.328627]}},{"properties":{"city":"KITTANNING","districtmanager":"Thompson,Sheila L","county":"ARMSTRONG","margin":10,"geo_score":1.0,"zip code":"162011503","storeno":114,"street":"100 WALNUT ST","phone":"724-548-8586","fax":"724-548-7137","regionalmanager":"Faulk,Peggy","id":"a6l5nv6wi08f","rmd":"7/1/1994","geo_precision":"range","open":"6/1/1984","state":"PA"},"type":"Feature","geometry":{"type":"Point","coordinates":[-79.516435,40.809774]}},{"properties":{"city":"PITTSBURGH","districtmanager":"Acker,Georgette M","county":"ALLEGHENY","margin":12,"geo_score":1.0,"zip code":"15237-5351","storeno":115,"street":"8607 PERRY HWY","phone":"412-364-3120","fax":"412-630-8312","regionalmanager":"Faulk,Peggy","id":"a6l5nv4l5jzu","rmd":null,"geo_precision":"range","open":"6/1/1984","state":"PA"},"type":"Feature","geometry":{"type":"Point","coordinates":[-80.039474,40.56114]}},{"properties":{"city":"GREENCASTLE","districtmanager":"Towns,Elisabeth A","county":"FRANKLIN","margin":16,"geo_score":1.0,"zip code":"172251411","storeno":116,"street":"215 W BALTIMORE ST","phone":"717-597-4788","fax":"717-593-0171","regionalmanager":"Campbell,John E","id":"a6l5nv087mk6","rmd":null,"geo_precision":"range","open":"8/1/1984","state":"PA"},"type":"Feature","geometry":{"type":"Point","coordinates":[-77.730021,39.790974]}},{"properties":{"city":"HARRISVILLE","districtmanager":"Chamberlin,Judy E","county":"BUTLER","margin":30,"geo_score":1.0,"zip code":"16038-1905","storeno":121,"street":"103 N MAIN ST","phone":"724-735-4113","fax":"724-735-0150","regionalmanager":"Faulk,Peggy","id":"a6l5nur9hub4","rmd":"6/1/2000","geo_precision":"range","open":"12/1/1984","state":"PA"},"type":"Feature","geometry":{"type":"Point","coordinates":[-80.00924,41.137206]}},{"properties":{"city":"STATE COLLEGE","districtmanager":"Schmitt,Tabitha A","county":"CENTRE","margin":11,"geo_score":1.0,"zip code":"168031419","storeno":122,"street":"1781 N ATHERTON ST","phone":"814-238-3278","fax":"814-238-5096","regionalmanager":"Faulk,Peggy","id":"a6l5nv2pqthr","rmd":null,"geo_precision":"range","open":"5/1/1985","state":"PA"},"type":"Feature","geometry":{"type":"Point","coordinates":[-77.904584,40.809104]}},{"properties":{"city":"GIBSONIA","districtmanager":"Acker,Georgette M","county":"ALLEGHENY","margin":19,"geo_score":0.675,"zip code":"150449808","storeno":123,"street":"5300 ROUTE 8","phone":"724-443-4350","fax":"724-443-4377","regionalmanager":"Faulk,Peggy","id":"a6l5nus8tdbs","rmd":"6/10/2004","geo_precision":"street","open":"6/1/1985","state":"PA"},"type":"Feature","geometry":{"type":"Point","coordinates":[-79.933816,40.661401]}},{"properties":{"city":"CONNELLSVILLE","districtmanager":"Sowers,Dayna M","county":"FAYETTE","margin":10,"geo_score":1.0,"zip code":"154252408","storeno":124,"street":"1002 W CRAWFORD AVE","phone":"724-628-8044","fax":"724-626-8146","regionalmanager":"Faulk,Peggy","id":"a6l5nv4g9wx9","rmd":null,"geo_precision":"range","open":"7/1/1985","state":"PA"},"type":"Feature","geometry":{"type":"Point","coordinates":[-79.600034,40.016335]}},{"properties":{"city":"BERKELEY SPRINGS","districtmanager":"Hudson,Shawna M","county":"MORGAN","margin":7,"geo_score":1.0,"zip code":"25411-1418","storeno":126,"street":"245 S WASHINGTON ST","phone":"304-258-2185","fax":"304-258-3196","regionalmanager":"Campbell,John E","id":"a6l5nur8m7mj","rmd":null,"geo_precision":"range","open":"8/1/1985","state":"WV"},"type":"Feature","geometry":{"type":"Point","coordinates":[-78.229089,39.625081]}},{"properties":{"city":"CARROLLTOWN","districtmanager":"Hazelet,Virginia","county":"CAMBRIA","margin":16,"geo_score":1.0,"zip code":"15722-7206","storeno":127,"street":"128 SOUTH MAIN STREET","phone":"814-344-9295","fax":"814-344-2028","regionalmanager":"Faulk,Peggy","id":"a6l5nv5phz7s","rmd":null,"geo_precision":"range","open":"8/1/1985","state":"PA"},"type":"Feature","geometry":{"type":"Point","coordinates":[-78.709235,40.601438]}},{"properties":{"city":"ROCHESTER","districtmanager":"Mendicino,Darla J","county":"BEAVER","margin":12,"geo_score":1.0,"zip code":"150741940","storeno":128,"street":"494 ADAMS ST","phone":"724-774-5303","fax":"724-770-9142","regionalmanager":"Faulk,Peggy","id":"a6l5nuxzb9ug","rmd":null,"geo_precision":"range","open":"9/1/1985","state":"PA"},"type":"Feature","geometry":{"type":"Point","coordinates":[-80.279025,40.704273]}},{"properties":{"city":"CUMBERLAND","districtmanager":"Hudson,Shawna M","county":"ALLEGANY","margin":16,"geo_score":1.0,"zip code":"215024536","storeno":129,"street":"429 VIRGINIA AVE","phone":"301-722-1071","fax":"301-722-1074","regionalmanager":"Campbell,John E","id":"a6l5nv4tr2l7","rmd":"6/30/2011","geo_precision":"range","open":"12/1/1985","state":"MD"},"type":"Feature","geometry":{"type":"Point","coordinates":[-78.764083,39.634275]}},{"properties":{"city":"CREIGHTON","districtmanager":"Acker,Georgette M","county":"ALLEGHENY","margin":24,"geo_score":1.0,"zip code":"150301065","storeno":130,"street":"899 FREEPORT RD","phone":"724-226-2240","fax":"724-226-0615","regionalmanager":"Faulk,Peggy","id":"a6l5nuxw7064","rmd":null,"geo_precision":"range","open":"4/1/1986","state":"PA"},"type":"Feature","geometry":{"type":"Point","coordinates":[-79.778434,40.57709]}},{"properties":{"city":"TANEYTOWN","districtmanager":"Smith,Helen E","county":"CARROLL","margin":15,"geo_score":1.0,"zip code":"217872225","storeno":132,"street":"226 E BALTIMORE ST","phone":"410-756-4171","fax":"410-756-2008","regionalmanager":"Campbell,John E","id":"a6l5nv389jt1","rmd":null,"geo_precision":"range","open":"5/1/1986","state":"MD"},"type":"Feature","geometry":{"type":"Point","coordinates":[-77.171658,39.655999]}},{"properties":{"city":"CRANBERRY TOWNSHIP","districtmanager":"Mendicino,Darla J","county":"BUTLER","margin":0,"geo_score":0.951,"zip code":"16066","storeno":133,"street":"1338 FREEDOM RD","phone":"724-776-9233","fax":"724-776-9295","regionalmanager":"Faulk,Peggy","id":"a6l5nuvig9bs","rmd":null,"geo_precision":"range","open":"7/1/1986","state":"PA"},"type":"Feature","geometry":{"type":"Point","coordinates":[-80.105255,40.684857]}},{"properties":{"city":"MERCER","districtmanager":"Chamberlin,Judy E","county":"MERCER","margin":29,"geo_score":1.0,"zip code":"161371204","storeno":136,"street":"105 N ERIE ST","phone":"724-662-2165","fax":"724-662-2314","regionalmanager":"Faulk,Peggy","id":"a6l5nv4rrzxi","rmd":null,"geo_precision":"range","open":"9/1/1986","state":"PA"},"type":"Feature","geometry":{"type":"Point","coordinates":[-80.239861,41.227667]}},{"properties":{"city":"KEARNEYSVILLE","districtmanager":"Kitt,Ramona P","county":"BERKELEY","margin":25,"geo_score":0.805,"zip code":"25430","storeno":137,"street":"3728 CHARLES TOWN RD","phone":"304-267-4161","fax":"304-267-4863","regionalmanager":"Campbell,John E","id":"a6l5nv6ba381","rmd":"9/9/2010","geo_precision":"street","open":"9/1/1986","state":"WV"},"type":"Feature","geometry":{"type":"Point","coordinates":[-77.926491,39.423103]}},{"properties":{"city":"GREENVILLE","districtmanager":"Chamberlin,Judy E","county":"MERCER","margin":10,"geo_score":1.0,"zip code":"161252612","storeno":139,"street":"294 MAIN ST","phone":"724-588-4236","fax":"724-588-4293","regionalmanager":"Faulk,Peggy","id":"a6l5nuwejnpc","rmd":"11/6/2008","geo_precision":"range","open":"11/1/1986","state":"PA"},"type":"Feature","geometry":{"type":"Point","coordinates":[-80.38244,41.407261]}},{"properties":{"city":"LITTLESTOWN","districtmanager":"Smith,Helen E","county":"ADAMS","margin":13,"geo_score":1.0,"zip code":"173401611","storeno":141,"street":"35 E KING ST","phone":"717-359-4916","fax":"717-359-7630","regionalmanager":"Campbell,John E","id":"a6l5nv6hfz1k","rmd":"11/6/2008","geo_precision":"range","open":"5/1/1987","state":"PA"},"type":"Feature","geometry":{"type":"Point","coordinates":[-77.08664,39.745328]}},{"properties":{"city":"INWOOD","districtmanager":"Kitt,Ramona P","county":"BERKELEY","margin":19,"geo_score":0.61,"zip code":"25428-3810","storeno":143,"street":"7899 WINCHESTER AVE","phone":"304-229-5554","fax":"304-229-7297","regionalmanager":"Campbell,John E","id":"a6l5nurb1sue","rmd":"11/1/1995","geo_precision":"street","open":"6/1/1987","state":"WV"},"type":"Feature","geometry":{"type":"Point","coordinates":[-77.987719,39.425647]}},{"properties":{"city":"MOOREFIELD","districtmanager":"Ward-Meyers,Lisa","county":"HARDY","margin":29,"geo_score":1.0,"zip code":"268361020","storeno":144,"street":"701 N MAIN ST","phone":"304-538-6996","fax":"304-538-7592","regionalmanager":"Kociban,Deborah","id":"a6l5nv2rqqin","rmd":null,"geo_precision":"range","open":"6/1/1987","state":"WV"},"type":"Feature","geometry":{"type":"Point","coordinates":[-78.966566,39.073829]}},{"properties":{"city":"HAGERSTOWN","districtmanager":"Towns,Elisabeth A","county":"WASHINGTON","margin":8,"geo_score":1.0,"zip code":"21742-2684","storeno":145,"street":"18717 LONGMEADOW RD","phone":"301-393-8397","fax":"301-393-8473","regionalmanager":"Campbell,John E","id":"a6l5nuwul208","rmd":"1/2/2006","geo_precision":"range","open":"7/1/1987","state":"MD"},"type":"Feature","geometry":{"type":"Point","coordinates":[-77.720518,39.686072]}},{"properties":{"city":"BROCKWAY","districtmanager":"Bennett,Joann L","county":"JEFFERSON","margin":5,"geo_score":1.0,"zip code":"158241638","storeno":146,"street":"1408 MAIN ST","phone":"814-265-1458","fax":"814-265-1807","regionalmanager":"Faulk,Peggy","id":"a6l5nv22977t","rmd":null,"geo_precision":"range","open":"7/1/1987","state":"PA"},"type":"Feature","geometry":{"type":"Point","coordinates":[-78.786918,41.246818]}},{"properties":{"city":"OAKLAND","districtmanager":"Ward-Meyers,Lisa","county":"GARRETT","margin":26,"geo_score":0.927,"zip code":"215501321","storeno":147,"street":"5 N 3RD ST","phone":"301-334-3306","fax":"301-334-3362","regionalmanager":"Kociban,Deborah","id":"a6l5nuxbgs5t","rmd":"9/17/2009","geo_precision":"range","open":"8/1/1987","state":"MD"},"type":"Feature","geometry":{"type":"Point","coordinates":[-79.405089,39.411251]}},{"properties":{"city":"DUBOIS","districtmanager":"Bennett,Joann L","county":"CLEARFIELD","margin":16,"geo_score":0.585,"zip code":"158019330","storeno":148,"street":"2120 BLINKER PKWY","phone":"814-375-0892","fax":"814-375-0537","regionalmanager":"Faulk,Peggy","id":"a6l5nuzoh6ab","rmd":"12/1/1991","geo_precision":"zip","open":"8/1/1987","state":"PA"},"type":"Feature","geometry":{"type":"Point","coordinates":[-78.791142,41.057006]}},{"properties":{"city":"DUBOIS","districtmanager":"Bennett,Joann L","county":"CLEARFIELD","margin":23,"geo_score":1.0,"zip code":"158012258","storeno":149,"street":"124 N BRADY ST","phone":"814-375-9820","fax":"814-375-5199","regionalmanager":"Faulk,Peggy","id":"a6l5nuy2n6q8","rmd":"9/1/1988","geo_precision":"range","open":"8/1/1987","state":"PA"},"type":"Feature","geometry":{"type":"Point","coordinates":[-78.760136,41.119364]}},{"properties":{"city":"STATE COLLEGE","districtmanager":"Schmitt,Tabitha A","county":"CENTRE","margin":7,"geo_score":1.0,"zip code":"168017201","storeno":150,"street":"2000 E COLLEGE AVE","phone":"814-231-8133","fax":"814-231-8834","regionalmanager":"Faulk,Peggy","id":"a6l5nv72wa98","rmd":null,"geo_precision":"range","open":"9/1/1987","state":"PA"},"type":"Feature","geometry":{"type":"Point","coordinates":[-77.817944,40.818647]}},{"properties":{"city":"EMPORIUM","districtmanager":"Bennett,Joann L","county":"CAMERON","margin":15,"geo_score":0.927,"zip code":"158341215","storeno":151,"street":"1 W 4TH ST","phone":"814-486-9475","fax":"814-486-3911","regionalmanager":"Faulk,Peggy","id":"a6l5nuv9nm3a","rmd":null,"geo_precision":"range","open":"10/1/1987","state":"PA"},"type":"Feature","geometry":{"type":"Point","coordinates":[-78.237746,41.511531]}},{"properties":{"city":"BEAVER FALLS","districtmanager":"Mendicino,Darla J","county":"BEAVER","margin":1,"geo_score":0.916,"zip code":"15010-3414","storeno":152,"street":"3611 4TH AVE","phone":"724-846-3883","fax":"724-891-2080","regionalmanager":"Faulk,Peggy","id":"a6l5nv0bibso","rmd":null,"geo_precision":"range","open":"11/1/1987","state":"PA"},"type":"Feature","geometry":{"type":"Point","coordinates":[-80.324501,40.778007]}},{"properties":{"city":"MEADVILLE","districtmanager":"Thompson,Sheila L","county":"CRAWFORD","margin":1,"geo_score":0.415,"zip code":"16335-3671","storeno":153,"street":"18425 SMOCK HWY","phone":"814-333-9583","fax":"814-337-6905","regionalmanager":"Faulk,Peggy","id":"a6l5nur4e84k","rmd":null,"geo_precision":"street","open":"11/1/1987","state":"PA"},"type":"Feature","geometry":{"type":"Point","coordinates":[-79.364746,41.423541]}},{"properties":{"city":"GREENSBURG","districtmanager":"Pacovsky,Linda K","county":"WESTMORELAND","margin":11,"geo_score":1.0,"zip code":"15601-1911","storeno":154,"street":"211 HARVEY AVE","phone":"724-836-7144","fax":"724-850-9042","regionalmanager":"Faulk,Peggy","id":"a6l5nuzv9rir","rmd":"10/1/1996","geo_precision":"range","open":"12/1/1987","state":"PA"},"type":"Feature","geometry":{"type":"Point","coordinates":[-79.539276,40.306945]}},{"properties":{"city":"MARTINSBURG","districtmanager":"Kitt,Ramona P","county":"BERKELEY","margin":24,"geo_score":1.0,"zip code":"25401-2000","storeno":155,"street":"1617 W KING ST","phone":"304-263-8099","fax":"304-263-0248","regionalmanager":"Campbell,John E","id":"a6l5nuue201h","rmd":"4/1/1990","geo_precision":"range","open":"11/1/1987","state":"WV"},"type":"Feature","geometry":{"type":"Point","coordinates":[-77.986289,39.462662]}},{"properties":{"city":"LEWISTOWN","districtmanager":"Williams,Thomas L","county":"MIFFLIN","margin":11,"geo_score":0.951,"zip code":"17044-2575","storeno":158,"street":"113 JUNIATA STREET","phone":"717-242-0151","fax":"717-242-1203","regionalmanager":"Faulk,Peggy","id":"a6l5nv3qf7y1","rmd":"12/11/2008","geo_precision":"range","open":"11/1/1987","state":"PA"},"type":"Feature","geometry":{"type":"Point","coordinates":[-77.582567,40.595738]}},{"properties":{"city":"CONNEAUT LAKE","districtmanager":"Thompson,Sheila L","county":"CRAWFORD","margin":30,"geo_score":0.845,"zip code":"163165096","storeno":159,"street":"315 WATER ST BOX 5096","phone":"814-382-0402","fax":"814-382-0406","regionalmanager":"Faulk,Peggy","id":"a6l5nuvebpk0","rmd":"8/28/2008","geo_precision":"range","open":"4/1/1988","state":"PA"},"type":"Feature","geometry":{"type":"Point","coordinates":[-80.305681,41.603235]}},{"properties":{"city":"SHEPHERDSTOWN","districtmanager":"Kitt,Ramona P","county":"JEFFERSON","margin":4,"geo_score":0.675,"zip code":"25443-4403","storeno":160,"street":"8332 MARTINSBURG PIKE","phone":"304-876-2167","fax":"304-876-7039","regionalmanager":"Campbell,John E","id":"a6l5nuxovbs0","rmd":"3/1/1988","geo_precision":"street","open":"11/1/1987","state":"WV"},"type":"Feature","geometry":{"type":"Point","coordinates":[-77.834263,39.43576]}},{"properties":{"city":"FREDERICK","districtmanager":"Kitt,Ramona P","county":"FREDERICK","margin":3,"geo_score":0.585,"zip code":"217018311","storeno":161,"street":"5601 BUCKEYSTOWN PIKE","phone":"301-694-5511","fax":"301-620-1752","regionalmanager":"Campbell,John E","id":"a6l5nuwf2mka","rmd":"5/1/1988","geo_precision":"zip","open":"8/1/1987","state":"MD"},"type":"Feature","geometry":{"type":"Point","coordinates":[-77.48582,39.420657]}},{"properties":{"city":"JOHNSTOWN","districtmanager":"Buzzard,Karen","county":"CAMBRIA","margin":18,"geo_score":1.0,"zip code":"159043309","storeno":162,"street":"1500 SCALP AVE","phone":"814-269-4739","fax":"814-262-8457","regionalmanager":"Campbell,John E","id":"a6l5nus7ialy","rmd":null,"geo_precision":"range","open":"9/1/1988","state":"PA"},"type":"Feature","geometry":{"type":"Point","coordinates":[-78.857252,40.269672]}},{"properties":{"city":"HAGERSTOWN","districtmanager":"Towns,Elisabeth A","county":"WASHINGTON","margin":19,"geo_score":1.0,"zip code":"21740-7725","storeno":163,"street":"17550 VIRGINIA AVE","phone":"301-582-0070","fax":"301-582-4813","regionalmanager":"Campbell,John E","id":"a6l5nuudkn1e","rmd":null,"geo_precision":"range","open":"11/1/1988","state":"MD"},"type":"Feature","geometry":{"type":"Point","coordinates":[-77.762367,39.619349]}},{"properties":{"city":"WESTMINSTER","districtmanager":"Smith,Helen E","county":"CARROLL","margin":27,"geo_score":1.0,"zip code":"211575518","storeno":164,"street":"304 E MAIN ST","phone":"410-857-3617","fax":"410-857-2805","regionalmanager":"Campbell,John E","id":"a6l5nuvuo0aq","rmd":null,"geo_precision":"range","open":"6/1/1989","state":"MD"},"type":"Feature","geometry":{"type":"Point","coordinates":[-76.984983,39.564571]}},{"properties":{"city":"COUDERSPORT","districtmanager":"Bennett,Joann L","county":"POTTER","margin":18,"geo_score":0.878,"zip code":"169151306","storeno":165,"street":"208 S MAIN ST","phone":"814-274-0466","fax":"814-274-4288","regionalmanager":"Faulk,Peggy","id":"a6l5nv0v7kuj","rmd":null,"geo_precision":"range","open":"11/1/1988","state":"PA"},"type":"Feature","geometry":{"type":"Point","coordinates":[-78.021269,41.77047]}},{"properties":{"city":"PORT ALLEGANY","districtmanager":"Bennett,Joann L","county":"MCKEAN","margin":19,"geo_score":1.0,"zip code":"16743","storeno":166,"street":"101 N MAIN ST","phone":"814-642-2258","fax":"814-642-2488","regionalmanager":"Faulk,Peggy","id":"a6l5nv3s2aik","rmd":"11/11/2010","geo_precision":"range","open":"12/1/1988","state":"PA"},"type":"Feature","geometry":{"type":"Point","coordinates":[-78.282671,41.814057]}},{"properties":{"city":"CORRIGANVILLE","districtmanager":"Hudson,Shawna M","county":"ALLEGANY","margin":1,"geo_score":0.667,"zip code":"215240298","storeno":167,"street":"100 E MAIN ST BOX 298","phone":"301-759-4880","fax":"301-759-1268","regionalmanager":"Campbell,John E","id":"a6l5nv66dala","rmd":null,"geo_precision":"range","open":"6/1/1989","state":"MD"},"type":"Feature","geometry":{"type":"Point","coordinates":[-78.926229,39.656391]}},{"properties":{"city":"KEYSER","districtmanager":"Ward-Meyers,Lisa","county":"MINERAL","margin":5,"geo_score":0.557,"zip code":"26726","storeno":168,"street":"1280 NEW CREEK HIGHWAY","phone":"304-788-1197","fax":"304-788-1559","regionalmanager":"Kociban,Deborah","id":"a6l5nurc2k9x","rmd":"5/27/2010","geo_precision":"street","open":"6/1/1989","state":"WV"},"type":"Feature","geometry":{"type":"Point","coordinates":[-78.975472,39.458576]}},{"properties":{"city":"EAST FREEDOM","districtmanager":"Kuntz,Pamela S","county":"BLAIR","margin":7,"geo_score":0.61,"zip code":"16637-8039","storeno":169,"street":"8711 WOODBURY PIKE","phone":"814-695-7622","fax":"814-693-9311","regionalmanager":"Campbell,John E","id":"a6l5nv3x5bd4","rmd":null,"geo_precision":"street","open":"6/1/1989","state":"PA"},"type":"Feature","geometry":{"type":"Point","coordinates":[-78.366576,40.264364]}},{"properties":{"city":"INDIANA","districtmanager":"Hazelet,Virginia","county":"INDIANA","margin":14,"geo_score":1.0,"zip code":"15701-2356","storeno":170,"street":"525 BEN FRANKLIN RD S","phone":"724-349-8827","fax":"724-349-0878","regionalmanager":"Faulk,Peggy","id":"a6l5nuzhslh3","rmd":"12/21/2000","geo_precision":"range","open":"7/1/1989","state":"PA"},"type":"Feature","geometry":{"type":"Point","coordinates":[-79.189445,40.611437]}},{"properties":{"city":"PHILIPPI","districtmanager":"Ward-Meyers,Lisa","county":"BARBOUR","margin":10,"geo_score":0.821,"zip code":"264161146","storeno":171,"street":"125 N MAIN ST","phone":"304-457-1218","fax":"304-457-1561","regionalmanager":"Kociban,Deborah","id":"a6l5nv3kbzd7","rmd":null,"geo_precision":"street","open":"9/1/1989","state":"WV"},"type":"Feature","geometry":{"type":"Point","coordinates":[-80.039931,39.15245]}},{"properties":{"city":"LIGONIER","districtmanager":"Hazelet,Virginia","county":"WESTMORELAND","margin":8,"geo_score":0.805,"zip code":"15658-9791","storeno":173,"street":"3832 STATE ROUTE 711","phone":"724-238-5783","fax":"724-238-4534","regionalmanager":"Faulk,Peggy","id":"a6l5nv5woqm5","rmd":null,"geo_precision":"street","open":"9/1/1989","state":"PA"},"type":"Feature","geometry":{"type":"Point","coordinates":[-79.231614,40.246494]}},{"properties":{"city":"BELINGTON","districtmanager":"Ward-Meyers,Lisa","county":"BARBOUR","margin":2,"geo_score":1.0,"zip code":"26250-9538","storeno":174,"street":"103 E CRIM AVE","phone":"304-823-2006","fax":"304-823-3283","regionalmanager":"Kociban,Deborah","id":"a6l5nuvb8uwn","rmd":null,"geo_precision":"range","open":"11/1/1989","state":"WV"},"type":"Feature","geometry":{"type":"Point","coordinates":[-79.934246,39.015901]}},{"properties":{"city":"PARSONS","districtmanager":"Ward-Meyers,Lisa","county":"TUCKER","margin":26,"geo_score":0.805,"zip code":"26287-1236","storeno":175,"street":"200 1ST ST","phone":"304-478-2333","fax":"304-478-3925","regionalmanager":"Kociban,Deborah","id":"a6l5nuuzv5q9","rmd":null,"geo_precision":"street","open":"5/1/1990","state":"WV"},"type":"Feature","geometry":{"type":"Point","coordinates":[-79.675586,39.098161]}},{"properties":{"city":"KNOXVILLE","districtmanager":"Kitt,Ramona P","county":"FREDERICK","margin":11,"geo_score":0.878,"zip code":"217589723","storeno":176,"street":"3842 BURKITTSVILLE RD","phone":"301-834-8456","fax":"301-834-8142","regionalmanager":"Campbell,John E","id":"a6l5nv046ovy","rmd":null,"geo_precision":"range","open":"8/1/1990","state":"MD"},"type":"Feature","geometry":{"type":"Point","coordinates":[-77.639096,39.336973]}},{"properties":{"city":"MANCHESTER","districtmanager":"Smith,Helen E","county":"CARROLL","margin":22,"geo_score":1.0,"zip code":"21102-1773","storeno":177,"street":"3281 MAIN ST","phone":"410-374-1454","fax":"410-374-3257","regionalmanager":"Campbell,John E","id":"a6l5nurggw68","rmd":null,"geo_precision":"range","open":"2/1/1991","state":"MD"},"type":"Feature","geometry":{"type":"Point","coordinates":[-76.886267,39.664106]}},{"properties":{"city":"CHAMBERSBURG","districtmanager":"Myers,Elizabeth A","county":"FRANKLIN","margin":13,"geo_score":1.0,"zip code":"172018945","storeno":178,"street":"5234 PHILADELPHIA AVE","phone":"717-263-7286","fax":"717-263-0935","regionalmanager":"Campbell,John E","id":"a6l5nv071df8","rmd":null,"geo_precision":"range","open":"6/1/1990","state":"PA"},"type":"Feature","geometry":{"type":"Point","coordinates":[-77.606836,39.992834]}},{"properties":{"city":"SOMERSET","districtmanager":"Buzzard,Karen","county":"SOMERSET","margin":28,"geo_score":1.0,"zip code":"155019302","storeno":179,"street":"1212 N CENTER AVE","phone":"814-443-4175","fax":"814-443-6304","regionalmanager":"Campbell,John E","id":"a6l5nut9nj6c","rmd":null,"geo_precision":"range","open":"6/1/1990","state":"PA"},"type":"Feature","geometry":{"type":"Point","coordinates":[-79.077102,40.022752]}},{"properties":{"city":"ROMNEY","districtmanager":"Ward-Meyers,Lisa","county":"HAMPSHIRE","margin":15,"geo_score":0.967,"zip code":"267571819","storeno":180,"street":"136 E MAIN ST","phone":"304-822-4099","fax":"304-822-7767","regionalmanager":"Kociban,Deborah","id":"a6l5nv3rgy25","rmd":null,"geo_precision":"range","open":"10/1/1990","state":"WV"},"type":"Feature","geometry":{"type":"Point","coordinates":[-78.758421,39.342457]}},{"properties":{"city":"BELLEFONTE","districtmanager":"Schmitt,Tabitha A","county":"CENTRE","margin":30,"geo_score":1.0,"zip code":"16823-4734","storeno":181,"street":"820 S EAGLE VALLEY RD","phone":"814-355-0990","fax":"814-355-0993","regionalmanager":"Faulk,Peggy","id":"a6l5nuxzboq3","rmd":"9/25/2008","geo_precision":"range","open":"10/1/1990","state":"PA"},"type":"Feature","geometry":{"type":"Point","coordinates":[-77.815294,40.934433]}},{"properties":{"city":"BRIDGEPORT","districtmanager":"Ward-Meyers,Lisa","county":"HARRISON","margin":18,"geo_score":1.0,"zip code":"26330-1354","storeno":182,"street":"1220 JOHNSON AVE","phone":"304-842-8082","fax":"304-842-8085","regionalmanager":"Kociban,Deborah","id":"a6l5nv27egn8","rmd":"11/13/2008","geo_precision":"range","open":"11/1/1990","state":"WV"},"type":"Feature","geometry":{"type":"Point","coordinates":[-80.27747,39.299949]}},{"properties":{"city":"CONNELLSVILLE","districtmanager":"Sowers,Dayna M","county":"FAYETTE","margin":3,"geo_score":1.0,"zip code":"154251412","storeno":183,"street":"2601 MEMORIAL BLVD","phone":"724-620-0179","fax":"724-620-0941","regionalmanager":"Faulk,Peggy","id":"a6l5nv4wsp5c","rmd":"3/12/2009","geo_precision":"range","open":"11/1/1990","state":"PA"},"type":"Feature","geometry":{"type":"Point","coordinates":[-79.56165,40.05535]}},{"properties":{"city":"HAGERSTOWN","districtmanager":"Towns,Elisabeth A","county":"WASHINGTON","margin":12,"geo_score":0.585,"zip code":"21740-2153","storeno":184,"street":"12404 LAUGER AVE","phone":"301-790-3350","fax":"301-790-0822","regionalmanager":"Campbell,John E","id":"a6l5nuvozzr5","rmd":"5/24/2007","geo_precision":"zip","open":"12/1/1990","state":"MD"},"type":"Feature","geometry":{"type":"Point","coordinates":[-77.712215,39.686206]}},{"properties":{"city":"CHAMBERSBURG","districtmanager":"Myers,Elizabeth A","county":"FRANKLIN","margin":3,"geo_score":1.0,"zip code":"172013812","storeno":185,"street":"900 WAYNE AVE","phone":"717-263-7170","fax":"717-263-8138","regionalmanager":"Campbell,John E","id":"a6l5nv54dw9q","rmd":null,"geo_precision":"range","open":"3/1/1991","state":"PA"},"type":"Feature","geometry":{"type":"Point","coordinates":[-77.653533,39.914558]}},{"properties":{"city":"WINCHESTER","districtmanager":"Stevens,Karen","county":"FREDERICK","margin":17,"geo_score":0.714,"zip code":"22601-8688","storeno":186,"street":"1503 N FREDERICK PIKE","phone":"540-722-9094","fax":"540-722-9040","regionalmanager":"Campbell,John E","id":"a6l5nv4432x2","rmd":"9/28/2000","geo_precision":"street","open":"5/1/1991","state":"VA"},"type":"Feature","geometry":{"type":"Point","coordinates":[-78.145659,39.185249]}},{"properties":{"city":"ALTOONA","districtmanager":"Kuntz,Pamela S","county":"BLAIR","margin":10,"geo_score":1.0,"zip code":"16602","storeno":187,"street":"400 E PLANK RD","phone":"814-944-6094","fax":"814-944-6218","regionalmanager":"Campbell,John E","id":"a6l5nuqvg1em","rmd":"9/23/2010","geo_precision":"range","open":"5/1/1991","state":"PA"},"type":"Feature","geometry":{"type":"Point","coordinates":[-78.402836,40.479675]}},{"properties":{"city":"TRANSFER","districtmanager":"Chamberlin,Judy E","county":"MERCER","margin":15,"geo_score":0.98,"zip code":"16154-1845","storeno":188,"street":"270 EDGEWOOD DRIVE EXT","phone":"724-646-0900","fax":"724-646-1350","regionalmanager":"Faulk,Peggy","id":"a6l5nuv3xqf1","rmd":null,"geo_precision":"range","open":"6/1/1991","state":"PA"},"type":"Feature","geometry":{"type":"Point","coordinates":[-80.414305,41.330048]}},{"properties":{"city":"SPRINGDALE","districtmanager":"Acker,Georgette M","county":"ALLEGHENY","margin":6,"geo_score":1.0,"zip code":"151441503","storeno":189,"street":"627 PITTSBURGH ST","phone":"724-274-6420","fax":"724-274-4389","regionalmanager":"Faulk,Peggy","id":"a6l5nuy1twm7","rmd":null,"geo_precision":"range","open":"11/1/1991","state":"PA"},"type":"Feature","geometry":{"type":"Point","coordinates":[-79.783583,40.54113]}},{"properties":{"city":"PITTSBURGH","districtmanager":"Pacovsky,Linda K","county":"ALLEGHENY","margin":1,"geo_score":1.0,"zip code":"152392813","storeno":190,"street":"2003 GOLDEN MILE HWY","phone":"724-733-8202","fax":"724-733-0083","regionalmanager":"Faulk,Peggy","id":"a6l5nusa2w3a","rmd":null,"geo_precision":"range","open":"12/1/1991","state":"PA"},"type":"Feature","geometry":{"type":"Point","coordinates":[-79.707669,40.459026]}},{"properties":{"city":"CARLISLE","districtmanager":"Myers,Elizabeth A","county":"CUMBERLAND","margin":7,"geo_score":0.902,"zip code":"170131615","storeno":191,"street":"1098 HARRISBURG PIKE","phone":"717-218-5270","fax":"717-218-5273","regionalmanager":"Campbell,John E","id":"a6l5nuvx0yln","rmd":"7/24/2008","geo_precision":"street","open":"4/1/1992","state":"PA"},"type":"Feature","geometry":{"type":"Point","coordinates":[-77.161705,40.221695]}},{"properties":{"city":"BOYCE","districtmanager":"Stevens,Karen","county":"CLARKE","margin":29,"geo_score":0.816,"zip code":"22620-2030","storeno":192,"street":"12582 LORD FAIRFAX HWY","phone":"540-837-1426","fax":"540-837-2618","regionalmanager":"Campbell,John E","id":"a6l5nuxvqynd","rmd":"10/25/2001","geo_precision":"street","open":"7/1/1992","state":"VA"},"type":"Feature","geometry":{"type":"Point","coordinates":[-78.085092,39.081233]}},{"properties":{"city":"MIFFLINTOWN","districtmanager":"Williams,Thomas L","county":"JUNIATA","margin":22,"geo_score":0.61,"zip code":"17059-8933","storeno":193,"street":"24578 ROUTE 35 N","phone":"717-436-6052","fax":"717-436-6098","regionalmanager":"Faulk,Peggy","id":"a6l5nuykwcmi","rmd":"9/28/2006","geo_precision":"street","open":"9/1/1992","state":"PA"},"type":"Feature","geometry":{"type":"Point","coordinates":[-77.390401,40.572708]}},{"properties":{"city":"FALLS CREEK","districtmanager":"Bennett,Joann L","county":"CLEARFIELD","margin":27,"geo_score":0.585,"zip code":"15840-9515","storeno":194,"street":"1867 RICH HWY","phone":"814-371-2035","fax":"814-371-3402","regionalmanager":"Faulk,Peggy","id":"a6l5nv47sehm","rmd":null,"geo_precision":"zip","open":"10/1/1992","state":"PA"},"type":"Feature","geometry":{"type":"Point","coordinates":[-78.820695,41.149752]}},{"properties":{"city":"MECHANICSBURG","districtmanager":"Hughes,Michele L","county":"CUMBERLAND","margin":6,"geo_score":1.0,"zip code":"17050-1766","storeno":195,"street":"6558 CARLISLE PIKE","phone":"717-766-9231","fax":"717-796-2393","regionalmanager":"Campbell,John E","id":"a6l5nuzry3lj","rmd":null,"geo_precision":"range","open":"11/1/1992","state":"PA"},"type":"Feature","geometry":{"type":"Point","coordinates":[-77.031076,40.246063]}},{"properties":{"city":"CRESSON","districtmanager":"Buzzard,Karen","county":"CAMBRIA","margin":24,"geo_score":1.0,"zip code":"166301017","storeno":196,"street":"7551 ADMIRAL PEARY HWY","phone":"814-886-4746","fax":"814-886-9492","regionalmanager":"Campbell,John E","id":"a6l5nuw437pi","rmd":null,"geo_precision":"range","open":"12/1/1992","state":"PA"},"type":"Feature","geometry":{"type":"Point","coordinates":[-78.593673,40.459514]}},{"properties":{"city":"STEPHENS CITY","districtmanager":"Stevens,Karen","county":"FREDERICK","margin":4,"geo_score":0.585,"zip code":"226552818","storeno":197,"street":"747 FAIRFAX ST","phone":"540-869-1312","fax":"540-869-2541","regionalmanager":"Campbell,John E","id":"a6l5nuww3xxr","rmd":"6/30/2011","geo_precision":"zip","open":"1/1/1993","state":"VA"},"type":"Feature","geometry":{"type":"Point","coordinates":[-78.246946,39.058163]}},{"properties":{"city":"WOODSTOCK","districtmanager":"Stevens,Karen","county":"SHENANDOAH","margin":20,"geo_score":1.0,"zip code":"226641011","storeno":198,"street":"111 W RESERVOIR RD","phone":"540-459-8202","fax":"540-459-3825","regionalmanager":"Campbell,John E","id":"a6l5nv6cly8n","rmd":"6/9/2011","geo_precision":"range","open":"8/1/1993","state":"VA"},"type":"Feature","geometry":{"type":"Point","coordinates":[-78.519223,38.86753]}},{"properties":{"city":"HANOVER","districtmanager":"Smith,Helen E","county":"YORK","margin":13,"geo_score":1.0,"zip code":"17331-1201","storeno":199,"street":"1191 CARLISLE ST","phone":"717-637-1903","fax":"717-630-8930","regionalmanager":"Campbell,John E","id":"a6l5nurlx4oa","rmd":null,"geo_precision":"range","open":"10/1/1993","state":"PA"},"type":"Feature","geometry":{"type":"Point","coordinates":[-76.995875,39.820404]}},{"properties":{"city":"THURMONT","districtmanager":"Towns,Elisabeth A","county":"FREDERICK","margin":26,"geo_score":1.0,"zip code":"217881643","storeno":200,"street":"428 N CHURCH ST","phone":"301-271-3270","fax":"301-271-3121","regionalmanager":"Campbell,John E","id":"a6l5nv6u7lcd","rmd":null,"geo_precision":"range","open":"4/1/1994","state":"MD"},"type":"Feature","geometry":{"type":"Point","coordinates":[-77.410595,39.63311]}},{"properties":{"city":"MECHANICSBURG","districtmanager":"Hughes,Michele L","county":"CUMBERLAND","margin":7,"geo_score":1.0,"zip code":"17055-5675","storeno":201,"street":"1415 S MARKET ST","phone":"717-691-3523","fax":"717-691-3521","regionalmanager":"Campbell,John E","id":"a6l5nuusi4zo","rmd":null,"geo_precision":"range","open":"4/1/1994","state":"PA"},"type":"Feature","geometry":{"type":"Point","coordinates":[-76.992158,40.193096]}},{"properties":{"city":"HERMITAGE","districtmanager":"Chamberlin,Judy E","county":"MERCER","margin":24,"geo_score":1.0,"zip code":"16148-5955","storeno":202,"street":"2381 S HERMITAGE RD","phone":"724-981-8856","fax":"724-981-8672","regionalmanager":"Faulk,Peggy","id":"a6l5nv59agcy","rmd":null,"geo_precision":"range","open":"4/1/1994","state":"PA"},"type":"Feature","geometry":{"type":"Point","coordinates":[-80.45641,41.201559]}},{"properties":{"city":"WINCHESTER","districtmanager":"Stevens,Karen","county":"FREDERICK","margin":4,"geo_score":1.0,"zip code":"226012757","storeno":203,"street":"2311 VALLEY AVE","phone":"540-678-1583","fax":"540-678-1958","regionalmanager":"Campbell,John E","id":"a6l5nv3upqmk","rmd":null,"geo_precision":"range","open":"5/1/1994","state":"VA"},"type":"Feature","geometry":{"type":"Point","coordinates":[-78.185324,39.16061]}},{"properties":{"city":"MURRYSVILLE","districtmanager":"Pacovsky,Linda K","county":"WESTMORELAND","margin":24,"geo_score":1.0,"zip code":"15668-2022","storeno":204,"street":"4701 WILLIAM PENN HWY","phone":"724-733-2993","fax":"724-325-7073","regionalmanager":"Faulk,Peggy","id":"a6l5nur4i39z","rmd":null,"geo_precision":"range","open":"6/1/1994","state":"PA"},"type":"Feature","geometry":{"type":"Point","coordinates":[-79.665123,40.423756]}},{"properties":{"city":"HAYMARKET","districtmanager":"McClure,Thomas R","county":"PRINCE WILLIAM","margin":14,"geo_score":1.0,"zip code":"20169-2990","storeno":205,"street":"15315 WASHINGTON ST","phone":"703-754-8195","fax":"703-753-9297","regionalmanager":"Campbell,John E","id":"a6l5nuu8hlhl","rmd":null,"geo_precision":"range","open":"6/1/1994","state":"VA"},"type":"Feature","geometry":{"type":"Point","coordinates":[-77.642604,38.815252]}},{"properties":{"city":"WESTON","districtmanager":"Ward-Meyers,Lisa","county":"LEWIS","margin":15,"geo_score":0.585,"zip code":"26452-8367","storeno":206,"street":"39 BERLIN RD","phone":"304-269-4852","fax":"304-269-2696","regionalmanager":"Kociban,Deborah","id":"a6l5nur1nq20","rmd":null,"geo_precision":"zip","open":"8/1/1994","state":"WV"},"type":"Feature","geometry":{"type":"Point","coordinates":[-80.509259,39.047871]}},{"properties":{"city":"WINCHESTER","districtmanager":"Stevens,Karen","county":"FREDERICK","margin":10,"geo_score":0.552,"zip code":"22602-4815","storeno":207,"street":"1683 BERRYVILLE PIKE","phone":"540-545-4141","fax":"540-545-4611","regionalmanager":"Campbell,John E","id":"a6l5nur2soo0","rmd":null,"geo_precision":"street","open":"9/1/1994","state":"VA"},"type":"Feature","geometry":{"type":"Point","coordinates":[-78.138999,39.184782]}},{"properties":{"city":"WINCHESTER","districtmanager":"Stevens,Karen","county":"FREDERICK","margin":21,"geo_score":0.902,"zip code":"226015199","storeno":208,"street":"601 MILLWOOD AVE","phone":"540-667-6283","fax":"540-667-3479","regionalmanager":"Campbell,John E","id":"a6l5nuvid0y1","rmd":null,"geo_precision":"street","open":"12/1/1994","state":"VA"},"type":"Feature","geometry":{"type":"Point","coordinates":[-78.161814,39.165819]}},{"properties":{"city":"BOONSBORO","districtmanager":"Towns,Elisabeth A","county":"WASHINGTON","margin":21,"geo_score":1.0,"zip code":"21713-1624","storeno":209,"street":"20723 NATIONAL PIKE","phone":"301-797-5535","fax":"301-797-5932","regionalmanager":"Campbell,John E","id":"a6l5nurevkf9","rmd":null,"geo_precision":"range","open":"2/1/1995","state":"MD"},"type":"Feature","geometry":{"type":"Point","coordinates":[-77.650519,39.573968]}},{"properties":{"city":"WALKERSVILLE","districtmanager":"Towns,Elisabeth A","county":"FREDERICK","margin":24,"geo_score":1.0,"zip code":"217935199","storeno":210,"street":"8408 WOODSBORO PIKE","phone":"301-845-7680","fax":"301-845-7681","regionalmanager":"Campbell,John E","id":"a6l5nuw6cavm","rmd":"2/28/2002","geo_precision":"range","open":"6/1/1995","state":"MD"},"type":"Feature","geometry":{"type":"Point","coordinates":[-77.364071,39.465527]}},{"properties":{"city":"PALMYRA","districtmanager":"Hughes,Michele L","county":"LEBANON","margin":5,"geo_score":1.0,"zip code":"170781913","storeno":211,"street":"811 E MAIN ST","phone":"717-838-2125","fax":"717-838-2359","regionalmanager":"Campbell,John E","id":"a6l5nv1s98kz","rmd":null,"geo_precision":"range","open":"12/1/1994","state":"PA"},"type":"Feature","geometry":{"type":"Point","coordinates":[-76.584319,40.313113]}},{"properties":{"city":"PETERSBURG","districtmanager":"Ward-Meyers,Lisa","county":"GRANT","margin":11,"geo_score":0.808,"zip code":"268471533","storeno":212,"street":"299 BRYAN ST","phone":"304-257-9214","fax":"304-257-1985","regionalmanager":"Kociban,Deborah","id":"a6l5nuue0vtg","rmd":null,"geo_precision":"street","open":"12/1/1994","state":"WV"},"type":"Feature","geometry":{"type":"Point","coordinates":[-79.128577,38.99578]}},{"properties":{"city":"BLOOMSBURG","districtmanager":"Shaffer,Thomas E","county":"COLUMBIA","margin":5,"geo_score":0.805,"zip code":"17815-8848","storeno":213,"street":"2511 NEW BERWICK HWY","phone":"570-387-9377","fax":"570-387-9387","regionalmanager":"Faulk,Peggy","id":"a6l5nv6ff10g","rmd":null,"geo_precision":"street","open":"3/1/1995","state":"PA"},"type":"Feature","geometry":{"type":"Point","coordinates":[-76.378738,41.021029]}},{"properties":{"city":"BUCKHANNON","districtmanager":"Ward-Meyers,Lisa","county":"UPSHUR","margin":10,"geo_score":0.585,"zip code":"26201-8400","storeno":214,"street":"4 CLARKSBURG RD","phone":"304-472-0019","fax":"304-472-6225","regionalmanager":"Kociban,Deborah","id":"a6l5nv1qtsxc","rmd":null,"geo_precision":"zip","open":"2/1/1995","state":"WV"},"type":"Feature","geometry":{"type":"Point","coordinates":[-80.127579,38.895936]}},{"properties":{"city":"HUNTINGDON","districtmanager":"Williams,Thomas L","county":"HUNTINGDON","margin":14,"geo_score":0.604,"zip code":"16652-7263","storeno":215,"street":"9681 WILLIAM PENN HWY","phone":"814-641-7630","fax":"814-641-7631","regionalmanager":"Faulk,Peggy","id":"a6l5nutdjomv","rmd":null,"geo_precision":"street","open":"5/1/1995","state":"PA"},"type":"Feature","geometry":{"type":"Point","coordinates":[-78.022379,40.502815]}},{"properties":{"city":"ELYSBURG","districtmanager":"Shaffer,Thomas E","county":"NORTHUMBERLAND","margin":8,"geo_score":1.0,"zip code":"17824-9669","storeno":216,"street":"38 S MARKET ST","phone":"570-672-3205","fax":"570-672-3227","regionalmanager":"Faulk,Peggy","id":"a6l5nuz97six","rmd":null,"geo_precision":"range","open":"8/1/1995","state":"PA"},"type":"Feature","geometry":{"type":"Point","coordinates":[-76.549208,40.861605]}},{"properties":{"city":"BUTLER","districtmanager":"Chamberlin,Judy E","county":"BUTLER","margin":5,"geo_score":0.805,"zip code":"16001-3508","storeno":217,"street":"100 FREEPORT RD","phone":"724-285-4421","fax":"724-285-4635","regionalmanager":"Faulk,Peggy","id":"a6l5nuqsq7ni","rmd":null,"geo_precision":"range","open":"11/1/1995","state":"PA"},"type":"Feature","geometry":{"type":"Point","coordinates":[-79.881242,40.844615]}},{"properties":{"city":"HARRISONBURG","districtmanager":"Campbell,Robert W","county":"ROCKINGHAM","margin":26,"geo_score":1.0,"zip code":"22801-3729","storeno":218,"street":"533 UNIVERSITY BLVD","phone":"540-574-3072","fax":"540-574-4071","regionalmanager":"Kociban,Deborah","id":"a6l5nuyh4bqr","rmd":null,"geo_precision":"range","open":"3/1/1996","state":"VA"},"type":"Feature","geometry":{"type":"Point","coordinates":[-78.856867,38.429]}},{"properties":{"city":"HARRISBURG","districtmanager":"Hughes,Michele L","county":"DAUPHIN","margin":12,"geo_score":1.0,"zip code":"171129189","storeno":219,"street":"2300 COLONIAL RD","phone":"717-545-5881","fax":"717-545-5886","regionalmanager":"Campbell,John E","id":"a6l5nutufx8l","rmd":null,"geo_precision":"range","open":"6/1/1996","state":"PA"},"type":"Feature","geometry":{"type":"Point","coordinates":[-76.825884,40.339384]}},{"properties":{"city":"MARTINSBURG","districtmanager":"Kitt,Ramona P","county":"BERKELEY","margin":22,"geo_score":1.0,"zip code":"25404-3705","storeno":220,"street":"1465 EDWIN MILLER BLVD","phone":"304-267-8000","fax":"304-267-1704","regionalmanager":"Campbell,John E","id":"a6l5nuruan2t","rmd":null,"geo_precision":"range","open":"4/1/1996","state":"WV"},"type":"Feature","geometry":{"type":"Point","coordinates":[-77.95767,39.48716]}},{"properties":{"city":"BEALETON","districtmanager":"Stevens,Karen","county":"FAUGUIER","margin":14,"geo_score":1.0,"zip code":"22712-6931","storeno":221,"street":"10101 JAMES MADISON HWY","phone":"540-439-4366","fax":"540-439-4367","regionalmanager":"Campbell,John E","id":"a6l5nut6sshb","rmd":null,"geo_precision":"range","open":"7/1/1996","state":"VA"},"type":"Feature","geometry":{"type":"Point","coordinates":[-77.80041,38.618833]}},{"properties":{"city":"HARRISONBURG","districtmanager":"Campbell,Robert W","county":"ROCKINGHAM","margin":19,"geo_score":1.0,"zip code":"228015729","storeno":222,"street":"1825 S MAIN ST","phone":"540-574-3178","fax":"540-574-4171","regionalmanager":"Kociban,Deborah","id":"a6l5nux5d0a9","rmd":null,"geo_precision":"range","open":"6/1/1996","state":"VA"},"type":"Feature","geometry":{"type":"Point","coordinates":[-78.888908,38.42528]}},{"properties":{"city":"BADEN","districtmanager":"Mendicino,Darla J","county":"BEAVER","margin":20,"geo_score":0.961,"zip code":"15005-1931","storeno":223,"street":"100 OHIO RIVER BLVD","phone":"724-869-3930","fax":"724-869-7162","regionalmanager":"Faulk,Peggy","id":"a6l5nuu98hgg","rmd":null,"geo_precision":"range","open":"5/1/1996","state":"PA"},"type":"Feature","geometry":{"type":"Point","coordinates":[-80.229722,40.629747]}},{"properties":{"city":"YORK","districtmanager":"Johnson,Stephen D","county":"YORK","margin":27,"geo_score":1.0,"zip code":"17402-2205","storeno":224,"street":"405 MEMORY LN","phone":"717-751-7704","fax":"717-751-0821","regionalmanager":"Campbell,John E","id":"a6l5nuts1dah","rmd":null,"geo_precision":"range","open":"6/1/1996","state":"PA"},"type":"Feature","geometry":{"type":"Point","coordinates":[-76.681669,39.978646]}},{"properties":{"city":"BREEZEWOOD","districtmanager":"Hudson,Shawna M","county":"BEDFORD","margin":1,"geo_score":0.809,"zip code":"155330282","storeno":225,"street":"16417 LINCOLN HWY","phone":"814-735-2100","fax":"814-735-2103","regionalmanager":"Campbell,John E","id":"a6l5nuyclahb","rmd":"11/3/2011","geo_precision":"street","open":"4/1/1997","state":"PA"},"type":"Feature","geometry":{"type":"Point","coordinates":[-78.238742,39.999449]}},{"properties":{"city":"READING","districtmanager":"Hoffman,Jeremiah L","county":"BERKS","margin":29,"geo_score":1.0,"zip code":"19605-1730","storeno":226,"street":"501 E BELLEVUE AVE","phone":"610-929-4460","fax":"610-929-4468","regionalmanager":"Campbell,John E","id":"a6l5nuzqatma","rmd":null,"geo_precision":"range","open":"7/1/1996","state":"PA"},"type":"Feature","geometry":{"type":"Point","coordinates":[-75.925455,40.387238]}},{"properties":{"city":"JOHNSTOWN","districtmanager":"Buzzard,Karen","county":"CAMBRIA","margin":21,"geo_score":1.0,"zip code":"15904-8913","storeno":227,"street":"405 GALLERIA DR","phone":"814-262-7373","fax":"814-266-1713","regionalmanager":"Campbell,John E","id":"a6l5nv14rwpe","rmd":null,"geo_precision":"range","open":"7/1/1996","state":"PA"},"type":"Feature","geometry":{"type":"Point","coordinates":[-78.838125,40.2932]}},{"properties":{"city":"HALIFAX","districtmanager":"Hughes,Michele L","county":"DAUPHIN","margin":14,"geo_score":1.0,"zip code":"17032-9044","storeno":228,"street":"3625 PETERS MOUNTAIN RD","phone":"717-896-2520","fax":"717-896-2523","regionalmanager":"Campbell,John E","id":"a6l5nuyy4764","rmd":null,"geo_precision":"range","open":"8/1/1996","state":"PA"},"type":"Feature","geometry":{"type":"Point","coordinates":[-76.927829,40.450554]}},{"properties":{"city":"IRWIN","districtmanager":"Pacovsky,Linda K","county":"WESTMORELAND","margin":2,"geo_score":0.761,"zip code":"15642-2724","storeno":229,"street":"7821 ROUTE 30","phone":"724-861-8550","fax":"724-861-8551","regionalmanager":"Faulk,Peggy","id":"a6l5nuvkm5ti","rmd":null,"geo_precision":"range","open":"8/1/1996","state":"PA"},"type":"Feature","geometry":{"type":"Point","coordinates":[-79.671087,40.316715]}},{"properties":{"city":"CARMICHAELS","districtmanager":"Sowers,Dayna M","county":"GREENE","margin":8,"geo_score":0.594,"zip code":"153209501","storeno":230,"street":"973 S 88 RD","phone":"724-966-9815","fax":"724-966-2934","regionalmanager":"Faulk,Peggy","id":"a6l5nuuvb20v","rmd":null,"geo_precision":"street","open":"8/1/1996","state":"PA"},"type":"Feature","geometry":{"type":"Point","coordinates":[-79.966692,39.881935]}},{"properties":{"city":"NEW HOLLAND","districtmanager":"Hoffman,Jeremiah L","county":"LANCASTER","margin":21,"geo_score":1.0,"zip code":"17557-9211","storeno":231,"street":"698 W MAIN ST","phone":"717-355-2456","fax":"717-355-9297","regionalmanager":"Campbell,John E","id":"a6l5nv5pl75v","rmd":null,"geo_precision":"range","open":"10/1/1996","state":"PA"},"type":"Feature","geometry":{"type":"Point","coordinates":[-76.112854,40.094316]}},{"properties":{"city":"MT HOLLY SPRINGS","districtmanager":"Myers,Elizabeth A","county":"CUMBERLAND","margin":11,"geo_score":0.985,"zip code":"170651618","storeno":232,"street":"420 N BALTIMORE AVE","phone":"717-486-4439","fax":"717-486-8346","regionalmanager":"Campbell,John E","id":"a6l5nut2y6sg","rmd":null,"geo_precision":"range","open":"3/1/1997","state":"PA"},"type":"Feature","geometry":{"type":"Point","coordinates":[-77.190182,40.120714]}},{"properties":{"city":"MANCHESTER","districtmanager":"Johnson,Stephen D","county":"YORK","margin":2,"geo_score":0.98,"zip code":"17345-1306","storeno":233,"street":"4309 N GEORGE STREET EXT","phone":"717-266-5677","fax":"717-266-6889","regionalmanager":"Campbell,John E","id":"a6l5nur5gxla","rmd":null,"geo_precision":"range","open":"2/1/1997","state":"PA"},"type":"Feature","geometry":{"type":"Point","coordinates":[-76.723006,40.050023]}},{"properties":{"city":"WEIRTON","districtmanager":"Sowers,Dayna M","county":"HANCOCK","margin":2,"geo_score":1.0,"zip code":"26062-3828","storeno":234,"street":"341 PENCO RD","phone":"304-723-4009","fax":"304-723-6368","regionalmanager":"Faulk,Peggy","id":"a6l5nuzaorhh","rmd":null,"geo_precision":"range","open":"6/1/1997","state":"WV"},"type":"Feature","geometry":{"type":"Point","coordinates":[-80.547481,40.408258]}},{"properties":{"city":"SELINSGROVE","districtmanager":"Williams,Thomas L","county":"SNYDER","margin":17,"geo_score":0.771,"zip code":"17870","storeno":235,"street":"766 NORTH SUSQUEHANNA TRAIL","phone":"570-374-4804","fax":"570-374-5399","regionalmanager":"Faulk,Peggy","id":"a6l5nv6pmohj","rmd":null,"geo_precision":"street","open":"2/1/1997","state":"PA"},"type":"Feature","geometry":{"type":"Point","coordinates":[-76.826675,40.842517]}},{"properties":{"city":"MARIETTA","districtmanager":"Johnson,Stephen D","county":"LANCASTER","margin":23,"geo_score":0.927,"zip code":"17547-1615","storeno":236,"street":"1158 RIVER RD","phone":"717-426-4541","fax":"717-426-4102","regionalmanager":"Campbell,John E","id":"a6l5nuxqnfs3","rmd":null,"geo_precision":"range","open":"2/1/1997","state":"PA"},"type":"Feature","geometry":{"type":"Point","coordinates":[-76.542187,40.062744]}},{"properties":{"city":"LITITZ","districtmanager":"Hoffman,Jeremiah L","county":"LANCASTER","margin":20,"geo_score":1.0,"zip code":"175439501","storeno":237,"street":"701 FURNACE HILLS PIKE","phone":"717-626-4555","fax":"717-626-5559","regionalmanager":"Campbell,John E","id":"a6l5nv0jti8f","rmd":null,"geo_precision":"range","open":"4/1/1997","state":"PA"},"type":"Feature","geometry":{"type":"Point","coordinates":[-76.308801,40.175765]}},{"properties":{"city":"RUCKERSVILLE","districtmanager":"Campbell,Robert W","county":"GREENE","margin":4,"geo_score":1.0,"zip code":"22968-3449","storeno":238,"street":"7020 SEMINOLE TRL","phone":"434-985-4007","fax":"434-985-4749","regionalmanager":"Kociban,Deborah","id":"a6l5nv2q2vzt","rmd":null,"geo_precision":"range","open":"6/1/1997","state":"VA"},"type":"Feature","geometry":{"type":"Point","coordinates":[-78.385794,38.207832]}},{"properties":{"city":"NEW STANTON","districtmanager":"Pacovsky,Linda K","county":"WESTMORELAND","margin":24,"geo_score":1.0,"zip code":"156729418","storeno":239,"street":"205 N CENTER AVE","phone":"724-755-2166","fax":"724-755-2167","regionalmanager":"Faulk,Peggy","id":"a6l5nuvsvcer","rmd":null,"geo_precision":"range","open":"6/1/1997","state":"PA"},"type":"Feature","geometry":{"type":"Point","coordinates":[-79.609398,40.218606]}},{"properties":{"city":"CHARLES TOWN","districtmanager":"Kitt,Ramona P","county":"JEFFERSON","margin":16,"geo_score":0.811,"zip code":"25414-4476","storeno":240,"street":"51 FLOWING SPRINGS RD","phone":"304-725-6823","fax":"304-728-6836","regionalmanager":"Campbell,John E","id":"a6l5nuwz5yz2","rmd":null,"geo_precision":"street","open":"8/1/1997","state":"WV"},"type":"Feature","geometry":{"type":"Point","coordinates":[-77.841955,39.303588]}},{"properties":{"city":"MARTINSBURG","districtmanager":"Kitt,Ramona P","county":"BERKELEY","margin":4,"geo_score":0.805,"zip code":"25401","storeno":241,"street":"14686 APPLE HARVEST DRIVE","phone":"304-262-9100","fax":"304-262-9211","regionalmanager":"Campbell,John E","id":"a6l5nuykyrpp","rmd":null,"geo_precision":"street","open":"9/1/1997","state":"WV"},"type":"Feature","geometry":{"type":"Point","coordinates":[-77.982225,39.441911]}},{"properties":{"city":"FREDERICK","districtmanager":"Kitt,Ramona P","county":"FREDERICK","margin":7,"geo_score":1.0,"zip code":"21702-4137","storeno":242,"street":"1600 ROSEMONT AVE","phone":"301-228-2620","fax":"301-228-2621","regionalmanager":"Campbell,John E","id":"a6l5nv2l9r9f","rmd":null,"geo_precision":"range","open":"2/1/1998","state":"MD"},"type":"Feature","geometry":{"type":"Point","coordinates":[-77.431354,39.42745]}},{"properties":{"city":"WARRENTON","districtmanager":"Stevens,Karen","county":"FAUGUIER","margin":17,"geo_score":0.585,"zip code":"20186-2201","storeno":243,"street":"600 BLACKWELL RD","phone":"540-349-4788","fax":"540-349-4751","regionalmanager":"Campbell,John E","id":"a6l5nv2jpm0r","rmd":null,"geo_precision":"zip","open":"11/1/1997","state":"VA"},"type":"Feature","geometry":{"type":"Point","coordinates":[-77.836115,38.689832]}},{"properties":{"city":"WOODBRIDGE","districtmanager":"McClure,Thomas R","county":"PRINCE WILLIAM","margin":9,"geo_score":0.805,"zip code":"22193-7630","storeno":244,"street":"4021 PRINCE WILLIAM PKWY","phone":"703-583-1303","fax":"703-583-1403","regionalmanager":"Campbell,John E","id":"a6l5nv6xqwa5","rmd":null,"geo_precision":"range","open":"1/1/1998","state":"VA"},"type":"Feature","geometry":{"type":"Point","coordinates":[-77.336184,38.671755]}},{"properties":{"city":"ERIE","districtmanager":"Fajohn,Robert","county":"ERIE","margin":28,"geo_score":1.0,"zip code":"16506-1438","storeno":245,"street":"4662 W RIDGE RD","phone":"814-838-3105","fax":"814-838-1735","regionalmanager":"Kociban,Deborah","id":"a6l5nuupzeqc","rmd":null,"geo_precision":"range","open":"3/29/2001","state":"PA"},"type":"Feature","geometry":{"type":"Point","coordinates":[-80.176781,42.074787]}},{"properties":{"city":"NEW CASTLE","districtmanager":"Chamberlin,Judy E","county":"LAWRENCE","margin":18,"geo_score":0.688,"zip code":"16101-7960","storeno":246,"street":"3208 US 422","phone":"724-924-1404","fax":"724-924-1503","regionalmanager":"Faulk,Peggy","id":"a6l5nut6nhky","rmd":null,"geo_precision":"street","open":"1/1/1998","state":"PA"},"type":"Feature","geometry":{"type":"Point","coordinates":[-80.234048,40.971163]}},{"properties":{"city":"FLEETWOOD","districtmanager":"Hoffman,Jeremiah L","county":"BERKS","margin":9,"geo_score":1.0,"zip code":"19522-8663","storeno":247,"street":"14350 KUTZTOWN RD","phone":"610-944-3025","fax":"610-944-3026","regionalmanager":"Campbell,John E","id":"a6l5nv05xg76","rmd":null,"geo_precision":"range","open":"12/1/1997","state":"PA"},"type":"Feature","geometry":{"type":"Point","coordinates":[-75.832927,40.487857]}},{"properties":{"city":"GIRARD","districtmanager":"Fajohn,Robert","county":"TRUMBALL","margin":28,"geo_score":1.0,"zip code":"44420-3148","storeno":248,"street":"2721 SALT SPRINGS RD","phone":"330-530-2375","fax":"330-530-2378","regionalmanager":"Kociban,Deborah","id":"a6l5nuv360ry","rmd":null,"geo_precision":"range","open":"1/1/1998","state":"OH"},"type":"Feature","geometry":{"type":"Point","coordinates":[-80.722881,41.143959]}},{"properties":{"city":"FREDERICK","districtmanager":"Kitt,Ramona P","county":"FREDERICK","margin":5,"geo_score":0.585,"zip code":"21701-3104","storeno":249,"street":"1300 E PATRICK ST","phone":"301-631-5200","fax":"301-631-6632","regionalmanager":"Campbell,John E","id":"a6l5nv1atn3f","rmd":null,"geo_precision":"zip","open":"6/11/1998","state":"MD"},"type":"Feature","geometry":{"type":"Point","coordinates":[-77.48582,39.420657]}},{"properties":{"city":"BUTLER","districtmanager":"Chamberlin,Judy E","county":"BUTLER","margin":30,"geo_score":1.0,"zip code":"16001-2489","storeno":250,"street":"356 NEW CASTLE RD","phone":"724-287-7900","fax":"724-287-7911","regionalmanager":"Faulk,Peggy","id":"a6l5nuwlv3o7","rmd":null,"geo_precision":"range","open":"4/3/1998","state":"PA"},"type":"Feature","geometry":{"type":"Point","coordinates":[-79.948692,40.876978]}},{"properties":{"city":"EAST LIVERPOOL","districtmanager":"Fajohn,Robert","county":"COLUMBIANA","margin":30,"geo_score":0.805,"zip code":"439209626","storeno":251,"street":"15744 SAINT CLAIR AVE","phone":"330-386-5550","fax":"330-386-5015","regionalmanager":"Kociban,Deborah","id":"a6l5nv12uzgr","rmd":null,"geo_precision":"street","open":"7/17/1998","state":"OH"},"type":"Feature","geometry":{"type":"Point","coordinates":[-80.574129,40.652194]}},{"properties":{"city":"CLEARFIELD","districtmanager":"Bennett,Joann L","county":"CLEARFIELD","margin":14,"geo_score":1.0,"zip code":"16830-6042","storeno":252,"street":"14259 CLEARFIELD SHAWVILLE HWY","phone":"814-768-7533","fax":"814-768-7553","regionalmanager":"Faulk,Peggy","id":"a6l5nv17xuwm","rmd":null,"geo_precision":"range","open":"5/21/1998","state":"PA"},"type":"Feature","geometry":{"type":"Point","coordinates":[-78.403631,41.033969]}},{"properties":{"city":"PITTSBURGH","districtmanager":"Mendicino,Darla J","county":"ALLEGHENY","margin":4,"geo_score":1.0,"zip code":"15236-4605","storeno":253,"street":"251 CURRY HOLLOW RD","phone":"412-653-5678","fax":"412-653-2444","regionalmanager":"Faulk,Peggy","id":"a6l5nv1lqe1p","rmd":null,"geo_precision":"range","open":"6/25/1998","state":"PA"},"type":"Feature","geometry":{"type":"Point","coordinates":[-79.968156,40.339067]}},{"properties":{"city":"MORGANTOWN","districtmanager":"Ward-Meyers,Lisa","county":"MONONGALIA","margin":4,"geo_score":1.0,"zip code":"265052807","storeno":254,"street":"900 CHESTNUT RIDGE RD","phone":"304-598-8601","fax":"304-598-8602","regionalmanager":"Kociban,Deborah","id":"a6l5nuzsdwju","rmd":null,"geo_precision":"range","open":"6/1/1998","state":"WV"},"type":"Feature","geometry":{"type":"Point","coordinates":[-79.954535,39.658013]}},{"properties":{"city":"YORK","districtmanager":"Johnson,Stephen D","county":"YORK","margin":9,"geo_score":0.72,"zip code":"17408-4730","storeno":255,"street":"1484 CARLISLE RD","phone":"717-764-3282","fax":"717-764-4589","regionalmanager":"Campbell,John E","id":"a6l5nuvdk54b","rmd":null,"geo_precision":"street","open":"9/25/1998","state":"PA"},"type":"Feature","geometry":{"type":"Point","coordinates":[-76.779406,39.968443]}},{"properties":{"city":"SHOEMAKERSVILLE","districtmanager":"Hoffman,Jeremiah L","county":"BERKS","margin":14,"geo_score":1.0,"zip code":"195551511","storeno":256,"street":"554 SHOEMAKER AVE","phone":"610-562-3700","fax":"610-562-1384","regionalmanager":"Campbell,John E","id":"a6l5nv70ujnp","rmd":null,"geo_precision":"range","open":"9/30/1998","state":"PA"},"type":"Feature","geometry":{"type":"Point","coordinates":[-75.963316,40.500479]}},{"properties":{"city":"LANCASTER","districtmanager":"Johnson,Stephen D","county":"LANCASTER","margin":13,"geo_score":1.0,"zip code":"17601-4311","storeno":257,"street":"1699 OREGON PIKE","phone":"717-581-0830","fax":"717-581-0812","regionalmanager":"Campbell,John E","id":"a6l5nv00grco","rmd":null,"geo_precision":"range","open":"9/19/1998","state":"PA"},"type":"Feature","geometry":{"type":"Point","coordinates":[-76.303485,40.06794]}},{"properties":{"city":"POTTSVILLE","districtmanager":"Shaffer,Thomas E","county":"SCHUYLKILL","margin":20,"geo_score":1.0,"zip code":"17901-4202","storeno":258,"street":"900 GORDON NAGLE TRL","phone":"570-628-0100","fax":"570-628-5687","regionalmanager":"Faulk,Peggy","id":"a6l5nv1vs59t","rmd":null,"geo_precision":"range","open":"9/30/1998","state":"PA"},"type":"Feature","geometry":{"type":"Point","coordinates":[-76.235339,40.671527]}},{"properties":{"city":"KING GEORGE","districtmanager":"McClure,Thomas R","county":"KING GEORGE","margin":23,"geo_score":1.0,"zip code":"22485-5973","storeno":259,"street":"17188 OWENS DR","phone":"540-644-1111","fax":"540-644-1510","regionalmanager":"Campbell,John E","id":"a6l5nuugsyti","rmd":null,"geo_precision":"range","open":"12/21/1998","state":"VA"},"type":"Feature","geometry":{"type":"Point","coordinates":[-77.048503,38.353251]}},{"properties":{"city":"CRANBERRY","districtmanager":"Thompson,Sheila L","county":"VENANGO","margin":11,"geo_score":0.629,"zip code":"163190228","storeno":260,"street":"7119 US 322  BOX 228","phone":"814-676-8665","fax":"814-677-0580","regionalmanager":"Faulk,Peggy","id":"a6l5nv5hfki4","rmd":null,"geo_precision":"street","open":"12/10/1998","state":"PA"},"type":"Feature","geometry":{"type":"Point","coordinates":[-79.569208,41.283443]}},{"properties":{"city":"FOREST","districtmanager":"Singer,Donald K","county":"BEDFORD","margin":15,"geo_score":1.0,"zip code":"24551-4370","storeno":261,"street":"12259 E LYNCHBURG SALEM TPKE","phone":"434-534-9405","fax":"434-534-6830","regionalmanager":"Kociban,Deborah","id":"a6l5nv4xe47b","rmd":null,"geo_precision":"range","open":"2/4/1999","state":"VA"},"type":"Feature","geometry":{"type":"Point","coordinates":[-79.307088,37.305772]}},{"properties":{"city":"HAGERSTOWN","districtmanager":"Towns,Elisabeth A","county":"WASHINGTON","margin":15,"geo_score":1.0,"zip code":"21740-7325","storeno":262,"street":"1396 S POTOMAC ST","phone":"301-791-7839","fax":"301-791-7806","regionalmanager":"Campbell,John E","id":"a6l5nuzk31tv","rmd":null,"geo_precision":"range","open":"1/28/1999","state":"MD"},"type":"Feature","geometry":{"type":"Point","coordinates":[-77.73089,39.613209]}},{"properties":{"city":"CARLISLE","districtmanager":"Myers,Elizabeth A","county":"CUMBERLAND","margin":8,"geo_score":1.0,"zip code":"17013-9302","storeno":263,"street":"1900 RITNER HWY","phone":"717-218-2715","fax":"717-218-2718","regionalmanager":"Campbell,John E","id":"a6l5nuxsb93e","rmd":"10/21/2010","geo_precision":"range","open":"12/21/1998","state":"PA"},"type":"Feature","geometry":{"type":"Point","coordinates":[-77.243231,40.190359]}},{"properties":{"city":"FREDERICKSBURG","districtmanager":"Campbell,Robert W","county":"STAFFORD","margin":1,"geo_score":0.944,"zip code":"22405-3241","storeno":264,"street":"10 WASHINGTON SQUARE PLZ","phone":"540-368-1209","fax":"540-368-1239","regionalmanager":"Kociban,Deborah","id":"a6l5nurytp4x","rmd":null,"geo_precision":"range","open":"4/1/1999","state":"VA"},"type":"Feature","geometry":{"type":"Point","coordinates":[-77.435954,38.28605]}},{"properties":{"city":"LYNCHBURG","districtmanager":"Singer,Donald K","county":"CAMPBELL","margin":27,"geo_score":0.805,"zip code":"24501-3619","storeno":265,"street":"14480 WARDS RD","phone":"434-832-1416","fax":"434-832-1418","regionalmanager":"Kociban,Deborah","id":"a6l5nutzfnci","rmd":null,"geo_precision":"street","open":"3/25/1999","state":"VA"},"type":"Feature","geometry":{"type":"Point","coordinates":[-79.188902,37.318757]}},{"properties":{"city":"STREETSBORO","districtmanager":"Carlson,Kathryn A","county":"PORTAGE","margin":21,"geo_score":1.0,"zip code":"44241-5210","storeno":266,"street":"9745 STATE ROUTE 14","phone":"330-422-0165","fax":"330-422-0167","regionalmanager":"Kociban,Deborah","id":"a6l5nv48he9u","rmd":null,"geo_precision":"range","open":"5/27/1999","state":"OH"},"type":"Feature","geometry":{"type":"Point","coordinates":[-81.36513,41.251103]}},{"properties":{"city":"LEESBURG","districtmanager":"McClure,Thomas R","county":"LOUDOUN","margin":13,"geo_score":1.0,"zip code":"20176-3301","storeno":267,"street":"915 EDWARDS FERRY RD NE","phone":"703-779-0606","fax":"703-779-1986","regionalmanager":"Campbell,John E","id":"a6l5nv4kdh0q","rmd":null,"geo_precision":"range","open":"7/8/1999","state":"VA"},"type":"Feature","geometry":{"type":"Point","coordinates":[-77.537891,39.113611]}},{"properties":{"city":"RED LION","districtmanager":"Johnson,Stephen D","county":"YORK","margin":0,"geo_score":1.0,"zip code":"17356-9073","storeno":268,"street":"3200 CAPE HORN RD","phone":"717-246-8144","fax":"717-417-2984","regionalmanager":"Campbell,John E","id":"a6l5nurnrsw1","rmd":null,"geo_precision":"range","open":"7/12/1999","state":"PA"},"type":"Feature","geometry":{"type":"Point","coordinates":[-76.645313,39.942172]}},{"properties":{"city":"EPHRATA","districtmanager":"Hoffman,Jeremiah L","county":"LANCASTER","margin":25,"geo_score":1.0,"zip code":"17522-9550","storeno":269,"street":"4179 OREGON PIKE","phone":"717-859-6610","fax":"717-859-6618","regionalmanager":"Campbell,John E","id":"a6l5nuyo7tes","rmd":null,"geo_precision":"range","open":"6/30/1999","state":"PA"},"type":"Feature","geometry":{"type":"Point","coordinates":[-76.218085,40.130233]}},{"properties":{"city":"MANASSAS PARK","districtmanager":"McClure,Thomas R","county":"PRINCE WILLIAM","margin":15,"geo_score":1.0,"zip code":"20111-2357","storeno":270,"street":"8504 CENTREVILLE RD","phone":"703-335-7407","fax":"7033930907","regionalmanager":"Campbell,John E","id":"a6l5nuu8oobe","rmd":null,"geo_precision":"range","open":"7/22/1999","state":"VA"},"type":"Feature","geometry":{"type":"Point","coordinates":[-77.452656,38.772179]}},{"properties":{"city":"LYNCHBURG","districtmanager":"Singer,Donald K","county":"CAMPBELL","margin":15,"geo_score":1.0,"zip code":"24501-6921","storeno":271,"street":"2630 LAKESIDE DR","phone":"434-316-5357","fax":"434-316-9436","regionalmanager":"Kociban,Deborah","id":"a6l5nusclfg3","rmd":null,"geo_precision":"range","open":"8/5/1999","state":"VA"},"type":"Feature","geometry":{"type":"Point","coordinates":[-79.229552,37.395846]}},{"properties":{"city":"MADISON HEIGHTS","districtmanager":"Singer,Donald K","county":"AMHERST","margin":5,"geo_score":1.0,"zip code":"24572-5947","storeno":272,"street":"4089 S AMHERST HWY","phone":"434-929-2222","fax":"434-929-6004","regionalmanager":"Kociban,Deborah","id":"a6l5nv5zpy5l","rmd":null,"geo_precision":"range","open":"7/29/1999","state":"VA"},"type":"Feature","geometry":{"type":"Point","coordinates":[-79.119087,37.466558]}},{"properties":{"city":"BIRDSBORO","districtmanager":"Hoffman,Jeremiah L","county":"BERKS","margin":3,"geo_score":1.0,"zip code":"19508-1017","storeno":273,"street":"6600 PERKIOMEN AVE","phone":"610-404-0024","fax":"610-404-8130","regionalmanager":"Campbell,John E","id":"a6l5nv1cc2c1","rmd":null,"geo_precision":"range","open":"9/26/1999","state":"PA"},"type":"Feature","geometry":{"type":"Point","coordinates":[-75.819397,40.288318]}},{"properties":{"city":"ASHTABULA","districtmanager":"Fajohn,Robert","county":"ASHTABULA","margin":1,"geo_score":1.0,"zip code":"44004-5305","storeno":274,"street":"2411 N RIDGE RD E","phone":"440-998-1009","fax":"440-998-0891","regionalmanager":"Kociban,Deborah","id":"a6l5nv6gh090","rmd":null,"geo_precision":"range","open":"10/8/1999","state":"OH"},"type":"Feature","geometry":{"type":"Point","coordinates":[-80.763452,41.876075]}},{"properties":{"city":"MORGANTOWN","districtmanager":"Ward-Meyers,Lisa","county":"MONONGALIA","margin":24,"geo_score":0.748,"zip code":"26501-2235","storeno":275,"street":"1 CHAPLIN RD","phone":"304-599-2890","fax":"304-599-2899","regionalmanager":"Kociban,Deborah","id":"a6l5nuwx73e9","rmd":null,"geo_precision":"street","open":"9/20/1999","state":"WV"},"type":"Feature","geometry":{"type":"Point","coordinates":[-80.001137,39.65929]}},{"properties":{"city":"MIFFLINBURG","districtmanager":"Williams,Thomas L","county":"UNION","margin":0,"geo_score":1.0,"zip code":"17844-9315","storeno":276,"street":"240 E CHESTNUT ST","phone":"570-966-1809","fax":"570-966-1924","regionalmanager":"Faulk,Peggy","id":"a6l5nv37c6m2","rmd":null,"geo_precision":"range","open":"9/24/1999","state":"PA"},"type":"Feature","geometry":{"type":"Point","coordinates":[-77.031406,40.923302]}},{"properties":{"city":"WEXFORD","districtmanager":"Acker,Georgette M","county":"ALLEGHENY","margin":21,"geo_score":0.813,"zip code":"15090-8349","storeno":277,"street":"12000 PERRY HWY","phone":"724-935-0210","fax":"724-935-0215","regionalmanager":"Faulk,Peggy","id":"a6l5nv4rtd0s","rmd":null,"geo_precision":"street","open":"4/20/2000","state":"PA"},"type":"Feature","geometry":{"type":"Point","coordinates":[-80.060603,40.634599]}},{"properties":{"city":"UNIONTOWN","districtmanager":"Sowers,Dayna M","county":"FAYETTE","margin":16,"geo_score":0.902,"zip code":"15401-2605","storeno":278,"street":"10 NEW SALEM RD","phone":"724-437-8918","fax":"724-437-8191","regionalmanager":"Faulk,Peggy","id":"a6l5nuskpq7v","rmd":null,"geo_precision":"range","open":"3/30/2000","state":"PA"},"type":"Feature","geometry":{"type":"Point","coordinates":[-79.837027,39.925037]}},{"properties":{"city":"CANONSBURG","districtmanager":"Mendicino,Darla J","county":"WASHINGTON","margin":27,"geo_score":1.0,"zip code":"15317-2254","storeno":279,"street":"2401 WASHINGTON RD","phone":"724-873-5258","fax":"724-873-7208","regionalmanager":"Faulk,Peggy","id":"a6l5nuyo2puz","rmd":null,"geo_precision":"range","open":"7/17/2000","state":"PA"},"type":"Feature","geometry":{"type":"Point","coordinates":[-80.170498,40.252494]}},{"properties":{"city":"MILL HALL","districtmanager":"Williams,Thomas L","county":"CLINTON","margin":12,"geo_score":1.0,"zip code":"17751-1907","storeno":280,"street":"288 HOGAN BLVD","phone":"570-893-7581","fax":"570-893-8718","regionalmanager":"Faulk,Peggy","id":"a6l5nuu4du37","rmd":null,"geo_precision":"range","open":"12/21/1999","state":"PA"},"type":"Feature","geometry":{"type":"Point","coordinates":[-77.478617,41.115286]}},{"properties":{"city":"AUSTINTOWN","districtmanager":"Fajohn,Robert","county":"MAHONING","margin":1,"geo_score":1.0,"zip code":"44515-2420","storeno":281,"street":"5499 MAHONING AVE","phone":"330-270-1803","fax":"330-270-1447","regionalmanager":"Kociban,Deborah","id":"a6l5nv099vnl","rmd":null,"geo_precision":"range","open":"1/20/2000","state":"OH"},"type":"Feature","geometry":{"type":"Point","coordinates":[-80.760696,41.09961]}},{"properties":{"city":"WARREN","districtmanager":"Fajohn,Robert","county":"TRUMBALL","margin":21,"geo_score":1.0,"zip code":"44484-2541","storeno":282,"street":"1162 NILES CORTLAND RD SE","phone":"330-856-9803","fax":"330-856-9849","regionalmanager":"Kociban,Deborah","id":"a6l5nv6pssq8","rmd":null,"geo_precision":"range","open":"7/6/2000","state":"OH"},"type":"Feature","geometry":{"type":"Point","coordinates":[-80.740549,41.225478]}},{"properties":{"city":"WILLIAMSPORT","districtmanager":"Williams,Thomas L","county":"LYCOMING","margin":11,"geo_score":1.0,"zip code":"17701-3937","storeno":283,"street":"330 WESTMINSTER DR","phone":"570-329-2820","fax":"570-329-2824","regionalmanager":"Faulk,Peggy","id":"a6l5nv0ikise","rmd":null,"geo_precision":"range","open":"3/23/2000","state":"PA"},"type":"Feature","geometry":{"type":"Point","coordinates":[-76.959282,41.24852]}},{"properties":{"city":"WAYNESBURG","districtmanager":"Sowers,Dayna M","county":"GREENE","margin":16,"geo_score":1.0,"zip code":"15370","storeno":284,"street":"111 E ROY FURMAN HIGHWAY","phone":"724-852-1331","fax":"724-627-0502","regionalmanager":"Faulk,Peggy","id":"a6l5nuxvw6ir","rmd":null,"geo_precision":"range","open":"12/16/1999","state":"PA"},"type":"Feature","geometry":{"type":"Point","coordinates":[-80.159448,39.897365]}},{"properties":{"city":"ORANGE","districtmanager":"Campbell,Robert W","county":"ORANGE","margin":28,"geo_score":0.951,"zip code":"22960-1016","storeno":285,"street":"332 MADISON RD","phone":"540-672-6804","fax":"540-672-6808","regionalmanager":"Kociban,Deborah","id":"a6l5nv62175d","rmd":null,"geo_precision":"range","open":"4/27/2000","state":"VA"},"type":"Feature","geometry":{"type":"Point","coordinates":[-78.113999,38.251191]}},{"properties":{"city":"ASHLAND","districtmanager":"Singer,Donald K","county":"HANOVER","margin":4,"geo_score":1.0,"zip code":"23005-7941","storeno":286,"street":"10036 SLIDING HILL RD","phone":"804-550-7326","fax":"804-550-1129","regionalmanager":"Kociban,Deborah","id":"a6l5nv24lai1","rmd":null,"geo_precision":"range","open":"9/21/2000","state":"VA"},"type":"Feature","geometry":{"type":"Point","coordinates":[-77.440302,37.691252]}},{"properties":{"city":"STATE COLLEGE","districtmanager":"Schmitt,Tabitha A","county":"CENTRE","margin":9,"geo_score":0.839,"zip code":"16803-1142","storeno":287,"street":"101 VALLEY VISTA DR","phone":"814-237-2901","fax":"814-237-3766","regionalmanager":"Faulk,Peggy","id":"a6l5nv3hqddd","rmd":null,"geo_precision":"range","open":"7/5/2000","state":"PA"},"type":"Feature","geometry":{"type":"Point","coordinates":[-77.925733,40.808914]}},{"properties":{"city":"DUNCANNON","districtmanager":"Hughes,Michele L","county":"PERRY","margin":16,"geo_score":1.0,"zip code":"17020-9553","storeno":288,"street":"1550 STATE RD","phone":"717-957-0188","fax":"717-957-0135","regionalmanager":"Campbell,John E","id":"a6l5nuy31lg3","rmd":null,"geo_precision":"range","open":"5/18/2000","state":"PA"},"type":"Feature","geometry":{"type":"Point","coordinates":[-76.98683,40.355423]}},{"properties":{"city":"SINKING SPRING","districtmanager":"Hoffman,Jeremiah L","county":"BERKS","margin":15,"geo_score":0.941,"zip code":"19608-9707","storeno":289,"street":"4661 PENN AVE","phone":"610-678-5772","fax":"610-678-4572","regionalmanager":"Campbell,John E","id":"a6l5nv4j9zrl","rmd":null,"geo_precision":"range","open":"6/26/2000","state":"PA"},"type":"Feature","geometry":{"type":"Point","coordinates":[-76.037286,40.326578]}},{"properties":{"city":"TAPPAHANNOCK","districtmanager":"Singer,Donald K","county":"ESSEX","margin":25,"geo_score":0.807,"zip code":"22560-9350","storeno":290,"street":"1804 TAPPAHANNOCK BLVD","phone":"804-443-9989","fax":"804-443-8209","regionalmanager":"Kociban,Deborah","id":"a6l5nuzgnf2y","rmd":null,"geo_precision":"street","open":"5/31/2000","state":"VA"},"type":"Feature","geometry":{"type":"Point","coordinates":[-76.867184,37.902733]}},{"properties":{"city":"HAZLE TOWNSHIP","districtmanager":"Shaffer,Thomas E","county":"LUZERNE","margin":27,"geo_score":0.836,"zip code":"18202-3328","storeno":291,"street":"101 AIRPORT RD","phone":"570-455-0115","fax":"570-455-0535","regionalmanager":"Faulk,Peggy","id":"a6l5nv5qjz8f","rmd":null,"geo_precision":"range","open":"6/22/2000","state":"PA"},"type":"Feature","geometry":{"type":"Point","coordinates":[-76.008355,40.989398]}},{"properties":{"city":"CALIFORNIA","districtmanager":"McClure,Thomas R","county":"ST MARY'S","margin":7,"geo_score":0.895,"zip code":"20619-3073","storeno":292,"street":"22711 THREE NOTCH RD","phone":"301-737-7700","fax":"301-737-4055","regionalmanager":"Campbell,John E","id":"a6l5nuyt9ljp","rmd":null,"geo_precision":"range","open":"7/20/2000","state":"MD"},"type":"Feature","geometry":{"type":"Point","coordinates":[-76.493692,38.291358]}},{"properties":{"city":"LEESPORT","districtmanager":"Hoffman,Jeremiah L","county":"BERKS","margin":24,"geo_score":0.817,"zip code":"19533-8642","storeno":293,"street":"5515 POTTSVILLE PIKE","phone":"610-916-0510","fax":"610-916-4530","regionalmanager":"Campbell,John E","id":"a6l5nv45s4hh","rmd":"11/3/2011","geo_precision":"street","open":"7/27/2000","state":"PA"},"type":"Feature","geometry":{"type":"Point","coordinates":[-75.958034,40.445746]}},{"properties":{"city":"WARREN","districtmanager":"Fajohn,Robert","county":"TRUMBALL","margin":28,"geo_score":0.805,"zip code":"44484-2613","storeno":294,"street":"3379 ELM RD NE","phone":"330-372-6077","fax":"330-372-6242","regionalmanager":"Kociban,Deborah","id":"a6l5nv1akkho","rmd":null,"geo_precision":"range","open":"8/24/2000","state":"OH"},"type":"Feature","geometry":{"type":"Point","coordinates":[-80.78302,41.265465]}},{"properties":{"city":"ROANOKE","districtmanager":"Murphy,Robert L","county":"ROANOKE","margin":19,"geo_score":1.0,"zip code":"24019-3509","storeno":295,"street":"2703 PETERS CREEK RD NW","phone":"540-562-3410","fax":"540-562-3412","regionalmanager":"Kociban,Deborah","id":"a6l5nut92ca6","rmd":null,"geo_precision":"range","open":"8/17/2000","state":"VA"},"type":"Feature","geometry":{"type":"Point","coordinates":[-80.003762,37.316712]}},{"properties":{"city":"STOW","districtmanager":"Carlson,Kathryn A","county":"SUMMIT","margin":6,"geo_score":0.954,"zip code":"44224-4976","storeno":296,"street":"950 E STEELS CORNERS RD","phone":"330-929-5673","fax":"330-929-5783","regionalmanager":"Kociban,Deborah","id":"a6l5nv06iqe1","rmd":null,"geo_precision":"range","open":"9/28/2000","state":"OH"},"type":"Feature","geometry":{"type":"Point","coordinates":[-81.475122,41.181187]}},{"properties":{"city":"WILKES BARRE","districtmanager":"Shaffer,Thomas E","county":"LUZERNE","margin":16,"geo_score":0.992,"zip code":"18702-6604","storeno":297,"street":"464 WILKES BARRE TOWNSHIP BLVD","phone":"570-822-6437","fax":"570-822-6951","regionalmanager":"Faulk,Peggy","id":"a6l5nuzsl5yw","rmd":null,"geo_precision":"range","open":"8/31/2000","state":"PA"},"type":"Feature","geometry":{"type":"Point","coordinates":[-75.864435,41.23538]}},{"properties":{"city":"GROVE CITY","districtmanager":"Chamberlin,Judy E","county":"MERCER","margin":16,"geo_score":0.977,"zip code":"16127","storeno":298,"street":"1526 W MAIN STREET EXT","phone":"724-458-8474","fax":"724-458-8397","regionalmanager":"Faulk,Peggy","id":"a6l5nv1g5gk6","rmd":null,"geo_precision":"range","open":"9/21/2000","state":"PA"},"type":"Feature","geometry":{"type":"Point","coordinates":[-80.109221,41.167674]}},{"properties":{"city":"GROVE CITY","districtmanager":"Chamberlin,Judy E","county":"MERCER","margin":4,"geo_score":0.805,"zip code":"16127-3319","storeno":299,"street":"1931 BUTLER PIKE","phone":"724-748-4050","fax":"724-748-4415","regionalmanager":"Faulk,Peggy","id":"a6l5nv2r8f47","rmd":null,"geo_precision":"range","open":"5/3/2001","state":"PA"},"type":"Feature","geometry":{"type":"Point","coordinates":[-80.156887,41.149413]}},{"properties":{"city":"ROANOKE","districtmanager":"Murphy,Robert L","county":"ROANOKE","margin":12,"geo_score":1.0,"zip code":"24012-5119","storeno":300,"street":"1212 WILLIAMSON RD NE","phone":"540-581-1265","fax":"540-581-1270","regionalmanager":"Kociban,Deborah","id":"a6l5nv2c4fnb","rmd":null,"geo_precision":"range","open":"9/28/2000","state":"VA"},"type":"Feature","geometry":{"type":"Point","coordinates":[-79.93326,37.283107]}},{"properties":{"city":"RAVENNA","districtmanager":"Carlson,Kathryn A","county":"PORTAGE","margin":3,"geo_score":1.0,"zip code":"44266-9736","storeno":301,"street":"6941 STATE ROUTE 44","phone":"330-296-2107","fax":"330-296-2174","regionalmanager":"Kociban,Deborah","id":"a6l5nuyp24i4","rmd":null,"geo_precision":"range","open":"6/21/2001","state":"OH"},"type":"Feature","geometry":{"type":"Point","coordinates":[-81.246445,41.179767]}},{"properties":{"city":"STAUNTON","districtmanager":"Campbell,Robert W","county":"AUGUSTA","margin":15,"geo_score":0.805,"zip code":"24402-4976","storeno":302,"street":"1250 RICHMOND AVE","phone":"540-886-2907","fax":"540-886-8432","regionalmanager":"Kociban,Deborah","id":"a6l5nv0e28li","rmd":null,"geo_precision":"range","open":"5/23/2001","state":"VA"},"type":"Feature","geometry":{"type":"Point","coordinates":[-79.043147,38.134238]}},{"properties":{"city":"MADISON","districtmanager":"Campbell,Robert W","county":"MADISON","margin":17,"geo_score":0.789,"zip code":"22727-2509","storeno":303,"street":"2902 S SEMINOLE TRL","phone":"540-948-7800","fax":"540-948-7852","regionalmanager":"Kociban,Deborah","id":"a6l5nv69gdbm","rmd":null,"geo_precision":"street","open":"2/28/2001","state":"VA"},"type":"Feature","geometry":{"type":"Point","coordinates":[-78.21416,38.406228]}},{"properties":{"city":"CHANTILLY","districtmanager":"McClure,Thomas R","county":"LOUDOUN","margin":12,"geo_score":0.805,"zip code":"20151-1940","storeno":304,"street":"25224 POLAND RD","phone":"703-327-5157","fax":"703-327-5307","regionalmanager":"Campbell,John E","id":"a6l5nv53srxe","rmd":null,"geo_precision":"range","open":"4/25/2001","state":"VA"},"type":"Feature","geometry":{"type":"Point","coordinates":[-77.497003,38.920374]}},{"properties":{"city":"YORK","districtmanager":"Johnson,Stephen D","county":"YORK","margin":23,"geo_score":1.0,"zip code":"17403-9716","storeno":305,"street":"2721 S QUEEN ST","phone":"717-741-6984","fax":"717-741-5842","regionalmanager":"Campbell,John E","id":"a6l5nv3tu0q3","rmd":null,"geo_precision":"range","open":"4/26/2001","state":"PA"},"type":"Feature","geometry":{"type":"Point","coordinates":[-76.680305,39.90792]}},{"properties":{"city":"DANVILLE","districtmanager":"Murphy,Robert L","county":"PITTSYLVANIA","margin":30,"geo_score":1.0,"zip code":"245414631","storeno":306,"street":"3425 RIVERSIDE DR","phone":"434-799-8949","fax":"434-799-9117","regionalmanager":"Kociban,Deborah","id":"a6l5nv4xyywe","rmd":null,"geo_precision":"range","open":"3/28/2001","state":"VA"},"type":"Feature","geometry":{"type":"Point","coordinates":[-79.427711,36.583312]}},{"properties":{"city":"KING GEORGE","districtmanager":"McClure,Thomas R","county":"KING GEORGE","margin":12,"geo_score":1.0,"zip code":"22485-4200","storeno":307,"street":"11449 KINGS HWY","phone":"540-775-1732","fax":"540-775-4854","regionalmanager":"Campbell,John E","id":"a6l5nuxhgvab","rmd":null,"geo_precision":"range","open":"6/28/2001","state":"VA"},"type":"Feature","geometry":{"type":"Point","coordinates":[-77.149033,38.23883]}},{"properties":{"city":"RIDGEWAY","districtmanager":"Murphy,Robert L","county":"HENRY","margin":21,"geo_score":1.0,"zip code":"24148-3483","storeno":308,"street":"6758 GREENSBORO RD","phone":"276-956-3366","fax":"276-956-3828","regionalmanager":"Kociban,Deborah","id":"a6l5nv0psx1e","rmd":null,"geo_precision":"range","open":"5/17/2001","state":"VA"},"type":"Feature","geometry":{"type":"Point","coordinates":[-79.8623,36.600091]}},{"properties":{"city":"WINCHESTER","districtmanager":"Stevens,Karen","county":"FREDERICK","margin":22,"geo_score":0.805,"zip code":"22602-5400","storeno":309,"street":"1574 MARTINSBURG PIKE","phone":"540-662-4461","fax":"540-662-7031","regionalmanager":"Campbell,John E","id":"a6l5nv5qk4xs","rmd":null,"geo_precision":"range","open":"7/13/2001","state":"VA"},"type":"Feature","geometry":{"type":"Point","coordinates":[-78.140027,39.216319]}},{"properties":{"city":"NORTH LIMA","districtmanager":"Fajohn,Robert","county":"MAHONING","margin":22,"geo_score":1.0,"zip code":"44452-9557","storeno":310,"street":"9010 MARKET ST","phone":"330-965-7857","fax":"330-965-8387","regionalmanager":"Kociban,Deborah","id":"a6l5nuwnf3tq","rmd":null,"geo_precision":"range","open":"6/7/2001","state":"OH"},"type":"Feature","geometry":{"type":"Point","coordinates":[-80.662834,40.987695]}},{"properties":{"city":"AKRON","districtmanager":"Redman,Amanda M","county":"SUMMIT","margin":27,"geo_score":1.0,"zip code":"44319-1117","storeno":311,"street":"20 W WATERLOO RD","phone":"330-773-1477","fax":"330-773-1536","regionalmanager":"Kociban,Deborah","id":"a6l5nusyoole","rmd":null,"geo_precision":"range","open":"7/17/2001","state":"OH"},"type":"Feature","geometry":{"type":"Point","coordinates":[-81.528722,41.02867]}},{"properties":{"city":"MT JOY","districtmanager":"Johnson,Stephen D","county":"LANCASTER","margin":15,"geo_score":0.774,"zip code":"17552-9414","storeno":312,"street":"1555 E MAIN ST","phone":"717-653-2164","fax":"717-653-6284","regionalmanager":"Campbell,John E","id":"a6l5nv4divxm","rmd":null,"geo_precision":"street","open":"8/23/2001","state":"PA"},"type":"Feature","geometry":{"type":"Point","coordinates":[-76.456096,40.111305]}},{"properties":{"city":"NORTH HUNTINGDON","districtmanager":"Pacovsky,Linda K","county":"WESTMORELAND","margin":30,"geo_score":0.61,"zip code":"15642-2724","storeno":313,"street":"13700 RT 30","phone":"724-863-9240","fax":"724-863-9287","regionalmanager":"Faulk,Peggy","id":"a6l5nv2zqt2j","rmd":"10/1/1996","geo_precision":"street","open":"7/12/2001","state":"PA"},"type":"Feature","geometry":{"type":"Point","coordinates":[-79.68236,40.31849]}},{"properties":{"city":"NEW ALEXANDRIA","districtmanager":"Hazelet,Virginia","county":"WESTMORELAND","margin":20,"geo_score":0.464,"zip code":"15670-3150","storeno":314,"street":"8299 ROUTE 22","phone":"724-668-8618","fax":"724-668-7963","regionalmanager":"Faulk,Peggy","id":"a6l5nuz1c0cr","rmd":null,"geo_precision":"street","open":"8/30/2001","state":"PA"},"type":"Feature","geometry":{"type":"Point","coordinates":[-79.612347,40.408107]}},{"properties":{"city":"ASHLAND","districtmanager":"Singer,Donald K","county":"HANOVER","margin":17,"geo_score":1.0,"zip code":"23005-7659","storeno":315,"street":"12341 WASHINGTON HWY","phone":"804-798-3000","fax":"804-798-3841","regionalmanager":"Kociban,Deborah","id":"a6l5nuxtzgu4","rmd":null,"geo_precision":"range","open":"9/20/2001","state":"VA"},"type":"Feature","geometry":{"type":"Point","coordinates":[-77.471322,37.744131]}},{"properties":{"city":"JOPPA","districtmanager":"Smith,Helen E","county":"HARFORD","margin":26,"geo_score":1.0,"zip code":"21085-3914","storeno":316,"street":"601 PULASKI HWY","phone":"410-538-3691","fax":"410-538-3696","regionalmanager":"Campbell,John E","id":"a6l5nuueo7hd","rmd":null,"geo_precision":"range","open":"9/28/2001","state":"MD"},"type":"Feature","geometry":{"type":"Point","coordinates":[-76.352141,39.429542]}},{"properties":{"city":"CUYAHOGA FALLS","districtmanager":"Carlson,Kathryn A","county":"SUMMIT","margin":2,"geo_score":1.0,"zip code":"44221-4923","storeno":317,"street":"1210 MAIN ST","phone":"330-922-4093","fax":"330-922-4137","regionalmanager":"Kociban,Deborah","id":"a6l5nuyhd2u9","rmd":null,"geo_precision":"range","open":"9/6/2001","state":"OH"},"type":"Feature","geometry":{"type":"Point","coordinates":[-81.485025,41.117384]}},{"properties":{"city":"GREAT MILLS","districtmanager":"McClure,Thomas R","county":"ST MARY'S","margin":18,"geo_score":1.0,"zip code":"20634-5300","storeno":318,"street":"20760 OLD GREAT MILLS RD","phone":"301-994-9130","fax":"301-994-9321","regionalmanager":"Campbell,John E","id":"a6l5nuug4e9t","rmd":null,"geo_precision":"range","open":"12/20/2001","state":"MD"},"type":"Feature","geometry":{"type":"Point","coordinates":[-76.497096,38.236973]}},{"properties":{"city":"TRUCKSVILLE","districtmanager":"Shaffer,Thomas E","county":"LUZERNE","margin":30,"geo_score":1.0,"zip code":"18708-1463","storeno":319,"street":"163 S MEMORIAL HWY","phone":"570-696-4836","fax":"570-696-4054","regionalmanager":"Faulk,Peggy","id":"a6l5nv24l2mn","rmd":null,"geo_precision":"range","open":"8/30/2001","state":"PA"},"type":"Feature","geometry":{"type":"Point","coordinates":[-75.927066,41.300537]}},{"properties":{"city":"CHRISTIANSBURG","districtmanager":"Murphy,Robert L","county":"MONTGOMERY","margin":27,"geo_score":1.0,"zip code":"24073-1208","storeno":320,"street":"2000 N FRANKLIN ST","phone":"540-381-9036","fax":"540-381-8933","regionalmanager":"Kociban,Deborah","id":"a6l5nuuf85je","rmd":null,"geo_precision":"range","open":"12/20/2001","state":"VA"},"type":"Feature","geometry":{"type":"Point","coordinates":[-80.418572,37.157876]}},{"properties":{"city":"COLONIAL HEIGHTS","districtmanager":"Singer,Donald K","county":"CHESTERFIELD","margin":0,"geo_score":1.0,"zip code":"23834-2944","storeno":321,"street":"2711 CONDUIT RD","phone":"804-526-9052","fax":"804-526-3296","regionalmanager":"Kociban,Deborah","id":"a6l5nuru6fkl","rmd":null,"geo_precision":"range","open":"1/31/2002","state":"VA"},"type":"Feature","geometry":{"type":"Point","coordinates":[-77.395749,37.258551]}},{"properties":{"city":"RICHMOND","districtmanager":"Singer,Donald K","county":"CHESTERFIELD","margin":21,"geo_score":0.902,"zip code":"23235-4305","storeno":322,"street":"2053 HUGUENOT RD","phone":"804-330-2632","fax":"804-330-3758","regionalmanager":"Kociban,Deborah","id":"a6l5nuslvmq4","rmd":null,"geo_precision":"range","open":"2/28/2002","state":"VA"},"type":"Feature","geometry":{"type":"Point","coordinates":[-77.611885,37.522074]}},{"properties":{"city":"LOCUST GROVE","districtmanager":"Campbell,Robert W","county":"ORANGE","margin":27,"geo_score":0.878,"zip code":"22508-2019","storeno":323,"street":"5504 GERMANNA HWY","phone":"540-972-1359","fax":"540-972-6765","regionalmanager":"Kociban,Deborah","id":"a6l5nv6c1709","rmd":null,"geo_precision":"range","open":"3/14/2002","state":"VA"},"type":"Feature","geometry":{"type":"Point","coordinates":[-77.729156,38.326887]}},{"properties":{"city":"WADSWORTH","districtmanager":"Carlson,Kathryn A","county":"MEDINA","margin":3,"geo_score":1.0,"zip code":"44281-9708","storeno":324,"street":"5100 RIDGE RD","phone":"330-239-0801","fax":"330-239-0502","regionalmanager":"Kociban,Deborah","id":"a6l5nv1w3vns","rmd":null,"geo_precision":"range","open":"5/23/2002","state":"OH"},"type":"Feature","geometry":{"type":"Point","coordinates":[-81.735115,41.129539]}},{"properties":{"city":"SALEM","districtmanager":"Murphy,Robert L","county":"ROANOKE","margin":28,"geo_score":1.0,"zip code":"24153-7220","storeno":325,"street":"1435 APPERSON DR","phone":"540-375-3292","fax":"540-375-6419","regionalmanager":"Kociban,Deborah","id":"a6l5nuyjya6q","rmd":null,"geo_precision":"range","open":"4/25/2002","state":"VA"},"type":"Feature","geometry":{"type":"Point","coordinates":[-80.037456,37.271695]}},{"properties":{"city":"GETTYSBURG","districtmanager":"Smith,Helen E","county":"ADAMS","margin":29,"geo_score":0.633,"zip code":"17325-8376","storeno":326,"street":"30 CAMP LETTERMAN DR","phone":"717-334-0642","fax":"717-334-9029","regionalmanager":"Campbell,John E","id":"a6l5nv5qgoxw","rmd":null,"geo_precision":"range","open":"6/27/2002","state":"PA"},"type":"Feature","geometry":{"type":"Point","coordinates":[-77.319808,39.911591]}},{"properties":{"city":"MONROEVILLE","districtmanager":"Pacovsky,Linda K","county":"ALLEGHENY","margin":5,"geo_score":1.0,"zip code":"15146-4219","storeno":327,"street":"2100 MOSSIDE BLVD","phone":"412-856-1986","fax":"412-856-9729","regionalmanager":"Faulk,Peggy","id":"a6l5nuszns07","rmd":null,"geo_precision":"range","open":"9/26/2002","state":"PA"},"type":"Feature","geometry":{"type":"Point","coordinates":[-79.771543,40.396383]}},{"properties":{"city":"CANFIELD","districtmanager":"Fajohn,Robert","county":"MAHONING","margin":21,"geo_score":1.0,"zip code":"44406-8130","storeno":328,"street":"4585 BOARDMAN CANFIELD RD","phone":"330-533-6442","fax":"330-533-5091","regionalmanager":"Kociban,Deborah","id":"a6l5nuqt8x4c","rmd":null,"geo_precision":"range","open":"8/22/2002","state":"OH"},"type":"Feature","geometry":{"type":"Point","coordinates":[-80.735723,41.024776]}},{"properties":{"city":"ROCKY MOUNT","districtmanager":"Murphy,Robert L","county":"FRANKLIN","margin":28,"geo_score":1.0,"zip code":"24151-5891","storeno":329,"street":"265 OLD FRANKLIN TPKE","phone":"540-483-2557","fax":"540-483-7536","regionalmanager":"Kociban,Deborah","id":"a6l5nv22wuol","rmd":null,"geo_precision":"range","open":"8/22/2002","state":"VA"},"type":"Feature","geometry":{"type":"Point","coordinates":[-79.872139,37.009931]}},{"properties":{"city":"WHITEHALL","districtmanager":"Hoffman,Jeremiah L","county":"LEHIGH","margin":25,"geo_score":1.0,"zip code":"18052-1221","storeno":330,"street":"5001 MACARTHUR RD","phone":"610-262-8782","fax":"610-262-7938","regionalmanager":"Campbell,John E","id":"a6l5nv716rxk","rmd":null,"geo_precision":"range","open":"8/30/2002","state":"PA"},"type":"Feature","geometry":{"type":"Point","coordinates":[-75.523144,40.693715]}},{"properties":{"city":"POWHATAN","districtmanager":"Singer,Donald K","county":"POWHATAN","margin":9,"geo_score":1.0,"zip code":"23139-7401","storeno":331,"street":"2600 ANDERSON HWY","phone":"804-598-9474","fax":"804-598-9457","regionalmanager":"Kociban,Deborah","id":"a6l5nv3cfc8y","rmd":"10/21/2010","geo_precision":"range","open":"9/26/2002","state":"VA"},"type":"Feature","geometry":{"type":"Point","coordinates":[-77.825403,37.523201]}},{"properties":{"city":"HARRISONBURG","districtmanager":"Campbell,Robert W","county":"ROCKINGHAM","margin":12,"geo_score":1.0,"zip code":"22801","storeno":332,"street":"798 E MARKET ST","phone":"540-433-6200","fax":"540-433-7666","regionalmanager":"Kociban,Deborah","id":"a6l5nuv2l6qz","rmd":null,"geo_precision":"range","open":"11/21/2002","state":"VA"},"type":"Feature","geometry":{"type":"Point","coordinates":[-78.853471,38.44641]}},{"properties":{"city":"SALEM","districtmanager":"Murphy,Robert L","county":"ROANOKE","margin":28,"geo_score":1.0,"zip code":"24153-4708","storeno":333,"street":"1340 W MAIN ST","phone":"540-389-4956","fax":"540-389-6064","regionalmanager":"Kociban,Deborah","id":"a6l5nv4dndem","rmd":null,"geo_precision":"range","open":"10/24/2002","state":"VA"},"type":"Feature","geometry":{"type":"Point","coordinates":[-80.0796,37.289601]}},{"properties":{"city":"EDINBORO","districtmanager":"Fajohn,Robert","county":"ERIE","margin":10,"geo_score":0.805,"zip code":"16412-1256","storeno":334,"street":"5930 ROUTE 6N","phone":"814-734-5033","fax":"814-734-8051","regionalmanager":"Kociban,Deborah","id":"a6l5nv5ev2se","rmd":null,"geo_precision":"range","open":"11/21/2002","state":"PA"},"type":"Feature","geometry":{"type":"Point","coordinates":[-80.171206,41.879862]}},{"properties":{"city":"BUTLER","districtmanager":"Chamberlin,Judy E","county":"BUTLER","margin":17,"geo_score":1.0,"zip code":"16001-8629","storeno":335,"street":"499 EVANS CITY RD","phone":"724-482-2059","fax":"724-482-2125","regionalmanager":"Faulk,Peggy","id":"a6l5nut6c1ex","rmd":null,"geo_precision":"range","open":"11/27/2002","state":"PA"},"type":"Feature","geometry":{"type":"Point","coordinates":[-79.96771,40.862225]}},{"properties":{"city":"WILLIAMSPORT","districtmanager":"Williams,Thomas L","county":"LYCOMING","margin":13,"geo_score":1.0,"zip code":"17701-5869","storeno":336,"street":"105 MAYNARD ST","phone":"570-321-8541","fax":"570-321-8547","regionalmanager":"Faulk,Peggy","id":"a6l5nv40gexa","rmd":null,"geo_precision":"range","open":"12/12/2002","state":"PA"},"type":"Feature","geometry":{"type":"Point","coordinates":[-77.019508,41.234184]}},{"properties":{"city":"MEADVILLE","districtmanager":"Thompson,Sheila L","county":"CRAWFORD","margin":27,"geo_score":0.878,"zip code":"16335-3826","storeno":337,"street":"16590 CONNEAUT LAKE RD","phone":"814-724 5290","fax":"814-337-6127","regionalmanager":"Faulk,Peggy","id":"a6l5nv2tzrts","rmd":null,"geo_precision":"range","open":"12/19/2002","state":"PA"},"type":"Feature","geometry":{"type":"Point","coordinates":[-80.205007,41.622298]}},{"properties":{"city":"RICHMOND","districtmanager":"Singer,Donald K","county":"CHESTERFIELD","margin":2,"geo_score":1.0,"zip code":"23236-3352","storeno":338,"street":"20 S PROVIDENCE RD","phone":"804-320-7703","fax":"804-320-7726","regionalmanager":"Kociban,Deborah","id":"a6l5nur7h2tf","rmd":null,"geo_precision":"range","open":"2/6/2003","state":"VA"},"type":"Feature","geometry":{"type":"Point","coordinates":[-77.547117,37.496339]}},{"properties":{"city":"STATE COLLEGE","districtmanager":"Schmitt,Tabitha A","county":"CENTRE","margin":16,"geo_score":1.0,"zip code":"16801-7313","storeno":339,"street":"765 BENNER PIKE","phone":"814-861-6400","fax":"814-861-8186","regionalmanager":"Faulk,Peggy","id":"a6l5nv5aoost","rmd":null,"geo_precision":"range","open":"4/17/2003","state":"PA"},"type":"Feature","geometry":{"type":"Point","coordinates":[-77.805205,40.829822]}},{"properties":{"city":"SOUTH BOSTON","districtmanager":"Murphy,Robert L","county":"HALIFAX","margin":16,"geo_score":0.878,"zip code":"24592-6831","storeno":340,"street":"1007 PHILPOTT RD","phone":"434-575-4049","fax":"434-575-5353","regionalmanager":"Kociban,Deborah","id":"a6l5nuvqgbgm","rmd":null,"geo_precision":"range","open":"3/27/2003","state":"VA"},"type":"Feature","geometry":{"type":"Point","coordinates":[-78.900505,36.687441]}},{"properties":{"city":"RICHMOND","districtmanager":"Singer,Donald K","county":"CHESTERFIELD","margin":12,"geo_score":0.585,"zip code":"23236-1249","storeno":341,"street":"9401 AMBERDALE DR","phone":"804-276-0413","fax":"804-276-4976","regionalmanager":"Kociban,Deborah","id":"a6l5nv23lsle","rmd":null,"geo_precision":"zip","open":"7/10/2003","state":"VA"},"type":"Feature","geometry":{"type":"Point","coordinates":[-77.585993,37.474505]}},{"properties":{"city":"CANTON","districtmanager":"Redman,Amanda M","county":"STARK","margin":1,"geo_score":1.0,"zip code":"44708-5013","storeno":342,"street":"5057 TUSCARAWAS ST W","phone":"330-479-8515","fax":"330-479-8516","regionalmanager":"Kociban,Deborah","id":"a6l5nurz9c86","rmd":null,"geo_precision":"range","open":"5/15/2003","state":"OH"},"type":"Feature","geometry":{"type":"Point","coordinates":[-81.446001,40.792595]}},{"properties":{"city":"DUNMORE","districtmanager":"Shaffer,Thomas E","county":"LACKAWANNA","margin":25,"geo_score":0.808,"zip code":"18512-1705","storeno":343,"street":"1101 ONEILL HWY","phone":"570-961-8200","fax":"570-961-8186","regionalmanager":"Faulk,Peggy","id":"a6l5nuu60agu","rmd":null,"geo_precision":"street","open":"5/22/2003","state":"PA"},"type":"Feature","geometry":{"type":"Point","coordinates":[-75.618686,41.437637]}},{"properties":{"city":"PLAINS TOWNSHIP","districtmanager":"Shaffer,Thomas E","county":"LUZERNE","margin":29,"geo_score":0.832,"zip code":"187027006","storeno":344,"street":"1233 HIGHWAY 315 BLVD","phone":"570-829-1230","fax":"570-829-3487","regionalmanager":"Faulk,Peggy","id":"a6l5nv121d3g","rmd":null,"geo_precision":"range","open":"6/26/2003","state":"PA"},"type":"Feature","geometry":{"type":"Point","coordinates":[-75.815561,41.264631]}},{"properties":{"city":"MORGANTOWN","districtmanager":"Hoffman,Jeremiah L","county":"BERKS","margin":18,"geo_score":0.708,"zip code":"19543-8858","storeno":345,"street":"3830 MAIN ST","phone":"610-286-5440","fax":"610-286-5517","regionalmanager":"Campbell,John E","id":"a6l5nv66w421","rmd":null,"geo_precision":"street","open":"7/24/2003","state":"PA"},"type":"Feature","geometry":{"type":"Point","coordinates":[-75.899144,40.152795]}},{"properties":{"city":"FREDERICKSBURG","districtmanager":"Campbell,Robert W","county":"SPOTSYLVANIA","margin":20,"geo_score":0.806,"zip code":"22401-4967","storeno":346,"street":"2001 CARL D SILVER PKWY","phone":"540-548-3223","fax":"540-548-8228","regionalmanager":"Kociban,Deborah","id":"a6l5nuta988l","rmd":null,"geo_precision":"street","open":"8/28/2003","state":"VA"},"type":"Feature","geometry":{"type":"Point","coordinates":[-77.509306,38.305282]}},{"properties":{"city":"NORTH RIDGEVILLE","districtmanager":"Carlson,Kathryn A","county":"LORAIN","margin":26,"geo_score":1.0,"zip code":"44039-3420","storeno":347,"street":"32390 LORAIN RD","phone":"440-327-1822","fax":"440-327-0974","regionalmanager":"Kociban,Deborah","id":"a6l5nv0bvlrk","rmd":null,"geo_precision":"range","open":"8/7/2003","state":"OH"},"type":"Feature","geometry":{"type":"Point","coordinates":[-81.975769,41.386483]}},{"properties":{"city":"YORK","districtmanager":"Johnson,Stephen D","county":"YORK","margin":13,"geo_score":0.812,"zip code":"17408-5931","storeno":348,"street":"4025 W MARKET ST","phone":"717-792-5834","fax":"717-792-5920","regionalmanager":"Campbell,John E","id":"a6l5nv4okabt","rmd":null,"geo_precision":"street","open":"9/18/2003","state":"PA"},"type":"Feature","geometry":{"type":"Point","coordinates":[-76.806421,39.93341]}},{"properties":{"city":"MORGANTOWN","districtmanager":"Ward-Meyers,Lisa","county":"MONONGALIA","margin":9,"geo_score":0.878,"zip code":"26505-5895","storeno":349,"street":"1901 EARL L CORE RD","phone":"304-296-0798","fax":"304-296-5876","regionalmanager":"Kociban,Deborah","id":"a6l5nuuhiqsy","rmd":null,"geo_precision":"range","open":"9/27/2003","state":"WV"},"type":"Feature","geometry":{"type":"Point","coordinates":[-79.921741,39.610571]}},{"properties":{"city":"RICHMOND","districtmanager":"Singer,Donald K","county":"HENRICO","margin":19,"geo_score":1.0,"zip code":"23294-3717","storeno":350,"street":"7035 W BROAD ST","phone":"804-755-6042","fax":"804-755-7490","regionalmanager":"Kociban,Deborah","id":"a6l5nuyg4nhz","rmd":null,"geo_precision":"range","open":"11/13/2003","state":"VA"},"type":"Feature","geometry":{"type":"Point","coordinates":[-77.519506,37.610234]}},{"properties":{"city":"HUMMELSTOWN","districtmanager":"Hughes,Michele L","county":"DAUPHIN","margin":15,"geo_score":1.0,"zip code":"17036","storeno":351,"street":"658 EAST MAIN STREET","phone":"717-566-1540","fax":"717-566-7191","regionalmanager":"Campbell,John E","id":"a6l5nv6yf34q","rmd":null,"geo_precision":"range","open":"11/20/2003","state":"PA"},"type":"Feature","geometry":{"type":"Point","coordinates":[-76.689257,40.267479]}},{"properties":{"city":"BEDFORD","districtmanager":"Hudson,Shawna M","county":"BEDFORD","margin":1,"geo_score":0.854,"zip code":"15522-7741","storeno":352,"street":"4354 BUSINESS 220","phone":"814-623-9132","fax":"814-623-9672","regionalmanager":"Campbell,John E","id":"a6l5nutbn8ma","rmd":"9/9/2009","geo_precision":"range","open":"12/9/2003","state":"PA"},"type":"Feature","geometry":{"type":"Point","coordinates":[-78.644179,39.831978]}},{"properties":{"city":"PITTSBURGH","districtmanager":"Mendicino,Darla J","county":"ALLEGHENY","margin":21,"geo_score":1.0,"zip code":"15205-1026","storeno":353,"street":"5410 CAMPBELLS RUN RD","phone":"412-787-1190","fax":"412-787-1459","regionalmanager":"Faulk,Peggy","id":"a6l5nut12ivz","rmd":null,"geo_precision":"range","open":"12/18/2003","state":"PA"},"type":"Feature","geometry":{"type":"Point","coordinates":[-80.158264,40.447195]}},{"properties":{"city":"ALTOONA","districtmanager":"Kuntz,Pamela S","county":"BLAIR","margin":11,"geo_score":1.0,"zip code":"16602-4525","storeno":354,"street":"1915 PLEASANT VALLEY BLVD","phone":"814-944-7142","fax":"814-944-8279","regionalmanager":"Campbell,John E","id":"a6l5nv433rp6","rmd":null,"geo_precision":"range","open":"6/10/2004","state":"PA"},"type":"Feature","geometry":{"type":"Point","coordinates":[-78.392635,40.49865]}},{"properties":{"city":"WALKERTOWN","districtmanager":"Hostetler,Kelly S","county":"FORSYTH","margin":26,"geo_score":1.0,"zip code":"27051-9770","storeno":355,"street":"5198 REIDSVILLE RD","phone":"336-595-1126","fax":"336-595-1142","regionalmanager":"Kociban,Deborah","id":"a6l5nuwzo1f2","rmd":null,"geo_precision":"range","open":"4/8/2004","state":"NC"},"type":"Feature","geometry":{"type":"Point","coordinates":[-80.140475,36.161823]}},{"properties":{"city":"GREENSBORO","districtmanager":"Murphy,Patrick M","county":"GUILFORD","margin":4,"geo_score":1.0,"zip code":"27407-1910","storeno":356,"street":"4319 W WENDOVER AVE","phone":"336-855-8898","fax":"336-855-5677","regionalmanager":"Kociban,Deborah","id":"a6l5nv23oqxq","rmd":null,"geo_precision":"range","open":"9/2/2004","state":"NC"},"type":"Feature","geometry":{"type":"Point","coordinates":[-79.891154,36.056519]}},{"properties":{"city":"NEW PHILADELPHIA","districtmanager":"Redman,Amanda M","county":"TUSCARAWAS","margin":16,"geo_score":0.43,"zip code":"44663-6943","storeno":357,"street":"1281 W HIGH AVE","phone":"330-339-3740","fax":"330-339-4810","regionalmanager":"Kociban,Deborah","id":"a6l5nuv5ajia","rmd":null,"geo_precision":"street","open":"4/22/2004","state":"OH"},"type":"Feature","geometry":{"type":"Point","coordinates":[-81.733409,40.799185]}},{"properties":{"city":"FAIRLAWN","districtmanager":"Murphy,Robert L","county":"PULASKI","margin":29,"geo_score":0.878,"zip code":"24141-8501","storeno":358,"street":"7335 LEE HWY","phone":"540-731-4903","fax":"540-731-4091","regionalmanager":"Kociban,Deborah","id":"a6l5nuz6z3zu","rmd":null,"geo_precision":"range","open":"11/18/2004","state":"VA"},"type":"Feature","geometry":{"type":"Point","coordinates":[-80.583299,37.144713]}},{"properties":{"city":"SCRANTON","districtmanager":"Shaffer,Thomas E","county":"LACKAWANNA","margin":10,"geo_score":0.878,"zip code":"18508-1118","storeno":359,"street":"610 SCRANTON CARBONDALE HWY","phone":"570-343-9760","fax":"570-343-9764","regionalmanager":"Faulk,Peggy","id":"a6l5nuru8nj5","rmd":null,"geo_precision":"range","open":"5/6/2004","state":"PA"},"type":"Feature","geometry":{"type":"Point","coordinates":[-75.651083,41.464249]}},{"properties":{"city":"MONROEVILLE","districtmanager":"Pacovsky,Linda K","county":"ALLEGHENY","margin":15,"geo_score":1.0,"zip code":"15146-2407","storeno":360,"street":"3954 WILLIAM PENN HWY","phone":"412-373-1539","fax":"412-373-1908","regionalmanager":"Faulk,Peggy","id":"a6l5nuvjlgbu","rmd":null,"geo_precision":"range","open":"9/23/2004","state":"PA"},"type":"Feature","geometry":{"type":"Point","coordinates":[-79.775273,40.437882]}},{"properties":{"city":"RALEIGH","districtmanager":"Campbell,Jennifer L","county":"WAKE","margin":27,"geo_score":0.878,"zip code":"27616-3110","storeno":361,"street":"4801 THORNTON RD","phone":"919-862-0904","fax":"919-862-0913","regionalmanager":"Kociban,Deborah","id":"a6l5nv5dt3xn","rmd":null,"geo_precision":"range","open":"3/10/2005","state":"NC"},"type":"Feature","geometry":{"type":"Point","coordinates":[-78.556666,35.898295]}},{"properties":{"city":"WHEELING","districtmanager":"Sowers,Dayna M","county":"OHIO","margin":17,"geo_score":1.0,"zip code":"26003-6438","storeno":362,"street":"887 NATIONAL RD","phone":"304-232-5014","fax":"304-232-5489","regionalmanager":"Faulk,Peggy","id":"a6l5nutfx3yc","rmd":null,"geo_precision":"range","open":"12/2/2004","state":"WV"},"type":"Feature","geometry":{"type":"Point","coordinates":[-80.694046,40.077158]}},{"properties":{"city":"CLARKS SUMMIT","districtmanager":"Shaffer,Thomas E","county":"LACKAWANNA","margin":11,"geo_score":1.0,"zip code":"18411-2221","storeno":363,"street":"1109 NORTHERN BLVD","phone":"570-587-1048","fax":"570-587-0572","regionalmanager":"Faulk,Peggy","id":"a6l5nv3fogjo","rmd":null,"geo_precision":"range","open":"9/30/2004","state":"PA"},"type":"Feature","geometry":{"type":"Point","coordinates":[-75.694493,41.486235]}},{"properties":{"city":"FISHERVILLE","districtmanager":"Campbell,Robert W","county":"AUGUSTA","margin":8,"geo_score":0.797,"zip code":"22939","storeno":364,"street":"726 TINKLING SPRING ROAD","phone":"540-337-0021","fax":"540-337-3947","regionalmanager":"Kociban,Deborah","id":"a6l5nuymhoow","rmd":null,"geo_precision":"street","open":"10/14/2004","state":"VA"},"type":"Feature","geometry":{"type":"Point","coordinates":[-78.972797,38.096448]}},{"properties":{"city":"FUQUAY-VARINA","districtmanager":"Campbell,Jennifer L","county":"WAKE","margin":24,"geo_score":1.0,"zip code":"27526-9021","storeno":365,"street":"1655 N MAIN ST","phone":"919-577-2215","fax":"919-577-2296","regionalmanager":"Kociban,Deborah","id":"a6l5nuuosl7t","rmd":null,"geo_precision":"range","open":"1/27/2005","state":"NC"},"type":"Feature","geometry":{"type":"Point","coordinates":[-78.760434,35.596388]}},{"properties":{"city":"GREENSBORO","districtmanager":"Murphy,Patrick M","county":"GUILFORD","margin":7,"geo_score":1.0,"zip code":"274072747","storeno":366,"street":"5421 HORNADAY RD","phone":"336-852-1003","fax":"336-852-1014","regionalmanager":"Kociban,Deborah","id":"a6l5nv4k6ono","rmd":null,"geo_precision":"range","open":"2/17/2005","state":"NC"},"type":"Feature","geometry":{"type":"Point","coordinates":[-79.904645,36.059369]}},{"properties":{"city":"ERIE","districtmanager":"Fajohn,Robert","county":"ERIE","margin":9,"geo_score":1.0,"zip code":"16510-2302","storeno":367,"street":"4816 BUFFALO RD","phone":"814-898-2710","fax":"814-898-2756","regionalmanager":"Kociban,Deborah","id":"a6l5nuy6z0u3","rmd":null,"geo_precision":"range","open":"7/7/2005","state":"PA"},"type":"Feature","geometry":{"type":"Point","coordinates":[-79.993248,42.151135]}},{"properties":{"city":"AKRON","districtmanager":"Redman,Amanda M","county":"SUMMIT","margin":16,"geo_score":1.0,"zip code":"44312-5368","storeno":368,"street":"1651 E TURKEYFOOT LAKE RD","phone":"330-899-1100","fax":"330-899-1107","regionalmanager":"Kociban,Deborah","id":"a6l5nus62ng2","rmd":null,"geo_precision":"range","open":"6/16/2005","state":"OH"},"type":"Feature","geometry":{"type":"Point","coordinates":[-81.461313,40.973743]}},{"properties":{"city":"HOMER CITY","districtmanager":"Hazelet,Virginia","county":"INDIANA","margin":28,"geo_score":0.782,"zip code":"15748-7317","storeno":369,"street":"2260 ROUTE 119 HWY S","phone":"724-479-3790","fax":"724-479-3803","regionalmanager":"Faulk,Peggy","id":"a6l5nuzf1guu","rmd":null,"geo_precision":"street","open":"6/9/2005","state":"PA"},"type":"Feature","geometry":{"type":"Point","coordinates":[-79.160856,40.534154]}},{"properties":{"city":"LEBANON","districtmanager":"Hughes,Michele L","county":"LEBANON","margin":19,"geo_score":1.0,"zip code":"17042-8827","storeno":370,"street":"195 ROCHERTY RD","phone":"717-272-8419","fax":"717-272-8434","regionalmanager":"Campbell,John E","id":"a6l5nuvk5idw","rmd":null,"geo_precision":"range","open":"6/23/2005","state":"PA"},"type":"Feature","geometry":{"type":"Point","coordinates":[-76.423502,40.304721]}},{"properties":{"city":"RALEIGH","districtmanager":"Campbell,Jennifer L","county":"WAKE","margin":20,"geo_score":0.902,"zip code":"27610-1428","storeno":371,"street":"5200 NEW BERN AVE","phone":"919-212-2506","fax":"919-231-8834","regionalmanager":"Kociban,Deborah","id":"a6l5nux3fmrr","rmd":null,"geo_precision":"street","open":"7/28/2005","state":"NC"},"type":"Feature","geometry":{"type":"Point","coordinates":[-78.55066,35.794837]}},{"properties":{"city":"DANVILLE","districtmanager":"Shaffer,Thomas E","county":"MONTOUR","margin":13,"geo_score":1.0,"zip code":"17821-9118","storeno":372,"street":"116 WOODBINE LN","phone":"570-271-1282","fax":"570-271-1852","regionalmanager":"Faulk,Peggy","id":"a6l5nuqxvucf","rmd":null,"geo_precision":"range","open":"8/31/2005","state":"PA"},"type":"Feature","geometry":{"type":"Point","coordinates":[-76.578899,40.965991]}},{"properties":{"city":"YORK","districtmanager":"Johnson,Stephen D","county":"YORK","margin":3,"geo_score":1.0,"zip code":"17403-4829","storeno":373,"street":"2068 S QUEEN ST","phone":"717-848-9129","fax":"717-741-6812","regionalmanager":"Campbell,John E","id":"a6l5nv51b6uq","rmd":null,"geo_precision":"range","open":"10/20/2005","state":"PA"},"type":"Feature","geometry":{"type":"Point","coordinates":[-76.692272,39.936097]}},{"properties":{"city":"HARRISBURG","districtmanager":"Hughes,Michele L","county":"DAUPHIN","margin":15,"geo_score":0.45,"zip code":"17113-1425","storeno":374,"street":"3695 PAXTON ST","phone":"717-561-0951","fax":"717-561-1493","regionalmanager":"Campbell,John E","id":"a6l5nuxjnrer","rmd":null,"geo_precision":"street","open":"9/15/2005","state":"PA"},"type":"Feature","geometry":{"type":"Point","coordinates":[-76.751561,40.389407]}},{"properties":{"city":"ALLIANCE","districtmanager":"Fajohn,Robert","county":"STARK","margin":24,"geo_score":1.0,"zip code":"44601-4717","storeno":375,"street":"236 W STATE ST","phone":"330-829-9970","fax":"330-829-9983","regionalmanager":"Kociban,Deborah","id":"a6l5nuxfzbmh","rmd":null,"geo_precision":"range","open":"9/29/2005","state":"OH"},"type":"Feature","geometry":{"type":"Point","coordinates":[-81.108998,40.901647]}},{"properties":{"city":"PITTSBURGH","districtmanager":"Mendicino,Darla J","county":"ALLEGHENY","margin":25,"geo_score":0.805,"zip code":"15236-4648","storeno":376,"street":"1000 CLAIRTON BLVD.","phone":"412-460-0152","fax":"412-460-1049","regionalmanager":"Faulk,Peggy","id":"a6l5nv4ysa9h","rmd":null,"geo_precision":"street","open":"6/22/2006","state":"PA"},"type":"Feature","geometry":{"type":"Point","coordinates":[-79.984661,40.364902]}},{"properties":{"city":"BELLE VERNON","districtmanager":"Sowers,Dayna M","county":"WESTMORELAND","margin":3,"geo_score":0.659,"zip code":"15012","storeno":377,"street":"4692 SR 51 S","phone":"724-379-4094","fax":"724-379-5067","regionalmanager":"Faulk,Peggy","id":"a6l5nv26245f","rmd":null,"geo_precision":"street","open":"3/9/2006","state":"PA"},"type":"Feature","geometry":{"type":"Point","coordinates":[-79.775399,40.134029]}},{"properties":{"city":"LEWISBURG","districtmanager":"Williams,Thomas L","county":"UNION","margin":21,"geo_score":0.585,"zip code":"17837-7487","storeno":378,"street":"260 INTERNATIONAL DR","phone":"570-522-7438","fax":"570-522-7442","regionalmanager":"Faulk,Peggy","id":"a6l5nv04rydy","rmd":null,"geo_precision":"zip","open":"10/13/2005","state":"PA"},"type":"Feature","geometry":{"type":"Point","coordinates":[-76.988301,40.983695]}},{"properties":{"city":"MOON TOWNSHIP","districtmanager":"Mendicino,Darla J","county":"ALLEGHENY","margin":7,"geo_score":0.532,"zip code":"15108-4215","storeno":379,"street":"9002 UNIVERSITY BLVD","phone":"412-264-4280","fax":"412-264-4547","regionalmanager":"Faulk,Peggy","id":"a6l5nv156gqo","rmd":null,"geo_precision":"street","open":"12/8/2005","state":"PA"},"type":"Feature","geometry":{"type":"Point","coordinates":[-79.826461,40.344055]}},{"properties":{"city":"MEBANE","districtmanager":"Campbell,Jennifer L","county":"ALAMANCE","margin":21,"geo_score":1.0,"zip code":"27302-9680","storeno":380,"street":"1237 MEBANE OAKS RD","phone":"919-304-9536","fax":"919-304-9539","regionalmanager":"Kociban,Deborah","id":"a6l5nut3f361","rmd":null,"geo_precision":"range","open":"11/23/2005","state":"NC"},"type":"Feature","geometry":{"type":"Point","coordinates":[-79.270702,36.069556]}},{"properties":{"city":"NEW CASTLE","districtmanager":"Chamberlin,Judy E","county":"LAWRENCE","margin":23,"geo_score":1.0,"zip code":"16105-3212","storeno":381,"street":"3450 WILMINGTON RD","phone":"724-658-4857","fax":"724-658-4963","regionalmanager":"Faulk,Peggy","id":"a6l5nv216e2n","rmd":null,"geo_precision":"range","open":"12/15/2005","state":"PA"},"type":"Feature","geometry":{"type":"Point","coordinates":[-80.356923,41.046365]}},{"properties":{"city":"HERMITAGE","districtmanager":"Chamberlin,Judy E","county":"MERCER","margin":2,"geo_score":1.0,"zip code":"16148-3156","storeno":382,"street":"1650 N HERMITAGE RD","phone":"724-962-2562","fax":"724-962-3513","regionalmanager":"Faulk,Peggy","id":"a6l5nv6734cn","rmd":null,"geo_precision":"range","open":"5/4/2006","state":"PA"},"type":"Feature","geometry":{"type":"Point","coordinates":[-80.451917,41.256451]}},{"properties":{"city":"YOUNGSVILLE","districtmanager":"Hengst,Rainey E","county":"FRANKLIN","margin":9,"geo_score":0.854,"zip code":"27596-9184","storeno":383,"street":"564 US 1 HWY","phone":"919-554-0838","fax":"919-554-8532","regionalmanager":"Kociban,Deborah","id":"a6l5nutttf3t","rmd":null,"geo_precision":"range","open":"3/18/2006","state":"NC"},"type":"Feature","geometry":{"type":"Point","coordinates":[-78.507219,36.027846]}},{"properties":{"city":"BETHLEHEM","districtmanager":"Hoffman,Jeremiah L","county":"LEHIGH","margin":26,"geo_score":0.585,"zip code":"18017-2103","storeno":384,"street":"3201 SCHOENERSVILLE RD","phone":"610-264-0947","fax":"610-264-2804","regionalmanager":"Campbell,John E","id":"a6l5nuujbtuj","rmd":null,"geo_precision":"zip","open":"5/4/2006","state":"PA"},"type":"Feature","geometry":{"type":"Point","coordinates":[-75.341013,40.680653]}},{"properties":{"city":"WINSTON-SALEM","districtmanager":"Hostetler,Kelly S","county":"FORSYTH","margin":30,"geo_score":0.691,"zip code":"27103-6767","storeno":385,"street":"2505 SOMERSET CENTER DR","phone":"336-760-5081","fax":"336-760-5084","regionalmanager":"Kociban,Deborah","id":"a6l5nv47jkxu","rmd":null,"geo_precision":"street","open":"6/29/2006","state":"NC"},"type":"Feature","geometry":{"type":"Point","coordinates":[-80.342838,36.053199]}},{"properties":{"city":"CHESTER","districtmanager":"Singer,Donald K","county":"CHESTERFIELD","margin":6,"geo_score":1.0,"zip code":"23836-2613","storeno":386,"street":"231 E HUNDRED RD","phone":"804-530-1759","fax":"804-530-0816","regionalmanager":"Kociban,Deborah","id":"a6l5nuslno0d","rmd":null,"geo_precision":"range","open":"7/27/2006","state":"VA"},"type":"Feature","geometry":{"type":"Point","coordinates":[-77.358274,37.348769]}},{"properties":{"city":"CAMBRIDGE","districtmanager":"Redman,Amanda M","county":"GUERNSEY","margin":15,"geo_score":0.902,"zip code":"43725-3080","storeno":387,"street":"2101 SOUTHGATE PKWY","phone":"740-432-8410","fax":"740-432-8472","regionalmanager":"Kociban,Deborah","id":"a6l5nv13eja2","rmd":null,"geo_precision":"street","open":"7/20/2006","state":"OH"},"type":"Feature","geometry":{"type":"Point","coordinates":[-81.576799,40.006959]}},{"properties":{"city":"LANCASTER","districtmanager":"Johnson,Stephen D","county":"LANCASTER","margin":12,"geo_score":1.0,"zip code":"17603-4012","storeno":388,"street":"3101 COLUMBIA AVE","phone":"717-391-9580","fax":"717-391-3072","regionalmanager":"Campbell,John E","id":"a6l5nuwowieo","rmd":null,"geo_precision":"range","open":"8/17/2006","state":"PA"},"type":"Feature","geometry":{"type":"Point","coordinates":[-76.393356,40.040614]}},{"properties":{"city":"CANTON","districtmanager":"Redman,Amanda M","county":"STARK","margin":29,"geo_score":1.0,"zip code":"44708-1533","storeno":389,"street":"2939 WHIPPLE AVE NW","phone":"330-478-3002","fax":"330-478-3009","regionalmanager":"Kociban,Deborah","id":"a6l5nusnk0uj","rmd":null,"geo_precision":"range","open":"8/17/2006","state":"OH"},"type":"Feature","geometry":{"type":"Point","coordinates":[-81.424557,40.828986]}},{"properties":{"city":"KENT","districtmanager":"Carlson,Kathryn A","county":"PORTAGE","margin":13,"geo_score":1.0,"zip code":"44240-2850","storeno":390,"street":"1762 E MAIN ST","phone":"330-673-3060","fax":"330-673-3085","regionalmanager":"Kociban,Deborah","id":"a6l5nur93v9a","rmd":null,"geo_precision":"range","open":"9/21/2006","state":"OH"},"type":"Feature","geometry":{"type":"Point","coordinates":[-81.329624,41.15465]}},{"properties":{"city":"GREENVILLE","districtmanager":"Hengst,Rainey E","county":"PITT","margin":1,"geo_score":0.807,"zip code":"27858-9567","storeno":391,"street":"2100 COUNTY HOME RD","phone":"252-353-9021","fax":"252-353-2194","regionalmanager":"Kociban,Deborah","id":"a6l5nv3xgvo4","rmd":null,"geo_precision":"street","open":"9/20/2006","state":"NC"},"type":"Feature","geometry":{"type":"Point","coordinates":[-77.355051,35.560918]}},{"properties":{"city":"CHAMBERSBURG","districtmanager":"Myers,Elizabeth A","county":"FRANKLIN","margin":5,"geo_score":0.807,"zip code":"17201-4212","storeno":392,"street":"875 NORLAND AVE","phone":"717-261-0226","fax":"717-261-0778","regionalmanager":"Campbell,John E","id":"a6l5nv3leisc","rmd":null,"geo_precision":"street","open":"9/28/2006","state":"PA"},"type":"Feature","geometry":{"type":"Point","coordinates":[-77.640087,39.944621]}},{"properties":{"city":"TWINSBURG","districtmanager":"Carlson,Kathryn A","county":"SUMMIT","margin":20,"geo_score":0.807,"zip code":"44087-2145","storeno":393,"street":"2495 E AURORA RD","phone":"330-405-3001","fax":"330-405-3016","regionalmanager":"Kociban,Deborah","id":"a6l5nuybcqu0","rmd":null,"geo_precision":"street","open":"1/4/2007","state":"OH"},"type":"Feature","geometry":{"type":"Point","coordinates":[-81.452322,41.311332]}},{"properties":{"city":"MENTOR","districtmanager":"Carlson,Kathryn A","county":"LAKE","margin":1,"geo_score":1.0,"zip code":"44060-5320","storeno":394,"street":"7777 REYNOLDS RD","phone":"440-946-7650","fax":"440-946-7654","regionalmanager":"Kociban,Deborah","id":"a6l5nv50l3h0","rmd":null,"geo_precision":"range","open":"1/29/2007","state":"OH"},"type":"Feature","geometry":{"type":"Point","coordinates":[-81.377536,41.658522]}},{"properties":{"city":"FARMVILLE","districtmanager":"Singer,Donald K","county":"PRINCE EDWARD","margin":16,"geo_score":1.0,"zip code":"23901-7500","storeno":395,"street":"2016 S MAIN ST","phone":"434-315-8733","fax":"434-391-3788","regionalmanager":"Kociban,Deborah","id":"a6l5nv5314o7","rmd":null,"geo_precision":"range","open":"12/14/2006","state":"VA"},"type":"Feature","geometry":{"type":"Point","coordinates":[-78.401256,37.273998]}},{"properties":{"city":"WILSON","districtmanager":"Hengst,Rainey E","county":"WILSON","margin":16,"geo_score":0.878,"zip code":"27893-9296","storeno":396,"street":"2835 FOREST HILLS RD SW","phone":"252-291-1389","fax":"252-291-8276","regionalmanager":"Kociban,Deborah","id":"a6l5nursk58j","rmd":null,"geo_precision":"range","open":"1/26/2012","state":"NC"},"type":"Feature","geometry":{"type":"Point","coordinates":[-77.952239,35.709184]}},{"properties":{"city":"GREENVILLE","districtmanager":"Hengst,Rainey E","county":"PITT","margin":6,"geo_score":1.0,"zip code":"27858-3313","storeno":397,"street":"1000 CHARLES BLVD","phone":"252-758-2174","fax":"252-758-2873","regionalmanager":"Kociban,Deborah","id":"a6l5nv2sfzky","rmd":null,"geo_precision":"range","open":"3/1/2007","state":"NC"},"type":"Feature","geometry":{"type":"Point","coordinates":[-77.372239,35.605655]}},{"properties":{"city":"DURHAM","districtmanager":"Campbell,Jennifer L","county":"DURHAM","margin":3,"geo_score":0.878,"zip code":"27703-9045","storeno":398,"street":"3021 S MIAMI BLVD","phone":"919-485-8000","fax":"919-485-8007","regionalmanager":"Kociban,Deborah","id":"a6l5nv6fflbo","rmd":null,"geo_precision":"range","open":"4/4/2007","state":"NC"},"type":"Feature","geometry":{"type":"Point","coordinates":[-78.846577,35.924512]}},{"properties":{"city":"MORRISVILLE","districtmanager":"Campbell,Jennifer L","county":"WAKE","margin":25,"geo_score":0.805,"zip code":"27560","storeno":399,"street":"1600 AVIATION PARKWAY","phone":"919-840-0466","fax":"919-840-0469","regionalmanager":"Kociban,Deborah","id":"a6l5nuyiw9o4","rmd":null,"geo_precision":"street","open":"6/20/2007","state":"NC"},"type":"Feature","geometry":{"type":"Point","coordinates":[-78.812638,35.836065]}},{"properties":{"city":"ST. MARY'S","districtmanager":"Bennett,Joann L","county":"ELK","margin":6,"geo_score":0.956,"zip code":"15857","storeno":400,"street":"117 S MICHAEL ST","phone":"814-781-6310","fax":"814-781-7958","regionalmanager":"Faulk,Peggy","id":"a6l5nv5cenzq","rmd":null,"geo_precision":"range","open":"6/28/2007","state":"PA"},"type":"Feature","geometry":{"type":"Point","coordinates":[-78.560261,41.427979]}},{"properties":{"city":"WAYNESBORO","districtmanager":"Towns,Elisabeth A","county":"FRANKLIN","margin":19,"geo_score":0.671,"zip code":"17268-8513","storeno":401,"street":"13030 WASHINGTON TOWNSHIP BLVD","phone":"717-749-3254","fax":"717-749-3577","regionalmanager":"Campbell,John E","id":"a6l5nv4c4idb","rmd":null,"geo_precision":"street","open":"8/23/2007","state":"PA"},"type":"Feature","geometry":{"type":"Point","coordinates":[-77.626431,39.769871]}},{"properties":{"city":"SARVER","districtmanager":"Chamberlin,Judy E","county":"BUTLER","margin":30,"geo_score":1.0,"zip code":"16055-9301","storeno":402,"street":"717 S PIKE RD","phone":"724-295-3190","fax":"724-295-3194","regionalmanager":"Faulk,Peggy","id":"a6l5nuy9jza2","rmd":null,"geo_precision":"range","open":"10/4/2007","state":"PA"},"type":"Feature","geometry":{"type":"Point","coordinates":[-79.720007,40.699378]}},{"properties":{"city":"LYNCHBURG","districtmanager":"Singer,Donald K","county":"CAMPBELL","margin":9,"geo_score":1.0,"zip code":"24502-2941","storeno":403,"street":"3927 WARDS RD","phone":"434-239-5551","fax":"434-239-5594","regionalmanager":"Kociban,Deborah","id":"a6l5nuulnh6s","rmd":null,"geo_precision":"range","open":"10/18/2007","state":"VA"},"type":"Feature","geometry":{"type":"Point","coordinates":[-79.185114,37.350116]}},{"properties":{"city":"PERRY","districtmanager":"Carlson,Kathryn A","county":"LAKE","margin":19,"geo_score":1.0,"zip code":"44081-9557","storeno":404,"street":"2800 N RIDGE RD","phone":"440-358-1734","fax":"440-358-1864","regionalmanager":"Kociban,Deborah","id":"a6l5nuxdajur","rmd":null,"geo_precision":"range","open":"11/29/2007","state":"OH"},"type":"Feature","geometry":{"type":"Point","coordinates":[-81.167015,41.773257]}},{"properties":{"city":"STATESVILLE","districtmanager":"Hostetler,Kelly S","county":"IREDELL","margin":2,"geo_score":0.806,"zip code":"28625-3214","storeno":405,"street":"1244 WILKESBORO HWY","phone":"704-873-1193","fax":"704-873-4317","regionalmanager":"Kociban,Deborah","id":"a6l5nuygu8pg","rmd":null,"geo_precision":"street","open":"12/12/2007","state":"NC"},"type":"Feature","geometry":{"type":"Point","coordinates":[-80.907623,35.803709]}},{"properties":{"city":"ZANESVILLE","districtmanager":"Redman,Amanda M","county":"MUSKINGUM","margin":17,"geo_score":1.0,"zip code":"43701-6171","storeno":406,"street":"225 N MAYSVILLE AVE","phone":"740-452-7701","fax":"740-452-7734","regionalmanager":"Kociban,Deborah","id":"a6l5nuygkt7w","rmd":null,"geo_precision":"range","open":"12/6/2007","state":"OH"},"type":"Feature","geometry":{"type":"Point","coordinates":[-82.017375,39.908536]}},{"properties":{"city":"WYTHEVILLE","districtmanager":"Murphy,Robert L","county":"WYTHE","margin":10,"geo_score":0.927,"zip code":"24382-1000","storeno":407,"street":"1340 N 4TH ST","phone":"276-228-8100","fax":"276-228-9955","regionalmanager":"Kociban,Deborah","id":"a6l5nv4edw9a","rmd":null,"geo_precision":"range","open":"1/10/2008","state":"VA"},"type":"Feature","geometry":{"type":"Point","coordinates":[-81.096518,36.959269]}},{"properties":{"city":"WAYNESBORO","districtmanager":"Campbell,Robert W","county":"AUGUSTA","margin":25,"geo_score":1.0,"zip code":"22980-1754","storeno":408,"street":"2156 W MAIN ST","phone":"540-941-3500","fax":"540-941-8725","regionalmanager":"Kociban,Deborah","id":"a6l5nutsfhis","rmd":null,"geo_precision":"range","open":"2/7/2008","state":"VA"},"type":"Feature","geometry":{"type":"Point","coordinates":[-78.914163,38.076614]}},{"properties":{"city":"WINTERVILLE","districtmanager":"Hengst,Rainey E","county":"PITT","margin":5,"geo_score":0.61,"zip code":"28590-7931","storeno":409,"street":"650 WHITLEY DR","phone":"252-355-3717","fax":"252-355-2721","regionalmanager":"Kociban,Deborah","id":"a6l5nutz5mcg","rmd":null,"geo_precision":"street","open":"2/21/2008","state":"NC"},"type":"Feature","geometry":{"type":"Point","coordinates":[-77.557268,35.330183]}},{"properties":{"city":"SCHUYLKILL HAVEN","districtmanager":"Shaffer,Thomas E","county":"SCHUYLKILL","margin":22,"geo_score":1.0,"zip code":"17972-9708","storeno":410,"street":"270 ROUTE 61 S","phone":"570-385-2548","fax":"570-385-3098","regionalmanager":"Faulk,Peggy","id":"a6l5nuy3pgbo","rmd":null,"geo_precision":"range","open":"4/10/2008","state":"PA"},"type":"Feature","geometry":{"type":"Point","coordinates":[-76.174339,40.637527]}},{"properties":{"city":"WINSTON-SALEM","districtmanager":"Hostetler,Kelly S","county":"DAVIDSON","margin":16,"geo_score":0.887,"zip code":"27127-9730","storeno":411,"street":"12290 N NC HIGHWAY 150","phone":"336-775-2126","fax":"336-775-2129","regionalmanager":"Kociban,Deborah","id":"a6l5nux8q9qe","rmd":null,"geo_precision":"range","open":"4/24/2008","state":"NC"},"type":"Feature","geometry":{"type":"Point","coordinates":[-80.268066,35.994723]}},{"properties":{"city":"HARRISBURG","districtmanager":"Hughes,Michele L","county":"DAUPHIN","margin":5,"geo_score":1.0,"zip code":"17112-2605","storeno":412,"street":"6290 ALLENTOWN BLVD","phone":"717-671-6710","fax":"717-671-6713","regionalmanager":"Campbell,John E","id":"a6l5nuxfgb9k","rmd":null,"geo_precision":"range","open":"5/22/2008","state":"PA"},"type":"Feature","geometry":{"type":"Point","coordinates":[-76.785336,40.323766]}},{"properties":{"city":"DILLSBURG","districtmanager":"Myers,Elizabeth A","county":"YORK","margin":5,"geo_score":0.92,"zip code":"17019-1610","storeno":413,"street":"493 N US Route 15","phone":"717-432-7858","fax":"717-432-7982","regionalmanager":"Campbell,John E","id":"a6l5nv1jv3z2","rmd":null,"geo_precision":"range","open":"7/1/2008","state":"PA"},"type":"Feature","geometry":{"type":"Point","coordinates":[-77.036634,40.118277]}},{"properties":{"city":"HIGH POINT","districtmanager":"Murphy,Patrick M","county":"GUILFORD","margin":11,"geo_score":0.756,"zip code":"27265","storeno":414,"street":"2980 NC 68 SOUTH","phone":"336-841-8900","fax":"336-841-8970","regionalmanager":"Kociban,Deborah","id":"a6l5nv4rtnkk","rmd":null,"geo_precision":"range","open":"9/17/2008","state":"NC"},"type":"Feature","geometry":{"type":"Point","coordinates":[-79.961592,36.059363]}},{"properties":{"city":"GREENVILLE","districtmanager":"Hengst,Rainey E","county":"PITT","margin":13,"geo_score":0.807,"zip code":"27858","storeno":415,"street":"1201 PORTERTOWN RD","phone":"252-758-4583","fax":"252-758-5136","regionalmanager":"Kociban,Deborah","id":"a6l5nv5efu4d","rmd":null,"geo_precision":"street","open":"10/29/2008","state":"NC"},"type":"Feature","geometry":{"type":"Point","coordinates":[-77.313763,35.58066]}},{"properties":{"city":"ZEBULON","districtmanager":"Campbell,Jennifer L","county":"WAKE","margin":4,"geo_score":1.0,"zip code":"27597-8734","storeno":416,"street":"1406 N ARENDELL AVE","phone":"919-404-2347","fax":"919-404-2350","regionalmanager":"Kociban,Deborah","id":"a6l5nuzlc9q1","rmd":null,"geo_precision":"range","open":"11/26/2008","state":"NC"},"type":"Feature","geometry":{"type":"Point","coordinates":[-78.325718,35.839786]}},{"properties":{"city":"BURLINGTON","districtmanager":"Campbell,Jennifer L","county":"ALAMANCE","margin":12,"geo_score":1.0,"zip code":"27215-6256","storeno":417,"street":"2628 ALAMANCE RD","phone":"336-227-3730","fax":"336-227-0792","regionalmanager":"Kociban,Deborah","id":"a6l5nuyhv0oy","rmd":null,"geo_precision":"range","open":"4/9/2009","state":"NC"},"type":"Feature","geometry":{"type":"Point","coordinates":[-79.468008,36.067132]}},{"properties":{"city":"TRINITY","districtmanager":"Murphy,Patrick M","county":"RANDOLPH","margin":17,"geo_score":1.0,"zip code":"27370-8847","storeno":418,"street":"5905 FINCH FARM RD","phone":"336-476-0128","fax":"336-476-0143","regionalmanager":"Kociban,Deborah","id":"a6l5nuwb2iob","rmd":null,"geo_precision":"range","open":"5/13/2009","state":"NC"},"type":"Feature","geometry":{"type":"Point","coordinates":[-80.036626,35.868551]}},{"properties":{"city":"BARBOURSVILLE","districtmanager":"Williams,Jim","county":"CABELL","margin":17,"geo_score":1.0,"zip code":"25504-1821","storeno":419,"street":"4 MALL RD","phone":"304-733-0119","fax":"304-733-1185","regionalmanager":"Kociban,Deborah","id":"a6l5nuywts51","rmd":null,"geo_precision":"range","open":"6/4/2009","state":"WV"},"type":"Feature","geometry":{"type":"Point","coordinates":[-82.262254,38.422686]}},{"properties":{"city":"ALTOONA","districtmanager":"Kuntz,Pamela S","county":"BLAIR","margin":23,"geo_score":0.805,"zip code":"16602","storeno":420,"street":"1015 OLD 6TH AVE RD","phone":"814-942-2045","fax":"814-942-2251","regionalmanager":"Campbell,John E","id":"a6l5nv1n4swu","rmd":null,"geo_precision":"range","open":"6/2/2009","state":"PA"},"type":"Feature","geometry":{"type":"Point","coordinates":[-78.395151,40.513495]}},{"properties":{"city":"LANCASTER","districtmanager":"Johnson,Stephen D","county":"LANCASTER","margin":21,"geo_score":0.734,"zip code":"17603","storeno":421,"street":"1180 MANHEIM PIKE","phone":"717-299-6437","fax":"717-299-5947","regionalmanager":"Campbell,John E","id":"a6l5nutk3ynk","rmd":null,"geo_precision":"street","open":"6/11/2009","state":"PA"},"type":"Feature","geometry":{"type":"Point","coordinates":[-76.314202,40.055901]}},{"properties":{"city":"STRONGSVILLE","districtmanager":"Carlson,Kathryn A","county":"CUYAHOGA","margin":11,"geo_score":0.911,"zip code":"44149-3802","storeno":422,"street":"21034 ROYALTON RD","phone":"440-572-1805","fax":"440-572-1815","regionalmanager":"Kociban,Deborah","id":"a6l5nut581dv","rmd":null,"geo_precision":"range","open":"6/29/2009","state":"OH"},"type":"Feature","geometry":{"type":"Point","coordinates":[-81.859637,41.31249]}},{"properties":{"city":"YORK","districtmanager":"Johnson,Stephen D","county":"YORK","margin":24,"geo_score":1.0,"zip code":"17402-2769","storeno":423,"street":"3998 E MARKET ST","phone":"717-840-3838","fax":"717-840-7776","regionalmanager":"Campbell,John E","id":"a6l5nv3gn86s","rmd":null,"geo_precision":"range","open":"7/1/2009","state":"PA"},"type":"Feature","geometry":{"type":"Point","coordinates":[-76.640875,39.989321]}},{"properties":{"city":"MILTON","districtmanager":"Williams,Jim","county":"CABELL","margin":17,"geo_score":0.806,"zip code":"25541","storeno":424,"street":"1304 JOHNS CREEK RD","phone":"304-743-4724","fax":"304-743-5693","regionalmanager":"Kociban,Deborah","id":"a6l5nut4eumk","rmd":null,"geo_precision":"street","open":"7/1/2009","state":"WV"},"type":"Feature","geometry":{"type":"Point","coordinates":[-82.122525,38.441486]}},{"properties":{"city":"MARTINSBURG","districtmanager":"Kitt,Ramona P","county":"BERKELEY","margin":26,"geo_score":0.598,"zip code":"25404","storeno":425,"street":"5715 HAMMONDS MILL RD","phone":"304-271-8712","fax":"304-271-8759","regionalmanager":"Campbell,John E","id":"a6l5nuwr92mh","rmd":null,"geo_precision":"street","open":"8/13/2009","state":"WV"},"type":"Feature","geometry":{"type":"Point","coordinates":[-77.98553,39.469854]}},{"properties":{"city":"CARLISLE","districtmanager":"Myers,Elizabeth A","county":"CUMBERLAND","margin":14,"geo_score":0.806,"zip code":"17013","storeno":426,"street":"1796 WEST TRINDLE ROAD","phone":"717-218-5213","fax":"717-218-5216","regionalmanager":"Campbell,John E","id":"a6l5nutzv3hi","rmd":null,"geo_precision":"street","open":"11/19/2009","state":"PA"},"type":"Feature","geometry":{"type":"Point","coordinates":[-77.104492,40.194866]}},{"properties":{"city":"HUNTINGTON","districtmanager":"Williams,Jim","county":"CABELL","margin":12,"geo_score":0.935,"zip code":"25704","storeno":427,"street":"432 18TH ST W","phone":"304-429-1037","fax":"304-429-1540","regionalmanager":"Kociban,Deborah","id":"a6l5nv3a8o9d","rmd":null,"geo_precision":"range","open":"8/20/2009","state":"WV"},"type":"Feature","geometry":{"type":"Point","coordinates":[-82.486352,38.411074]}},{"properties":{"city":"EDEN","districtmanager":"Murphy,Patrick M","county":"ROCKINGHAM","margin":20,"geo_score":1.0,"zip code":"27288","storeno":428,"street":"102 N VAN BUREN RD","phone":"336-627-0740","fax":"336-627-0794","regionalmanager":"Kociban,Deborah","id":"a6l5nus5d34n","rmd":null,"geo_precision":"range","open":"9/3/2009","state":"NC"},"type":"Feature","geometry":{"type":"Point","coordinates":[-79.743692,36.503547]}},{"properties":{"city":"TRIADELPHIA","districtmanager":"Sowers,Dayna M","county":"OHIO","margin":24,"geo_score":0.642,"zip code":"26059","storeno":429,"street":"6 CABELA DR","phone":"304-547-0463","fax":"304-547-1862","regionalmanager":"Faulk,Peggy","id":"a6l5nv6nx8mx","rmd":null,"geo_precision":"range","open":"8/25/2009","state":"WV"},"type":"Feature","geometry":{"type":"Point","coordinates":[-80.556188,39.826813]}},{"properties":{"city":"EBENSBURG","districtmanager":"Hazelet,Virginia","county":"CAMBRIA","margin":18,"geo_score":1.0,"zip code":"15931","storeno":430,"street":"4375 ADMIRAL PEARY HIGHWAY","phone":"814-472-0866","fax":"814-472-2238","regionalmanager":"Faulk,Peggy","id":"a6l5nutvnccv","rmd":null,"geo_precision":"range","open":"10/29/2009","state":"PA"},"type":"Feature","geometry":{"type":"Point","coordinates":[-78.753648,40.469908]}},{"properties":{"city":"NORTH CANTON","districtmanager":"Redman,Amanda M","county":"STARK","margin":19,"geo_score":0.625,"zip code":"44720","storeno":431,"street":"1415 PITTSBURG AVENUE, NW","phone":"330-498-8440","fax":"330-498-8446","regionalmanager":"Kociban,Deborah","id":"a6l5nv0gbchi","rmd":null,"geo_precision":"street","open":"9/30/2009","state":"OH"},"type":"Feature","geometry":{"type":"Point","coordinates":[-81.416891,40.881996]}},{"properties":{"city":"JAMESTOWN","districtmanager":"Murphy,Patrick M","county":"GUILFORD","margin":19,"geo_score":0.688,"zip code":"27282-8901","storeno":432,"street":"1001 GARDNER HILL DR","phone":"336-454-3200","fax":"336-454-3216","regionalmanager":"Kociban,Deborah","id":"a6l5nv6r6cyx","rmd":null,"geo_precision":"street","open":"11/11/2009","state":"NC"},"type":"Feature","geometry":{"type":"Point","coordinates":[-79.928834,36.028819]}},{"properties":{"city":"HURRICANE","districtmanager":"Williams,Jim","county":"PUTNAM","margin":6,"geo_score":0.515,"zip code":"25526","storeno":433,"street":"104 St. Rt. 19","phone":"304-562-2731","fax":"304-562-2734","regionalmanager":"Kociban,Deborah","id":"a6l5nuue1s21","rmd":null,"geo_precision":"street","open":"9/28/2009","state":"WV"},"type":"Feature","geometry":{"type":"Point","coordinates":[-81.988273,38.44716]}},{"properties":{"city":"BERWICK","districtmanager":"Shaffer,Thomas E","county":"COLUMBIA","margin":5,"geo_score":1.0,"zip code":"18603","storeno":434,"street":"2100 WEST FRONT STREET","phone":"570-752-8235","fax":"570-752-8238","regionalmanager":"Faulk,Peggy","id":"a6l5nuu7x372","rmd":null,"geo_precision":"range","open":"11/11/2009","state":"PA"},"type":"Feature","geometry":{"type":"Point","coordinates":[-76.270709,41.04736]}},{"properties":{"city":"CHARDON","districtmanager":"Carlson,Kathryn A","county":"GEAUGA","margin":21,"geo_score":1.0,"zip code":"44024","storeno":435,"street":"435 WATER STREET","phone":"440-279-0683","fax":"440-279-0687","regionalmanager":"Kociban,Deborah","id":"a6l5nv4iv2v9","rmd":null,"geo_precision":"range","open":"11/25/2009","state":"OH"},"type":"Feature","geometry":{"type":"Point","coordinates":[-81.210429,41.580825]}},{"properties":{"city":"KERNERSVILLE","districtmanager":"Hostetler,Kelly S","county":"FORSYTH","margin":14,"geo_score":1.0,"zip code":"27284","storeno":436,"street":"790 NORTH MAIN STREET","phone":"336-992-2313","fax":"336-992-2149","regionalmanager":"Kociban,Deborah","id":"a6l5nuv3xcst","rmd":null,"geo_precision":"range","open":"4/15/2010","state":"NC"},"type":"Feature","geometry":{"type":"Point","coordinates":[-80.060876,36.128725]}},{"properties":{"city":"ROCKY MOUNT","districtmanager":"Hengst,Rainey E","county":"NASH","margin":2,"geo_score":1.0,"zip code":"27804","storeno":437,"street":"1690 BENVENUE ROAD","phone":"252-212-1580","fax":"252-212-1563","regionalmanager":"Kociban,Deborah","id":"a6l5nuw4hcg0","rmd":null,"geo_precision":"range","open":"6/17/2010","state":"NC"},"type":"Feature","geometry":{"type":"Point","coordinates":[-77.808894,35.98081]}},{"properties":{"city":"CHARLES TOWN","districtmanager":"Kitt,Ramona P","county":"JEFFERSON","margin":26,"geo_score":0.512,"zip code":"25414","storeno":438,"street":"1130 MARLOW ROAD","phone":"304-724-8710","fax":"304-724-6035","regionalmanager":"Campbell,John E","id":"a6l5nv63qh8d","rmd":null,"geo_precision":"street","open":"6/2/2010","state":"WV"},"type":"Feature","geometry":{"type":"Point","coordinates":[-77.867415,39.29275]}},{"properties":{"city":"FRANKLIN","districtmanager":"Thompson,Sheila L","county":"VENANGO","margin":19,"geo_score":0.585,"zip code":"16323","storeno":439,"street":"590 ALLEGHENY BLVD","phone":"814-432-9860","fax":"814-432-2671","regionalmanager":"Faulk,Peggy","id":"a6l5nuzxa2yu","rmd":null,"geo_precision":"zip","open":"6/8/2010","state":"PA"},"type":"Feature","geometry":{"type":"Point","coordinates":[-79.896723,41.450334]}},{"properties":{"city":"FOREST","districtmanager":"Singer,Donald K","county":"BEDFORD","margin":12,"geo_score":1.0,"zip code":"24551","storeno":440,"street":"14449 FOREST RD","phone":"434-525-2294","fax":"434-525-2997","regionalmanager":"Kociban,Deborah","id":"a6l5nv2h5u9n","rmd":null,"geo_precision":"range","open":"8/30/2010","state":"VA"},"type":"Feature","geometry":{"type":"Point","coordinates":[-79.30171,37.370096]}},{"properties":{"city":"SHEFFIELD VILLAGE","districtmanager":"Carlson,Kathryn A","county":"LORAIN","margin":14,"geo_score":0.784,"zip code":"44054","storeno":441,"street":"5295 DETROIT RD","phone":"440-934-3598","fax":"440-934-3597","regionalmanager":"Kociban,Deborah","id":"a6l5nv4xjcql","rmd":null,"geo_precision":"street","open":"6/24/2010","state":"OH"},"type":"Feature","geometry":{"type":"Point","coordinates":[-82.067869,41.430026]}},{"properties":{"city":"LINDEN","districtmanager":"Williams,Thomas L","county":"LYCOMING","margin":11,"geo_score":0.797,"zip code":"17744","storeno":442,"street":"7775 NORTH ROUTE 220 HWY","phone":"570-398-1410","fax":"570-398-1961","regionalmanager":"Faulk,Peggy","id":"a6l5nuxmhp9b","rmd":null,"geo_precision":"range","open":"6/3/2010","state":"PA"},"type":"Feature","geometry":{"type":"Point","coordinates":[-77.179751,41.215954]}},{"properties":{"city":"SUMMERVILLE","districtmanager":"Williams,Jim","county":"NICHOLAS","margin":24,"geo_score":0.585,"zip code":"26651","storeno":443,"street":"1300 WAL STREET","phone":"304-872-6912","fax":"304-872-6915","regionalmanager":"Kociban,Deborah","id":"a6l5nv1f9gyq","rmd":null,"geo_precision":"zip","open":"11/4/2010","state":"WV"},"type":"Feature","geometry":{"type":"Point","coordinates":[-80.949823,38.285941]}},{"properties":{"city":"FAYETTEVILLE","districtmanager":"Schultheis III,Daniel R","county":"FAYETTE","margin":7,"geo_score":0.585,"zip code":"25840","storeno":444,"street":"27 WHITEWATER AVE","phone":"304-574-2615","fax":"304-574-2618","regionalmanager":"Kociban,Deborah","id":"a6l5nv4mpkf4","rmd":null,"geo_precision":"zip","open":"9/30/2010","state":"WV"},"type":"Feature","geometry":{"type":"Point","coordinates":[-81.162604,38.053999]}},{"properties":{"city":"KITTANNING","districtmanager":"Thompson,Sheila L","county":"ARMSTRONG","margin":23,"geo_score":0.737,"zip code":"16201","storeno":445,"street":"13510 ST RTE 422","phone":"724-545-7570","fax":"724-545-7573","regionalmanager":"Faulk,Peggy","id":"a6l5nuy1vs05","rmd":null,"geo_precision":"street","open":"8/12/2010","state":"PA"},"type":"Feature","geometry":{"type":"Point","coordinates":[-79.560384,40.829482]}},{"properties":{"city":"FOLLANSBEE","districtmanager":"Sowers,Dayna M","county":"BROOKE","margin":13,"geo_score":1.0,"zip code":"26037","storeno":446,"street":"1525 MAIN ST","phone":"304-527-3504","fax":"304-527-3507","regionalmanager":"Faulk,Peggy","id":"a6l5nuzfblge","rmd":null,"geo_precision":"range","open":"9/1/2010","state":"WV"},"type":"Feature","geometry":{"type":"Point","coordinates":[-80.59612,40.336671]}},{"properties":{"city":"ROCKY MOUNT","districtmanager":"Hengst,Rainey E","county":"NASH","margin":2,"geo_score":0.817,"zip code":"27804","storeno":447,"street":"3715 NORTH WESLEYAN BLVD","phone":"252-212-3363","fax":"252-212-3368","regionalmanager":"Kociban,Deborah","id":"a6l5nuspvpy3","rmd":null,"geo_precision":"street","open":"9/1/2010","state":"NC"},"type":"Feature","geometry":{"type":"Point","coordinates":[-77.77065,36.017914]}},{"properties":{"city":"HANOVER","districtmanager":"Smith,Helen E","county":"YORK","margin":3,"geo_score":1.0,"zip code":"17331","storeno":448,"street":"1841 BALTIMORE PIKE","phone":"717-646-0204","fax":"717-646-0257","regionalmanager":"Campbell,John E","id":"a6l5nur9ecs0","rmd":null,"geo_precision":"range","open":"9/29/2010","state":"PA"},"type":"Feature","geometry":{"type":"Point","coordinates":[-76.959726,39.762291]}},{"properties":{"city":"HARRISBURG","districtmanager":"Hughes,Michele L","county":"DAUPHIN","margin":16,"geo_score":1.0,"zip code":"17111","storeno":449,"street":"6010 DERRY STREET","phone":"717-564-2123","fax":"717-564-2538","regionalmanager":"Campbell,John E","id":"a6l5nv4qw9xs","rmd":null,"geo_precision":"range","open":"9/21/2010","state":"PA"},"type":"Feature","geometry":{"type":"Point","coordinates":[-76.785834,40.263432]}},{"properties":{"city":"BELLEFONTE","districtmanager":"Schmitt,Tabitha A","county":"CENTRE","margin":25,"geo_score":0.683,"zip code":"16823","storeno":450,"street":"2850 BENNER PIKE","phone":"814-353-9015","fax":"814-353-9018","regionalmanager":"Faulk,Peggy","id":"a6l5nusux5hs","rmd":null,"geo_precision":"street","open":"12/10/2010","state":"PA"},"type":"Feature","geometry":{"type":"Point","coordinates":[-77.778585,40.872853]}},{"properties":{"city":"GREENCASTLE","districtmanager":"Towns,Elisabeth A","county":"FRANKLIN","margin":26,"geo_score":0.807,"zip code":"17225","storeno":451,"street":"11104 GRINDSTONE HILL ROAD","phone":"717-597-1201","fax":"717-597-1462","regionalmanager":"Campbell,John E","id":"a6l5nv32wsf7","rmd":null,"geo_precision":"street","open":"11/11/2010","state":"PA"},"type":"Feature","geometry":{"type":"Point","coordinates":[-77.706834,39.785396]}},{"properties":{"city":"KENT","districtmanager":"Carlson,Kathryn A","county":"PORTAGE","margin":13,"geo_score":1.0,"zip code":"44240","storeno":452,"street":"600 NORTH MANTUA ST","phone":"330-346-0059","fax":"330-346-0097","regionalmanager":"Kociban,Deborah","id":"a6l5nus7u7et","rmd":null,"geo_precision":"range","open":"12/8/2010","state":"OH"},"type":"Feature","geometry":{"type":"Point","coordinates":[-81.359369,41.159625]}},{"properties":{"city":"WINSTON SALEM","districtmanager":"Hostetler,Kelly S","county":"DAVIDSON","margin":29,"geo_score":0.992,"zip code":"27107","storeno":453,"street":"5519 GUMTREE ROAD","phone":"336-771-4099","fax":"336-771-4133","regionalmanager":"Kociban,Deborah","id":"a6l5nuscpl9b","rmd":null,"geo_precision":"range","open":"3/17/2011","state":"NC"},"type":"Feature","geometry":{"type":"Point","coordinates":[-80.159797,36.026592]}},{"properties":{"city":"ASHEBORO","districtmanager":"Murphy,Patrick M","county":"RANDOLPH","margin":3,"geo_score":0.585,"zip code":"27203","storeno":454,"street":"1065 EAST DIXIE DRIVE","phone":"336-328-0213","fax":"336-328-0215","regionalmanager":"Kociban,Deborah","id":"a6l5nv1azvbn","rmd":null,"geo_precision":"zip","open":"2/24/2011","state":"NC"},"type":"Feature","geometry":{"type":"Point","coordinates":[-79.976987,35.65347]}},{"properties":{"city":"MOCKSVILLE","districtmanager":"Hostetler,Kelly S","county":"DAVIE","margin":27,"geo_score":0.685,"zip code":"27028","storeno":455,"street":"1449 YADKINVILLE ROAD","phone":"336-751-1071","fax":"336-679-2215","regionalmanager":"Kociban,Deborah","id":"a6l5nuswed89","rmd":null,"geo_precision":"street","open":"3/3/2011","state":"NC"},"type":"Feature","geometry":{"type":"Point","coordinates":[-80.591265,35.923738]}},{"properties":{"city":"PRINCETON","districtmanager":"Schultheis III,Daniel R","county":"MERCER","margin":27,"geo_score":1.0,"zip code":"24740","storeno":456,"street":"751 OAKVALE ROAD","phone":"304-425-0001","fax":"304-425-0016","regionalmanager":"Kociban,Deborah","id":"a6l5nuxxfqbm","rmd":null,"geo_precision":"range","open":"3/24/2011","state":"WV"},"type":"Feature","geometry":{"type":"Point","coordinates":[-81.058207,37.36262]}},{"properties":{"city":"MT HOPE","districtmanager":"Schultheis III,Daniel R","county":"RALEIGH","margin":14,"geo_score":0.778,"zip code":"25880","storeno":457,"street":"5481 ROBERT C BYRD DRIVE","phone":"304-252-3474","fax":"304-252-3478","regionalmanager":"Kociban,Deborah","id":"a6l5nuzja6f8","rmd":null,"geo_precision":"street","open":"3/24/2011","state":"WV"},"type":"Feature","geometry":{"type":"Point","coordinates":[-81.194023,37.838188]}},{"properties":{"city":"PRINCETON","districtmanager":"Schultheis III,Daniel R","county":"MERCER","margin":11,"geo_score":0.806,"zip code":"24740","storeno":458,"street":"151 COURTHOUSE RD","phone":"304-425-8002","fax":"304-425-8020","regionalmanager":"Kociban,Deborah","id":"a6l5nuwsyi2e","rmd":null,"geo_precision":"street","open":"7/14/2011","state":"WV"},"type":"Feature","geometry":{"type":"Point","coordinates":[-81.117364,37.353314]}},{"properties":{"city":"VERONA","districtmanager":"Acker,Georgette M","county":"ALLEGHENY","margin":11,"geo_score":1.0,"zip code":"15147","storeno":459,"street":"2175 HULTON ROAD","phone":"412-828-1689","fax":"412-828-1769","regionalmanager":"Faulk,Peggy","id":"a6l5nurdtm7o","rmd":null,"geo_precision":"range","open":"5/19/2011","state":"PA"},"type":"Feature","geometry":{"type":"Point","coordinates":[-79.81572,40.526149]}},{"properties":{"city":"GREENSBORO","districtmanager":"Murphy,Patrick M","county":"GUILFORD","margin":21,"geo_score":1.0,"zip code":"27409","storeno":460,"street":"6930 WEST MARKET ST","phone":"336-393-0014","fax":"336-393-0041","regionalmanager":"Kociban,Deborah","id":"a6l5nv0ak1tk","rmd":null,"geo_precision":"range","open":"6/23/2011","state":"NC"},"type":"Feature","geometry":{"type":"Point","coordinates":[-79.92716,36.07934]}},{"properties":{"city":"DUNCANNON","districtmanager":"Hughes,Michele L","county":"DAUPHIN","margin":25,"geo_score":1.0,"zip code":"17020","storeno":461,"street":"54 BENVENUE ROAD","phone":"717-834-0168","fax":"717-834-0171","regionalmanager":"Campbell,John E","id":"a6l5nv1xmv05","rmd":null,"geo_precision":"range","open":"6/30/2011","state":"PA"},"type":"Feature","geometry":{"type":"Point","coordinates":[-77.009933,40.405823]}},{"properties":{"city":"YORK","districtmanager":"Johnson,Stephen D","county":"YORK","margin":13,"geo_score":0.878,"zip code":"17402","storeno":462,"street":"215 ARSENAL ROAD","phone":"717-845-5313","fax":"717-845-5340","regionalmanager":"Campbell,John E","id":"a6l5nur1jzfp","rmd":null,"geo_precision":"range","open":"6/30/2011","state":"PA"},"type":"Feature","geometry":{"type":"Point","coordinates":[-76.726631,39.983939]}},{"properties":{"city":"SUGARLOAF","districtmanager":"Shaffer,Thomas E","county":"LUZERNE","margin":23,"geo_score":0.61,"zip code":"18249","storeno":463,"street":"551 ST ROUTE 93","phone":"570-788-5213","fax":"570-788-5267","regionalmanager":"Faulk,Peggy","id":"a6l5nux10wt2","rmd":null,"geo_precision":"street","open":"7/26/2011","state":"PA"},"type":"Feature","geometry":{"type":"Point","coordinates":[-76.065353,40.988763]}},{"properties":{"city":"HAGERSTOWN","districtmanager":"Towns,Elisabeth A","county":"WASHINGTON","margin":28,"geo_score":0.607,"zip code":"21740","storeno":464,"street":"191 EASTERN BLVD, NORTH","phone":"240-313-3901","fax":"240-313-9281","regionalmanager":"Campbell,John E","id":"a6l5nv0zuvhy","rmd":null,"geo_precision":"street","open":"8/16/2011","state":"MD"},"type":"Feature","geometry":{"type":"Point","coordinates":[-77.69827,39.63408]}},{"properties":{"city":"PARMA","districtmanager":"Carlson,Kathryn A","county":"CUYAHOGA","margin":5,"geo_score":1.0,"zip code":"44129","storeno":465,"street":"6767 RIDGE ROAD","phone":"440-842-6155","fax":"440-842-6415","regionalmanager":"Kociban,Deborah","id":"a6l5nuwt1deu","rmd":null,"geo_precision":"range","open":"8/23/2011","state":"OH"},"type":"Feature","geometry":{"type":"Point","coordinates":[-81.734619,41.381996]}},{"properties":{"city":"CHAMBERSBURG","districtmanager":"Myers,Elizabeth A","county":"FRANKLIN","margin":30,"geo_score":0.805,"zip code":"17201","storeno":466,"street":"1819 WAYNE AVE","phone":"717-264-8800","fax":"717-264-8824","regionalmanager":"Campbell,John E","id":"a6l5nv16fr10","rmd":null,"geo_precision":"street","open":"8/24/2011","state":"PA"},"type":"Feature","geometry":{"type":"Point","coordinates":[-77.646751,39.906624]}},{"properties":{"city":"HURRICANE","districtmanager":"Williams,Jim","county":"PUTNAM","margin":1,"geo_score":0.902,"zip code":"25526","storeno":467,"street":"3805 TEAYS VALLEY ROAD","phone":null,"fax":null,"regionalmanager":"Kociban,Deborah","id":"a6l5nv3mw6vv","rmd":null,"geo_precision":"street","open":null,"state":"WV"},"type":"Feature","geometry":{"type":"Point","coordinates":[-81.941414,38.448361]}},{"properties":{"city":"PITTSBURGH","districtmanager":"Pacovsky,Linda K","county":"ALLEGHENY","margin":19,"geo_score":0.902,"zip code":"15235","storeno":468,"street":"3457 WILLIAM PENN HIGHWAY","phone":"412-825-4151","fax":"412-825-4154","regionalmanager":"Faulk,Peggy","id":"a6l5nuz81xnw","rmd":null,"geo_precision":"range","open":"8/10/2011","state":"PA"},"type":"Feature","geometry":{"type":"Point","coordinates":[-79.810462,40.429965]}},{"properties":{"city":"NEWVILLE","districtmanager":"Myers,Elizabeth A","county":"CUMBERLAND","margin":18,"geo_score":1.0,"zip code":"17241","storeno":469,"street":"3299 RITNER HIGHWAY","phone":"717-776-0095","fax":"717-776-0098","regionalmanager":"Campbell,John E","id":"a6l5nuzrfutq","rmd":null,"geo_precision":"range","open":"8/31/2011","state":"PA"},"type":"Feature","geometry":{"type":"Point","coordinates":[-77.364632,40.14035]}},{"properties":{"city":"SALISBURY","districtmanager":"Hostetler,Kelly S","county":"ROWAN","margin":29,"geo_score":0.373,"zip code":"28146","storeno":470,"street":"1520 JAKE ALEXANDER BOULEVARD SOUTH","phone":"704-633-1051","fax":"704-633-1408","regionalmanager":"Kociban,Deborah","id":"a6l5nurt0ylx","rmd":null,"geo_precision":"street","open":"9/15/2011","state":"NC"},"type":"Feature","geometry":{"type":"Point","coordinates":[-81.473103,35.592754]}},{"properties":{"city":"HENDERSON","districtmanager":"Hengst,Rainey E","county":"VANCE","margin":30,"geo_score":0.683,"zip code":"27536","storeno":471,"street":"619 RUIN CREEK ROAD","phone":"252-492-1530","fax":"252-492-1556","regionalmanager":"Kociban,Deborah","id":"a6l5nusm96r7","rmd":null,"geo_precision":"street","open":"9/29/2011","state":"NC"},"type":"Feature","geometry":{"type":"Point","coordinates":[-78.452921,36.320959]}},{"properties":{"city":"ARCHDALE","districtmanager":"Murphy,Patrick M","county":"RANDOLPH","margin":1,"geo_score":1.0,"zip code":"27263","storeno":472,"street":"10206 SOUTH MAIN STREET","phone":"3364310613","fax":"336-431-7563","regionalmanager":"Kociban,Deborah","id":"a6l5nur6h3sn","rmd":null,"geo_precision":"range","open":"9/29/2011","state":"NC"},"type":"Feature","geometry":{"type":"Point","coordinates":[-79.944509,35.898229]}},{"properties":{"city":"BEAVER","districtmanager":"Schultheis III,Daniel R","county":"RALEIGH","margin":8,"geo_score":0.729,"zip code":"25813","storeno":473,"street":"810 RITTER HIGHWAY","phone":"304-250-6036","fax":"304-250-6063","regionalmanager":"Kociban,Deborah","id":"a6l5nussjzdz","rmd":null,"geo_precision":"street","open":"9/22/2011","state":"WV"},"type":"Feature","geometry":{"type":"Point","coordinates":[-81.136121,37.749129]}},{"properties":{"city":"MANSFIELD","districtmanager":"Williams,Thomas L","county":"TIOGA","margin":10,"geo_score":1.0,"zip code":"16933","storeno":474,"street":"85 WEST WELLSBORO STREET","phone":"570-662-1300","fax":"570-662-1327","regionalmanager":"Faulk,Peggy","id":"a6l5nutj2hlg","rmd":null,"geo_precision":"range","open":"9/29/2011","state":"PA"},"type":"Feature","geometry":{"type":"Point","coordinates":[-77.080202,41.806507]}},{"properties":{"city":"STATE COLLEGE","districtmanager":"Schmitt,Tabitha A","county":"CENTRE","margin":19,"geo_score":0.725,"zip code":"16801","storeno":475,"street":"120 SOUTH RIDGE PLAZA","phone":"814-235-1380","fax":"814-235-1419","regionalmanager":"Faulk,Peggy","id":"a6l5nuy3a8l7","rmd":null,"geo_precision":"range","open":"1/12/2012","state":"PA"},"type":"Feature","geometry":{"type":"Point","coordinates":[-77.775045,40.91242]}},{"properties":{"city":"PITTSBURGH","districtmanager":"Acker,Georgette M","county":"ALLEGHENY","margin":24,"geo_score":0.585,"zip code":"15237","storeno":476,"street":"3025 BABCOCK BLVD","phone":"412-931-1716","fax":"412-931-1874","regionalmanager":"Faulk,Peggy","id":"a6l5nuuykgkd","rmd":null,"geo_precision":"zip","open":"12/7/2011","state":"PA"},"type":"Feature","geometry":{"type":"Point","coordinates":[-80.003666,40.531735]}},{"properties":{"city":"LOWER BURRELL","districtmanager":"Acker,Georgette M","county":"WESTMORELAND","margin":17,"geo_score":0.977,"zip code":"15068","storeno":477,"street":"203 CRAIG DELL ROAD","phone":"724-334-5894","fax":"724-334-5898","regionalmanager":"Faulk,Peggy","id":"a6l5nuzpr9ee","rmd":null,"geo_precision":"range","open":"3/29/2012","state":"PA"},"type":"Feature","geometry":{"type":"Point","coordinates":[-79.745942,40.586743]}},{"properties":{"city":"EPHRATA","districtmanager":"Hoffman,Jeremiah L","county":"LANCASTER","margin":25,"geo_score":1.0,"zip code":"17522","storeno":478,"street":"891 EAST MAIN STREET","phone":"717-733-0512","fax":"717-733-0542","regionalmanager":"Campbell,John E","id":"a6l5nuxgjfqc","rmd":null,"geo_precision":"range","open":"12/22/2011","state":"PA"},"type":"Feature","geometry":{"type":"Point","coordinates":[-76.153563,40.163928]}},{"properties":{"city":"BENSON","districtmanager":"Campbell,Jennifer L","county":"JOHNSTON","margin":15,"geo_score":0.887,"zip code":"27504","storeno":479,"street":"13433 NC HIGHWAY 210","phone":"919-207-1440","fax":"919-207-1443","regionalmanager":"Kociban,Deborah","id":"a6l5nur089n3","rmd":null,"geo_precision":"range","open":"1/26/2012","state":"NC"},"type":"Feature","geometry":{"type":"Point","coordinates":[-78.567002,35.515305]}},{"properties":{"city":"RALEIGH","districtmanager":"Campbell,Jennifer L","county":"WAKE","margin":26,"geo_score":0.807,"zip code":"27607","storeno":480,"street":"600 CORPORATE CENTER DR","phone":"919-859-9577","fax":"919-859-9575","regionalmanager":"Kociban,Deborah","id":"a6l5nuw1jgvk","rmd":null,"geo_precision":"street","open":"4/18/2012","state":"NC"},"type":"Feature","geometry":{"type":"Point","coordinates":[-78.740038,35.790407]}},{"properties":{"city":"WENDELL","districtmanager":"Campbell,Jennifer L","county":"WAKE","margin":6,"geo_score":0.805,"zip code":"27591","storeno":481,"street":"505 WENDELL BLVD","phone":"919-365-9032","fax":"919-365-9089","regionalmanager":"Kociban,Deborah","id":"a6l5nuu2aok8","rmd":null,"geo_precision":"street","open":"2/2/2012","state":"NC"},"type":"Feature","geometry":{"type":"Point","coordinates":[-78.398423,35.802246]}},{"properties":{"city":"BECKLEY","districtmanager":"Schultheis III,Daniel R","county":"RALEIGH","margin":5,"geo_score":1.0,"zip code":"25801","storeno":482,"street":"1408 NORTH EISENHOWER DRIVE","phone":"304-252-7730","fax":"304-252-7047","regionalmanager":"Kociban,Deborah","id":"a6l5nuuy0bmn","rmd":null,"geo_precision":"range","open":"1/26/2012","state":"WV"},"type":"Feature","geometry":{"type":"Point","coordinates":[-81.183152,37.804521]}},{"properties":{"city":"KING","districtmanager":"Hostetler,Kelly S","county":"STOKES","margin":14,"geo_score":1.0,"zip code":"27021","storeno":483,"street":"703 EAST KING ST","phone":"336-985-0501","fax":"336-985-0513","regionalmanager":"Kociban,Deborah","id":"a6l5nutogisy","rmd":null,"geo_precision":"range","open":"3/15/2012","state":"NC"},"type":"Feature","geometry":{"type":"Point","coordinates":[-80.339526,36.276922]}},{"properties":{"city":"GREENSBORO","districtmanager":"Murphy,Patrick M","county":"GUILFORD","margin":1,"geo_score":1.0,"zip code":"27407","storeno":484,"street":"3941 WEST MARKET ST","phone":"336-315-7595","fax":"336-315-7599","regionalmanager":"Kociban,Deborah","id":"a6l5nuzgjwqu","rmd":null,"geo_precision":"range","open":"3/22/2012","state":"NC"},"type":"Feature","geometry":{"type":"Point","coordinates":[-79.852323,36.069185]}},{"properties":{"city":"LOUISBURG","districtmanager":"Hengst,Rainey E","county":"FRANKLIN","margin":11,"geo_score":0.585,"zip code":"27549","storeno":485,"street":"108 SOUTH BICKETT BLVD","phone":"919-340-4406","fax":"919-340-4409","regionalmanager":"Kociban,Deborah","id":"a6l5nuuz6b7n","rmd":null,"geo_precision":"zip","open":"4/19/2012","state":"NC"},"type":"Feature","geometry":{"type":"Point","coordinates":[-78.227215,36.07654]}},{"properties":{"city":"STAR CITY","districtmanager":"Ward-Meyers,Lisa","county":"MONONGALIA","margin":12,"geo_score":1.0,"zip code":"26505","storeno":486,"street":"3522 MONONGAHELA BOULEVARD","phone":"304-291-3102","fax":"304-291-3105","regionalmanager":"Kociban,Deborah","id":"a6l5nuz9w5lm","rmd":null,"geo_precision":"range","open":"6/13/2012","state":"WV"},"type":"Feature","geometry":{"type":"Point","coordinates":[-79.989224,39.657044]}},{"properties":{"city":"UNIONTOWN","districtmanager":"Sowers,Dayna M","county":"FAYETTE","margin":26,"geo_score":1.0,"zip code":"15401","storeno":487,"street":"570 PITTSBURGH ROAD","phone":"724-437-6721","fax":"724-438-7162","regionalmanager":"Faulk,Peggy","id":"a6l5nv3s8jk6","rmd":null,"geo_precision":"range","open":"5/24/2012","state":"PA"},"type":"Feature","geometry":{"type":"Point","coordinates":[-79.726239,39.92059]}},{"properties":{"city":"GREENVILLE","districtmanager":"Hengst,Rainey E","county":"PITT","margin":18,"geo_score":1.0,"zip code":"27834","storeno":488,"street":"2521 NORTH MEMORIAL DRIVE","phone":"252-353-0161","fax":"252-353-0165","regionalmanager":"Kociban,Deborah","id":"a6l5nuyn6kby","rmd":null,"geo_precision":"range","open":"5/3/2012","state":"NC"},"type":"Feature","geometry":{"type":"Point","coordinates":[-77.364006,35.656911]}},{"properties":{"city":"GREENSBORO","districtmanager":"Murphy,Patrick M","county":"GUILFORD","margin":24,"geo_score":1.0,"zip code":"27410","storeno":489,"street":"1620 NEW GARDEN ROAD","phone":"336-315-2212","fax":"336-315-2215","regionalmanager":"Kociban,Deborah","id":"a6l5nv3xec3x","rmd":null,"geo_precision":"range","open":"4/19/2012","state":"NC"},"type":"Feature","geometry":{"type":"Point","coordinates":[-79.876263,36.116543]}},{"properties":{"city":"MT AIRY","districtmanager":"Hostetler,Kelly S","county":"SURRY","margin":29,"geo_score":0.585,"zip code":"27030","storeno":490,"street":"2905 ROCKFORD ST","phone":"336-719-2478","fax":"336-719-2482","regionalmanager":"Kociban,Deborah","id":"a6l5nv4edouv","rmd":null,"geo_precision":"zip","open":"6/14/2012","state":"NC"},"type":"Feature","geometry":{"type":"Point","coordinates":[-80.83785,36.482354]}},{"properties":{"city":"ZION CROSSROADS","districtmanager":"Campbell,Robert W","county":"LOUISA","margin":27,"geo_score":0.806,"zip code":"22942","storeno":491,"street":"135 MARKET STREET","phone":"540-832-0205","fax":"540-832-0206","regionalmanager":"Kociban,Deborah","id":"a6l5nuu2cdqm","rmd":null,"geo_precision":"street","open":"5/24/2012","state":"VA"},"type":"Feature","geometry":{"type":"Point","coordinates":[-78.184388,38.136834]}},{"properties":{"city":"GRAHAM","districtmanager":"Campbell,Jennifer L","county":"ALAMANCE","margin":15,"geo_score":1.0,"zip code":"27253","storeno":492,"street":"1138 SOUTH MAIN ST","phone":"336-226-9488","fax":"336-226-9491","regionalmanager":"Kociban,Deborah","id":"a6l5nuzrrsaj","rmd":null,"geo_precision":"range","open":"6/21/2012","state":"NC"},"type":"Feature","geometry":{"type":"Point","coordinates":[-79.395879,36.047122]}},{"properties":{"city":"DOBSON","districtmanager":"Hostetler,Kelly S","county":"SURRY","margin":28,"geo_score":1.0,"zip code":"27017","storeno":493,"street":"119 SOUTH MAIN ST","phone":"336-386-1006","fax":"336-386-1025","regionalmanager":"Kociban,Deborah","id":"a6l5nuzphmmm","rmd":null,"geo_precision":"range","open":null,"state":"NC"},"type":"Feature","geometry":{"type":"Point","coordinates":[-80.722379,36.395516]}},{"properties":{"city":"SCOTT DEPOT","districtmanager":"Williams,Jim","county":"PUTNAM","margin":24,"geo_score":1.0,"zip code":"25560","storeno":494,"street":"4344B TEAYS VALLEY ROAD","phone":null,"fax":null,"regionalmanager":"Kociban,Deborah","id":"a6l5nuruz1g8","rmd":null,"geo_precision":"range","open":null,"state":"WV"},"type":"Feature","geometry":{"type":"Point","coordinates":[-81.905608,38.449043]}},{"properties":{"city":"LEXINGTON","districtmanager":"Hostetler,Kelly S","county":"DAVIDSON","margin":21,"geo_score":1.0,"zip code":"27295","storeno":495,"street":"8283 OLD US HIGHWAY 52","phone":null,"fax":null,"regionalmanager":"Kociban,Deborah","id":"a6l5nv3kr8l1","rmd":null,"geo_precision":"range","open":null,"state":"NC"},"type":"Feature","geometry":{"type":"Point","coordinates":[-80.237087,35.935342]}},{"properties":{"city":"JOHNSTOWN","districtmanager":"Buzzard,Karen","county":"CAMBRIA","margin":6,"geo_score":1.0,"zip code":"15904","storeno":496,"street":"1455 SCALP AVE","phone":null,"fax":null,"regionalmanager":"Campbell,John E","id":"a6l5nv6clyxd","rmd":null,"geo_precision":"range","open":null,"state":"PA"},"type":"Feature","geometry":{"type":"Point","coordinates":[-78.857916,40.271361]}},{"properties":{"city":"CLAYSBURG","districtmanager":"Kuntz,Pamela S","county":"BLAIR","margin":19,"geo_score":0.585,"zip code":"16625","storeno":497,"street":"12604 DUNNINGS HIGHWAY","phone":null,"fax":null,"regionalmanager":"Campbell,John E","id":"a6l5nusg8cq9","rmd":null,"geo_precision":"zip","open":null,"state":"PA"},"type":"Feature","geometry":{"type":"Point","coordinates":[-78.512794,40.299242]}},{"properties":{"city":"BLAIRSVILLE","districtmanager":"Hazelet,Virginia","county":"INDIANA","margin":2,"geo_score":0.696,"zip code":"15717","storeno":498,"street":"ROUTE 22W and CORPORATE CAMPUS DRIVE","phone":null,"fax":null,"regionalmanager":"Faulk,Peggy","id":"a6l5nv1jln0z","rmd":null,"geo_precision":"street","open":null,"state":"PA"},"type":"Feature","geometry":{"type":"Point","coordinates":[-79.227921,40.448879]}},{"properties":{"city":"CLARKSBURG","districtmanager":"Ward-Meyers,Lisa","county":"HARRISON","margin":26,"geo_score":0.902,"zip code":"26301","storeno":501,"street":"900 MILFORD STREET","phone":null,"fax":null,"regionalmanager":"Kociban,Deborah","id":"a6l5nv76bs57","rmd":null,"geo_precision":"street","open":null,"state":"WV"},"type":"Feature","geometry":{"type":"Point","coordinates":[-80.363835,39.274722]}},{"properties":{"city":"MT JACKSON","districtmanager":"Stevens,Karen","county":"SHENANDOAH","margin":11,"geo_score":0.919,"zip code":"22842-2862","storeno":701,"street":"227 CONICVILLE BLVD","phone":"540-477-3110","fax":"540-477-9447","regionalmanager":"Campbell,John E","id":"a6l5nv6pmo83","rmd":null,"geo_precision":"range","open":"6/1/1997","state":"VA"},"type":"Feature","geometry":{"type":"Point","coordinates":[-78.68706,38.829494]}},{"properties":{"city":null,"districtmanager":null,"county":null,"margin":null,"geo_score":0.0,"zip code":null,"storeno":924,"street":null,"phone":null,"fax":null,"regionalmanager":null,"id":"a6l5nuti18n0","rmd":null,"geo_precision":"","open":null,"state":null},"type":"Feature","geometry":null},{"properties":{"city":null,"districtmanager":null,"county":null,"margin":null,"geo_score":0.0,"zip code":null,"storeno":925,"street":null,"phone":null,"fax":null,"regionalmanager":null,"id":"a6l5nuv9oae5","rmd":null,"geo_precision":"","open":null,"state":null},"type":"Feature","geometry":null},{"properties":{"city":null,"districtmanager":null,"county":null,"margin":null,"geo_score":0.0,"zip code":null,"storeno":926,"street":null,"phone":null,"fax":null,"regionalmanager":null,"id":"a6l5nuqtm3g6","rmd":null,"geo_precision":"","open":null,"state":null},"type":"Feature","geometry":null},{"properties":{"city":null,"districtmanager":null,"county":null,"margin":null,"geo_score":0.0,"zip code":null,"storeno":941,"street":null,"phone":null,"fax":null,"regionalmanager":null,"id":"a6l5nv1ppu4n","rmd":null,"geo_precision":"","open":null,"state":null},"type":"Feature","geometry":null},{"properties":{"city":null,"districtmanager":null,"county":null,"margin":null,"geo_score":0.0,"zip code":null,"storeno":9225,"street":null,"phone":null,"fax":null,"regionalmanager":null,"id":"a6l5nuyelwfq","rmd":null,"geo_precision":"","open":null,"state":null},"type":"Feature","geometry":null}],"is_temporal":false,"author":{"url":"","metadata":"","contact_name":"","contact_address":"","source":"","contact_phone":""},"source":"","pagination":{"sort":null,"start":0,"total":437,"limit":1000000},"state":"complete","tags":"","published":"2014-08-14T20:39:51-04:00","id":254322}