{"type":"FeatureCollection","data_type":"Dataset","url_type":null,"permissions":[{"permissions":{"download":true,"view":true},"group_id":"everyone"}],"classification":null,"title":"Stroke Cancelled FY12-07Jul-17May","count":223,"stream_id":254824,"contributor":{"url":"http://geocommons.com/users/47950","name":"neuro.finance"},"data_attributes":null,"calculation_params":null,"icon_link":null,"link":"http://geocommons.com/overlays/254824.json","extent":[-148.0,28.0758,-78.4354,64.8601],"geometry_types":["point"],"unique_name":null,"name":"Stroke Cancelled FY12-07Jul-17May","feature_count":223,"description":"","next_feature":null,"is_raster":false,"short_classification":"Y","stats":{"cancelled":{"max":30,"variance":19.2623520381368,"mean":3.94170403587444,"stdev":4.38888961334604,"min":1,"median":2}},"features":[{"properties":{"zip":"27520","geo_score":0.714,"id":"a6lzsavzi5nv","geo_precision":"zip","cancelled":1},"type":"Feature","geometry":{"type":"Point","coordinates":[-78.435416,35.633257]}},{"properties":{"zip":"33844","geo_score":0.714,"id":"a6lzsakyzu87","geo_precision":"zip","cancelled":2},"type":"Feature","geometry":{"type":"Point","coordinates":[-81.592933,28.075834]}},{"properties":{"zip":"45631","geo_score":0.714,"id":"a6lzsap1s9n8","geo_precision":"zip","cancelled":1},"type":"Feature","geometry":{"type":"Point","coordinates":[-82.147089,38.842303]}},{"properties":{"zip":"47203","geo_score":0.714,"id":"a6lzsavucx3v","geo_precision":"zip","cancelled":1},"type":"Feature","geometry":{"type":"Point","coordinates":[-85.827439,39.241129]}},{"properties":{"zip":"53221","geo_score":0.714,"id":"a6lzsaibm1gr","geo_precision":"zip","cancelled":1},"type":"Feature","geometry":{"type":"Point","coordinates":[-87.987933,42.950565]}},{"properties":{"zip":"61615","geo_score":0.714,"id":"a6lzsaruz0ge","geo_precision":"zip","cancelled":4},"type":"Feature","geometry":{"type":"Point","coordinates":[-89.634265,40.81087]}},{"properties":{"zip":"61761","geo_score":0.714,"id":"a6lzsawyt2p1","geo_precision":"zip","cancelled":3},"type":"Feature","geometry":{"type":"Point","coordinates":[-88.7989,40.530375]}},{"properties":{"zip":"61802","geo_score":0.714,"id":"a6lzsar6k7ks","geo_precision":"zip","cancelled":1},"type":"Feature","geometry":{"type":"Point","coordinates":[-88.169093,40.074573]}},{"properties":{"zip":"61938","geo_score":0.714,"id":"a6lzsaqihv5h","geo_precision":"zip","cancelled":3},"type":"Feature","geometry":{"type":"Point","coordinates":[-88.397826,39.439202]}},{"properties":{"zip":"62002","geo_score":0.714,"id":"a6lzsangm95q","geo_precision":"zip","cancelled":8},"type":"Feature","geometry":{"type":"Point","coordinates":[-90.075107,38.971713]}},{"properties":{"zip":"62010","geo_score":0.714,"id":"a6lzsam9ndx7","geo_precision":"zip","cancelled":6},"type":"Feature","geometry":{"type":"Point","coordinates":[-90.054615,38.923994]}},{"properties":{"zip":"62021","geo_score":0.714,"id":"a6lzsaia72qj","geo_precision":"zip","cancelled":2},"type":"Feature","geometry":{"type":"Point","coordinates":[-89.97814,38.964212]}},{"properties":{"zip":"62024","geo_score":0.714,"id":"a6lzsawr4a5b","geo_precision":"zip","cancelled":6},"type":"Feature","geometry":{"type":"Point","coordinates":[-90.101496,38.796993]}},{"properties":{"zip":"62025","geo_score":0.714,"id":"a6lzsaw1hyia","geo_precision":"zip","cancelled":8},"type":"Feature","geometry":{"type":"Point","coordinates":[-90.038716,38.834492]}},{"properties":{"zip":"62034","geo_score":0.714,"id":"a6lzsavk6trs","geo_precision":"zip","cancelled":2},"type":"Feature","geometry":{"type":"Point","coordinates":[-90.023867,38.810731]}},{"properties":{"zip":"62035","geo_score":0.714,"id":"a6lzsal8ir5y","geo_precision":"zip","cancelled":4},"type":"Feature","geometry":{"type":"Point","coordinates":[-90.245945,38.936992]}},{"properties":{"zip":"62040","geo_score":0.714,"id":"a6lzsarn91um","geo_precision":"zip","cancelled":15},"type":"Feature","geometry":{"type":"Point","coordinates":[-90.127886,38.731716]}},{"properties":{"zip":"62046","geo_score":0.714,"id":"a6lzsajat5cs","geo_precision":"zip","cancelled":1},"type":"Feature","geometry":{"type":"Point","coordinates":[-89.860115,38.880823]}},{"properties":{"zip":"62048","geo_score":0.714,"id":"a6lzsb0g68qs","geo_precision":"zip","cancelled":4},"type":"Feature","geometry":{"type":"Point","coordinates":[-90.092606,38.827848]}},{"properties":{"zip":"62049","geo_score":0.714,"id":"a6lzsaxtnju4","geo_precision":"zip","cancelled":1},"type":"Feature","geometry":{"type":"Point","coordinates":[-89.463698,39.164214]}},{"properties":{"zip":"62052","geo_score":0.714,"id":"a6lzsazsrrpp","geo_precision":"zip","cancelled":2},"type":"Feature","geometry":{"type":"Point","coordinates":[-90.255946,39.045325]}},{"properties":{"zip":"62059","geo_score":0.714,"id":"a6lzsb50vj4c","geo_precision":"zip","cancelled":1},"type":"Feature","geometry":{"type":"Point","coordinates":[-90.165943,38.658662]}},{"properties":{"zip":"62062","geo_score":0.714,"id":"a6lzsb45tqro","geo_precision":"zip","cancelled":1},"type":"Feature","geometry":{"type":"Point","coordinates":[-89.965751,38.713829]}},{"properties":{"zip":"62063","geo_score":0.714,"id":"a6lzsbcrlbng","geo_precision":"zip","cancelled":1},"type":"Feature","geometry":{"type":"Point","coordinates":[-90.12372,39.188935]}},{"properties":{"zip":"62067","geo_score":0.714,"id":"a6lzsazaj14b","geo_precision":"zip","cancelled":1},"type":"Feature","geometry":{"type":"Point","coordinates":[-90.006771,38.89838]}},{"properties":{"zip":"62074","geo_score":0.714,"id":"a6lzsb8f3vjh","geo_precision":"zip","cancelled":1},"type":"Feature","geometry":{"type":"Point","coordinates":[-89.727315,38.990046]}},{"properties":{"zip":"62082","geo_score":0.714,"id":"a6lzsbb8sbus","geo_precision":"zip","cancelled":1},"type":"Feature","geometry":{"type":"Point","coordinates":[-90.401512,39.506159]}},{"properties":{"zip":"62086","geo_score":0.714,"id":"a6lzsb203m3f","geo_precision":"zip","cancelled":1},"type":"Feature","geometry":{"type":"Point","coordinates":[-89.554727,38.961617]}},{"properties":{"zip":"62088","geo_score":0.714,"id":"a6lzsb0mr9ly","geo_precision":"zip","cancelled":3},"type":"Feature","geometry":{"type":"Point","coordinates":[-89.763983,38.985602]}},{"properties":{"zip":"62095","geo_score":0.714,"id":"a6lzsay8nt0k","geo_precision":"zip","cancelled":1},"type":"Feature","geometry":{"type":"Point","coordinates":[-90.085657,38.861597]}},{"properties":{"zip":"62203","geo_score":0.714,"id":"a6lzsb5a8n8j","geo_precision":"zip","cancelled":1},"type":"Feature","geometry":{"type":"Point","coordinates":[-90.077007,38.595757]}},{"properties":{"zip":"62204","geo_score":0.714,"id":"a6lzsb8xm1zm","geo_precision":"zip","cancelled":2},"type":"Feature","geometry":{"type":"Point","coordinates":[-90.095007,38.6308]}},{"properties":{"zip":"62205","geo_score":0.714,"id":"a6lzsazte7z3","geo_precision":"zip","cancelled":2},"type":"Feature","geometry":{"type":"Point","coordinates":[-90.124308,38.6123]}},{"properties":{"zip":"62206","geo_score":0.714,"id":"a6lzsb9dkcyo","geo_precision":"zip","cancelled":3},"type":"Feature","geometry":{"type":"Point","coordinates":[-90.15441,38.551401]}},{"properties":{"zip":"62207","geo_score":0.714,"id":"a6lzsaz4n6od","geo_precision":"zip","cancelled":3},"type":"Feature","geometry":{"type":"Point","coordinates":[-90.127808,38.58705]}},{"properties":{"zip":"62208","geo_score":0.714,"id":"a6lzsb03wuue","geo_precision":"zip","cancelled":8},"type":"Feature","geometry":{"type":"Point","coordinates":[-90.050106,38.600328]}},{"properties":{"zip":"62220","geo_score":0.714,"id":"a6lzsb4z07i8","geo_precision":"zip","cancelled":4},"type":"Feature","geometry":{"type":"Point","coordinates":[-89.973877,38.46435]}},{"properties":{"zip":"62221","geo_score":0.714,"id":"a6lzsb7kxuoz","geo_precision":"zip","cancelled":10},"type":"Feature","geometry":{"type":"Point","coordinates":[-89.911601,38.523569]}},{"properties":{"zip":"62223","geo_score":0.714,"id":"a6lzsbdsjt4l","geo_precision":"zip","cancelled":3},"type":"Feature","geometry":{"type":"Point","coordinates":[-90.076357,38.55025]}},{"properties":{"zip":"62226","geo_score":0.714,"id":"a6lzsb5ywq5j","geo_precision":"zip","cancelled":9},"type":"Feature","geometry":{"type":"Point","coordinates":[-89.998685,38.509999]}},{"properties":{"zip":"62230","geo_score":0.714,"id":"a6lzsb2wxsiy","geo_precision":"zip","cancelled":2},"type":"Feature","geometry":{"type":"Point","coordinates":[-89.52961,38.640028]}},{"properties":{"zip":"62231","geo_score":0.714,"id":"a6lzsb758qea","geo_precision":"zip","cancelled":1},"type":"Feature","geometry":{"type":"Point","coordinates":[-89.402155,38.620776]}},{"properties":{"zip":"62232","geo_score":0.714,"id":"a6lzsb8o77iy","geo_precision":"zip","cancelled":1},"type":"Feature","geometry":{"type":"Point","coordinates":[-90.012477,38.630199]}},{"properties":{"zip":"62233","geo_score":0.714,"id":"a6lzsb9o19y8","geo_precision":"zip","cancelled":4},"type":"Feature","geometry":{"type":"Point","coordinates":[-89.815308,38.048847]}},{"properties":{"zip":"62234","geo_score":0.714,"id":"a6lzsb42rtvx","geo_precision":"zip","cancelled":13},"type":"Feature","geometry":{"type":"Point","coordinates":[-89.908644,38.733747]}},{"properties":{"zip":"62236","geo_score":0.714,"id":"a6lzsbdbj8dm","geo_precision":"zip","cancelled":4},"type":"Feature","geometry":{"type":"Point","coordinates":[-90.16382,38.409442]}},{"properties":{"zip":"62237","geo_score":0.714,"id":"a6lzsbdapfgh","geo_precision":"zip","cancelled":1},"type":"Feature","geometry":{"type":"Point","coordinates":[-89.536204,38.169773]}},{"properties":{"zip":"62239","geo_score":0.714,"id":"a6lzsbdnjms4","geo_precision":"zip","cancelled":5},"type":"Feature","geometry":{"type":"Point","coordinates":[-90.181561,38.519424]}},{"properties":{"zip":"62246","geo_score":0.714,"id":"a6lzsb3wfm0d","geo_precision":"zip","cancelled":2},"type":"Feature","geometry":{"type":"Point","coordinates":[-89.423032,38.884421]}},{"properties":{"zip":"62249","geo_score":0.714,"id":"a6lzsb7ug9nx","geo_precision":"zip","cancelled":12},"type":"Feature","geometry":{"type":"Point","coordinates":[-89.741694,38.758429]}},{"properties":{"zip":"62254","geo_score":0.714,"id":"a6lzsb6u17sp","geo_precision":"zip","cancelled":1},"type":"Feature","geometry":{"type":"Point","coordinates":[-89.82823,38.605448]}},{"properties":{"zip":"62262","geo_score":0.714,"id":"a6lzsaz6cwop","geo_precision":"zip","cancelled":1},"type":"Feature","geometry":{"type":"Point","coordinates":[-89.313739,38.93611]}},{"properties":{"zip":"62265","geo_score":0.714,"id":"a6lzsazag52m","geo_precision":"zip","cancelled":2},"type":"Feature","geometry":{"type":"Point","coordinates":[-89.587348,38.513254]}},{"properties":{"zip":"62269","geo_score":0.714,"id":"a6lzsb2c6sfa","geo_precision":"zip","cancelled":5},"type":"Feature","geometry":{"type":"Point","coordinates":[-89.937325,38.586994]}},{"properties":{"zip":"62271","geo_score":0.714,"id":"a6lzsb7kkxlx","geo_precision":"zip","cancelled":4},"type":"Feature","geometry":{"type":"Point","coordinates":[-89.613981,38.443661]}},{"properties":{"zip":"62275","geo_score":0.714,"id":"a6lzsb7eqpge","geo_precision":"zip","cancelled":1},"type":"Feature","geometry":{"type":"Point","coordinates":[-89.570087,38.896158]}},{"properties":{"zip":"62278","geo_score":0.714,"id":"a6lzsb6rmgkq","geo_precision":"zip","cancelled":3},"type":"Feature","geometry":{"type":"Point","coordinates":[-89.997886,38.135051]}},{"properties":{"zip":"62285","geo_score":0.714,"id":"a6lzsbdheqmu","geo_precision":"zip","cancelled":2},"type":"Feature","geometry":{"type":"Point","coordinates":[-89.898651,38.475288]}},{"properties":{"zip":"62286","geo_score":0.714,"id":"a6lzsbdvxoim","geo_precision":"zip","cancelled":1},"type":"Feature","geometry":{"type":"Point","coordinates":[-89.781212,38.159216]}},{"properties":{"zip":"62293","geo_score":0.714,"id":"a6lzsbd0qzl8","geo_precision":"zip","cancelled":1},"type":"Feature","geometry":{"type":"Point","coordinates":[-89.569004,38.620028]}},{"properties":{"zip":"62294","geo_score":0.714,"id":"a6lzsb65gyfu","geo_precision":"zip","cancelled":6},"type":"Feature","geometry":{"type":"Point","coordinates":[-89.895817,38.721612]}},{"properties":{"zip":"62298","geo_score":0.714,"id":"a6lzsb3wal50","geo_precision":"zip","cancelled":2},"type":"Feature","geometry":{"type":"Point","coordinates":[-90.19567,38.290609]}},{"properties":{"zip":"62301","geo_score":0.714,"id":"a6lzsb4wwk65","geo_precision":"zip","cancelled":2},"type":"Feature","geometry":{"type":"Point","coordinates":[-91.31098,39.936435]}},{"properties":{"zip":"62305","geo_score":0.714,"id":"a6lzsb4hqggb","geo_precision":"zip","cancelled":3},"type":"Feature","geometry":{"type":"Point","coordinates":[-91.302633,39.96008]}},{"properties":{"zip":"62323","geo_score":0.714,"id":"a6lzsb3jhl5p","geo_precision":"zip","cancelled":4},"type":"Feature","geometry":{"type":"Point","coordinates":[-90.749883,39.782477]}},{"properties":{"zip":"62341","geo_score":0.714,"id":"a6lzsb6420bc","geo_precision":"zip","cancelled":1},"type":"Feature","geometry":{"type":"Point","coordinates":[-91.271002,40.475714]}},{"properties":{"zip":"62363","geo_score":0.714,"id":"a6lzsb8iniun","geo_precision":"zip","cancelled":2},"type":"Feature","geometry":{"type":"Point","coordinates":[-90.724294,39.561437]}},{"properties":{"zip":"62401","geo_score":0.714,"id":"a6lzsb7cdlzi","geo_precision":"zip","cancelled":1},"type":"Feature","geometry":{"type":"Point","coordinates":[-88.523383,39.202818]}},{"properties":{"zip":"62438","geo_score":0.714,"id":"a6lzsbda708w","geo_precision":"zip","cancelled":1},"type":"Feature","geometry":{"type":"Point","coordinates":[-88.805278,39.434607]}},{"properties":{"zip":"62448","geo_score":0.714,"id":"a6lzsb8w0btj","geo_precision":"zip","cancelled":2},"type":"Feature","geometry":{"type":"Point","coordinates":[-88.184675,38.980049]}},{"properties":{"zip":"62450","geo_score":0.714,"id":"a6lzsazsirrx","geo_precision":"zip","cancelled":3},"type":"Feature","geometry":{"type":"Point","coordinates":[-88.167262,38.634493]}},{"properties":{"zip":"62690","geo_score":0.714,"id":"a6lzsb5dd4x4","geo_precision":"zip","cancelled":1},"type":"Feature","geometry":{"type":"Point","coordinates":[-89.903356,39.480838]}},{"properties":{"zip":"62801","geo_score":0.714,"id":"a6lzsaz0e5tl","geo_precision":"zip","cancelled":4},"type":"Feature","geometry":{"type":"Point","coordinates":[-89.140627,38.508938]}},{"properties":{"zip":"62808","geo_score":0.714,"id":"a6lzsbaksygj","geo_precision":"zip","cancelled":1},"type":"Feature","geometry":{"type":"Point","coordinates":[-89.232163,38.290049]}},{"properties":{"zip":"62812","geo_score":0.714,"id":"a6lzsb733sui","geo_precision":"zip","cancelled":1},"type":"Feature","geometry":{"type":"Point","coordinates":[-88.907464,37.994423]}},{"properties":{"zip":"62814","geo_score":0.714,"id":"a6lzsb9flqwq","geo_precision":"zip","cancelled":1},"type":"Feature","geometry":{"type":"Point","coordinates":[-88.746322,38.384549]}},{"properties":{"zip":"62816","geo_score":0.714,"id":"a6lzsb13j0k5","geo_precision":"zip","cancelled":1},"type":"Feature","geometry":{"type":"Point","coordinates":[-88.936697,38.20359]}},{"properties":{"zip":"62819","geo_score":0.714,"id":"a6lzsaxvauu4","geo_precision":"zip","cancelled":2},"type":"Feature","geometry":{"type":"Point","coordinates":[-89.020912,37.976448]}},{"properties":{"zip":"62823","geo_score":0.714,"id":"a6lzsbah6rwm","geo_precision":"zip","cancelled":1},"type":"Feature","geometry":{"type":"Point","coordinates":[-88.539218,38.45727]}},{"properties":{"zip":"62832","geo_score":0.714,"id":"a6lzsbbs9acd","geo_precision":"zip","cancelled":3},"type":"Feature","geometry":{"type":"Point","coordinates":[-89.253006,38.044645]}},{"properties":{"zip":"62838","geo_score":0.714,"id":"a6lzsb079o8g","geo_precision":"zip","cancelled":1},"type":"Feature","geometry":{"type":"Point","coordinates":[-88.776244,38.832201]}},{"properties":{"zip":"62839","geo_score":0.714,"id":"a6lzsb6nuqcf","geo_precision":"zip","cancelled":4},"type":"Feature","geometry":{"type":"Point","coordinates":[-88.493686,38.710797]}},{"properties":{"zip":"62858","geo_score":0.714,"id":"a6lzsbd1per5","geo_precision":"zip","cancelled":1},"type":"Feature","geometry":{"type":"Point","coordinates":[-88.446158,38.87199]}},{"properties":{"zip":"62864","geo_score":0.714,"id":"a6lzsay4t1b2","geo_precision":"zip","cancelled":6},"type":"Feature","geometry":{"type":"Point","coordinates":[-88.922842,38.380327]}},{"properties":{"zip":"62881","geo_score":0.714,"id":"a6lzsbe5lzep","geo_precision":"zip","cancelled":6},"type":"Feature","geometry":{"type":"Point","coordinates":[-88.974839,38.643793]}},{"properties":{"zip":"62891","geo_score":0.714,"id":"a6lzsb7vpidp","geo_precision":"zip","cancelled":1},"type":"Feature","geometry":{"type":"Point","coordinates":[-89.035053,38.022241]}},{"properties":{"zip":"62899","geo_score":0.714,"id":"a6lzsbdiwt4q","geo_precision":"zip","cancelled":2},"type":"Feature","geometry":{"type":"Point","coordinates":[-88.664186,38.710776]}},{"properties":{"zip":"62901","geo_score":0.714,"id":"a6lzsayk3xpd","geo_precision":"zip","cancelled":3},"type":"Feature","geometry":{"type":"Point","coordinates":[-89.213694,37.671161]}},{"properties":{"zip":"62914","geo_score":0.714,"id":"a6lzsayqgj7q","geo_precision":"zip","cancelled":1},"type":"Feature","geometry":{"type":"Point","coordinates":[-89.185907,37.075607]}},{"properties":{"zip":"62917","geo_score":0.714,"id":"a6lzsb47zb61","geo_precision":"zip","cancelled":1},"type":"Feature","geometry":{"type":"Point","coordinates":[-88.619902,37.680285]}},{"properties":{"zip":"62918","geo_score":0.714,"id":"a6lzsayozwxy","geo_precision":"zip","cancelled":1},"type":"Feature","geometry":{"type":"Point","coordinates":[-89.077021,37.780606]}},{"properties":{"zip":"62959","geo_score":0.714,"id":"a6lzsb6dclcj","geo_precision":"zip","cancelled":2},"type":"Feature","geometry":{"type":"Point","coordinates":[-88.803953,37.763938]}},{"properties":{"zip":"62995","geo_score":0.714,"id":"a6lzsb0jyel7","geo_precision":"zip","cancelled":1},"type":"Feature","geometry":{"type":"Point","coordinates":[-88.898049,37.42417]}},{"properties":{"zip":"63005","geo_score":0.714,"id":"a6lzsb55m8za","geo_precision":"zip","cancelled":2},"type":"Feature","geometry":{"type":"Point","coordinates":[-90.650024,38.637002]}},{"properties":{"zip":"63010","geo_score":0.714,"id":"a6lzsbbi0yil","geo_precision":"zip","cancelled":3},"type":"Feature","geometry":{"type":"Point","coordinates":[-90.382897,38.411721]}},{"properties":{"zip":"63011","geo_score":0.714,"id":"a6lzsbdwijah","geo_precision":"zip","cancelled":1},"type":"Feature","geometry":{"type":"Point","coordinates":[-90.509288,38.596998]}},{"properties":{"zip":"63017","geo_score":0.714,"id":"a6lzsbdsi75w","geo_precision":"zip","cancelled":5},"type":"Feature","geometry":{"type":"Point","coordinates":[-90.589291,38.618386]}},{"properties":{"zip":"63020","geo_score":0.714,"id":"a6lzsaxpa1ky","geo_precision":"zip","cancelled":4},"type":"Feature","geometry":{"type":"Point","coordinates":[-90.569571,38.010052]}},{"properties":{"zip":"63021","geo_score":0.714,"id":"a6lzsb9htrp4","geo_precision":"zip","cancelled":6},"type":"Feature","geometry":{"type":"Point","coordinates":[-90.49651,38.564776]}},{"properties":{"zip":"63026","geo_score":0.714,"id":"a6lzsbczg27r","geo_precision":"zip","cancelled":2},"type":"Feature","geometry":{"type":"Point","coordinates":[-90.487066,38.490332]}},{"properties":{"zip":"63028","geo_score":0.714,"id":"a6lzsbayxfi2","geo_precision":"zip","cancelled":3},"type":"Feature","geometry":{"type":"Point","coordinates":[-90.341509,38.149776]}},{"properties":{"zip":"63031","geo_score":0.714,"id":"a6lzsb2mwz28","geo_precision":"zip","cancelled":6},"type":"Feature","geometry":{"type":"Point","coordinates":[-90.242056,38.83616]}},{"properties":{"zip":"63033","geo_score":0.714,"id":"a6lzsaz031c2","geo_precision":"zip","cancelled":12},"type":"Feature","geometry":{"type":"Point","coordinates":[-90.267335,38.793383]}},{"properties":{"zip":"63034","geo_score":0.714,"id":"a6lzsaxxq0zk","geo_precision":"zip","cancelled":3},"type":"Feature","geometry":{"type":"Point","coordinates":[-90.338448,38.861438]}},{"properties":{"zip":"63036","geo_score":0.714,"id":"a6lzsbbc9pht","geo_precision":"zip","cancelled":1},"type":"Feature","geometry":{"type":"Point","coordinates":[-90.38,37.89192]}},{"properties":{"zip":"63040","geo_score":0.714,"id":"a6lzsb26p0u1","geo_precision":"zip","cancelled":2},"type":"Feature","geometry":{"type":"Point","coordinates":[-90.630975,38.566718]}},{"properties":{"zip":"63042","geo_score":0.714,"id":"a6lzsb5qnx21","geo_precision":"zip","cancelled":1},"type":"Feature","geometry":{"type":"Point","coordinates":[-90.399166,38.7844]}},{"properties":{"zip":"63043","geo_score":0.714,"id":"a6lzsaytlcob","geo_precision":"zip","cancelled":5},"type":"Feature","geometry":{"type":"Point","coordinates":[-90.447418,38.723951]}},{"properties":{"zip":"63048","geo_score":0.714,"id":"a6lzsb2epgbl","geo_precision":"zip","cancelled":4},"type":"Feature","geometry":{"type":"Point","coordinates":[-90.38961,38.262482]}},{"properties":{"zip":"63050","geo_score":0.714,"id":"a6lzsazf30dz","geo_precision":"zip","cancelled":1},"type":"Feature","geometry":{"type":"Point","coordinates":[-90.566792,38.299221]}},{"properties":{"zip":"63051","geo_score":0.714,"id":"a6lzsb870tqy","geo_precision":"zip","cancelled":4},"type":"Feature","geometry":{"type":"Point","coordinates":[-90.581792,38.437832]}},{"properties":{"zip":"63052","geo_score":0.714,"id":"a6lzsb8lei1f","geo_precision":"zip","cancelled":1},"type":"Feature","geometry":{"type":"Point","coordinates":[-90.500401,38.370888]}},{"properties":{"zip":"63070","geo_score":0.714,"id":"a6lzsbanii2e","geo_precision":"zip","cancelled":2},"type":"Feature","geometry":{"type":"Point","coordinates":[-90.429283,38.293157]}},{"properties":{"zip":"63074","geo_score":0.714,"id":"a6lzsb6t3hy2","geo_precision":"zip","cancelled":3},"type":"Feature","geometry":{"type":"Point","coordinates":[-90.389516,38.724651]}},{"properties":{"zip":"63077","geo_score":0.714,"id":"a6lzsbbgke4u","geo_precision":"zip","cancelled":1},"type":"Feature","geometry":{"type":"Point","coordinates":[-90.968672,38.363431]}},{"properties":{"zip":"63080","geo_score":0.714,"id":"a6lzsb2f2k2k","geo_precision":"zip","cancelled":8},"type":"Feature","geometry":{"type":"Point","coordinates":[-91.068752,38.238939]}},{"properties":{"zip":"63089","geo_score":0.714,"id":"a6lzsb2c3cu8","geo_precision":"zip","cancelled":1},"type":"Feature","geometry":{"type":"Point","coordinates":[-90.889121,38.453668]}},{"properties":{"zip":"63090","geo_score":0.714,"id":"a6lzsayrzxiy","geo_precision":"zip","cancelled":3},"type":"Feature","geometry":{"type":"Point","coordinates":[-91.045701,38.497552]}},{"properties":{"zip":"63103","geo_score":0.714,"id":"a6lzsbadxrp8","geo_precision":"zip","cancelled":3},"type":"Feature","geometry":{"type":"Point","coordinates":[-90.216411,38.629901]}},{"properties":{"zip":"63104","geo_score":0.714,"id":"a6lzsbb2yg89","geo_precision":"zip","cancelled":6},"type":"Feature","geometry":{"type":"Point","coordinates":[-90.214461,38.611401]}},{"properties":{"zip":"63105","geo_score":0.714,"id":"a6lzsb3hq1ef","geo_precision":"zip","cancelled":5},"type":"Feature","geometry":{"type":"Point","coordinates":[-90.323726,38.642552]}},{"properties":{"zip":"63106","geo_score":0.714,"id":"a6lzsb7ukml0","geo_precision":"zip","cancelled":5},"type":"Feature","geometry":{"type":"Point","coordinates":[-90.208361,38.644501]}},{"properties":{"zip":"63107","geo_score":0.714,"id":"a6lzsb70jwsg","geo_precision":"zip","cancelled":7},"type":"Feature","geometry":{"type":"Point","coordinates":[-90.212561,38.66535]}},{"properties":{"zip":"63108","geo_score":0.714,"id":"a6lzsb67f2d9","geo_precision":"zip","cancelled":16},"type":"Feature","geometry":{"type":"Point","coordinates":[-90.251962,38.644801]}},{"properties":{"zip":"63109","geo_score":0.714,"id":"a6lzsbc47pdh","geo_precision":"zip","cancelled":16},"type":"Feature","geometry":{"type":"Point","coordinates":[-90.294714,38.581652]}},{"properties":{"zip":"63110","geo_score":0.714,"id":"a6lzsb5ermey","geo_precision":"zip","cancelled":5},"type":"Feature","geometry":{"type":"Point","coordinates":[-90.268132,38.625401]}},{"properties":{"zip":"63111","geo_score":0.714,"id":"a6lzsb1lzvrl","geo_precision":"zip","cancelled":7},"type":"Feature","geometry":{"type":"Point","coordinates":[-90.265947,38.556164]}},{"properties":{"zip":"63112","geo_score":0.714,"id":"a6lzsbahhab3","geo_precision":"zip","cancelled":17},"type":"Feature","geometry":{"type":"Point","coordinates":[-90.281813,38.663851]}},{"properties":{"zip":"63113","geo_score":0.714,"id":"a6lzsb9gwrbv","geo_precision":"zip","cancelled":9},"type":"Feature","geometry":{"type":"Point","coordinates":[-90.253212,38.630051]}},{"properties":{"zip":"63114","geo_score":0.714,"id":"a6lzsbcnfxvc","geo_precision":"zip","cancelled":5},"type":"Feature","geometry":{"type":"Point","coordinates":[-90.367338,38.714496]}},{"properties":{"zip":"63115","geo_score":0.714,"id":"a6lzsb0wfhtf","geo_precision":"zip","cancelled":30},"type":"Feature","geometry":{"type":"Point","coordinates":[-90.241962,38.6772]}},{"properties":{"zip":"63116","geo_score":0.714,"id":"a6lzsb2bfnmo","geo_precision":"zip","cancelled":25},"type":"Feature","geometry":{"type":"Point","coordinates":[-90.268563,38.581401]}},{"properties":{"zip":"63117","geo_score":0.714,"id":"a6lzsayisusp","geo_precision":"zip","cancelled":5},"type":"Feature","geometry":{"type":"Point","coordinates":[-90.31956,38.628663]}},{"properties":{"zip":"63118","geo_score":0.714,"id":"a6lzsb3hf2bx","geo_precision":"zip","cancelled":3},"type":"Feature","geometry":{"type":"Point","coordinates":[-90.222012,38.593751]}},{"properties":{"zip":"63119","geo_score":0.714,"id":"a6lzsayen1sk","geo_precision":"zip","cancelled":3},"type":"Feature","geometry":{"type":"Point","coordinates":[-90.348116,38.589302]}},{"properties":{"zip":"63120","geo_score":0.714,"id":"a6lzsbd719vv","geo_precision":"zip","cancelled":15},"type":"Feature","geometry":{"type":"Point","coordinates":[-90.275113,38.695884]}},{"properties":{"zip":"63121","geo_score":0.714,"id":"a6lzsbbxuasm","geo_precision":"zip","cancelled":15},"type":"Feature","geometry":{"type":"Point","coordinates":[-90.298169,38.710607]}},{"properties":{"zip":"63122","geo_score":0.714,"id":"a6lzsb1ynvj5","geo_precision":"zip","cancelled":7},"type":"Feature","geometry":{"type":"Point","coordinates":[-90.447898,38.568387]}},{"properties":{"zip":"63123","geo_score":0.714,"id":"a6lzsb297pjh","geo_precision":"zip","cancelled":8},"type":"Feature","geometry":{"type":"Point","coordinates":[-90.30956,38.553108]}},{"properties":{"zip":"63124","geo_score":0.714,"id":"a6lzsbdzzbqn","geo_precision":"zip","cancelled":3},"type":"Feature","geometry":{"type":"Point","coordinates":[-90.377566,38.637201]}},{"properties":{"zip":"63125","geo_score":0.714,"id":"a6lzsb1j4qzw","geo_precision":"zip","cancelled":3},"type":"Feature","geometry":{"type":"Point","coordinates":[-90.280115,38.541164]}},{"properties":{"zip":"63126","geo_score":0.714,"id":"a6lzsb0vy576","geo_precision":"zip","cancelled":4},"type":"Feature","geometry":{"type":"Point","coordinates":[-90.381785,38.556997]}},{"properties":{"zip":"63128","geo_score":0.714,"id":"a6lzsayih35u","geo_precision":"zip","cancelled":9},"type":"Feature","geometry":{"type":"Point","coordinates":[-90.35734,38.524498]}},{"properties":{"zip":"63129","geo_score":0.714,"id":"a6lzsb7chi9c","geo_precision":"zip","cancelled":10},"type":"Feature","geometry":{"type":"Point","coordinates":[-90.348728,38.485609]}},{"properties":{"zip":"63130","geo_score":0.714,"id":"a6lzsb0bj9pw","geo_precision":"zip","cancelled":15},"type":"Feature","geometry":{"type":"Point","coordinates":[-90.309281,38.655885]}},{"properties":{"zip":"63131","geo_score":0.714,"id":"a6lzsay1f12d","geo_precision":"zip","cancelled":13},"type":"Feature","geometry":{"type":"Point","coordinates":[-90.463453,38.612275]}},{"properties":{"zip":"63132","geo_score":0.714,"id":"a6lzsbcimlby","geo_precision":"zip","cancelled":14},"type":"Feature","geometry":{"type":"Point","coordinates":[-90.374716,38.674601]}},{"properties":{"zip":"63133","geo_score":0.714,"id":"a6lzsayfqj0m","geo_precision":"zip","cancelled":3},"type":"Feature","geometry":{"type":"Point","coordinates":[-90.284003,38.683385]}},{"properties":{"zip":"63134","geo_score":0.714,"id":"a6lzsb5lrdah","geo_precision":"zip","cancelled":2},"type":"Feature","geometry":{"type":"Point","coordinates":[-90.358449,38.725051]}},{"properties":{"zip":"63135","geo_score":0.714,"id":"a6lzsb2yh6r3","geo_precision":"zip","cancelled":2},"type":"Feature","geometry":{"type":"Point","coordinates":[-90.305392,38.744218]}},{"properties":{"zip":"63136","geo_score":0.714,"id":"a6lzsb0m7a5o","geo_precision":"zip","cancelled":18},"type":"Feature","geometry":{"type":"Point","coordinates":[-90.26039,38.719218]}},{"properties":{"zip":"63137","geo_score":0.714,"id":"a6lzsb1v0r5y","geo_precision":"zip","cancelled":9},"type":"Feature","geometry":{"type":"Point","coordinates":[-90.198443,38.753661]}},{"properties":{"zip":"63138","geo_score":0.714,"id":"a6lzsb38bzdq","geo_precision":"zip","cancelled":11},"type":"Feature","geometry":{"type":"Point","coordinates":[-90.215944,38.787828]}},{"properties":{"zip":"63139","geo_score":0.714,"id":"a6lzsbcix92u","geo_precision":"zip","cancelled":11},"type":"Feature","geometry":{"type":"Point","coordinates":[-90.291814,38.613501]}},{"properties":{"zip":"63141","geo_score":0.714,"id":"a6lzsbe0okk4","geo_precision":"zip","cancelled":2},"type":"Feature","geometry":{"type":"Point","coordinates":[-90.422618,38.660886]}},{"properties":{"zip":"63143","geo_score":0.714,"id":"a6lzsb6wvvg9","geo_precision":"zip","cancelled":1},"type":"Feature","geometry":{"type":"Point","coordinates":[-90.32456,38.612552]}},{"properties":{"zip":"63144","geo_score":0.714,"id":"a6lzsb6lz1l9","geo_precision":"zip","cancelled":1},"type":"Feature","geometry":{"type":"Point","coordinates":[-90.349283,38.617552]}},{"properties":{"zip":"63146","geo_score":0.714,"id":"a6lzsbapar6d","geo_precision":"zip","cancelled":5},"type":"Feature","geometry":{"type":"Point","coordinates":[-90.461818,38.703251]}},{"properties":{"zip":"63147","geo_score":0.714,"id":"a6lzsb04grlz","geo_precision":"zip","cancelled":12},"type":"Feature","geometry":{"type":"Point","coordinates":[-90.21968,38.6774]}},{"properties":{"zip":"63156","geo_score":0.714,"id":"a6lzsb2fv6ex","geo_precision":"zip","cancelled":2},"type":"Feature","geometry":{"type":"Point","coordinates":[-90.243462,38.6531]}},{"properties":{"zip":"63301","geo_score":0.714,"id":"a6lzsazit0un","geo_precision":"zip","cancelled":4},"type":"Feature","geometry":{"type":"Point","coordinates":[-90.523175,38.865328]}},{"properties":{"zip":"63303","geo_score":0.714,"id":"a6lzsb3sb49d","geo_precision":"zip","cancelled":5},"type":"Feature","geometry":{"type":"Point","coordinates":[-90.580678,38.745885]}},{"properties":{"zip":"63304","geo_score":0.714,"id":"a6lzsb9pxxjz","geo_precision":"zip","cancelled":3},"type":"Feature","geometry":{"type":"Point","coordinates":[-90.689293,38.713386]}},{"properties":{"zip":"63349","geo_score":0.714,"id":"a6lzsb16b2br","geo_precision":"zip","cancelled":3},"type":"Feature","geometry":{"type":"Point","coordinates":[-91.127211,38.980781]}},{"properties":{"zip":"63353","geo_score":0.714,"id":"a6lzsb6149xn","geo_precision":"zip","cancelled":3},"type":"Feature","geometry":{"type":"Point","coordinates":[-91.024858,39.372546]}},{"properties":{"zip":"63362","geo_score":0.714,"id":"a6lzsb4gakwu","geo_precision":"zip","cancelled":1},"type":"Feature","geometry":{"type":"Point","coordinates":[-90.913818,38.948248]}},{"properties":{"zip":"63366","geo_score":0.714,"id":"a6lzsbau0oc6","geo_precision":"zip","cancelled":5},"type":"Feature","geometry":{"type":"Point","coordinates":[-90.729016,38.769497]}},{"properties":{"zip":"63367","geo_score":0.714,"id":"a6lzsb8b8dfu","geo_precision":"zip","cancelled":1},"type":"Feature","geometry":{"type":"Point","coordinates":[-90.74284,38.791341]}},{"properties":{"zip":"63367","geo_score":0.714,"id":"a6lzsb1h1ntl","geo_precision":"zip","cancelled":9},"type":"Feature","geometry":{"type":"Point","coordinates":[-90.74284,38.791341]}},{"properties":{"zip":"63376","geo_score":0.714,"id":"a6lzsay7133i","geo_precision":"zip","cancelled":15},"type":"Feature","geometry":{"type":"Point","coordinates":[-90.661514,38.760608]}},{"properties":{"zip":"63379","geo_score":0.714,"id":"a6lzsb9s9rpf","geo_precision":"zip","cancelled":1},"type":"Feature","geometry":{"type":"Point","coordinates":[-91.019585,39.058102]}},{"properties":{"zip":"63385","geo_score":0.714,"id":"a6lzsayy4mnm","geo_precision":"zip","cancelled":2},"type":"Feature","geometry":{"type":"Point","coordinates":[-90.796518,38.842829]}},{"properties":{"zip":"63401","geo_score":0.714,"id":"a6lzsb5gb2dz","geo_precision":"zip","cancelled":4},"type":"Feature","geometry":{"type":"Point","coordinates":[-91.301257,39.672268]}},{"properties":{"zip":"63456","geo_score":0.714,"id":"a6lzsb96ry4w","geo_precision":"zip","cancelled":1},"type":"Feature","geometry":{"type":"Point","coordinates":[-91.756551,39.773654]}},{"properties":{"zip":"63501","geo_score":0.714,"id":"a6lzsb455lqd","geo_precision":"zip","cancelled":3},"type":"Feature","geometry":{"type":"Point","coordinates":[-92.488525,40.279755]}},{"properties":{"zip":"63601","geo_score":0.714,"id":"a6lzsb63hcpu","geo_precision":"zip","cancelled":7},"type":"Feature","geometry":{"type":"Point","coordinates":[-90.608738,37.844495]}},{"properties":{"zip":"63620","geo_score":0.714,"id":"a6lzsazzkdth","geo_precision":"zip","cancelled":2},"type":"Feature","geometry":{"type":"Point","coordinates":[-90.501507,37.38033]}},{"properties":{"zip":"63626","geo_score":0.714,"id":"a6lzsb6vyz25","geo_precision":"zip","cancelled":1},"type":"Feature","geometry":{"type":"Point","coordinates":[-90.740408,38.093107]}},{"properties":{"zip":"63628","geo_score":0.714,"id":"a6lzsbb0ci0u","geo_precision":"zip","cancelled":2},"type":"Feature","geometry":{"type":"Point","coordinates":[-90.46568,37.946997]}},{"properties":{"zip":"63629","geo_score":0.714,"id":"a6lzsb36ac4q","geo_precision":"zip","cancelled":1},"type":"Feature","geometry":{"type":"Point","coordinates":[-91.207476,37.45584]}},{"properties":{"zip":"63631","geo_score":0.714,"id":"a6lzsb4y3clo","geo_precision":"zip","cancelled":1},"type":"Feature","geometry":{"type":"Point","coordinates":[-90.809566,37.77726]}},{"properties":{"zip":"63638","geo_score":0.714,"id":"a6lzsb7xqhpq","geo_precision":"zip","cancelled":2},"type":"Feature","geometry":{"type":"Point","coordinates":[-90.896235,37.148383]}},{"properties":{"zip":"63640","geo_score":0.714,"id":"a6lzsb844onf","geo_precision":"zip","cancelled":12},"type":"Feature","geometry":{"type":"Point","coordinates":[-90.288176,37.703663]}},{"properties":{"zip":"63645","geo_score":0.714,"id":"a6lzsbc27ijd","geo_precision":"zip","cancelled":1},"type":"Feature","geometry":{"type":"Point","coordinates":[-90.288174,37.576442]}},{"properties":{"zip":"63650","geo_score":0.714,"id":"a6lzsb3fyrg0","geo_precision":"zip","cancelled":1},"type":"Feature","geometry":{"type":"Point","coordinates":[-90.679846,37.650327]}},{"properties":{"zip":"63655","geo_score":0.714,"id":"a6lzsb6r3ysx","geo_precision":"zip","cancelled":1},"type":"Feature","geometry":{"type":"Point","coordinates":[-90.226779,37.328942]}},{"properties":{"zip":"63665","geo_score":0.714,"id":"a6lzsb9tv29z","geo_precision":"zip","cancelled":1},"type":"Feature","geometry":{"type":"Point","coordinates":[-91.024337,37.327153]}},{"properties":{"zip":"63670","geo_score":0.714,"id":"a6lzsaye0uku","geo_precision":"zip","cancelled":9},"type":"Feature","geometry":{"type":"Point","coordinates":[-90.041779,37.981442]}},{"properties":{"zip":"63764","geo_score":0.714,"id":"a6lzsb1wuf6h","geo_precision":"zip","cancelled":1},"type":"Feature","geometry":{"type":"Point","coordinates":[-89.982306,37.306063]}},{"properties":{"zip":"63775","geo_score":0.714,"id":"a6lzsb9v813x","geo_precision":"zip","cancelled":3},"type":"Feature","geometry":{"type":"Point","coordinates":[-89.990111,37.683666]}},{"properties":{"zip":"63801","geo_score":0.714,"id":"a6lzsbbjd2ht","geo_precision":"zip","cancelled":2},"type":"Feature","geometry":{"type":"Point","coordinates":[-89.563988,37.027479]}},{"properties":{"zip":"63834","geo_score":0.714,"id":"a6lzsazy035m","geo_precision":"zip","cancelled":1},"type":"Feature","geometry":{"type":"Point","coordinates":[-89.381745,37.032272]}},{"properties":{"zip":"63841","geo_score":0.714,"id":"a6lzsb8k7wq8","geo_precision":"zip","cancelled":2},"type":"Feature","geometry":{"type":"Point","coordinates":[-89.98146,36.882467]}},{"properties":{"zip":"63869","geo_score":0.714,"id":"a6lzsbcesk5p","geo_precision":"zip","cancelled":2},"type":"Feature","geometry":{"type":"Point","coordinates":[-89.500632,36.688113]}},{"properties":{"zip":"63901","geo_score":0.714,"id":"a6lzsbadkp09","geo_precision":"zip","cancelled":4},"type":"Feature","geometry":{"type":"Point","coordinates":[-90.465113,36.766999]}},{"properties":{"zip":"63957","geo_score":0.714,"id":"a6lzsb124cxn","geo_precision":"zip","cancelled":1},"type":"Feature","geometry":{"type":"Point","coordinates":[-90.707898,37.075051]}},{"properties":{"zip":"64801","geo_score":0.714,"id":"a6lzsaysnlfv","geo_precision":"zip","cancelled":2},"type":"Feature","geometry":{"type":"Point","coordinates":[-94.519391,37.040895]}},{"properties":{"zip":"65069","geo_score":0.714,"id":"a6lzsbbhc5br","geo_precision":"zip","cancelled":1},"type":"Feature","geometry":{"type":"Point","coordinates":[-91.552112,38.735877]}},{"properties":{"zip":"65109","geo_score":0.714,"id":"a6lzsb2b7ct2","geo_precision":"zip","cancelled":1},"type":"Feature","geometry":{"type":"Point","coordinates":[-92.299267,38.550219]}},{"properties":{"zip":"65270","geo_score":0.714,"id":"a6lzsb82grlg","geo_precision":"zip","cancelled":1},"type":"Feature","geometry":{"type":"Point","coordinates":[-92.44407,39.395036]}},{"properties":{"zip":"65401","geo_score":0.714,"id":"a6lzsaz16mmm","geo_precision":"zip","cancelled":2},"type":"Feature","geometry":{"type":"Point","coordinates":[-91.755714,37.975042]}},{"properties":{"zip":"65441","geo_score":0.714,"id":"a6lzsb3ritt1","geo_precision":"zip","cancelled":1},"type":"Feature","geometry":{"type":"Point","coordinates":[-91.248694,38.10595]}},{"properties":{"zip":"65453","geo_score":0.714,"id":"a6lzsb39blo8","geo_precision":"zip","cancelled":6},"type":"Feature","geometry":{"type":"Point","coordinates":[-91.420709,38.20588]}},{"properties":{"zip":"65559","geo_score":0.714,"id":"a6lzsb5a1zke","geo_precision":"zip","cancelled":2},"type":"Feature","geometry":{"type":"Point","coordinates":[-91.652103,38.088377]}},{"properties":{"zip":"65560","geo_score":0.714,"id":"a6lzsb7kqw3c","geo_precision":"zip","cancelled":2},"type":"Feature","geometry":{"type":"Point","coordinates":[-91.484867,37.576155]}},{"properties":{"zip":"65565","geo_score":0.714,"id":"a6lzsbdce1d4","geo_precision":"zip","cancelled":3},"type":"Feature","geometry":{"type":"Point","coordinates":[-91.389035,37.875322]}},{"properties":{"zip":"65614","geo_score":0.714,"id":"a6lzsazuuofd","geo_precision":"zip","cancelled":1},"type":"Feature","geometry":{"type":"Point","coordinates":[-92.914606,36.722523]}},{"properties":{"zip":"65619","geo_score":0.714,"id":"a6lzsbcm7cu5","geo_precision":"zip","cancelled":2},"type":"Feature","geometry":{"type":"Point","coordinates":[-93.420192,37.163384]}},{"properties":{"zip":"65634","geo_score":0.714,"id":"a6lzsb5rwmum","geo_precision":"zip","cancelled":1},"type":"Feature","geometry":{"type":"Point","coordinates":[-93.141306,38.021421]}},{"properties":{"zip":"65653","geo_score":0.714,"id":"a6lzsbblkh7h","geo_precision":"zip","cancelled":2},"type":"Feature","geometry":{"type":"Point","coordinates":[-93.107824,36.726771]}},{"properties":{"zip":"65655","geo_score":0.714,"id":"a6lzsb0v4a39","geo_precision":"zip","cancelled":1},"type":"Feature","geometry":{"type":"Point","coordinates":[-92.415322,36.605575]}},{"properties":{"zip":"65679","geo_score":0.714,"id":"a6lzsay47tvv","geo_precision":"zip","cancelled":1},"type":"Feature","geometry":{"type":"Point","coordinates":[-93.110178,36.564231]}},{"properties":{"zip":"65712","geo_score":0.714,"id":"a6lzsb0hksgs","geo_precision":"zip","cancelled":5},"type":"Feature","geometry":{"type":"Point","coordinates":[-93.824061,37.064637]}},{"properties":{"zip":"65734","geo_score":0.714,"id":"a6lzsb646tf1","geo_precision":"zip","cancelled":2},"type":"Feature","geometry":{"type":"Point","coordinates":[-93.81381,36.770341]}},{"properties":{"zip":"65775","geo_score":0.714,"id":"a6lzsb4ikirh","geo_precision":"zip","cancelled":1},"type":"Feature","geometry":{"type":"Point","coordinates":[-92.006542,36.781448]}},{"properties":{"zip":"65803","geo_score":0.714,"id":"a6lzsbe2nuu4","geo_precision":"zip","cancelled":1},"type":"Feature","geometry":{"type":"Point","coordinates":[-93.247965,37.26588]}},{"properties":{"zip":"65804","geo_score":0.714,"id":"a6lzsb0snmzm","geo_precision":"zip","cancelled":1},"type":"Feature","geometry":{"type":"Point","coordinates":[-93.238034,37.151377]}},{"properties":{"zip":"66743","geo_score":0.714,"id":"a6lzsb3imy39","geo_precision":"zip","cancelled":1},"type":"Feature","geometry":{"type":"Point","coordinates":[-94.988026,37.514495]}},{"properties":{"zip":"72326","geo_score":0.714,"id":"a6lzsb2cyp7v","geo_precision":"zip","cancelled":1},"type":"Feature","geometry":{"type":"Point","coordinates":[-90.889489,35.088055]}},{"properties":{"zip":"72616","geo_score":0.714,"id":"a6lzsbbs78o6","geo_precision":"zip","cancelled":1},"type":"Feature","geometry":{"type":"Point","coordinates":[-93.5616,36.316779]}},{"properties":{"zip":"72619","geo_score":0.714,"id":"a6lzsbaezh96","geo_precision":"zip","cancelled":2},"type":"Feature","geometry":{"type":"Point","coordinates":[-92.629141,36.318875]}},{"properties":{"zip":"72712","geo_score":0.714,"id":"a6lzsbbec1yt","geo_precision":"zip","cancelled":1},"type":"Feature","geometry":{"type":"Point","coordinates":[-94.304098,36.315355]}},{"properties":{"zip":"99709","geo_score":0.714,"id":"a6lzsb2sp5pz","geo_precision":"zip","cancelled":1},"type":"Feature","geometry":{"type":"Point","coordinates":[-147.999791,64.860126]}}],"is_temporal":false,"author":{"url":"","metadata":"","contact_name":"","contact_address":"","source":"","contact_phone":""},"source":"","pagination":{"sort":null,"start":0,"total":223,"limit":1000000},"state":"complete","tags":"","published":"2012-06-22T16:00:00Z","id":254824}