{"type":"FeatureCollection","data_type":"Dataset","url_type":null,"permissions":[{"permissions":{"download":true,"view":true},"group_id":"everyone"}],"classification":null,"title":"aantallenTIN","count":72,"stream_id":255661,"contributor":{"url":"http://geocommons.com/users/48035","name":"bart@moelans.be"},"data_attributes":null,"calculation_params":null,"icon_link":null,"link":"http://geocommons.com/overlays/255661.json","extent":[2.95,50.0667,6.13333,51.3833],"geometry_types":["point"],"unique_name":null,"name":"aantallenTIN","feature_count":72,"description":"","next_feature":null,"is_raster":false,"short_classification":"Y","stats":{"count":{"max":37,"variance":47.4927621283256,"mean":5.73611111111111,"stdev":6.89149926564065,"min":1,"median":3}},"features":[{"properties":{"city":"Alken","geo_score":0.857,"count":7,"id":"a6odiiu6e9al","geo_precision":"zip"},"type":"Feature","geometry":{"type":"Point","coordinates":[5.3,50.8666667]}},{"properties":{"city":"As","geo_score":0.857,"count":4,"id":"a6odij8coz26","geo_precision":"zip"},"type":"Feature","geometry":{"type":"Point","coordinates":[4.2,50.9166667]}},{"properties":{"city":"Beersel","geo_score":0.857,"count":1,"id":"a6odij8e3pjy","geo_precision":"zip"},"type":"Feature","geometry":{"type":"Point","coordinates":[4.6666667,51.0666667]}},{"properties":{"city":"Bekkevoort","geo_score":0.857,"count":8,"id":"a6odij3kbav0","geo_precision":"zip"},"type":"Feature","geometry":{"type":"Point","coordinates":[4.9666667,50.95]}},{"properties":{"city":"Beringen","geo_score":0.857,"count":20,"id":"a6odija9ddm0","geo_precision":"zip"},"type":"Feature","geometry":{"type":"Point","coordinates":[5.2333333,51.0833333]}},{"properties":{"city":"Bilzen","geo_score":0.857,"count":20,"id":"a6odij989grj","geo_precision":"zip"},"type":"Feature","geometry":{"type":"Point","coordinates":[5.3833333,51.1166667]}},{"properties":{"city":"Bocholt","geo_score":0.857,"count":8,"id":"a6odij95w86m","geo_precision":"zip"},"type":"Feature","geometry":{"type":"Point","coordinates":[5.5666667,51.1666667]}},{"properties":{"city":"Bonheiden","geo_score":0.857,"count":1,"id":"a6odij04bnf6","geo_precision":"zip"},"type":"Feature","geometry":{"type":"Point","coordinates":[4.54891920089722,51.025389979107]}},{"properties":{"city":"Borgloon","geo_score":0.857,"count":3,"id":"a6odij0557oq","geo_precision":"zip"},"type":"Feature","geometry":{"type":"Point","coordinates":[4.5833333,51.3833333]}},{"properties":{"city":"Bree","geo_score":0.857,"count":8,"id":"a6odij76esi0","geo_precision":"zip"},"type":"Feature","geometry":{"type":"Point","coordinates":[3.6833333,50.9833333]}},{"properties":{"city":"Diepenbeek","geo_score":0.857,"count":4,"id":"a6odiixm7toc","geo_precision":"zip"},"type":"Feature","geometry":{"type":"Point","coordinates":[5.4,50.9]}},{"properties":{"city":"Diest","geo_score":0.857,"count":10,"id":"a6odij8l8tqd","geo_precision":"zip"},"type":"Feature","geometry":{"type":"Point","coordinates":[5.05,50.9833333]}},{"properties":{"city":"Dilsen-Stokkem","geo_score":0.0,"count":8,"id":"a6odij1f0y95","geo_precision":"unmatched"},"type":"Feature","geometry":null},{"properties":{"city":"Eisden","geo_score":0.857,"count":1,"id":"a6odij3c4h3b","geo_precision":"zip"},"type":"Feature","geometry":{"type":"Point","coordinates":[5.5666667,50.2833333]}},{"properties":{"city":"Geel","geo_score":0.857,"count":1,"id":"a6odij9w1izq","geo_precision":"zip"},"type":"Feature","geometry":{"type":"Point","coordinates":[4.4833333,50.4166667]}},{"properties":{"city":"Geetbets","geo_score":0.857,"count":1,"id":"a6odij8m769x","geo_precision":"zip"},"type":"Feature","geometry":{"type":"Point","coordinates":[5.1,50.8833333]}},{"properties":{"city":"Genk","geo_score":0.857,"count":29,"id":"a6odiiu0pvc5","geo_precision":"zip"},"type":"Feature","geometry":{"type":"Point","coordinates":[5.5,50.9333333333333]}},{"properties":{"city":"Halen","geo_score":0.857,"count":3,"id":"a6odij046abf","geo_precision":"zip"},"type":"Feature","geometry":{"type":"Point","coordinates":[6.1333333,50.45]}},{"properties":{"city":"Ham","geo_score":0.857,"count":4,"id":"a6odij20oseg","geo_precision":"zip"},"type":"Feature","geometry":{"type":"Point","coordinates":[4.3833333,50.3166667]}},{"properties":{"city":"Hamont-Achel","geo_score":0.0,"count":4,"id":"a6odij5znamk","geo_precision":"unmatched"},"type":"Feature","geometry":null},{"properties":{"city":"Hasselt","geo_score":0.857,"count":37,"id":"a6odiix689mx","geo_precision":"zip"},"type":"Feature","geometry":{"type":"Point","coordinates":[5.4833333,50.85]}},{"properties":{"city":"Hechtel-Eksel","geo_score":0.0,"count":1,"id":"a6odiixx5j8b","geo_precision":"unmatched"},"type":"Feature","geometry":null},{"properties":{"city":"Heers","geo_score":0.857,"count":3,"id":"a6odiizabcnf","geo_precision":"zip"},"type":"Feature","geometry":{"type":"Point","coordinates":[5.6666667,50.4333333]}},{"properties":{"city":"Heers","geo_score":0.857,"count":3,"id":"a6odij9t5vk6","geo_precision":"zip"},"type":"Feature","geometry":{"type":"Point","coordinates":[5.6666667,50.4333333]}},{"properties":{"city":"Heist-op-den-Berg","geo_score":0.857,"count":1,"id":"a6odiivkgjlr","geo_precision":"zip"},"type":"Feature","geometry":{"type":"Point","coordinates":[4.7166667,51.0666667]}},{"properties":{"city":"Herentals","geo_score":0.857,"count":1,"id":"a6odij8y8wb1","geo_precision":"zip"},"type":"Feature","geometry":{"type":"Point","coordinates":[4.8333333,51.1666667]}},{"properties":{"city":"Herk-de-Stad","geo_score":0.857,"count":4,"id":"a6odiixsafvc","geo_precision":"zip"},"type":"Feature","geometry":{"type":"Point","coordinates":[5.1666667,50.9333333]}},{"properties":{"city":"Heusden-Zolder","geo_score":0.857,"count":24,"id":"a6odij61wbat","geo_precision":"zip"},"type":"Feature","geometry":{"type":"Point","coordinates":[3.8333333,51.0166667]}},{"properties":{"city":"Hoegaarden","geo_score":0.857,"count":1,"id":"a6odij3xrhrk","geo_precision":"zip"},"type":"Feature","geometry":{"type":"Point","coordinates":[4.8833333,50.7833333]}},{"properties":{"city":"Hoeselt","geo_score":0.857,"count":3,"id":"a6odij52rysu","geo_precision":"zip"},"type":"Feature","geometry":{"type":"Point","coordinates":[5.4833333,50.85]}},{"properties":{"city":"Holsbeek","geo_score":0.857,"count":1,"id":"a6odij2zav56","geo_precision":"zip"},"type":"Feature","geometry":{"type":"Point","coordinates":[5.116667,50.9]}},{"properties":{"city":"Houthalen-Helchteren","geo_score":0.0,"count":11,"id":"a6odiiw23v1e","geo_precision":"unmatched"},"type":"Feature","geometry":null},{"properties":{"city":"Kinrooi","geo_score":0.857,"count":4,"id":"a6odij631pa5","geo_precision":"zip"},"type":"Feature","geometry":{"type":"Point","coordinates":[5.7333333,51.15]}},{"properties":{"city":"Kortenaken","geo_score":0.857,"count":2,"id":"a6odiiv5ihsh","geo_precision":"zip"},"type":"Feature","geometry":{"type":"Point","coordinates":[3.5,50.85]}},{"properties":{"city":"Kortenberg","geo_score":0.857,"count":1,"id":"a6odij13cm9q","geo_precision":"zip"},"type":"Feature","geometry":{"type":"Point","coordinates":[4.5333333,50.8833333]}},{"properties":{"city":"Kortessem","geo_score":0.857,"count":1,"id":"a6odij08iy5u","geo_precision":"zip"},"type":"Feature","geometry":{"type":"Point","coordinates":[4.433333,50.616667]}},{"properties":{"city":"Lanaken","geo_score":0.857,"count":8,"id":"a6odiiz6qgdy","geo_precision":"zip"},"type":"Feature","geometry":{"type":"Point","coordinates":[5.6333333,50.9]}},{"properties":{"city":"Leopoldsburg","geo_score":0.857,"count":10,"id":"a6odij2xjik5","geo_precision":"zip"},"type":"Feature","geometry":{"type":"Point","coordinates":[5.25,51.1166667]}},{"properties":{"city":"Leuven","geo_score":0.857,"count":4,"id":"a6odij5o8ogy","geo_precision":"zip"},"type":"Feature","geometry":{"type":"Point","coordinates":[4.25,50.1]}},{"properties":{"city":"Linter","geo_score":0.857,"count":1,"id":"a6odij9dk23t","geo_precision":"zip"},"type":"Feature","geometry":{"type":"Point","coordinates":[5.05,50.8166667]}},{"properties":{"city":"Lommel","geo_score":0.857,"count":12,"id":"a6odij66m0at","geo_precision":"zip"},"type":"Feature","geometry":{"type":"Point","coordinates":[5.1666667,50.5166667]}},{"properties":{"city":"Lubbeek","geo_score":0.857,"count":2,"id":"a6odij4unp1u","geo_precision":"zip"},"type":"Feature","geometry":{"type":"Point","coordinates":[4.1833333,51.15]}},{"properties":{"city":"Lummen","geo_score":0.857,"count":6,"id":"a6odij2pmn8w","geo_precision":"zip"},"type":"Feature","geometry":{"type":"Point","coordinates":[5.4833333,50.6]}},{"properties":{"city":"Luyksgestel","geo_score":0.0,"count":1,"id":"a6odiiz9fo4a","geo_precision":"unmatched"},"type":"Feature","geometry":null},{"properties":{"city":"Maaseik","geo_score":0.857,"count":14,"id":"a6odiiz3hzn5","geo_precision":"zip"},"type":"Feature","geometry":{"type":"Point","coordinates":[2.95,51.0666667]}},{"properties":{"city":"Maasmechelen","geo_score":0.857,"count":13,"id":"a6odij07rg17","geo_precision":"zip"},"type":"Feature","geometry":{"type":"Point","coordinates":[5.7,50.9666667]}},{"properties":{"city":"Meeuwen-Gruitrode","geo_score":0.0,"count":11,"id":"a6odij465bse","geo_precision":"unmatched"},"type":"Feature","geometry":null},{"properties":{"city":"Mol","geo_score":0.857,"count":1,"id":"a6odij7nktg1","geo_precision":"zip"},"type":"Feature","geometry":{"type":"Point","coordinates":[5.2666667,50.7]}},{"properties":{"city":"Neerpelt","geo_score":0.857,"count":13,"id":"a6odij9vd324","geo_precision":"zip"},"type":"Feature","geometry":{"type":"Point","coordinates":[5.4166667,51.2166667]}},{"properties":{"city":"Nieuwerkerken (Limb.)","geo_score":0.857,"count":5,"id":"a6odiiyas00p","geo_precision":"zip"},"type":"Feature","geometry":{"type":"Point","coordinates":[5.1833333,50.8666667]}},{"properties":{"city":"Nijlen","geo_score":0.857,"count":1,"id":"a6odij9e0dcq","geo_precision":"zip"},"type":"Feature","geometry":{"type":"Point","coordinates":[4.6666667,51.1666667]}},{"properties":{"city":"Opglabbeek","geo_score":0.857,"count":6,"id":"a6odiiylhiev","geo_precision":"zip"},"type":"Feature","geometry":{"type":"Point","coordinates":[5.5666667,51.0333333]}},{"properties":{"city":"Overpelt","geo_score":0.857,"count":5,"id":"a6odij5bhmqm","geo_precision":"zip"},"type":"Feature","geometry":{"type":"Point","coordinates":[5.4166667,51.2166667]}},{"properties":{"city":"Peer","geo_score":0.857,"count":5,"id":"a6odij7etnb7","geo_precision":"zip"},"type":"Feature","geometry":{"type":"Point","coordinates":[3.7166667,50.7333333]}},{"properties":{"city":"Riemst","geo_score":0.857,"count":3,"id":"a6odiizcxlfo","geo_precision":"zip"},"type":"Feature","geometry":{"type":"Point","coordinates":[4.4166667,51.0666667]}},{"properties":{"city":"Rotselaar","geo_score":0.857,"count":1,"id":"a6odiizs7eid","geo_precision":"zip"},"type":"Feature","geometry":{"type":"Point","coordinates":[4.74974155426025,50.9261396707041]}},{"properties":{"city":"Scherpenheuvel-Zichem","geo_score":0.0,"count":6,"id":"a6odij5s6gsn","geo_precision":"unmatched"},"type":"Feature","geometry":null},{"properties":{"city":"St-Truiden","geo_score":0.857,"count":9,"id":"a6odiiw65ruq","geo_precision":"zip"},"type":"Feature","geometry":{"type":"Point","coordinates":[3.8,50.8]}},{"properties":{"city":"Tessenderlo","geo_score":0.857,"count":1,"id":"a6odij7ym98y","geo_precision":"zip"},"type":"Feature","geometry":{"type":"Point","coordinates":[5.0833333,51.0666667]}},{"properties":{"city":"Tielt-Winge","geo_score":0.0,"count":1,"id":"a6odij6cva76","geo_precision":"unmatched"},"type":"Feature","geometry":null},{"properties":{"city":"Tienen","geo_score":0.857,"count":1,"id":"a6odiiv4xr86","geo_precision":"zip"},"type":"Feature","geometry":{"type":"Point","coordinates":[5.8333333,50.1333333]}},{"properties":{"city":"Tongeren","geo_score":0.857,"count":12,"id":"a6odiiw0hx1r","geo_precision":"zip"},"type":"Feature","geometry":{"type":"Point","coordinates":[5.45,50.7833333]}},{"properties":{"city":"Tremelo","geo_score":0.857,"count":1,"id":"a6odij0nob3i","geo_precision":"zip"},"type":"Feature","geometry":{"type":"Point","coordinates":[5.083333,50.816667]}},{"properties":{"city":"Voeren","geo_score":0.857,"count":1,"id":"a6odiixdh101","geo_precision":"zip"},"type":"Feature","geometry":{"type":"Point","coordinates":[4.7166667,50.0833333]}},{"properties":{"city":"Wellen","geo_score":0.857,"count":2,"id":"a6odijaby8zc","geo_precision":"zip"},"type":"Feature","geometry":{"type":"Point","coordinates":[5.1166667,50.0666667]}},{"properties":{"city":"Wellen","geo_score":0.857,"count":2,"id":"a6odij29rdmt","geo_precision":"zip"},"type":"Feature","geometry":{"type":"Point","coordinates":[5.1166667,50.0666667]}},{"properties":{"city":"Zemst","geo_score":0.857,"count":1,"id":"a6odij5iiyvq","geo_precision":"zip"},"type":"Feature","geometry":{"type":"Point","coordinates":[4.4333333,50.9833333]}},{"properties":{"city":"Zoersel","geo_score":0.857,"count":1,"id":"a6odij784usi","geo_precision":"zip"},"type":"Feature","geometry":{"type":"Point","coordinates":[4.7,51.2666667]}},{"properties":{"city":"Zonhoven","geo_score":0.857,"count":7,"id":"a6odij5vz0wt","geo_precision":"zip"},"type":"Feature","geometry":{"type":"Point","coordinates":[5.4666667,50.9833333]}},{"properties":{"city":"Zoutleeuw","geo_score":0.857,"count":1,"id":"a6odiiyw0o96","geo_precision":"zip"},"type":"Feature","geometry":{"type":"Point","coordinates":[5.1,50.85]}},{"properties":{"city":"Zutendaal","geo_score":0.857,"count":1,"id":"a6odij5i8wbf","geo_precision":"zip"},"type":"Feature","geometry":{"type":"Point","coordinates":[5.5666667,50.9333333]}},{"properties":{"city":"Zuurbemde","geo_score":0.857,"count":1,"id":"a6odijae8ded","geo_precision":"zip"},"type":"Feature","geometry":{"type":"Point","coordinates":[4.966667,50.883333]}}],"is_temporal":false,"author":{"url":"","metadata":"","contact_name":"","contact_address":"","source":"","contact_phone":""},"source":"","pagination":{"sort":null,"start":0,"total":72,"limit":1000000},"state":"complete","tags":"test","published":"2014-08-14T22:22:28-04:00","id":255661}