{"type":"FeatureCollection","data_type":"Dataset","url_type":null,"permissions":[{"permissions":{"download":true,"view":true},"group_id":"everyone"}],"classification":null,"title":"REO Dist LND MTD JUNE 25","count":198,"stream_id":255859,"contributor":{"url":"http://geocommons.com/users/39447","name":"sam.felipe"},"data_attributes":null,"calculation_params":null,"icon_link":null,"link":"http://geocommons.com/overlays/255859.json","extent":[-122.925,32.6307,-114.414,40.6599],"geometry_types":["point"],"unique_name":null,"name":"REO Dist LND MTD JUNE 25","feature_count":198,"description":"","next_feature":null,"is_raster":false,"short_classification":"Y","stats":{"id":{"max":15601,"variance":1933039.51689484,"mean":14659.6161616162,"stdev":1390.33791464336,"min":6432,"median":15094}},"features":[{"properties":{"city":"Walnut Creek","createddate":"2/2/2012 14:46","iscurativefile":"FALSE","zip":"94597","openeddate":"4/23/2012 0:00","referringcustomerfilenumber":"11 0046447","outofstatestatus":"Not Applicable","task completed date":"6/8/2012","region":"South Northern California","countyname":"Contra Costa","closeddate":"7/23/2012 0:00","isclosed":"FALSE","geo_score":0.902,"id":"a6oksraqvf4m","filenumber":"473908","filetransactiontype":"Escrow Only","escrowofficername":"Denise Fall","titleunit":"LandSafe Title","referringcustomer":"LandSafe_CA","primarycurativetech":"Unassigned","contract in task":"Contract In Tasks","secondarycurativetech":"Unassigned","branchoffice":"Modesto","isescalated":"FALSE","address":"179 Vista Hermosa","propertyaddressline2":null,"filenotes":"Previous file # 442885\r\n\r\nold file # 462383","geo_precision":"range","state":"California"},"type":"Feature","geometry":{"type":"Point","coordinates":[-122.073015,37.903724]}},{"properties":{"city":"El Sobrante","createddate":"2/2/2012 15:01","iscurativefile":"FALSE","zip":"94803","openeddate":"6/6/2012 0:00","referringcustomerfilenumber":"11-0096173","outofstatestatus":"Completed","task completed date":"6/6/2012","region":"North Northern California","countyname":"Contra Costa","closeddate":"6/22/2012 0:00","isclosed":"TRUE","geo_score":0.902,"id":"a6oksrafhnqr","filenumber":"473073","filetransactiontype":"Escrow Only","escrowofficername":"Rheanna Gieseking","titleunit":"LandSafe Title","referringcustomer":"LandSafe_CA","primarycurativetech":"Unassigned","contract in task":"Contract In Tasks","secondarycurativetech":"Unassigned","branchoffice":"Danville","isescalated":"FALSE","address":"830 Solano Ct","propertyaddressline2":null,"filenotes":"Previous file# 442901","geo_precision":"range","state":"California"},"type":"Feature","geometry":{"type":"Point","coordinates":[-122.306285,37.977589]}},{"properties":{"city":"Desert Hot Springs","createddate":"3/8/2012 15:04","iscurativefile":"FALSE","zip":"92240","openeddate":"6/20/2012 0:00","referringcustomerfilenumber":"11-0034969","outofstatestatus":"Not Applicable","task completed date":"6/20/2012","region":"Inland Empire","countyname":"Riverside","closeddate":"7/18/2012 0:00","isclosed":"FALSE","geo_score":0.587,"id":"a6oksr35eg0q","filenumber":"476973","filetransactiontype":"Escrow Only","escrowofficername":"Cindy (Cynthia) Solomon (Goodgion)","titleunit":"LandSafe Title","referringcustomer":"LandSafe_CA","primarycurativetech":"Unassigned","contract in task":"Contract In Tasks","secondarycurativetech":"Unassigned","branchoffice":"Palm Desert","isescalated":"FALSE","address":"12831 Cholla Dr","propertyaddressline2":null,"filenotes":"Previous file # 451673\r\nPrevious file # 464450","geo_precision":"street","state":"California"},"type":"Feature","geometry":{"type":"Point","coordinates":[-116.514454,33.9541]}},{"properties":{"city":"Castaic","createddate":"3/21/2012 14:58","iscurativefile":"FALSE","zip":"91384","openeddate":"6/20/2012 0:00","referringcustomerfilenumber":"11-0110220","outofstatestatus":"Not Applicable","task completed date":"6/20/2012","region":"Los Angeles - Ventura California","countyname":"Los Angeles","closeddate":"7/24/2012 0:00","isclosed":"FALSE","geo_score":0.782,"id":"a6oksrbiwhcl","filenumber":"476925","filetransactiontype":"Escrow Only","escrowofficername":"Julie Mayorga","titleunit":"LandSafe Title","referringcustomer":"LandSafe_CA","primarycurativetech":"Unassigned","contract in task":"Contract In Tasks","secondarycurativetech":"Unassigned","branchoffice":"L.A.-Subdivision","isescalated":"FALSE","address":"31355 The Old Road Unit E","propertyaddressline2":null,"filenotes":"old file # 454667","geo_precision":"range","state":"California"},"type":"Feature","geometry":{"type":"Point","coordinates":[-118.621236,34.488773]}},{"properties":{"city":"Rancho Santa Margarita","createddate":"3/28/2012 10:45","iscurativefile":"FALSE","zip":"92688","openeddate":"3/28/2012 0:00","referringcustomerfilenumber":"11-0089339","outofstatestatus":"Not Applicable","task completed date":"6/4/2012","region":"So. California","countyname":"Orange","closeddate":"7/15/2012 0:00","isclosed":"FALSE","geo_score":0.902,"id":"a6oksr8g9yki","filenumber":"472316","filetransactiontype":"Escrow Only","escrowofficername":"Arwen Estelle","titleunit":"LandSafe Title","referringcustomer":"LandSafe_CA","primarycurativetech":"Unassigned","contract in task":"Contract In Tasks","secondarycurativetech":"Unassigned","branchoffice":"Irvine","isescalated":"FALSE","address":"16 San Carlos","propertyaddressline2":null,"filenotes":"old file # 456325","geo_precision":"range","state":"California"},"type":"Feature","geometry":{"type":"Point","coordinates":[-117.58459,33.640951]}},{"properties":{"city":"Hanford","createddate":"3/29/2012 13:04","iscurativefile":"FALSE","zip":"93230","openeddate":"3/29/2012 0:00","referringcustomerfilenumber":"11-0107792","outofstatestatus":"Not Applicable","task completed date":"6/21/2012","region":"Central California","countyname":"Kings","closeddate":"8/15/2012 0:00","isclosed":"FALSE","geo_score":0.902,"id":"a6oksqx7pvf5","filenumber":"477420","filetransactiontype":"Title &amp; Escrow","escrowofficername":"Cheryl Amos","titleunit":"CA CPU Title-Kevin","referringcustomer":"LandSafe_CA","primarycurativetech":"Unassigned","contract in task":"Contract In Tasks","secondarycurativetech":"Unassigned","branchoffice":"Hanford","isescalated":"FALSE","address":"2635 Lake Way","propertyaddressline2":null,"filenotes":"old file # 456833","geo_precision":"range","state":"California"},"type":"Feature","geometry":{"type":"Point","coordinates":[-119.635323,36.358412]}},{"properties":{"city":"Bermuda Dunes","createddate":"3/30/2012 15:44","iscurativefile":"FALSE","zip":"92203","openeddate":"3/30/2012 0:00","referringcustomerfilenumber":"11-0134426","outofstatestatus":"Completed","task completed date":"6/8/2012","region":"Inland Empire","countyname":"Riverside","closeddate":"6/22/2012 0:00","isclosed":"TRUE","geo_score":0.488,"id":"a6oksr4mnq7s","filenumber":"474062","filetransactiontype":"Escrow Only","escrowofficername":"Mary Hudson","titleunit":"LandSafe Title","referringcustomer":"LandSafe_CA","primarycurativetech":"Unassigned","contract in task":"Contract In Tasks","secondarycurativetech":"Unassigned","branchoffice":"Riverside","isescalated":"FALSE","address":"40754 Starlight Lane","propertyaddressline2":null,"filenotes":"old file # 457171","geo_precision":"zip","state":"California"},"type":"Feature","geometry":{"type":"Point","coordinates":[-116.26764,33.75317]}},{"properties":{"city":"Huntington Park","createddate":"3/30/2012 15:59","iscurativefile":"FALSE","zip":"90255","openeddate":"6/5/2012 0:00","referringcustomerfilenumber":"11-0136430","outofstatestatus":"Not Applicable","task completed date":"6/5/2012","region":"Los Angeles - Ventura California","countyname":"Los Angeles","closeddate":"6/22/2012 0:00","isclosed":"FALSE","geo_score":0.902,"id":"a6oksr6dvq7g","filenumber":"472656","filetransactiontype":"Escrow Only","escrowofficername":"Melinda Thorp","titleunit":"LandSafe Title","referringcustomer":"LandSafe_CA","primarycurativetech":"Unassigned","contract in task":"Contract In Tasks","secondarycurativetech":"Unassigned","branchoffice":"Glendale","isescalated":"FALSE","address":"3054 Olive St","propertyaddressline2":null,"filenotes":"Previous file # 457179","geo_precision":"range","state":"California"},"type":"Feature","geometry":{"type":"Point","coordinates":[-118.214477,33.967205]}},{"properties":{"city":"Visalia","createddate":"4/4/2012 13:32","iscurativefile":"FALSE","zip":"93292","openeddate":"4/4/2012 0:00","referringcustomerfilenumber":"12-0028181","outofstatestatus":"Not Applicable","task completed date":"6/21/2012","region":"Central California","countyname":"Tulare","closeddate":"7/27/2012 0:00","isclosed":"FALSE","geo_score":0.902,"id":"a6oksqypsn3f","filenumber":"477269","filetransactiontype":"Escrow Only","escrowofficername":"Karen Sigda","titleunit":"LandSafe Title","referringcustomer":"LandSafe_CA","primarycurativetech":"Unassigned","contract in task":"Contract In Tasks","secondarycurativetech":"Unassigned","branchoffice":"Visalia","isescalated":"FALSE","address":"123 North Simon St","propertyaddressline2":null,"filenotes":"old file# 458039","geo_precision":"range","state":"California"},"type":"Feature","geometry":{"type":"Point","coordinates":[-119.254296,36.330503]}},{"properties":{"city":"Lemon Grove","createddate":"4/6/2012 11:29","iscurativefile":"FALSE","zip":"91945","openeddate":"6/13/2012 0:00","referringcustomerfilenumber":"12-0020356","outofstatestatus":"Not Applicable","task completed date":"6/13/2012","region":"So. California","countyname":"San Diego","closeddate":"7/24/2012 0:00","isclosed":"FALSE","geo_score":0.902,"id":"a6oksrc7xwuy","filenumber":"475188","filetransactiontype":"Escrow Only","escrowofficername":"Irene Casey","titleunit":"LandSafe Title","referringcustomer":"LandSafe_CA","primarycurativetech":"Unassigned","contract in task":"Contract In Tasks","secondarycurativetech":"Unassigned","branchoffice":"Carlsbad","isescalated":"FALSE","address":"7429 Beryl Street","propertyaddressline2":null,"filenotes":"old file # 458626\r\nold file # 467886","geo_precision":"range","state":"California"},"type":"Feature","geometry":{"type":"Point","coordinates":[-117.036175,32.729638]}},{"properties":{"city":"Fresno","createddate":"4/10/2012 17:03","iscurativefile":"FALSE","zip":"93720","openeddate":"6/12/2012 0:00","referringcustomerfilenumber":"11-0082535","outofstatestatus":"Not Applicable","task completed date":"6/12/2012","region":"Central California","countyname":"Fresno","closeddate":"7/26/2012 0:00","isclosed":"FALSE","geo_score":0.902,"id":"a6oksr1njk4g","filenumber":"474788","filetransactiontype":"Escrow Only","escrowofficername":"Claudia Froelich","titleunit":"LandSafe Title","referringcustomer":"LandSafe_CA","primarycurativetech":"Unassigned","contract in task":"Contract In Tasks","secondarycurativetech":"Unassigned","branchoffice":"Fresno","isescalated":"FALSE","address":"8167 N Barton Ave","propertyaddressline2":null,"filenotes":"Previous file # 459681","geo_precision":"range","state":"California"},"type":"Feature","geometry":{"type":"Point","coordinates":[-119.751896,36.854598]}},{"properties":{"city":"Chula Vista","createddate":"4/23/2012 12:02","iscurativefile":"FALSE","zip":"91910","openeddate":"5/8/2012 0:00","referringcustomerfilenumber":"12-0001978","outofstatestatus":"Not Applicable","task completed date":"6/5/2012","region":"Inland Empire","countyname":"San Diego","closeddate":"7/6/2012 0:00","isclosed":"FALSE","geo_score":0.902,"id":"a6oksrcl6ald","filenumber":"472845","filetransactiontype":"Escrow Only","escrowofficername":"(Loreen) Dorothy Hope","titleunit":"LandSafe Title","referringcustomer":"LandSafe_CA","primarycurativetech":"Unassigned","contract in task":"Contract In Tasks","secondarycurativetech":"Unassigned","branchoffice":"Murrieta","isescalated":"FALSE","address":"772 Bajo Court","propertyaddressline2":null,"filenotes":"old file # 462421\r\n\r\nOld file # 466158","geo_precision":"range","state":"California"},"type":"Feature","geometry":{"type":"Point","coordinates":[-117.028267,32.630719]}},{"properties":{"city":"Saugus","createddate":"4/23/2012 16:17","iscurativefile":"FALSE","zip":"91350","openeddate":"6/4/2012 0:00","referringcustomerfilenumber":"12-0016606","outofstatestatus":"Not Applicable","task completed date":"6/4/2012","region":"Los Angeles - Ventura California","countyname":"Los Angeles","closeddate":"7/24/2012 0:00","isclosed":"FALSE","geo_score":0.519,"id":"a6oksrccu9k4","filenumber":"472487","filetransactiontype":"Escrow Only","escrowofficername":"Melinda Thorp","titleunit":"LandSafe Title","referringcustomer":"LandSafe_CA","primarycurativetech":"Unassigned","contract in task":"Contract In Tasks","secondarycurativetech":"Unassigned","branchoffice":"Glendale","isescalated":"FALSE","address":"28529 Curtis Alan Place","propertyaddressline2":null,"filenotes":"old file # 462459","geo_precision":"street","state":"California"},"type":"Feature","geometry":{"type":"Point","coordinates":[-118.773645,34.114726]}},{"properties":{"city":"El Dorado Hills","createddate":"4/24/2012 10:43","iscurativefile":"FALSE","zip":"95762","openeddate":"4/24/2012 0:00","referringcustomerfilenumber":"11-0045053","outofstatestatus":"Not Applicable","task completed date":"6/6/2012","region":"South Northern California","countyname":"El Dorado","closeddate":"5/26/2012 0:00","isclosed":"FALSE","geo_score":0.488,"id":"a6oksr3lb4v6","filenumber":"473228","filetransactiontype":"Title &amp; Escrow","escrowofficername":"Debra Greene","titleunit":"CA CPU Title-Kevin","referringcustomer":"LandSafe_CA","primarycurativetech":"Unassigned","contract in task":"Contract In Tasks","secondarycurativetech":"Unassigned","branchoffice":"Modesto","isescalated":"FALSE","address":"1618 Daunting Dr","propertyaddressline2":null,"filenotes":"Old file# 462726","geo_precision":"zip","state":"California"},"type":"Feature","geometry":{"type":"Point","coordinates":[-121.044846,38.686847]}},{"properties":{"city":"Phelan","createddate":"4/24/2012 18:26","iscurativefile":"FALSE","zip":"92371","openeddate":"4/24/2012 0:00","referringcustomerfilenumber":"12-0006811","outofstatestatus":"Not Applicable","task completed date":"6/7/2012","region":"Inland Empire","countyname":"San Bernardino","closeddate":"8/3/2012 0:00","isclosed":"FALSE","geo_score":0.902,"id":"a6oksqy3j7m2","filenumber":"473555","filetransactiontype":"Escrow Only","escrowofficername":"Diana Price","titleunit":"LandSafe Title","referringcustomer":"LandSafe_CA","primarycurativetech":"Unassigned","contract in task":"Contract In Tasks","secondarycurativetech":"Unassigned","branchoffice":"Murrieta","isescalated":"FALSE","address":"5173 Joshua Tree Ln","propertyaddressline2":null,"filenotes":"old file# 462982","geo_precision":"range","state":"California"},"type":"Feature","geometry":{"type":"Point","coordinates":[-117.54974,34.48084]}},{"properties":{"city":"Port Hueneme","createddate":"4/26/2012 14:19","iscurativefile":"FALSE","zip":"93041","openeddate":"6/4/2012 0:00","referringcustomerfilenumber":"12-0040399","outofstatestatus":"Completed","task completed date":"6/4/2012","region":"Los Angeles - Ventura California","countyname":"Ventura","closeddate":"6/22/2012 0:00","isclosed":"TRUE","geo_score":0.61,"id":"a6oksr1kqt7j","filenumber":"472327","filetransactiontype":"Escrow Only","escrowofficername":"Araceli De Lara-Michel","titleunit":"LandSafe Title","referringcustomer":"LandSafe_CA","primarycurativetech":"Unassigned","contract in task":"Contract In Tasks","secondarycurativetech":"Unassigned","branchoffice":"Ventura","isescalated":"FALSE","address":"255 South Ventura Rd, 227","propertyaddressline2":null,"filenotes":"old file # 463391","geo_precision":"range","state":"California"},"type":"Feature","geometry":{"type":"Point","coordinates":[-119.195546,34.145462]}},{"properties":{"city":"Los Angeles","createddate":"4/27/2012 9:25","iscurativefile":"FALSE","zip":"91303","openeddate":"4/27/2012 0:00","referringcustomerfilenumber":"11-0133130","outofstatestatus":"Not Applicable","task completed date":"6/5/2012","region":"Los Angeles - Ventura California","countyname":"Los Angeles","closeddate":"6/22/2012 0:00","isclosed":"FALSE","geo_score":0.805,"id":"a6oksr867dmo","filenumber":"472716","filetransactiontype":"Escrow Only","escrowofficername":"Melinda Thorp","titleunit":"LandSafe Title","referringcustomer":"LandSafe_CA","primarycurativetech":"Unassigned","contract in task":"Contract In Tasks","secondarycurativetech":"Unassigned","branchoffice":"Glendale","isescalated":"FALSE","address":"7317 Loma Verde Ave","propertyaddressline2":null,"filenotes":"old file# 463618","geo_precision":"range","state":"California"},"type":"Feature","geometry":{"type":"Point","coordinates":[-118.589654,34.204382]}},{"properties":{"city":"San Francisco","createddate":"4/27/2012 14:07","iscurativefile":"FALSE","zip":"94134","openeddate":"4/27/2012 0:00","referringcustomerfilenumber":"12-0016145","outofstatestatus":"Not Applicable","task completed date":"6/4/2012","region":"North Northern California","countyname":"San Francisco","closeddate":"5/31/2012 0:00","isclosed":"FALSE","geo_score":0.902,"id":"a6oksr4stpl0","filenumber":"463746","filetransactiontype":"Escrow Only","escrowofficername":"Sandy Veveiros","titleunit":"LandSafe Title","referringcustomer":"LandSafe_CA","primarycurativetech":"Unassigned","contract in task":"Contract In Tasks","secondarycurativetech":"Unassigned","branchoffice":"Santa Rosa","isescalated":"FALSE","address":"1410 Sunnydale Ave","propertyaddressline2":null,"filenotes":null,"geo_precision":"range","state":"California"},"type":"Feature","geometry":{"type":"Point","coordinates":[-122.415901,37.711959]}},{"properties":{"city":"Palm Desert","createddate":"5/1/2012 9:54","iscurativefile":"FALSE","zip":"92211","openeddate":"5/1/2012 0:00","referringcustomerfilenumber":"12-0022561","outofstatestatus":"Not Applicable","task completed date":"6/4/2012","region":"Inland Empire","countyname":"Riverside","closeddate":"7/9/2012 0:00","isclosed":"FALSE","geo_score":0.88,"id":"a6oksqxik1tb","filenumber":"472247","filetransactiontype":"Escrow Only","escrowofficername":"Cindy (Cynthia) Solomon (Goodgion)","titleunit":"LandSafe Title","referringcustomer":"LandSafe_CA","primarycurativetech":"Unassigned","contract in task":"Contract In Tasks","secondarycurativetech":"Unassigned","branchoffice":"Palm Desert","isescalated":"FALSE","address":"76716 Oaklahoma Ave","propertyaddressline2":null,"filenotes":"old file # 464292","geo_precision":"range","state":"California"},"type":"Feature","geometry":{"type":"Point","coordinates":[-116.327119,33.732552]}},{"properties":{"city":"Santa Rosa","createddate":"5/1/2012 11:25","iscurativefile":"FALSE","zip":"95401","openeddate":"5/1/2012 0:00","referringcustomerfilenumber":"12-0016597","outofstatestatus":"Not Applicable","task completed date":"6/25/2012","region":"North Northern California","countyname":"Sonoma","closeddate":"7/13/2012 0:00","isclosed":"TRUE","geo_score":0.902,"id":"a6oksr387bdw","filenumber":"477904","filetransactiontype":"Escrow Only","escrowofficername":"Sandy Veveiros","titleunit":"LandSafe Title","referringcustomer":"LandSafe_CA","primarycurativetech":"Unassigned","contract in task":"Contract In Tasks","secondarycurativetech":"Unassigned","branchoffice":"Santa Rosa","isescalated":"FALSE","address":"720 Blossom Way","propertyaddressline2":null,"filenotes":"06/01/2012 04:40pm (Central Time) - SVEVEIROS\r\nFile status changed to Cancelled\r\n\r\ncancelled file # 464379","geo_precision":"range","state":"California"},"type":"Feature","geometry":{"type":"Point","coordinates":[-122.736682,38.443896]}},{"properties":{"city":"Santa Rosa","createddate":"5/1/2012 11:46","iscurativefile":"FALSE","zip":"95403","openeddate":"5/1/2012 0:00","referringcustomerfilenumber":"11-0101120","outofstatestatus":"Not Applicable","task completed date":"6/4/2012","region":"North Northern California","countyname":"Out of State","closeddate":"6/28/2012 0:00","isclosed":"FALSE","geo_score":0.902,"id":"a6oksqxlp3nn","filenumber":"472303","filetransactiontype":"Escrow Only","escrowofficername":"Patti Billing","titleunit":"LandSafe Title","referringcustomer":"LandSafe_CA","primarycurativetech":"Unassigned","contract in task":"Contract In Tasks","secondarycurativetech":"Unassigned","branchoffice":"Santa Rosa","isescalated":"FALSE","address":"4099 Coffey Ln","propertyaddressline2":null,"filenotes":"old file # 464403","geo_precision":"range","state":"California"},"type":"Feature","geometry":{"type":"Point","coordinates":[-122.750409,38.488212]}},{"properties":{"city":"Conoga Park","createddate":"5/2/2012 13:19","iscurativefile":"FALSE","zip":"91304","openeddate":"6/12/2012 0:00","referringcustomerfilenumber":"12-0018913","outofstatestatus":"Not Applicable","task completed date":"6/12/2012","region":"Los Angeles - Ventura California","countyname":"Los Angeles","closeddate":"7/13/2012 0:00","isclosed":"FALSE","geo_score":0.469,"id":"a6oksr5mt0xy","filenumber":"474733","filetransactiontype":"Escrow Only","escrowofficername":"Adriana Ponce","titleunit":"LandSafe Title","referringcustomer":"LandSafe_CA","primarycurativetech":"Unassigned","contract in task":"Contract In Tasks","secondarycurativetech":"Unassigned","branchoffice":"L.A.-Subdivision","isescalated":"FALSE","address":"21529 Saticoy St, Apt 211","propertyaddressline2":null,"filenotes":"Previous file # 464817","geo_precision":"street","state":"California"},"type":"Feature","geometry":{"type":"Point","coordinates":[-118.590639,34.21109]}},{"properties":{"city":"Lancaster","createddate":"5/4/2012 11:33","iscurativefile":"FALSE","zip":"93536","openeddate":"6/12/2012 0:00","referringcustomerfilenumber":"12-0006788","outofstatestatus":"Not Applicable","task completed date":"6/12/2012","region":"Los Angeles - Ventura California","countyname":"Los Angeles","closeddate":"7/6/2012 0:00","isclosed":"FALSE","geo_score":0.902,"id":"a6oksr5svooy","filenumber":"474642","filetransactiontype":"Escrow Only","escrowofficername":"Mary Schenuk","titleunit":"LandSafe Title","referringcustomer":"LandSafe_CA","primarycurativetech":"Unassigned","contract in task":"Contract In Tasks","secondarycurativetech":"Unassigned","branchoffice":"Glendale","isescalated":"FALSE","address":"2005 W Lingard St","propertyaddressline2":null,"filenotes":"Previous file # 465372","geo_precision":"range","state":"California"},"type":"Feature","geometry":{"type":"Point","coordinates":[-118.166187,34.695952]}},{"properties":{"city":"Visalia","createddate":"5/4/2012 14:17","iscurativefile":"FALSE","zip":"93277","openeddate":"6/21/2012 0:00","referringcustomerfilenumber":"12-0017358","outofstatestatus":"Not Applicable","task completed date":"6/21/2012","region":"Central California","countyname":"Tulare","closeddate":"8/14/2012 0:00","isclosed":"FALSE","geo_score":0.709,"id":"a6oksr4freav","filenumber":"477275","filetransactiontype":"Escrow Only","escrowofficername":"Karen Sigda","titleunit":"LandSafe Title","referringcustomer":"LandSafe_CA","primarycurativetech":"Unassigned","contract in task":"Contract In Tasks","secondarycurativetech":"Unassigned","branchoffice":"Visalia","isescalated":"FALSE","address":"300 N Manzanita St","propertyaddressline2":null,"filenotes":"old file # 465381","geo_precision":"street","state":"California"},"type":"Feature","geometry":{"type":"Point","coordinates":[-119.25206,36.336794]}},{"properties":{"city":"Sunland","createddate":"5/4/2012 15:49","iscurativefile":"FALSE","zip":"91040","openeddate":"5/4/2012 0:00","referringcustomerfilenumber":"12-0036392","outofstatestatus":"Not Applicable","task completed date":"6/1/2012","region":"Los Angeles - Ventura California","countyname":"Los Angeles","closeddate":"7/13/2012 0:00","isclosed":"FALSE","geo_score":0.902,"id":"a6oksr4gyqf1","filenumber":"472048","filetransactiontype":"Escrow Only","escrowofficername":"Angela Hum","titleunit":"LandSafe Title","referringcustomer":"LandSafe_CA","primarycurativetech":"Unassigned","contract in task":"Contract In Tasks","secondarycurativetech":"Unassigned","branchoffice":"Glendale","isescalated":"FALSE","address":"9433 Wentworth St","propertyaddressline2":null,"filenotes":"old file# 465485","geo_precision":"range","state":"California"},"type":"Feature","geometry":{"type":"Point","coordinates":[-118.337656,34.263873]}},{"properties":{"city":"Hacienda Heights","createddate":"5/7/2012 16:41","iscurativefile":"FALSE","zip":"91745","openeddate":"5/7/2012 0:00","referringcustomerfilenumber":"11-0120219","outofstatestatus":"Not Applicable","task completed date":"6/4/2012","region":"Los Angeles - Ventura California","countyname":"Los Angeles","closeddate":"7/1/2012 0:00","isclosed":"FALSE","geo_score":0.902,"id":"a6oksqx33eah","filenumber":"472486","filetransactiontype":"Escrow Only","escrowofficername":"Julie Mayorga","titleunit":"LandSafe Title","referringcustomer":"LandSafe_CA","primarycurativetech":"Unassigned","contract in task":"Contract In Tasks","secondarycurativetech":"Unassigned","branchoffice":"City of Industry","isescalated":"FALSE","address":"2741 Montellano Ave","propertyaddressline2":null,"filenotes":null,"geo_precision":"range","state":"California"},"type":"Feature","geometry":{"type":"Point","coordinates":[-117.985029,33.991368]}},{"properties":{"city":"Inglewood","createddate":"5/8/2012 11:42","iscurativefile":"FALSE","zip":"90301","openeddate":"6/13/2012 0:00","referringcustomerfilenumber":"12-0028220","outofstatestatus":"Not Applicable","task completed date":"6/13/2012","region":"Los Angeles - Ventura California","countyname":"Los Angeles","closeddate":"6/15/2012 0:00","isclosed":"FALSE","geo_score":0.488,"id":"a6oksr5o8952","filenumber":"475035","filetransactiontype":"Escrow Only","escrowofficername":"Julie Mayorga","titleunit":"LandSafe Title","referringcustomer":"LandSafe_CA","primarycurativetech":"Unassigned","contract in task":"Contract In Tasks","secondarycurativetech":"Unassigned","branchoffice":"City of Industry","isescalated":"FALSE","address":"435 East Tamarack Ave, 162","propertyaddressline2":null,"filenotes":"Previous file # 466006","geo_precision":"zip","state":"California"},"type":"Feature","geometry":{"type":"Point","coordinates":[-118.298662,33.786594]}},{"properties":{"city":"Temecula","createddate":"5/8/2012 16:33","iscurativefile":"FALSE","zip":"92591","openeddate":"5/8/2012 0:00","referringcustomerfilenumber":"11-0138357","outofstatestatus":"Not Applicable","task completed date":"6/18/2012","region":"Inland Empire","countyname":"Riverside","closeddate":"7/10/2012 0:00","isclosed":"FALSE","geo_score":0.876,"id":"a6oksqz5vh4t","filenumber":"475942","filetransactiontype":"Escrow Only","escrowofficername":"Mary Hudson","titleunit":"LandSafe Title","referringcustomer":"LandSafe_CA","primarycurativetech":"Unassigned","contract in task":"Contract In Tasks","secondarycurativetech":"Unassigned","branchoffice":"Riverside","isescalated":"FALSE","address":"42134 Tea Tree Court","propertyaddressline2":null,"filenotes":"old file# 466167","geo_precision":"range","state":"California"},"type":"Feature","geometry":{"type":"Point","coordinates":[-117.125491,33.512358]}},{"properties":{"city":"Riverside","createddate":"5/9/2012 11:31","iscurativefile":"FALSE","zip":"92503","openeddate":"5/9/2012 0:00","referringcustomerfilenumber":"12-0029187","outofstatestatus":"Not Applicable","task completed date":"6/18/2012","region":"Inland Empire","countyname":"Riverside","closeddate":"7/9/2012 0:00","isclosed":"FALSE","geo_score":0.902,"id":"a6oksqxnre1d","filenumber":"475929","filetransactiontype":"Escrow Only","escrowofficername":"Nicoloa Ames","titleunit":"LandSafe Title","referringcustomer":"LandSafe_CA","primarycurativetech":"Unassigned","contract in task":"Contract In Tasks","secondarycurativetech":"Unassigned","branchoffice":"Riverside","isescalated":"FALSE","address":"3702 Calle Monada","propertyaddressline2":null,"filenotes":"old file# 466363","geo_precision":"range","state":"California"},"type":"Feature","geometry":{"type":"Point","coordinates":[-117.509351,33.882313]}},{"properties":{"city":"Sacramento","createddate":"5/9/2012 13:54","iscurativefile":"FALSE","zip":"95826","openeddate":"5/9/2012 0:00","referringcustomerfilenumber":"12-0006782","outofstatestatus":"Not Applicable","task completed date":"6/19/2012","region":"South Northern California","countyname":"Sacramento","closeddate":"7/6/2012 0:00","isclosed":"FALSE","geo_score":0.902,"id":"a6oksr3i087l","filenumber":"476297","filetransactiontype":"Escrow Only","escrowofficername":"Holly Weston","titleunit":"LandSafe Title","referringcustomer":"LandSafe_CA","primarycurativetech":"Unassigned","contract in task":"Contract In Tasks","secondarycurativetech":"Unassigned","branchoffice":"Turlock","isescalated":"FALSE","address":"9101 Castlebar Way","propertyaddressline2":null,"filenotes":"old file# 466441","geo_precision":"range","state":"California"},"type":"Feature","geometry":{"type":"Point","coordinates":[-121.363293,38.540251]}},{"properties":{"city":"Palm Desert","createddate":"5/9/2012 15:27","iscurativefile":"FALSE","zip":"92211","openeddate":"6/6/2012 0:00","referringcustomerfilenumber":"11-0122559","outofstatestatus":"Not Applicable","task completed date":"6/6/2012","region":"Inland Empire","countyname":"Riverside","closeddate":"7/13/2012 0:00","isclosed":"FALSE","geo_score":0.902,"id":"a6oksqx18pp5","filenumber":"473065","filetransactiontype":"Escrow Only","escrowofficername":"Nicoloa Ames","titleunit":"LandSafe Title","referringcustomer":"LandSafe_CA","primarycurativetech":"Unassigned","contract in task":"Contract In Tasks","secondarycurativetech":"Unassigned","branchoffice":"Riverside","isescalated":"FALSE","address":"76531 Begonia Ln","propertyaddressline2":null,"filenotes":"Previous file # 466483","geo_precision":"range","state":"California"},"type":"Feature","geometry":{"type":"Point","coordinates":[-116.326361,33.763483]}},{"properties":{"city":"Newark","createddate":"5/10/2012 10:43","iscurativefile":"FALSE","zip":"94580","openeddate":"5/10/2012 0:00","referringcustomerfilenumber":"12-0015422","outofstatestatus":"Not Applicable","task completed date":"6/5/2012","region":"North Northern California","countyname":"Alameda","closeddate":"6/29/2012 0:00","isclosed":"FALSE","geo_score":0.441,"id":"a6oksqyvne93","filenumber":"472955","filetransactiontype":"Escrow Only","escrowofficername":"Rheanna Gieseking","titleunit":"LandSafe Title","referringcustomer":"LandSafe_CA","primarycurativetech":"Unassigned","contract in task":"Contract In Tasks","secondarycurativetech":"Unassigned","branchoffice":"Danville","isescalated":"FALSE","address":"6218 Potrero Dr","propertyaddressline2":null,"filenotes":"old file # 466674","geo_precision":"street","state":"California"},"type":"Feature","geometry":{"type":"Point","coordinates":[-122.126609,37.675119]}},{"properties":{"city":"Lake Isabella","createddate":"5/10/2012 13:19","iscurativefile":"FALSE","zip":"93240","openeddate":"6/11/2012 0:00","referringcustomerfilenumber":"11-0110187","outofstatestatus":"Completed","task completed date":"6/11/2012","region":"Central California","countyname":"Kern","closeddate":"6/22/2012 0:00","isclosed":"TRUE","geo_score":0.902,"id":"a6oksr3s7f1i","filenumber":"474264","filetransactiontype":"Escrow Only","escrowofficername":"Mary Curry","titleunit":"LandSafe Title","referringcustomer":"LandSafe_CA","primarycurativetech":"Unassigned","contract in task":"Contract In Tasks","secondarycurativetech":"Unassigned","branchoffice":"Bakersfield","isescalated":"FALSE","address":"2705 Steensen St","propertyaddressline2":null,"filenotes":"Previous file # 466829","geo_precision":"range","state":"California"},"type":"Feature","geometry":{"type":"Point","coordinates":[-118.477039,35.610986]}},{"properties":{"city":"Redlands","createddate":"5/16/2012 16:07","iscurativefile":"FALSE","zip":"92374","openeddate":"5/16/2012 0:00","referringcustomerfilenumber":"12-0023924","outofstatestatus":"Not Applicable","task completed date":"6/21/2012","region":"Inland Empire","countyname":"San Bernardino","closeddate":"7/17/2012 0:00","isclosed":"FALSE","geo_score":0.681,"id":"a6oksr10xhxw","filenumber":"477281","filetransactiontype":"Escrow Only","escrowofficername":"Joyce Strohm","titleunit":"LandSafe Title","referringcustomer":"LandSafe_CA","primarycurativetech":"Unassigned","contract in task":"Contract In Tasks","secondarycurativetech":"Unassigned","branchoffice":"Redlands","isescalated":"FALSE","address":"1550 N Church St","propertyaddressline2":null,"filenotes":"old file# 468134","geo_precision":"street","state":"California"},"type":"Feature","geometry":{"type":"Point","coordinates":[-117.173856,34.05465]}},{"properties":{"city":"Lakeside","createddate":"5/17/2012 12:56","iscurativefile":"FALSE","zip":"92040","openeddate":"6/25/2012 0:00","referringcustomerfilenumber":"11-0110138","outofstatestatus":"Not Applicable","task completed date":"6/25/2012","region":"So. California","countyname":"San Diego","closeddate":"6/28/2012 0:00","isclosed":"FALSE","geo_score":0.902,"id":"a6oksr011lmd","filenumber":"477963","filetransactiontype":"Escrow Only","escrowofficername":"(Cindy) Cynthia Furphy","titleunit":"LandSafe Title","referringcustomer":"LandSafe_CA","primarycurativetech":"Unassigned","contract in task":"Contract In Tasks","secondarycurativetech":"Unassigned","branchoffice":"La Mesa","isescalated":"FALSE","address":"9446 Riverview Ave","propertyaddressline2":null,"filenotes":"old file # 468430","geo_precision":"range","state":"California"},"type":"Feature","geometry":{"type":"Point","coordinates":[-116.934935,32.847086]}},{"properties":{"city":"Castaic","createddate":"5/17/2012 15:42","iscurativefile":"FALSE","zip":"91384","openeddate":"6/25/2012 0:00","referringcustomerfilenumber":"12-0015254","outofstatestatus":"Not Applicable","task completed date":"6/25/2012","region":"Los Angeles - Ventura California","countyname":"Los Angeles","closeddate":"7/15/2012 0:00","isclosed":"FALSE","geo_score":0.902,"id":"a6oksr7en4qn","filenumber":"477903","filetransactiontype":"Escrow Only","escrowofficername":"Martha Gonzales","titleunit":"LandSafe Title","referringcustomer":"LandSafe_CA","primarycurativetech":"Unassigned","contract in task":"Contract In Tasks","secondarycurativetech":"Unassigned","branchoffice":"Glendale","isescalated":"FALSE","address":"28220 Alton Way","propertyaddressline2":null,"filenotes":"old file# 468701\r\nold file# 473314","geo_precision":"range","state":"California"},"type":"Feature","geometry":{"type":"Point","coordinates":[-118.628447,34.452851]}},{"properties":{"city":"Blythe","createddate":"5/18/2012 13:50","iscurativefile":"FALSE","zip":"92225","openeddate":"6/25/2012 0:00","referringcustomerfilenumber":"12-0015231","outofstatestatus":"Not Applicable","task completed date":"6/25/2012","region":"Inland Empire","countyname":"Riverside","closeddate":"7/16/2012 0:00","isclosed":"FALSE","geo_score":0.854,"id":"a6oksrd9n87w","filenumber":"477950","filetransactiontype":"Escrow Only","escrowofficername":"Nyna Ensign","titleunit":"LandSafe Title","referringcustomer":"LandSafe_CA","primarycurativetech":"Unassigned","contract in task":"Contract In Tasks","secondarycurativetech":"Unassigned","branchoffice":"Riverside","isescalated":"FALSE","address":"12875 N Acacia Ave","propertyaddressline2":null,"filenotes":"old file # 468920","geo_precision":"range","state":"California"},"type":"Feature","geometry":{"type":"Point","coordinates":[-114.583146,33.610864]}},{"properties":{"city":"Moreno Valley","createddate":"5/21/2012 11:18","iscurativefile":"FALSE","zip":"92557","openeddate":"5/21/2012 0:00","referringcustomerfilenumber":"11-0082923","outofstatestatus":"Completed","task completed date":"6/8/2012","region":"Inland Empire","countyname":"Riverside","closeddate":"6/15/2012 0:00","isclosed":"TRUE","geo_score":0.902,"id":"a6oksr87n3jq","filenumber":"469253","filetransactiontype":"Escrow Only","escrowofficername":"Nyna Ensign","titleunit":"LandSafe Title","referringcustomer":"LandSafe_CA","primarycurativetech":"Unassigned","contract in task":"Contract In Tasks","secondarycurativetech":"Unassigned","branchoffice":"Riverside","isescalated":"FALSE","address":"23147 Mansfield Ln","propertyaddressline2":null,"filenotes":null,"geo_precision":"range","state":"California"},"type":"Feature","geometry":{"type":"Point","coordinates":[-117.259046,33.948883]}},{"properties":{"city":"Sun Valley","createddate":"5/21/2012 12:20","iscurativefile":"FALSE","zip":"91352","openeddate":"5/21/2012 0:00","referringcustomerfilenumber":"12-0015247","outofstatestatus":"Not Applicable","task completed date":"6/20/2012","region":"Los Angeles - Ventura California","countyname":"Los Angeles","closeddate":"8/3/2012 0:00","isclosed":"TRUE","geo_score":0.512,"id":"a6oksr0y9nwa","filenumber":"476926","filetransactiontype":"Escrow Only","escrowofficername":"Martha Gonzales","titleunit":"LandSafe Title","referringcustomer":"LandSafe_CA","primarycurativetech":"Unassigned","contract in task":"Contract In Tasks","secondarycurativetech":"Unassigned","branchoffice":"Glendale","isescalated":"FALSE","address":"11131 Allegheny St","propertyaddressline2":null,"filenotes":"05/25/2012 09:41am (Central Time) - GMELENDREZ\r\nFile status changed to Cancelled\r\n\r\nOld file 469284","geo_precision":"street","state":"California"},"type":"Feature","geometry":{"type":"Point","coordinates":[-118.528522,34.43271]}},{"properties":{"city":"Modesto","createddate":"5/21/2012 17:06","iscurativefile":"FALSE","zip":"95355","openeddate":"5/21/2012 0:00","referringcustomerfilenumber":"11-0136394","outofstatestatus":"Not Applicable","task completed date":"6/18/2012","region":"South Northern California","countyname":"Stanislaus","closeddate":"8/23/2012 0:00","isclosed":"FALSE","geo_score":0.902,"id":"a6oksqx4btli","filenumber":"475910","filetransactiontype":"Escrow Only","escrowofficername":"Heather Walker","titleunit":"LandSafe Title","referringcustomer":"LandSafe_CA","primarycurativetech":"Unassigned","contract in task":"Contract In Tasks","secondarycurativetech":"Unassigned","branchoffice":"Turlock","isescalated":"FALSE","address":"440 The Bluff","propertyaddressline2":null,"filenotes":"old file # 469477","geo_precision":"range","state":"California"},"type":"Feature","geometry":{"type":"Point","coordinates":[-120.966559,37.650094]}},{"properties":{"city":"Richmond","createddate":"5/23/2012 11:31","iscurativefile":"FALSE","zip":"94801","openeddate":"6/8/2012 0:00","referringcustomerfilenumber":"12-0016140","outofstatestatus":"Not Applicable","task completed date":"6/8/2012","region":"North Northern California","countyname":"Contra Costa","closeddate":"6/22/2012 0:00","isclosed":"FALSE","geo_score":0.64,"id":"a6oksr5u4dod","filenumber":"474081","filetransactiontype":"Escrow Only","escrowofficername":"Rheanna Gieseking","titleunit":"LandSafe Title","referringcustomer":"LandSafe_CA","primarycurativetech":"Unassigned","contract in task":"Contract In Tasks","secondarycurativetech":"Unassigned","branchoffice":"Danville","isescalated":"FALSE","address":"1532 Chanslor St M","propertyaddressline2":null,"filenotes":"Previous file # 469924","geo_precision":"street","state":"California"},"type":"Feature","geometry":{"type":"Point","coordinates":[-122.369616,37.932397]}},{"properties":{"city":"Escondido","createddate":"5/25/2012 12:43","iscurativefile":"FALSE","zip":"92025","openeddate":"6/12/2012 0:00","referringcustomerfilenumber":"11-0094620","outofstatestatus":"Not Applicable","task completed date":"6/12/2012","region":"So. California","countyname":"San Diego","closeddate":"6/28/2012 0:00","isclosed":"FALSE","geo_score":0.837,"id":"a6oksqxilu2a","filenumber":"474544","filetransactiontype":"Escrow Only","escrowofficername":"Irene Casey","titleunit":"LandSafe Title","referringcustomer":"LandSafe_CA","primarycurativetech":"Unassigned","contract in task":"Contract In Tasks","secondarycurativetech":"Unassigned","branchoffice":"Carlsbad","isescalated":"FALSE","address":"951 East 4th Ave","propertyaddressline2":null,"filenotes":"Previous file # 470676","geo_precision":"range","state":"California"},"type":"Feature","geometry":{"type":"Point","coordinates":[-117.067859,33.123057]}},{"properties":{"city":"Watsonville","createddate":"5/25/2012 12:56","iscurativefile":"FALSE","zip":"95076","openeddate":"6/11/2012 0:00","referringcustomerfilenumber":"12-0015277","outofstatestatus":"Not Applicable","task completed date":"6/15/2012","region":"South Northern California","countyname":"Monterey","closeddate":"7/20/2012 0:00","isclosed":"FALSE","geo_score":0.902,"id":"a6oksr99subm","filenumber":"474218","filetransactiontype":"Title &amp; Escrow","escrowofficername":"Lupe Sandoval","titleunit":"CA CPU Title-Kevin","referringcustomer":"LandSafe_CA","primarycurativetech":"Unassigned","contract in task":"Contract In Tasks","secondarycurativetech":"Unassigned","branchoffice":"Capitola","isescalated":"FALSE","address":"2537 Colonial Circle","propertyaddressline2":null,"filenotes":"Previous file # 470680","geo_precision":"range","state":"California"},"type":"Feature","geometry":{"type":"Point","coordinates":[-121.760353,36.872483]}},{"properties":{"city":"Sacramento","createddate":"6/1/2012 12:38","iscurativefile":"FALSE","zip":"95842","openeddate":"6/1/2012 0:00","referringcustomerfilenumber":"12-0077302","outofstatestatus":"Not Applicable","task completed date":"6/1/2012","region":"North Northern California","countyname":"Sacramento","closeddate":"7/1/2012 0:00","isclosed":"FALSE","geo_score":0.902,"id":"a6oksrcz54q7","filenumber":"01445-1869","filetransactiontype":"Escrow Only","escrowofficername":"Dawn Vincent","titleunit":"LandSafe Title","referringcustomer":"LandSafe_CA","primarycurativetech":"Unassigned","contract in task":"Contract In Tasks","secondarycurativetech":"Unassigned","branchoffice":"AMSAC-Fair Oaks","isescalated":"FALSE","address":"6236 Everest Way","propertyaddressline2":null,"filenotes":null,"geo_precision":"range","state":"California"},"type":"Feature","geometry":{"type":"Point","coordinates":[-121.345337,38.677978]}},{"properties":{"city":"Simi Valley","createddate":"6/1/2012 12:40","iscurativefile":"FALSE","zip":"93063","openeddate":"6/1/2012 0:00","referringcustomerfilenumber":"12-0031765","outofstatestatus":"Not Applicable","task completed date":"6/1/2012","region":"Los Angeles - Ventura California","countyname":"Ventura","closeddate":"7/20/2012 0:00","isclosed":"FALSE","geo_score":0.415,"id":"a6oksrcoxegs","filenumber":"471923","filetransactiontype":"Escrow Only","escrowofficername":"Araceli De Lara-Michel","titleunit":"LandSafe Title","referringcustomer":"LandSafe_CA","primarycurativetech":"Unassigned","contract in task":"Contract In Tasks","secondarycurativetech":"Unassigned","branchoffice":"Ventura","isescalated":"FALSE","address":"2324 Archwood Ln # 86","propertyaddressline2":null,"filenotes":null,"geo_precision":"street","state":"California"},"type":"Feature","geometry":{"type":"Point","coordinates":[-118.688701,34.278011]}},{"properties":{"city":"Cathedral City","createddate":"6/1/2012 12:43","iscurativefile":"FALSE","zip":"92234","openeddate":"6/1/2012 0:00","referringcustomerfilenumber":"12-0000074","outofstatestatus":"Not Applicable","task completed date":"6/1/2012","region":"Inland Empire","countyname":"Riverside","closeddate":"7/6/2012 0:00","isclosed":"FALSE","geo_score":0.902,"id":"a6oksr1x8obw","filenumber":"471928","filetransactiontype":"Escrow Only","escrowofficername":"Colleen Yost","titleunit":"LandSafe Title","referringcustomer":"LandSafe_CA","primarycurativetech":"Unassigned","contract in task":"Contract In Tasks","secondarycurativetech":"Unassigned","branchoffice":"Palm Desert","isescalated":"FALSE","address":"67030 W Chimayo Dr","propertyaddressline2":null,"filenotes":null,"geo_precision":"range","state":"California"},"type":"Feature","geometry":{"type":"Point","coordinates":[-116.490066,33.841556]}},{"properties":{"city":"Encino","createddate":"6/1/2012 12:46","iscurativefile":"FALSE","zip":"91316","openeddate":"6/1/2012 0:00","referringcustomerfilenumber":"12-0025885","outofstatestatus":"Not Applicable","task completed date":"6/1/2012","region":"Los Angeles - Ventura California","countyname":"Los Angeles","closeddate":"7/20/2012 0:00","isclosed":"FALSE","geo_score":0.415,"id":"a6oksrawq5i3","filenumber":"471935","filetransactiontype":"Escrow Only","escrowofficername":"Angela Hum","titleunit":"LandSafe Title","referringcustomer":"LandSafe_CA","primarycurativetech":"Unassigned","contract in task":"Contract In Tasks","secondarycurativetech":"Unassigned","branchoffice":"Glendale","isescalated":"FALSE","address":"5325 Newcastle Ave # 205","propertyaddressline2":null,"filenotes":null,"geo_precision":"street","state":"California"},"type":"Feature","geometry":{"type":"Point","coordinates":[-118.525068,34.157252]}},{"properties":{"city":"Bakersfield","createddate":"6/1/2012 12:49","iscurativefile":"FALSE","zip":"93305","openeddate":"6/1/2012 0:00","referringcustomerfilenumber":"11-0104432","outofstatestatus":"Completed","task completed date":"6/1/2012","region":"Central California","countyname":"Kern","closeddate":"6/15/2012 0:00","isclosed":"TRUE","geo_score":0.488,"id":"a6oksr2q4gor","filenumber":"471941","filetransactiontype":"Escrow Only","escrowofficername":"Connie Porter","titleunit":"LandSafe Title","referringcustomer":"LandSafe_CA","primarycurativetech":"Unassigned","contract in task":"Contract In Tasks","secondarycurativetech":"Unassigned","branchoffice":"Bakersfield","isescalated":"FALSE","address":"3517 Bucknell St","propertyaddressline2":null,"filenotes":"06/15/2012 10:04am (Central Time) - PVASSAR\r\nconfo in","geo_precision":"zip","state":"California"},"type":"Feature","geometry":{"type":"Point","coordinates":[-118.985984,35.385489]}},{"properties":{"city":"Lancaster","createddate":"6/1/2012 12:52","iscurativefile":"FALSE","zip":"93536","openeddate":"6/1/2012 0:00","referringcustomerfilenumber":"11-0075627","outofstatestatus":"Not Applicable","task completed date":"6/1/2012","region":"Los Angeles - Ventura California","countyname":"Los Angeles","closeddate":"7/15/2012 0:00","isclosed":"FALSE","geo_score":0.488,"id":"a6oksr7dmqiq","filenumber":"471974","filetransactiontype":"Escrow Only","escrowofficername":"Mary Schenuk","titleunit":"LandSafe Title","referringcustomer":"LandSafe_CA","primarycurativetech":"Unassigned","contract in task":"Contract In Tasks","secondarycurativetech":"Unassigned","branchoffice":"Glendale","isescalated":"FALSE","address":"3203 W Avenue K-4","propertyaddressline2":null,"filenotes":null,"geo_precision":"zip","state":"California"},"type":"Feature","geometry":{"type":"Point","coordinates":[-118.289521,34.754426]}},{"properties":{"city":"Wilseyville","createddate":"6/1/2012 14:06","iscurativefile":"FALSE","zip":"92546","openeddate":"6/1/2012 0:00","referringcustomerfilenumber":"12-0006803","outofstatestatus":"Completed","task completed date":"6/1/2012","region":"South Northern California","countyname":"Calaveras","closeddate":"6/20/2012 0:00","isclosed":"TRUE","geo_score":0.501,"id":"a6oksr33vg36","filenumber":"472001","filetransactiontype":"Escrow Only","escrowofficername":"Patti Atkinson-Utz","titleunit":"LandSafe Title","referringcustomer":"LandSafe_CA","primarycurativetech":"Unassigned","contract in task":"Contract In Tasks","secondarycurativetech":"Unassigned","branchoffice":"Turlock","isescalated":"FALSE","address":"4937 N Rairoad Flat Rd","propertyaddressline2":null,"filenotes":null,"geo_precision":"street","state":"California"},"type":"Feature","geometry":{"type":"Point","coordinates":[-117.445018,33.949501]}},{"properties":{"city":"Laguna Niguel","createddate":"6/1/2012 14:09","iscurativefile":"FALSE","zip":"92677","openeddate":"6/1/2012 0:00","referringcustomerfilenumber":"12-0012760","outofstatestatus":"Not Applicable","task completed date":"6/1/2012","region":"So. California","countyname":"Orange","closeddate":"6/14/2012 0:00","isclosed":"FALSE","geo_score":0.902,"id":"a6oksr8ozrs2","filenumber":"472009","filetransactiontype":"Escrow Only","escrowofficername":"Michelle Huynh","titleunit":"LandSafe Title","referringcustomer":"LandSafe_CA","primarycurativetech":"Unassigned","contract in task":"Contract In Tasks","secondarycurativetech":"Unassigned","branchoffice":"Irvine","isescalated":"FALSE","address":"6 Woodhaven Dr","propertyaddressline2":null,"filenotes":null,"geo_precision":"range","state":"California"},"type":"Feature","geometry":{"type":"Point","coordinates":[-117.720252,33.511534]}},{"properties":{"city":"San Jose","createddate":"6/1/2012 15:38","iscurativefile":"FALSE","zip":"95111","openeddate":"6/1/2012 0:00","referringcustomerfilenumber":"12-0041159","outofstatestatus":"Completed","task completed date":"6/1/2012","region":"South Northern California","countyname":"Santa Clara","closeddate":"6/15/2012 0:00","isclosed":"TRUE","geo_score":0.902,"id":"a6oksr0te06e","filenumber":"472034","filetransactiontype":"Escrow Only","escrowofficername":"Kathleen Ross","titleunit":"LandSafe Title","referringcustomer":"LandSafe_CA","primarycurativetech":"Unassigned","contract in task":"Contract In Tasks","secondarycurativetech":"Unassigned","branchoffice":"Saratoga","isescalated":"FALSE","address":"513 Southside Dr","propertyaddressline2":null,"filenotes":"06/15/2012 04:16pm (Central Time) - CNELL\r\nFile status changed to Closed","geo_precision":"range","state":"California"},"type":"Feature","geometry":{"type":"Point","coordinates":[-121.837412,37.293623]}},{"properties":{"city":"Lamont","createddate":"6/1/2012 16:01","iscurativefile":"FALSE","zip":"93241","openeddate":"6/1/2012 0:00","referringcustomerfilenumber":"12-0011928","outofstatestatus":"Completed","task completed date":"6/1/2012","region":"Central California","countyname":"Kern","closeddate":"6/19/2012 0:00","isclosed":"TRUE","geo_score":0.902,"id":"a6oksr5j8pxd","filenumber":"472051","filetransactiontype":"Escrow Only","escrowofficername":"Jennifer Navarro","titleunit":"LandSafe Title","referringcustomer":"LandSafe_CA","primarycurativetech":"Unassigned","contract in task":"Contract In Tasks","secondarycurativetech":"Unassigned","branchoffice":"Bakersfield","isescalated":"FALSE","address":"7804 Alden St","propertyaddressline2":null,"filenotes":null,"geo_precision":"range","state":"California"},"type":"Feature","geometry":{"type":"Point","coordinates":[-118.916703,35.238822]}},{"properties":{"city":"Poway","createddate":"6/4/2012 10:59","iscurativefile":"FALSE","zip":"92064","openeddate":"6/4/2012 0:00","referringcustomerfilenumber":"11-0110232","outofstatestatus":"Not Applicable","task completed date":"6/4/2012","region":"Inland Empire","countyname":"San Diego","closeddate":"6/25/2012 0:00","isclosed":"FALSE","geo_score":0.902,"id":"a6oksr8qev2n","filenumber":"472258","filetransactiontype":"Escrow Only","escrowofficername":"(Patti) Patricia Carver","titleunit":"LandSafe Title","referringcustomer":"LandSafe_CA","primarycurativetech":"Unassigned","contract in task":"Contract In Tasks","secondarycurativetech":"Unassigned","branchoffice":"Murrieta","isescalated":"FALSE","address":"13125 Tobiasson Rd","propertyaddressline2":null,"filenotes":null,"geo_precision":"range","state":"California"},"type":"Feature","geometry":{"type":"Point","coordinates":[-117.059686,32.954576]}},{"properties":{"city":"Pacifica","createddate":"6/4/2012 11:01","iscurativefile":"FALSE","zip":"94044","openeddate":"6/4/2012 0:00","referringcustomerfilenumber":"12-0043987","outofstatestatus":"Not Applicable","task completed date":"6/4/2012","region":"South Northern California","countyname":"San Mateo","closeddate":"7/5/2012 0:00","isclosed":"FALSE","geo_score":0.902,"id":"a6oksratxwj7","filenumber":"472273","filetransactiontype":"Escrow Only","escrowofficername":"Brandy Kelly","titleunit":"LandSafe Title","referringcustomer":"LandSafe_CA","primarycurativetech":"Unassigned","contract in task":"Contract In Tasks","secondarycurativetech":"Unassigned","branchoffice":"Saratoga","isescalated":"FALSE","address":"160 Salada Ave","propertyaddressline2":null,"filenotes":null,"geo_precision":"range","state":"California"},"type":"Feature","geometry":{"type":"Point","coordinates":[-122.49112,37.634575]}},{"properties":{"city":"Aptos","createddate":"6/4/2012 11:52","iscurativefile":"FALSE","zip":"95003","openeddate":"6/4/2012 0:00","referringcustomerfilenumber":"11-0137386","outofstatestatus":"Not Applicable","task completed date":"6/4/2012","region":"South Northern California","countyname":"Santa Cruz","closeddate":"7/5/2012 0:00","isclosed":"FALSE","geo_score":0.902,"id":"a6oksr6qmh3v","filenumber":"472285","filetransactiontype":"Escrow Only","escrowofficername":"Lupe Sandoval","titleunit":"LandSafe Title","referringcustomer":"LandSafe_CA","primarycurativetech":"Unassigned","contract in task":"Contract In Tasks","secondarycurativetech":"Unassigned","branchoffice":"Capitola","isescalated":"FALSE","address":"805 Encino Dr","propertyaddressline2":null,"filenotes":null,"geo_precision":"range","state":"California"},"type":"Feature","geometry":{"type":"Point","coordinates":[-121.87529,36.969286]}},{"properties":{"city":"Ramona","createddate":"6/4/2012 11:55","iscurativefile":"FALSE","zip":"92065","openeddate":"6/4/2012 0:00","referringcustomerfilenumber":"12-0000241","outofstatestatus":"Not Applicable","task completed date":"6/4/2012","region":"Inland Empire","countyname":"San Diego","closeddate":"7/25/2012 0:00","isclosed":"FALSE","geo_score":0.902,"id":"a6oksr2oxso1","filenumber":"472293","filetransactiontype":"Escrow Only","escrowofficername":"Vicki Petersen","titleunit":"LandSafe Title","referringcustomer":"LandSafe_CA","primarycurativetech":"Unassigned","contract in task":"Contract In Tasks","secondarycurativetech":"Unassigned","branchoffice":"Murrieta","isescalated":"FALSE","address":"406 Julian St","propertyaddressline2":null,"filenotes":null,"geo_precision":"range","state":"California"},"type":"Feature","geometry":{"type":"Point","coordinates":[-116.884194,33.029909]}},{"properties":{"city":"Northridge","createddate":"6/4/2012 13:02","iscurativefile":"FALSE","zip":"91325","openeddate":"6/4/2012 0:00","referringcustomerfilenumber":"11-0114251","outofstatestatus":"Not Applicable","task completed date":"6/4/2012","region":"Los Angeles - Ventura California","countyname":"Los Angeles","closeddate":"7/2/2012 0:00","isclosed":"FALSE","geo_score":0.902,"id":"a6oksr0pqqhm","filenumber":"472366","filetransactiontype":"Escrow Only","escrowofficername":"Julie Mayorga","titleunit":"LandSafe Title","referringcustomer":"LandSafe_CA","primarycurativetech":"Unassigned","contract in task":"Contract In Tasks","secondarycurativetech":"Unassigned","branchoffice":"City of Industry","isescalated":"FALSE","address":"17458 Strathern St","propertyaddressline2":null,"filenotes":null,"geo_precision":"range","state":"California"},"type":"Feature","geometry":{"type":"Point","coordinates":[-118.513018,34.215595]}},{"properties":{"city":"Carlsbad","createddate":"6/4/2012 13:18","iscurativefile":"FALSE","zip":"92009","openeddate":"6/4/2012 0:00","referringcustomerfilenumber":"12-0022567","outofstatestatus":"Not Applicable","task completed date":"6/4/2012","region":"Inland Empire","countyname":"San Diego","closeddate":"7/6/2012 0:00","isclosed":"FALSE","geo_score":0.5,"id":"a6oksqxxx6g5","filenumber":"472337","filetransactiontype":"Escrow Only","escrowofficername":"(Beth) Elizabeth D'Andrea","titleunit":"LandSafe Title","referringcustomer":"LandSafe_CA","primarycurativetech":"Unassigned","contract in task":"Contract In Tasks","secondarycurativetech":"Unassigned","branchoffice":"Murrieta","isescalated":"FALSE","address":"7505 Jerez Ct # B","propertyaddressline2":null,"filenotes":null,"geo_precision":"street","state":"California"},"type":"Feature","geometry":{"type":"Point","coordinates":[-117.31663,33.107757]}},{"properties":{"city":"La Quinta","createddate":"6/4/2012 13:23","iscurativefile":"FALSE","zip":"92253","openeddate":"6/4/2012 0:00","referringcustomerfilenumber":"11-0106652","outofstatestatus":"Not Applicable","task completed date":"6/4/2012","region":"Inland Empire","countyname":"Riverside","closeddate":"7/20/2012 0:00","isclosed":"FALSE","geo_score":0.683,"id":"a6oksr60m7zu","filenumber":"472354","filetransactiontype":"Escrow Only","escrowofficername":"Colleen Yost","titleunit":"LandSafe Title","referringcustomer":"LandSafe_CA","primarycurativetech":"Unassigned","contract in task":"Contract In Tasks","secondarycurativetech":"Unassigned","branchoffice":"Palm Desert","isescalated":"FALSE","address":"44-715 Via Catalina","propertyaddressline2":null,"filenotes":null,"geo_precision":"street","state":"California"},"type":"Feature","geometry":{"type":"Point","coordinates":[-116.281712,33.685988]}},{"properties":{"city":"Selma","createddate":"6/4/2012 13:28","iscurativefile":"FALSE","zip":"93662","openeddate":"6/4/2012 0:00","referringcustomerfilenumber":"11-0137425","outofstatestatus":"Completed","task completed date":"6/4/2012","region":"Central California","countyname":"Fresno","closeddate":"6/15/2012 0:00","isclosed":"TRUE","geo_score":0.902,"id":"a6oksrb8go6p","filenumber":"472368","filetransactiontype":"Escrow Only","escrowofficername":"Claudia Froelich","titleunit":"LandSafe Title","referringcustomer":"LandSafe_CA","primarycurativetech":"Unassigned","contract in task":"Contract In Tasks","secondarycurativetech":"Unassigned","branchoffice":"Fresno","isescalated":"FALSE","address":"1351 Fig St","propertyaddressline2":null,"filenotes":"06/15/2012 09:49am (Central Time) - JKRUEGER\r\nFile status changed to Closed","geo_precision":"range","state":"California"},"type":"Feature","geometry":{"type":"Point","coordinates":[-119.603156,36.564328]}},{"properties":{"city":"Stockton","createddate":"6/4/2012 18:51","iscurativefile":"FALSE","zip":"95204","openeddate":"6/4/2012 0:00","referringcustomerfilenumber":"12-0018908","outofstatestatus":"Not Applicable","task completed date":"6/4/2012","region":"South Northern California","countyname":"San Joaquin","closeddate":"6/27/2012 0:00","isclosed":"FALSE","geo_score":0.902,"id":"a6oksr601o7w","filenumber":"472594","filetransactiontype":"Escrow Only","escrowofficername":"Diane Oliveira-Medina","titleunit":"LandSafe Title","referringcustomer":"LandSafe_CA","primarycurativetech":"Unassigned","contract in task":"Contract In Tasks","secondarycurativetech":"Unassigned","branchoffice":"Turlock","isescalated":"FALSE","address":"2229 De Ovan Ave","propertyaddressline2":null,"filenotes":null,"geo_precision":"range","state":"California"},"type":"Feature","geometry":{"type":"Point","coordinates":[-121.336166,37.975878]}},{"properties":{"city":"Long Beach","createddate":"6/5/2012 9:23","iscurativefile":"FALSE","zip":"90813","openeddate":"6/5/2012 0:00","referringcustomerfilenumber":"12-0023970","outofstatestatus":"Not Applicable","task completed date":"6/5/2012","region":"Los Angeles - Ventura California","countyname":"Los Angeles","closeddate":"6/22/2012 0:00","isclosed":"FALSE","geo_score":0.709,"id":"a6oksr1dsdje","filenumber":"472628","filetransactiontype":"Escrow Only","escrowofficername":"Adriana Ponce","titleunit":"LandSafe Title","referringcustomer":"LandSafe_CA","primarycurativetech":"Unassigned","contract in task":"Contract In Tasks","secondarycurativetech":"Unassigned","branchoffice":"City of Industry","isescalated":"FALSE","address":"1203 Pacific Ave","propertyaddressline2":null,"filenotes":null,"geo_precision":"street","state":"California"},"type":"Feature","geometry":{"type":"Point","coordinates":[-118.193719,33.783682]}},{"properties":{"city":"Boron","createddate":"6/5/2012 9:51","iscurativefile":"FALSE","zip":"93516","openeddate":"6/5/2012 0:00","referringcustomerfilenumber":"12-0032748","outofstatestatus":"Not Applicable","task completed date":"6/5/2012","region":"Central California","countyname":"Kern","closeddate":"7/2/2012 0:00","isclosed":"FALSE","geo_score":0.902,"id":"a6oksr7gf5tr","filenumber":"472644","filetransactiontype":"Escrow Only","escrowofficername":"Mary Curry","titleunit":"LandSafe Title","referringcustomer":"LandSafe_CA","primarycurativetech":"Unassigned","contract in task":"Contract In Tasks","secondarycurativetech":"Unassigned","branchoffice":"Bakersfield","isescalated":"FALSE","address":"24072 Chaparral Ave","propertyaddressline2":null,"filenotes":null,"geo_precision":"range","state":"California"},"type":"Feature","geometry":{"type":"Point","coordinates":[-117.70246,35.002578]}},{"properties":{"city":"Bakersfield","createddate":"6/5/2012 10:02","iscurativefile":"FALSE","zip":"93312","openeddate":"6/5/2012 0:00","referringcustomerfilenumber":"12-0001288","outofstatestatus":"Not Applicable","task completed date":"6/5/2012","region":"Central California","countyname":"Kern","closeddate":"8/1/2012 0:00","isclosed":"FALSE","geo_score":0.488,"id":"a6oksrapv3lw","filenumber":"472652","filetransactiontype":"Escrow Only","escrowofficername":"Cindy Kohler","titleunit":"LandSafe Title","referringcustomer":"LandSafe_CA","primarycurativetech":"Unassigned","contract in task":"Contract In Tasks","secondarycurativetech":"Unassigned","branchoffice":"Bakersfield","isescalated":"FALSE","address":"12613 Hawaii Ln","propertyaddressline2":null,"filenotes":null,"geo_precision":"zip","state":"California"},"type":"Feature","geometry":{"type":"Point","coordinates":[-118.917413,35.240577]}},{"properties":{"city":"Roseville","createddate":"6/5/2012 10:41","iscurativefile":"FALSE","zip":"95678","openeddate":"6/5/2012 0:00","referringcustomerfilenumber":"12-0007804","outofstatestatus":"Not Applicable","task completed date":"6/5/2012","region":"South Northern California","countyname":"Placer","closeddate":"7/9/2012 0:00","isclosed":"FALSE","geo_score":0.902,"id":"a6oksr5czao9","filenumber":"472664","filetransactiontype":"Escrow Only","escrowofficername":"Heather Walker","titleunit":"LandSafe Title","referringcustomer":"LandSafe_CA","primarycurativetech":"Unassigned","contract in task":"Contract In Tasks","secondarycurativetech":"Unassigned","branchoffice":"Turlock","isescalated":"FALSE","address":"512 Royer St","propertyaddressline2":null,"filenotes":null,"geo_precision":"range","state":"California"},"type":"Feature","geometry":{"type":"Point","coordinates":[-121.285544,38.744887]}},{"properties":{"city":"Victorville","createddate":"6/5/2012 11:00","iscurativefile":"FALSE","zip":"92394","openeddate":"6/5/2012 0:00","referringcustomerfilenumber":"12-0016601","outofstatestatus":"Not Applicable","task completed date":"6/5/2012","region":"Inland Empire","countyname":"San Bernardino","closeddate":"7/13/2012 0:00","isclosed":"FALSE","geo_score":0.587,"id":"a6oksr7ph2sc","filenumber":"472672","filetransactiontype":"Escrow Only","escrowofficername":"Pamela San Millan","titleunit":"LandSafe Title","referringcustomer":"LandSafe_CA","primarycurativetech":"Unassigned","contract in task":"Contract In Tasks","secondarycurativetech":"Unassigned","branchoffice":"Victorville","isescalated":"FALSE","address":"13620 Silversand St","propertyaddressline2":null,"filenotes":null,"geo_precision":"street","state":"California"},"type":"Feature","geometry":{"type":"Point","coordinates":[-117.389064,34.483095]}},{"properties":{"city":"Irvine","createddate":"6/5/2012 11:17","iscurativefile":"FALSE","zip":"92612","openeddate":"6/5/2012 0:00","referringcustomerfilenumber":"12-0025897","outofstatestatus":"Not Applicable","task completed date":"6/5/2012","region":"So. California","countyname":"Orange","closeddate":"7/9/2012 0:00","isclosed":"FALSE","geo_score":0.61,"id":"a6oksr8avxzn","filenumber":"472681","filetransactiontype":"Escrow Only","escrowofficername":"Michelle Huynh","titleunit":"LandSafe Title","referringcustomer":"LandSafe_CA","primarycurativetech":"Unassigned","contract in task":"Contract In Tasks","secondarycurativetech":"Unassigned","branchoffice":"Irvine","isescalated":"FALSE","address":"14 Lago Sud, #7","propertyaddressline2":null,"filenotes":null,"geo_precision":"range","state":"California"},"type":"Feature","geometry":{"type":"Point","coordinates":[-117.848634,33.667807]}},{"properties":{"city":"Clearlake","createddate":"6/5/2012 11:49","iscurativefile":"FALSE","zip":"95422","openeddate":"6/5/2012 0:00","referringcustomerfilenumber":"11-0038691","outofstatestatus":"Not Applicable","task completed date":"6/5/2012","region":"North Northern California","countyname":"Lake","closeddate":"7/5/2012 0:00","isclosed":"FALSE","geo_score":0.902,"id":"a6oksrayt7a1","filenumber":"472709","filetransactiontype":"Title &amp; Escrow","escrowofficername":"Linda Silva","titleunit":"CA CPU Title-Kevin","referringcustomer":"LandSafe_CA","primarycurativetech":"Unassigned","contract in task":"Contract In Tasks","secondarycurativetech":"Unassigned","branchoffice":"Santa Rosa","isescalated":"FALSE","address":"14511 Lakeshore Dr","propertyaddressline2":null,"filenotes":null,"geo_precision":"range","state":"California"},"type":"Feature","geometry":{"type":"Point","coordinates":[-122.64194,38.951488]}},{"properties":{"city":"Santa Clarita","createddate":"6/5/2012 12:07","iscurativefile":"FALSE","zip":"91387","openeddate":"6/5/2012 0:00","referringcustomerfilenumber":"11-0082960","outofstatestatus":"Not Applicable","task completed date":"6/5/2012","region":"Los Angeles - Ventura California","countyname":"Los Angeles","closeddate":"7/6/2012 0:00","isclosed":"FALSE","geo_score":0.63,"id":"a6oksr1mepdn","filenumber":"472702","filetransactiontype":"Escrow Only","escrowofficername":"Mary Schenuk","titleunit":"LandSafe Title","referringcustomer":"LandSafe_CA","primarycurativetech":"Unassigned","contract in task":"Contract In Tasks","secondarycurativetech":"Unassigned","branchoffice":"Glendale","isescalated":"FALSE","address":"29565 Sequoia Rd","propertyaddressline2":null,"filenotes":null,"geo_precision":"street","state":"California"},"type":"Feature","geometry":{"type":"Point","coordinates":[-118.388833,34.43687]}},{"properties":{"city":"Claremont","createddate":"6/5/2012 13:28","iscurativefile":"FALSE","zip":"91711","openeddate":"6/5/2012 0:00","referringcustomerfilenumber":"11-0118597","outofstatestatus":"Not Applicable","task completed date":"6/5/2012","region":"Los Angeles - Ventura California","countyname":"Los Angeles","closeddate":"7/2/2012 0:00","isclosed":"FALSE","geo_score":0.902,"id":"a6oksqzx0dv5","filenumber":"472804","filetransactiontype":"Escrow Only","escrowofficername":"Julie Mayorga","titleunit":"LandSafe Title","referringcustomer":"LandSafe_CA","primarycurativetech":"Unassigned","contract in task":"Contract In Tasks","secondarycurativetech":"Unassigned","branchoffice":"City of Industry","isescalated":"FALSE","address":"178 Marywood Ave","propertyaddressline2":null,"filenotes":null,"geo_precision":"range","state":"California"},"type":"Feature","geometry":{"type":"Point","coordinates":[-117.731155,34.091066]}},{"properties":{"city":"Rancho Mirage","createddate":"6/5/2012 15:15","iscurativefile":"FALSE","zip":"92270","openeddate":"6/5/2012 0:00","referringcustomerfilenumber":"12-0028225","outofstatestatus":"Not Applicable","task completed date":"6/5/2012","region":"Inland Empire","countyname":"Riverside","closeddate":"7/9/2012 0:00","isclosed":"FALSE","geo_score":0.902,"id":"a6oksr18ibam","filenumber":"472844","filetransactiontype":"Escrow Only","escrowofficername":"Cindy (Cynthia) Solomon (Goodgion)","titleunit":"LandSafe Title","referringcustomer":"LandSafe_CA","primarycurativetech":"Unassigned","contract in task":"Contract In Tasks","secondarycurativetech":"Unassigned","branchoffice":"Palm Desert","isescalated":"FALSE","address":"29 Duke Dr","propertyaddressline2":null,"filenotes":null,"geo_precision":"range","state":"California"},"type":"Feature","geometry":{"type":"Point","coordinates":[-116.423302,33.765402]}},{"properties":{"city":"Downey","createddate":"6/5/2012 15:34","iscurativefile":"FALSE","zip":"90241","openeddate":"6/5/2012 0:00","referringcustomerfilenumber":"12-0030961","outofstatestatus":"Not Applicable","task completed date":"6/5/2012","region":"Los Angeles - Ventura California","countyname":"Los Angeles","closeddate":"6/14/2012 0:00","isclosed":"FALSE","geo_score":0.902,"id":"a6oksqyasj87","filenumber":"472807","filetransactiontype":"Escrow Only","escrowofficername":"Angela Hum","titleunit":"LandSafe Title","referringcustomer":"LandSafe_CA","primarycurativetech":"Unassigned","contract in task":"Contract In Tasks","secondarycurativetech":"Unassigned","branchoffice":"Glendale","isescalated":"FALSE","address":"10923 Studebaker Rd","propertyaddressline2":null,"filenotes":null,"geo_precision":"range","state":"California"},"type":"Feature","geometry":{"type":"Point","coordinates":[-118.099265,33.932284]}},{"properties":{"city":"Forestville","createddate":"6/5/2012 18:20","iscurativefile":"FALSE","zip":"95436","openeddate":"6/5/2012 0:00","referringcustomerfilenumber":"12-0038679","outofstatestatus":"Not Applicable","task completed date":"6/5/2012","region":"North Northern California","countyname":"Sonoma","closeddate":"6/29/2012 0:00","isclosed":"FALSE","geo_score":0.765,"id":"a6oksr23qybs","filenumber":"472930","filetransactiontype":"Escrow Only","escrowofficername":"Margaret Basques","titleunit":"LandSafe Title","referringcustomer":"LandSafe_CA","primarycurativetech":"Unassigned","contract in task":"Contract In Tasks","secondarycurativetech":"Unassigned","branchoffice":"Santa Rosa","isescalated":"FALSE","address":"11144 Ice Box Canyon Rd","propertyaddressline2":null,"filenotes":null,"geo_precision":"range","state":"California"},"type":"Feature","geometry":{"type":"Point","coordinates":[-122.925445,38.501121]}},{"properties":{"city":"Redlands","createddate":"6/5/2012 18:29","iscurativefile":"FALSE","zip":"92374","openeddate":"6/5/2012 0:00","referringcustomerfilenumber":"11-0136933","outofstatestatus":"Not Applicable","task completed date":"6/5/2012","region":"Inland Empire","countyname":"San Bernardino","closeddate":"7/20/2012 0:00","isclosed":"FALSE","geo_score":0.527,"id":"a6oksr1kkicr","filenumber":"472946","filetransactiontype":"Escrow Only","escrowofficername":"Patti Black","titleunit":"LandSafe Title","referringcustomer":"LandSafe_CA","primarycurativetech":"Unassigned","contract in task":"Contract In Tasks","secondarycurativetech":"Unassigned","branchoffice":"Redlands","isescalated":"FALSE","address":"1411 Black Hawk Ct","propertyaddressline2":null,"filenotes":null,"geo_precision":"street","state":"California"},"type":"Feature","geometry":{"type":"Point","coordinates":[-117.14184,34.413609]}},{"properties":{"city":"Moreno Valley","createddate":"6/5/2012 18:32","iscurativefile":"FALSE","zip":"92555","openeddate":"6/5/2012 0:00","referringcustomerfilenumber":"11-0120925","outofstatestatus":"Not Applicable","task completed date":"6/12/2012","region":"Inland Empire","countyname":"Riverside","closeddate":"7/16/2012 0:00","isclosed":"FALSE","geo_score":0.707,"id":"a6oksr7avvu4","filenumber":"474674","filetransactiontype":"Escrow Only","escrowofficername":"(Beth) Elizabeth D'Andrea","titleunit":"LandSafe Title","referringcustomer":"LandSafe_CA","primarycurativetech":"Unassigned","contract in task":"Contract In Tasks","secondarycurativetech":"Unassigned","branchoffice":"Murrieta","isescalated":"FALSE","address":"26600 Calle Linda","propertyaddressline2":null,"filenotes":"old file # 472959","geo_precision":"street","state":"California"},"type":"Feature","geometry":{"type":"Point","coordinates":[-117.049113,33.484643]}},{"properties":{"city":"La Puente","createddate":"6/6/2012 10:00","iscurativefile":"FALSE","zip":"91744","openeddate":"6/6/2012 0:00","referringcustomerfilenumber":"11-0134407","outofstatestatus":"Not Applicable","task completed date":"6/6/2012","region":"Los Angeles - Ventura California","countyname":"Los Angeles","closeddate":"7/23/2012 0:00","isclosed":"FALSE","geo_score":0.902,"id":"a6oksrb55gxy","filenumber":"473047","filetransactiontype":"Escrow Only","escrowofficername":"Mary Schenuk","titleunit":"LandSafe Title","referringcustomer":"LandSafe_CA","primarycurativetech":"Unassigned","contract in task":"Contract In Tasks","secondarycurativetech":"Unassigned","branchoffice":"Glendale","isescalated":"FALSE","address":"14431 Flanner St","propertyaddressline2":null,"filenotes":null,"geo_precision":"range","state":"California"},"type":"Feature","geometry":{"type":"Point","coordinates":[-117.966484,34.046279]}},{"properties":{"city":"Lakeside","createddate":"6/6/2012 10:08","iscurativefile":"FALSE","zip":"92040","openeddate":"6/6/2012 0:00","referringcustomerfilenumber":"12-0002527","outofstatestatus":"Not Applicable","task completed date":"6/6/2012","region":"So. California","countyname":"San Diego","closeddate":"7/13/2012 0:00","isclosed":"FALSE","geo_score":0.61,"id":"a6oksr60wajx","filenumber":"473052","filetransactiontype":"Escrow Only","escrowofficername":"Irene Casey","titleunit":"LandSafe Title","referringcustomer":"LandSafe_CA","primarycurativetech":"Unassigned","contract in task":"Contract In Tasks","secondarycurativetech":"Unassigned","branchoffice":"Carlsbad","isescalated":"FALSE","address":"11825 &amp; 11835 Northill","propertyaddressline2":null,"filenotes":null,"geo_precision":"range","state":"California"},"type":"Feature","geometry":{"type":"Point","coordinates":[-116.937436,32.8462]}},{"properties":{"city":"La Grange","createddate":"6/6/2012 10:17","iscurativefile":"FALSE","zip":"95338","openeddate":"6/6/2012 0:00","referringcustomerfilenumber":"11-0023105","outofstatestatus":"Not Applicable","task completed date":"6/6/2012","region":"Central California","countyname":"Mariposa","closeddate":"6/29/2012 0:00","isclosed":"FALSE","geo_score":0.902,"id":"a6oksr54va2y","filenumber":"473053","filetransactiontype":"Title &amp; Escrow","escrowofficername":"Stacey Giguiere","titleunit":"CA CPU Title-Kevin","referringcustomer":"LandSafe_CA","primarycurativetech":"Unassigned","contract in task":"Contract In Tasks","secondarycurativetech":"Unassigned","branchoffice":"Fresno","isescalated":"FALSE","address":"9675 Paraje Way","propertyaddressline2":null,"filenotes":null,"geo_precision":"range","state":"California"},"type":"Feature","geometry":{"type":"Point","coordinates":[-120.35184,37.642868]}},{"properties":{"city":"Canoga Park Area","createddate":"6/6/2012 10:33","iscurativefile":"FALSE","zip":"91306","openeddate":"6/6/2012 0:00","referringcustomerfilenumber":"11-0116660","outofstatestatus":"Not Applicable","task completed date":"6/6/2012","region":"Los Angeles - Ventura California","countyname":"Los Angeles","closeddate":"7/13/2012 0:00","isclosed":"FALSE","geo_score":0.823,"id":"a6oksr7do1c3","filenumber":"473057","filetransactiontype":"Escrow Only","escrowofficername":"Adriana Ponce","titleunit":"LandSafe Title","referringcustomer":"LandSafe_CA","primarycurativetech":"Unassigned","contract in task":"Contract In Tasks","secondarycurativetech":"Unassigned","branchoffice":"City of Industry","isescalated":"FALSE","address":"8339 Oakdale Ave","propertyaddressline2":null,"filenotes":null,"geo_precision":"range","state":"California"},"type":"Feature","geometry":{"type":"Point","coordinates":[-118.56674,34.221432]}},{"properties":{"city":"Los Angeles","createddate":"6/6/2012 11:34","iscurativefile":"FALSE","zip":"90044","openeddate":"6/6/2012 0:00","referringcustomerfilenumber":"11-0087611","outofstatestatus":"Completed","task completed date":"6/6/2012","region":"Los Angeles - Ventura California","countyname":"Los Angeles","closeddate":"6/20/2012 0:00","isclosed":"TRUE","geo_score":0.837,"id":"a6oksqxziyah","filenumber":"473094","filetransactiontype":"Escrow Only","escrowofficername":"Angela Hum","titleunit":"LandSafe Title","referringcustomer":"LandSafe_CA","primarycurativetech":"Unassigned","contract in task":"Contract In Tasks","secondarycurativetech":"Unassigned","branchoffice":"Glendale","isescalated":"FALSE","address":"1310 West 84th St","propertyaddressline2":null,"filenotes":null,"geo_precision":"range","state":"California"},"type":"Feature","geometry":{"type":"Point","coordinates":[-118.300252,33.962457]}},{"properties":{"city":"Concord","createddate":"6/6/2012 11:53","iscurativefile":"FALSE","zip":"94521","openeddate":"6/6/2012 0:00","referringcustomerfilenumber":"11-0126074","outofstatestatus":"Completed","task completed date":"6/6/2012","region":"North Northern California","countyname":"Contra Costa","closeddate":"6/22/2012 0:00","isclosed":"TRUE","geo_score":0.902,"id":"a6oksr8jjgmo","filenumber":"473110","filetransactiontype":"Escrow Only","escrowofficername":"Rheanna Gieseking","titleunit":"LandSafe Title","referringcustomer":"LandSafe_CA","primarycurativetech":"Unassigned","contract in task":"Contract In Tasks","secondarycurativetech":"Unassigned","branchoffice":"Danville","isescalated":"FALSE","address":"4817 Cherokee Dr","propertyaddressline2":null,"filenotes":null,"geo_precision":"range","state":"California"},"type":"Feature","geometry":{"type":"Point","coordinates":[-121.977456,37.961325]}},{"properties":{"city":"Sac","createddate":"6/6/2012 11:55","iscurativefile":"FALSE","zip":"95842","openeddate":"6/6/2012 0:00","referringcustomerfilenumber":null,"outofstatestatus":"Not Applicable","task completed date":"6/6/2012","region":"North Northern California","countyname":"Sacramento","closeddate":"7/20/2012 0:00","isclosed":"FALSE","geo_score":0.834,"id":"a6oksr38253e","filenumber":"01445-1887","filetransactiontype":"Escrow Only","escrowofficername":"Dawn Vincent","titleunit":"LandSafe Title","referringcustomer":"LandSafe_CA","primarycurativetech":"Unassigned","contract in task":"Contract In Tasks","secondarycurativetech":"Unassigned","branchoffice":"AMSAC-Fair Oaks","isescalated":"FALSE","address":"4647 Leverett Ct","propertyaddressline2":null,"filenotes":null,"geo_precision":"range","state":"California"},"type":"Feature","geometry":{"type":"Point","coordinates":[-121.35596,38.698175]}},{"properties":{"city":"Blythe","createddate":"6/6/2012 11:59","iscurativefile":"FALSE","zip":"92225","openeddate":"6/6/2012 0:00","referringcustomerfilenumber":"12-0007819","outofstatestatus":"Not Applicable","task completed date":"6/6/2012","region":"Inland Empire","countyname":"Riverside","closeddate":"8/7/2012 0:00","isclosed":"FALSE","geo_score":0.902,"id":"a6oksqxv7gnr","filenumber":"473060","filetransactiontype":"Escrow Only","escrowofficername":"(Loreen) Dorothy Hope","titleunit":"LandSafe Title","referringcustomer":"LandSafe_CA","primarycurativetech":"Unassigned","contract in task":"Contract In Tasks","secondarycurativetech":"Unassigned","branchoffice":"Riverside","isescalated":"FALSE","address":"788 Michelle St","propertyaddressline2":null,"filenotes":null,"geo_precision":"range","state":"California"},"type":"Feature","geometry":{"type":"Point","coordinates":[-114.593072,33.622157]}},{"properties":{"city":"San Bruno","createddate":"6/6/2012 12:03","iscurativefile":"FALSE","zip":"94066","openeddate":"6/6/2012 0:00","referringcustomerfilenumber":"11-0102627","outofstatestatus":"Not Applicable","task completed date":"6/6/2012","region":"South Northern California","countyname":"San Mateo","closeddate":"6/18/2012 0:00","isclosed":"TRUE","geo_score":0.902,"id":"a6oksraihz63","filenumber":"473066","filetransactiontype":"Escrow Only","escrowofficername":"Mary Reyna","titleunit":"Not Applicable","referringcustomer":"LandSafe_CA","primarycurativetech":"Unassigned","contract in task":"Contract In Tasks","secondarycurativetech":"Unassigned","branchoffice":"Los Gatos","isescalated":"FALSE","address":"148 Georgia Ave","propertyaddressline2":null,"filenotes":null,"geo_precision":"range","state":"California"},"type":"Feature","geometry":{"type":"Point","coordinates":[-122.406976,37.621158]}},{"properties":{"city":"Santa Cruz","createddate":"6/6/2012 12:06","iscurativefile":"FALSE","zip":"95062","openeddate":"6/6/2012 0:00","referringcustomerfilenumber":"11-0134423","outofstatestatus":"Not Applicable","task completed date":"6/6/2012","region":"South Northern California","countyname":"Santa Cruz","closeddate":"7/13/2012 0:00","isclosed":"FALSE","geo_score":0.902,"id":"a6oksr0xi8xu","filenumber":"473074","filetransactiontype":"Escrow Only","escrowofficername":"Cher'e Rich","titleunit":"LandSafe Title","referringcustomer":"LandSafe_CA","primarycurativetech":"Unassigned","contract in task":"Contract In Tasks","secondarycurativetech":"Unassigned","branchoffice":"Capitola","isescalated":"FALSE","address":"1419 Harper St","propertyaddressline2":null,"filenotes":null,"geo_precision":"range","state":"California"},"type":"Feature","geometry":{"type":"Point","coordinates":[-121.986556,36.974538]}},{"properties":{"city":"Frazier Park","createddate":"6/6/2012 12:10","iscurativefile":"FALSE","zip":"93225","openeddate":"6/6/2012 0:00","referringcustomerfilenumber":"11-0078203","outofstatestatus":"Not Applicable","task completed date":"6/6/2012","region":"Central California","countyname":"Kern","closeddate":"7/2/2012 0:00","isclosed":"FALSE","geo_score":0.902,"id":"a6oksr9qoo7b","filenumber":"473084","filetransactiontype":"Escrow Only","escrowofficername":"Jennifer Navarro","titleunit":"LandSafe Title","referringcustomer":"LandSafe_CA","primarycurativetech":"Unassigned","contract in task":"Contract In Tasks","secondarycurativetech":"Unassigned","branchoffice":"Bakersfield","isescalated":"FALSE","address":"6945 Cuddy Valley Rd","propertyaddressline2":null,"filenotes":null,"geo_precision":"range","state":"California"},"type":"Feature","geometry":{"type":"Point","coordinates":[-119.006489,34.821567]}},{"properties":{"city":"Modesto","createddate":"6/6/2012 12:14","iscurativefile":"FALSE","zip":"95350","openeddate":"6/6/2012 0:00","referringcustomerfilenumber":null,"outofstatestatus":"Cancelled","task completed date":"6/6/2012","region":"South Northern California","countyname":"Stanislaus","closeddate":"6/6/2012 0:00","isclosed":"TRUE","geo_score":0.902,"id":"a6oksr8etky7","filenumber":"C473101","filetransactiontype":"Escrow Only","escrowofficername":"Debra Greene","titleunit":"LandSafe Title","referringcustomer":"LandSafe_CA","primarycurativetech":"Unassigned","contract in task":"Contract In Tasks","secondarycurativetech":"Unassigned","branchoffice":"Modesto","isescalated":"FALSE","address":"1530 Cherrywood Dr","propertyaddressline2":null,"filenotes":"06/06/2012 04:00pm (Central Time) - KHEITMAN\r\nFile status changed to Cancelled","geo_precision":"range","state":"California"},"type":"Feature","geometry":{"type":"Point","coordinates":[-121.01867,37.661106]}},{"properties":{"city":"Lancaster","createddate":"6/6/2012 12:35","iscurativefile":"FALSE","zip":"93535","openeddate":"6/6/2012 0:00","referringcustomerfilenumber":"11-0137413","outofstatestatus":"Not Applicable","task completed date":"6/6/2012","region":"Los Angeles - Ventura California","countyname":"Los Angeles","closeddate":"7/12/2012 0:00","isclosed":"FALSE","geo_score":0.494,"id":"a6oksqxpshf9","filenumber":"473120","filetransactiontype":"Escrow Only","escrowofficername":"Julie Mayorga","titleunit":"LandSafe Title","referringcustomer":"LandSafe_CA","primarycurativetech":"Unassigned","contract in task":"Contract In Tasks","secondarycurativetech":"Unassigned","branchoffice":"City of Industry","isescalated":"FALSE","address":"44223 Artesia Mill Ct","propertyaddressline2":null,"filenotes":null,"geo_precision":"street","state":"California"},"type":"Feature","geometry":{"type":"Point","coordinates":[-118.1009,34.683754]}},{"properties":{"city":"Oakhurst","createddate":"6/6/2012 13:06","iscurativefile":"FALSE","zip":"93644","openeddate":"6/6/2012 0:00","referringcustomerfilenumber":"11-0028423","outofstatestatus":"Not Applicable","task completed date":"6/6/2012","region":"Central California","countyname":"Madera","closeddate":"6/19/2012 0:00","isclosed":"FALSE","geo_score":0.902,"id":"a6oksrauxt7b","filenumber":"473154","filetransactiontype":"Title &amp; Escrow","escrowofficername":"Claudia Froelich","titleunit":"CA CPU Title-Kevin","referringcustomer":"LandSafe_CA","primarycurativetech":"Unassigned","contract in task":"Contract In Tasks","secondarycurativetech":"Unassigned","branchoffice":"Fresno","isescalated":"FALSE","address":"49947 Road 620","propertyaddressline2":null,"filenotes":null,"geo_precision":"range","state":"California"},"type":"Feature","geometry":{"type":"Point","coordinates":[-119.632188,37.371974]}},{"properties":{"city":"Antelope","createddate":"6/6/2012 18:31","iscurativefile":"FALSE","zip":"95843","openeddate":"6/6/2012 0:00","referringcustomerfilenumber":"11-0120221","outofstatestatus":"Not Applicable","task completed date":"6/6/2012","region":"North Northern California","countyname":"Sacramento","closeddate":"6/28/2012 0:00","isclosed":"FALSE","geo_score":0.902,"id":"a6oksr92s0b2","filenumber":"01445-1893","filetransactiontype":"Escrow Only","escrowofficername":"Dawn Vincent","titleunit":"LandSafe Title","referringcustomer":"LandSafe_CA","primarycurativetech":"Unassigned","contract in task":"Contract In Tasks","secondarycurativetech":"Unassigned","branchoffice":"AMSAC-Fair Oaks","isescalated":"FALSE","address":"3495 Scotland Dr","propertyaddressline2":null,"filenotes":null,"geo_precision":"range","state":"California"},"type":"Feature","geometry":{"type":"Point","coordinates":[-121.387764,38.706552]}},{"properties":{"city":"Midway City","createddate":"6/7/2012 10:28","iscurativefile":"FALSE","zip":"92655","openeddate":"6/7/2012 0:00","referringcustomerfilenumber":"12-0012797","outofstatestatus":"Not Applicable","task completed date":"6/7/2012","region":"So. California","countyname":"Orange","closeddate":"7/13/2012 0:00","isclosed":"FALSE","geo_score":0.902,"id":"a6oksr72ajyu","filenumber":"473399","filetransactiontype":"Escrow Only","escrowofficername":"Michelle Huynh","titleunit":"LandSafe Title","referringcustomer":"LandSafe_CA","primarycurativetech":"Unassigned","contract in task":"Contract In Tasks","secondarycurativetech":"Unassigned","branchoffice":"Irvine","isescalated":"FALSE","address":"15241 Cedarwood Ave","propertyaddressline2":null,"filenotes":null,"geo_precision":"range","state":"California"},"type":"Feature","geometry":{"type":"Point","coordinates":[-117.993325,33.74082]}},{"properties":{"city":"Wildomar","createddate":"6/7/2012 10:31","iscurativefile":"FALSE","zip":"92595","openeddate":"6/7/2012 0:00","referringcustomerfilenumber":"12-0012763","outofstatestatus":"Not Applicable","task completed date":"6/7/2012","region":"Inland Empire","countyname":"Riverside","closeddate":"7/5/2012 0:00","isclosed":"FALSE","geo_score":0.902,"id":"a6oksra2zwe5","filenumber":"473401","filetransactiontype":"Escrow Only","escrowofficername":"(Loreen) Dorothy Hope","titleunit":"LandSafe Title","referringcustomer":"LandSafe_CA","primarycurativetech":"Unassigned","contract in task":"Contract In Tasks","secondarycurativetech":"Unassigned","branchoffice":"Murrieta","isescalated":"FALSE","address":"34411 Orchard St","propertyaddressline2":null,"filenotes":null,"geo_precision":"range","state":"California"},"type":"Feature","geometry":{"type":"Point","coordinates":[-117.28419,33.621052]}},{"properties":{"city":"Pasadena","createddate":"6/7/2012 10:33","iscurativefile":"FALSE","zip":"91104","openeddate":"6/7/2012 0:00","referringcustomerfilenumber":null,"outofstatestatus":"Not Applicable","task completed date":"6/7/2012","region":"Los Angeles - Ventura California","countyname":"Los Angeles","closeddate":"6/25/2012 0:00","isclosed":"FALSE","geo_score":0.902,"id":"a6oksr2d19l1","filenumber":"473407","filetransactiontype":"Escrow Only","escrowofficername":"Mary Schenuk","titleunit":"LandSafe Title","referringcustomer":"LandSafe_CA","primarycurativetech":"Unassigned","contract in task":"Contract In Tasks","secondarycurativetech":"Unassigned","branchoffice":"Glendale","isescalated":"FALSE","address":"2471 Galbreth Rd","propertyaddressline2":null,"filenotes":null,"geo_precision":"range","state":"California"},"type":"Feature","geometry":{"type":"Point","coordinates":[-118.100306,34.168133]}},{"properties":{"city":"Poway","createddate":"6/7/2012 13:24","iscurativefile":"FALSE","zip":"92064","openeddate":"6/7/2012 0:00","referringcustomerfilenumber":"12 0006754","outofstatestatus":"Not Applicable","task completed date":"6/7/2012","region":"So. California","countyname":"San Diego","closeddate":"6/15/2012 0:00","isclosed":"FALSE","geo_score":0.441,"id":"a6oksr5n5eji","filenumber":"473601","filetransactiontype":"Escrow Only","escrowofficername":"(Cindy) Cynthia Furphy","titleunit":"LandSafe Title","referringcustomer":"LandSafe_CA","primarycurativetech":"Unassigned","contract in task":"Contract In Tasks","secondarycurativetech":"Unassigned","branchoffice":"La Mesa","isescalated":"FALSE","address":"13983 Hickory St","propertyaddressline2":null,"filenotes":null,"geo_precision":"street","state":"California"},"type":"Feature","geometry":{"type":"Point","coordinates":[-117.240902,33.076507]}},{"properties":{"city":"Lindsay","createddate":"6/7/2012 14:11","iscurativefile":"FALSE","zip":"93247","openeddate":"6/7/2012 0:00","referringcustomerfilenumber":"11 0092073","outofstatestatus":"Completed","task completed date":"6/7/2012","region":"Central California","countyname":"Tulare","closeddate":"6/15/2012 0:00","isclosed":"TRUE","geo_score":0.902,"id":"a6oksra929de","filenumber":"473616","filetransactiontype":"Escrow Only","escrowofficername":"Judy Loflin","titleunit":"LandSafe Title","referringcustomer":"LandSafe_CA","primarycurativetech":"Unassigned","contract in task":"Contract In Tasks","secondarycurativetech":"Unassigned","branchoffice":"Porterville","isescalated":"FALSE","address":"20093 Road 216","propertyaddressline2":null,"filenotes":null,"geo_precision":"range","state":"California"},"type":"Feature","geometry":{"type":"Point","coordinates":[-119.089949,36.152911]}},{"properties":{"city":"Inglewood","createddate":"6/7/2012 14:16","iscurativefile":"FALSE","zip":"90301","openeddate":"6/7/2012 0:00","referringcustomerfilenumber":"12-0006744","outofstatestatus":"Not Applicable","task completed date":"6/7/2012","region":"Los Angeles - Ventura California","countyname":"Los Angeles","closeddate":"7/13/2012 0:00","isclosed":"FALSE","geo_score":0.902,"id":"a6oksr39z8bp","filenumber":"473627","filetransactiontype":"Escrow Only","escrowofficername":"Angela Hum","titleunit":"LandSafe Title","referringcustomer":"LandSafe_CA","primarycurativetech":"Unassigned","contract in task":"Contract In Tasks","secondarycurativetech":"Unassigned","branchoffice":"Glendale","isescalated":"FALSE","address":"710 Larch St","propertyaddressline2":null,"filenotes":null,"geo_precision":"range","state":"California"},"type":"Feature","geometry":{"type":"Point","coordinates":[-118.349963,33.954235]}},{"properties":{"city":"Murrieta","createddate":"6/7/2012 16:13","iscurativefile":"FALSE","zip":"92563","openeddate":"6/7/2012 0:00","referringcustomerfilenumber":"12 0016605","outofstatestatus":"Completed","task completed date":"6/7/2012","region":"Inland Empire","countyname":"Riverside","closeddate":"6/25/2012 0:00","isclosed":"TRUE","geo_score":0.642,"id":"a6oksqxkhvbq","filenumber":"473727","filetransactiontype":"Escrow Only","escrowofficername":"(Loreen) Dorothy Hope","titleunit":"LandSafe Title","referringcustomer":"LandSafe_CA","primarycurativetech":"Unassigned","contract in task":"Contract In Tasks","secondarycurativetech":"Unassigned","branchoffice":"Murrieta","isescalated":"FALSE","address":"33599 Zinnia Ln","propertyaddressline2":null,"filenotes":null,"geo_precision":"street","state":"California"},"type":"Feature","geometry":{"type":"Point","coordinates":[-117.250569,33.943999]}},{"properties":{"city":"Burbank","createddate":"6/7/2012 17:51","iscurativefile":"FALSE","zip":"91502","openeddate":"6/7/2012 0:00","referringcustomerfilenumber":"11 0094556","outofstatestatus":"Not Applicable","task completed date":"6/7/2012","region":"Los Angeles - Ventura California","countyname":"Los Angeles","closeddate":"8/1/2012 0:00","isclosed":"FALSE","geo_score":0.61,"id":"a6oksr64ktqv","filenumber":"473779","filetransactiontype":"Escrow Only","escrowofficername":"Mary Schenuk","titleunit":"LandSafe Title","referringcustomer":"LandSafe_CA","primarycurativetech":"Unassigned","contract in task":"Contract In Tasks","secondarycurativetech":"Unassigned","branchoffice":"Glendale","isescalated":"FALSE","address":"250 W Spazier Ave #250","propertyaddressline2":null,"filenotes":null,"geo_precision":"range","state":"California"},"type":"Feature","geometry":{"type":"Point","coordinates":[-118.305883,34.166986]}},{"properties":{"city":"Oakley","createddate":"6/8/2012 9:40","iscurativefile":"FALSE","zip":"94561","openeddate":"6/8/2012 0:00","referringcustomerfilenumber":"12 0020349","outofstatestatus":"Not Applicable","task completed date":"6/8/2012","region":"North Northern California","countyname":"Contra Costa","closeddate":"7/6/2012 0:00","isclosed":"FALSE","geo_score":0.902,"id":"a6oksqyszjxd","filenumber":"473865","filetransactiontype":"Escrow Only","escrowofficername":"Rheanna Gieseking","titleunit":"LandSafe Title","referringcustomer":"LandSafe_CA","primarycurativetech":"Unassigned","contract in task":"Contract In Tasks","secondarycurativetech":"Unassigned","branchoffice":"Danville","isescalated":"FALSE","address":"1251 West Cypress Rd","propertyaddressline2":null,"filenotes":null,"geo_precision":"range","state":"California"},"type":"Feature","geometry":{"type":"Point","coordinates":[-121.717964,37.990538]}},{"properties":{"city":"Corona","createddate":"6/8/2012 11:47","iscurativefile":"FALSE","zip":"92879","openeddate":"6/8/2012 0:00","referringcustomerfilenumber":"120024805","outofstatestatus":"Not Applicable","task completed date":"6/8/2012","region":"Inland Empire","countyname":"Riverside","closeddate":"7/3/2012 0:00","isclosed":"FALSE","geo_score":0.902,"id":"a6oksr15z89s","filenumber":"473912","filetransactiontype":"Escrow Only","escrowofficername":"Vicki Petersen","titleunit":"LandSafe Title","referringcustomer":"LandSafe_CA","primarycurativetech":"Unassigned","contract in task":"Contract In Tasks","secondarycurativetech":"Unassigned","branchoffice":"Murrieta","isescalated":"FALSE","address":"1012 Sycamore Ln","propertyaddressline2":null,"filenotes":null,"geo_precision":"range","state":"California"},"type":"Feature","geometry":{"type":"Point","coordinates":[-117.549164,33.868838]}},{"properties":{"city":"Glendale","createddate":"6/8/2012 13:08","iscurativefile":"FALSE","zip":"92106","openeddate":"6/8/2012 0:00","referringcustomerfilenumber":"110105396","outofstatestatus":"Not Applicable","task completed date":"6/8/2012","region":"Los Angeles - Ventura California","countyname":"Los Angeles","closeddate":"6/22/2012 0:00","isclosed":"FALSE","geo_score":0.659,"id":"a6oksr2ua0yx","filenumber":"473959","filetransactiontype":"Escrow Only","escrowofficername":"Mary Schenuk","titleunit":"LandSafe Title","referringcustomer":"LandSafe_CA","primarycurativetech":"Unassigned","contract in task":"Contract In Tasks","secondarycurativetech":"Unassigned","branchoffice":"Glendale","isescalated":"FALSE","address":"333 North Kenwood St","propertyaddressline2":null,"filenotes":null,"geo_precision":"street","state":"California"},"type":"Feature","geometry":{"type":"Point","coordinates":[-117.073959,32.711677]}},{"properties":{"city":"Castro Valley","createddate":"6/8/2012 18:24","iscurativefile":"FALSE","zip":"94546","openeddate":"6/8/2012 0:00","referringcustomerfilenumber":"120016141","outofstatestatus":"Not Applicable","task completed date":"6/8/2012","region":"North Northern California","countyname":"Alameda","closeddate":"6/20/2012 0:00","isclosed":"FALSE","geo_score":0.902,"id":"a6oksr3vaw6m","filenumber":"474125","filetransactiontype":"Escrow Only","escrowofficername":"Maggie Wong","titleunit":"LandSafe Title","referringcustomer":"LandSafe_CA","primarycurativetech":"Unassigned","contract in task":"Contract In Tasks","secondarycurativetech":"Unassigned","branchoffice":"San Francisco","isescalated":"FALSE","address":"19550 Redwood Rd","propertyaddressline2":null,"filenotes":null,"geo_precision":"range","state":"California"},"type":"Feature","geometry":{"type":"Point","coordinates":[-122.074012,37.704331]}},{"properties":{"city":"Santa Cruz","createddate":"6/11/2012 9:49","iscurativefile":"FALSE","zip":"95065","openeddate":"6/11/2012 0:00","referringcustomerfilenumber":"110129124","outofstatestatus":"Not Applicable","task completed date":"6/22/2012","region":"South Northern California","countyname":"Santa Cruz","closeddate":"6/22/2012 0:00","isclosed":"FALSE","geo_score":0.861,"id":"a6oksqxm6woo","filenumber":"474192","filetransactiontype":"Escrow Only","escrowofficername":"Karen Talbot","titleunit":"LandSafe Title","referringcustomer":"LandSafe_CA","primarycurativetech":"Unassigned","contract in task":"Contract In Tasks","secondarycurativetech":"Unassigned","branchoffice":"Santa Cruz","isescalated":"FALSE","address":"1823 Mount Vista Ct","propertyaddressline2":null,"filenotes":null,"geo_precision":"range","state":"California"},"type":"Feature","geometry":{"type":"Point","coordinates":[-121.97891,36.993886]}},{"properties":{"city":"Elk Grove","createddate":"6/11/2012 11:20","iscurativefile":"FALSE","zip":"95624","openeddate":"6/11/2012 0:00","referringcustomerfilenumber":"120040402","outofstatestatus":"Not Applicable","task completed date":"6/11/2012","region":"South Northern California","countyname":"Sacramento","closeddate":"6/7/2012 0:00","isclosed":"FALSE","geo_score":0.902,"id":"a6oksr71tm7f","filenumber":"474238","filetransactiontype":"Escrow Only","escrowofficername":"Debra Greene","titleunit":"LandSafe Title","referringcustomer":"LandSafe_CA","primarycurativetech":"Unassigned","contract in task":"Contract In Tasks","secondarycurativetech":"Unassigned","branchoffice":"Modesto","isescalated":"FALSE","address":"9328 Moynello Ct","propertyaddressline2":null,"filenotes":null,"geo_precision":"range","state":"California"},"type":"Feature","geometry":{"type":"Point","coordinates":[-121.376759,38.418485]}},{"properties":{"city":"Corona","createddate":"6/11/2012 11:39","iscurativefile":"FALSE","zip":"92883","openeddate":"6/11/2012 0:00","referringcustomerfilenumber":"120012792","outofstatestatus":"Not Applicable","task completed date":"6/11/2012","region":"Inland Empire","countyname":"Riverside","closeddate":"6/27/2012 0:00","isclosed":"FALSE","geo_score":0.774,"id":"a6oksr46s2sg","filenumber":"474253","filetransactiontype":"Escrow Only","escrowofficername":"Mary Hudson","titleunit":"LandSafe Title","referringcustomer":"LandSafe_CA","primarycurativetech":"Unassigned","contract in task":"Contract In Tasks","secondarycurativetech":"Unassigned","branchoffice":"Riverside","isescalated":"FALSE","address":"23299 Lawson Canyon Rd","propertyaddressline2":null,"filenotes":null,"geo_precision":"range","state":"California"},"type":"Feature","geometry":{"type":"Point","coordinates":[-117.494602,33.779886]}},{"properties":{"city":"Stockton","createddate":"6/11/2012 13:45","iscurativefile":"FALSE","zip":"95209","openeddate":"6/11/2012 0:00","referringcustomerfilenumber":"120024814","outofstatestatus":"Not Applicable","task completed date":"6/11/2012","region":"South Northern California","countyname":"San Joaquin","closeddate":"6/25/2012 0:00","isclosed":"FALSE","geo_score":0.488,"id":"a6oksrc4wghd","filenumber":"474324","filetransactiontype":"Escrow Only","escrowofficername":"Patti Atkinson-Utz","titleunit":"LandSafe Title","referringcustomer":"LandSafe_CA","primarycurativetech":"Unassigned","contract in task":"Contract In Tasks","secondarycurativetech":"Unassigned","branchoffice":"Turlock","isescalated":"FALSE","address":"2356 Wagner Heights Rd","propertyaddressline2":null,"filenotes":null,"geo_precision":"zip","state":"California"},"type":"Feature","geometry":{"type":"Point","coordinates":[-121.337187,37.988691]}},{"properties":{"city":"Torrance","createddate":"6/12/2012 10:32","iscurativefile":"FALSE","zip":"90505","openeddate":"6/12/2012 0:00","referringcustomerfilenumber":"110123658","outofstatestatus":"Not Applicable","task completed date":"6/12/2012","region":"Los Angeles - Ventura California","countyname":"Los Angeles","closeddate":"8/3/2012 0:00","isclosed":"FALSE","geo_score":0.902,"id":"a6oksr1vdnlh","filenumber":"474573","filetransactiontype":"Escrow Only","escrowofficername":"Adriana Ponce","titleunit":"LandSafe Title","referringcustomer":"LandSafe_CA","primarycurativetech":"Unassigned","contract in task":"Contract In Tasks","secondarycurativetech":"Unassigned","branchoffice":"City of Industry","isescalated":"FALSE","address":"24222 Park St","propertyaddressline2":null,"filenotes":null,"geo_precision":"range","state":"California"},"type":"Feature","geometry":{"type":"Point","coordinates":[-118.349849,33.802422]}},{"properties":{"city":"Santa Ana","createddate":"6/12/2012 10:53","iscurativefile":"FALSE","zip":"92705","openeddate":"6/12/2012 0:00","referringcustomerfilenumber":"120067108","outofstatestatus":"Not Applicable","task completed date":"6/12/2012","region":"So. California","countyname":"Orange","closeddate":"7/6/2012 0:00","isclosed":"FALSE","geo_score":0.849,"id":"a6oksr14wavo","filenumber":"474586","filetransactiontype":"Escrow Only","escrowofficername":"Michelle Huynh","titleunit":"LandSafe Title","referringcustomer":"LandSafe_CA","primarycurativetech":"Unassigned","contract in task":"Contract In Tasks","secondarycurativetech":"Unassigned","branchoffice":"Irvine","isescalated":"FALSE","address":"801 South Lyon St C4","propertyaddressline2":null,"filenotes":null,"geo_precision":"range","state":"California"},"type":"Feature","geometry":{"type":"Point","coordinates":[-117.84493,33.73663]}},{"properties":{"city":"Tracy","createddate":"6/12/2012 11:51","iscurativefile":"FALSE","zip":"95377","openeddate":"6/12/2012 0:00","referringcustomerfilenumber":"110128430","outofstatestatus":"Not Applicable","task completed date":"6/12/2012","region":"South Northern California","countyname":"San Joaquin","closeddate":"7/6/2012 0:00","isclosed":"FALSE","geo_score":0.708,"id":"a6oksqzz6dtx","filenumber":"474561","filetransactiontype":"Escrow Only","escrowofficername":"Denise Fall","titleunit":"LandSafe Title","referringcustomer":"LandSafe_CA","primarycurativetech":"Unassigned","contract in task":"Contract In Tasks","secondarycurativetech":"Unassigned","branchoffice":"Modesto","isescalated":"FALSE","address":"3090 W Byron Rd","propertyaddressline2":null,"filenotes":null,"geo_precision":"street","state":"California"},"type":"Feature","geometry":{"type":"Point","coordinates":[-121.45623,37.742699]}},{"properties":{"city":"Moreno Valley","createddate":"6/12/2012 11:58","iscurativefile":"FALSE","zip":"92555","openeddate":"6/12/2012 0:00","referringcustomerfilenumber":"120001298","outofstatestatus":"Not Applicable","task completed date":"6/12/2012","region":"Inland Empire","countyname":"Riverside","closeddate":"7/6/2012 0:00","isclosed":"FALSE","geo_score":0.902,"id":"a6oksr3gy21h","filenumber":"474564","filetransactiontype":"Escrow Only","escrowofficername":"(Loreen) Dorothy Hope","titleunit":"LandSafe Title","referringcustomer":"LandSafe_CA","primarycurativetech":"Unassigned","contract in task":"Contract In Tasks","secondarycurativetech":"Unassigned","branchoffice":"Murrieta","isescalated":"FALSE","address":"28099 Morrey Ln","propertyaddressline2":null,"filenotes":null,"geo_precision":"range","state":"California"},"type":"Feature","geometry":{"type":"Point","coordinates":[-117.171923,33.955984]}},{"properties":{"city":"Rancho Cordova","createddate":"6/12/2012 12:01","iscurativefile":"FALSE","zip":"95670","openeddate":"6/12/2012 0:00","referringcustomerfilenumber":"120049491","outofstatestatus":"Not Applicable","task completed date":"6/12/2012","region":"South Northern California","countyname":"Sacramento","closeddate":"6/30/2012 0:00","isclosed":"FALSE","geo_score":0.902,"id":"a6oksr9z7srk","filenumber":"474617","filetransactiontype":"Escrow Only","escrowofficername":"Denise Fall","titleunit":"LandSafe Title","referringcustomer":"LandSafe_CA","primarycurativetech":"Unassigned","contract in task":"Contract In Tasks","secondarycurativetech":"Unassigned","branchoffice":"Modesto","isescalated":"FALSE","address":"2407 Negrara Way","propertyaddressline2":null,"filenotes":null,"geo_precision":"range","state":"California"},"type":"Feature","geometry":{"type":"Point","coordinates":[-121.293548,38.603713]}},{"properties":{"city":"Palmdale","createddate":"6/12/2012 12:01","iscurativefile":"FALSE","zip":"93551","openeddate":"6/12/2012 0:00","referringcustomerfilenumber":"110135054","outofstatestatus":"Not Applicable","task completed date":"6/12/2012","region":"Los Angeles - Ventura California","countyname":"Los Angeles","closeddate":"6/26/2012 0:00","isclosed":"FALSE","geo_score":0.902,"id":"a6oksr0tanay","filenumber":"474571","filetransactiontype":"Escrow Only","escrowofficername":"Julie Mayorga","titleunit":"LandSafe Title","referringcustomer":"LandSafe_CA","primarycurativetech":"Unassigned","contract in task":"Contract In Tasks","secondarycurativetech":"Unassigned","branchoffice":"City of Industry","isescalated":"FALSE","address":"2603 Redington St","propertyaddressline2":null,"filenotes":null,"geo_precision":"range","state":"California"},"type":"Feature","geometry":{"type":"Point","coordinates":[-118.176596,34.587047]}},{"properties":{"city":"Sacramento","createddate":"6/12/2012 12:04","iscurativefile":"FALSE","zip":"95820","openeddate":"6/12/2012 0:00","referringcustomerfilenumber":null,"outofstatestatus":"Not Applicable","task completed date":"6/12/2012","region":"North Northern California","countyname":"Sacramento","closeddate":"7/5/2012 0:00","isclosed":"FALSE","geo_score":0.819,"id":"a6oksr8l7ppz","filenumber":"01445-1912","filetransactiontype":"Escrow Only","escrowofficername":"Dawn Vincent","titleunit":"LandSafe Title","referringcustomer":"LandSafe_CA","primarycurativetech":"Unassigned","contract in task":"Contract In Tasks","secondarycurativetech":"Unassigned","branchoffice":"AMSAC-Fair Oaks","isescalated":"FALSE","address":"3905 65th St","propertyaddressline2":null,"filenotes":null,"geo_precision":"range","state":"California"},"type":"Feature","geometry":{"type":"Point","coordinates":[-121.428527,38.538441]}},{"properties":{"city":"Fresno","createddate":"6/12/2012 12:23","iscurativefile":"FALSE","zip":"93720","openeddate":"6/12/2012 0:00","referringcustomerfilenumber":"11-0121731","outofstatestatus":"Not Applicable","task completed date":"6/12/2012","region":"Central California","countyname":"Fresno","closeddate":"7/5/2012 0:00","isclosed":"FALSE","geo_score":0.902,"id":"a6oksr5044x6","filenumber":"474625","filetransactiontype":"Escrow Only","escrowofficername":"Stacey Giguiere","titleunit":"LandSafe Title","referringcustomer":"LandSafe_CA","primarycurativetech":"Unassigned","contract in task":"Contract In Tasks","secondarycurativetech":"Unassigned","branchoffice":"Fresno","isescalated":"FALSE","address":"1818 E Eclipse Ave","propertyaddressline2":null,"filenotes":null,"geo_precision":"range","state":"California"},"type":"Feature","geometry":{"type":"Point","coordinates":[-119.748643,36.874021]}},{"properties":{"city":"Hawaiian Gardens","createddate":"6/12/2012 12:59","iscurativefile":"FALSE","zip":"90716","openeddate":"6/12/2012 0:00","referringcustomerfilenumber":"120018881","outofstatestatus":"Not Applicable","task completed date":"6/12/2012","region":"Los Angeles - Ventura California","countyname":"Los Angeles","closeddate":"7/2/2012 0:00","isclosed":"FALSE","geo_score":0.902,"id":"a6oksrd23db3","filenumber":"474646","filetransactiontype":"Escrow Only","escrowofficername":"Julie Mayorga","titleunit":"LandSafe Title","referringcustomer":"LandSafe_CA","primarycurativetech":"Unassigned","contract in task":"Contract In Tasks","secondarycurativetech":"Unassigned","branchoffice":"City of Industry","isescalated":"FALSE","address":"22414 Elaine Ave","propertyaddressline2":null,"filenotes":null,"geo_precision":"range","state":"California"},"type":"Feature","geometry":{"type":"Point","coordinates":[-118.07589,33.825143]}},{"properties":{"city":"Visalia","createddate":"6/12/2012 13:15","iscurativefile":"FALSE","zip":"93292","openeddate":"6/12/2012 0:00","referringcustomerfilenumber":"120007795","outofstatestatus":"Not Applicable","task completed date":"6/12/2012","region":"Central California","countyname":"Tulare","closeddate":"7/6/2012 0:00","isclosed":"FALSE","geo_score":0.829,"id":"a6oksr4lrgyy","filenumber":"474637","filetransactiontype":"Escrow Only","escrowofficername":"Karen Sigda","titleunit":"LandSafe Title","referringcustomer":"LandSafe_CA","primarycurativetech":"Unassigned","contract in task":"Contract In Tasks","secondarycurativetech":"Unassigned","branchoffice":"Visalia","isescalated":"FALSE","address":"1733 E Copper Ct","propertyaddressline2":null,"filenotes":null,"geo_precision":"range","state":"California"},"type":"Feature","geometry":{"type":"Point","coordinates":[-119.272759,36.304919]}},{"properties":{"city":"Gilroy","createddate":"6/12/2012 13:52","iscurativefile":"FALSE","zip":"95020","openeddate":"6/12/2012 0:00","referringcustomerfilenumber":"120032779","outofstatestatus":"Not Applicable","task completed date":"6/12/2012","region":"South Northern California","countyname":"Santa Clara","closeddate":"6/29/2012 0:00","isclosed":"FALSE","geo_score":0.902,"id":"a6oksqzmm8mj","filenumber":"474668","filetransactiontype":"Escrow Only","escrowofficername":"Ida Maciel","titleunit":"LandSafe Title","referringcustomer":"LandSafe_CA","primarycurativetech":"Unassigned","contract in task":"Contract In Tasks","secondarycurativetech":"Unassigned","branchoffice":"Campbell","isescalated":"FALSE","address":"9875 Wilford Way","propertyaddressline2":null,"filenotes":null,"geo_precision":"range","state":"California"},"type":"Feature","geometry":{"type":"Point","coordinates":[-121.554347,37.049325]}},{"properties":{"city":"Templeton","createddate":"6/12/2012 15:34","iscurativefile":"FALSE","zip":"93465","openeddate":"6/12/2012 0:00","referringcustomerfilenumber":"110031830","outofstatestatus":"Not Applicable","task completed date":"6/12/2012","region":"Central California","countyname":"San Luis Obispo","closeddate":"7/27/2012 0:00","isclosed":"FALSE","geo_score":0.548,"id":"a6oksr1dmk11","filenumber":"474713","filetransactiontype":"Title &amp; Escrow","escrowofficername":"Connie Porter","titleunit":"CA CPU Title-Kevin","referringcustomer":"LandSafe_CA","primarycurativetech":"Unassigned","contract in task":"Contract In Tasks","secondarycurativetech":"Unassigned","branchoffice":"Bakersfield","isescalated":"FALSE","address":"1095 Muscut Ct","propertyaddressline2":null,"filenotes":null,"geo_precision":"street","state":"California"},"type":"Feature","geometry":{"type":"Point","coordinates":[-120.579406,35.132962]}},{"properties":{"city":"Ojai","createddate":"6/12/2012 16:27","iscurativefile":"FALSE","zip":"93023","openeddate":"6/12/2012 0:00","referringcustomerfilenumber":"110077087","outofstatestatus":"Not Applicable","task completed date":"6/12/2012","region":"Los Angeles - Ventura California","countyname":"Ventura","closeddate":"7/25/2012 0:00","isclosed":"FALSE","geo_score":0.429,"id":"a6oksrd8c70f","filenumber":"474738","filetransactiontype":"Escrow Only","escrowofficername":"Araceli De Lara-Michel","titleunit":"LandSafe Title","referringcustomer":"LandSafe_CA","primarycurativetech":"Unassigned","contract in task":"Contract In Tasks","secondarycurativetech":"Unassigned","branchoffice":"Ventura","isescalated":"FALSE","address":"245 North Lomita Ave, A &amp; B","propertyaddressline2":null,"filenotes":null,"geo_precision":"street","state":"California"},"type":"Feature","geometry":{"type":"Point","coordinates":[-119.279217,34.443141]}},{"properties":{"city":"Big Bear City","createddate":"6/12/2012 17:37","iscurativefile":"FALSE","zip":"92315","openeddate":"6/12/2012 0:00","referringcustomerfilenumber":"110087608","outofstatestatus":"Not Applicable","task completed date":"6/12/2012","region":"Inland Empire","countyname":"San Bernardino","closeddate":"7/13/2012 0:00","isclosed":"FALSE","geo_score":0.678,"id":"a6oksr21825z","filenumber":"474792","filetransactiontype":"Escrow Only","escrowofficername":"Patti Black","titleunit":"LandSafe Title","referringcustomer":"LandSafe_CA","primarycurativetech":"Unassigned","contract in task":"Contract In Tasks","secondarycurativetech":"Unassigned","branchoffice":"Redlands","isescalated":"FALSE","address":"824 W Aeroplane Blvd","propertyaddressline2":null,"filenotes":null,"geo_precision":"street","state":"California"},"type":"Feature","geometry":{"type":"Point","coordinates":[-116.84969,34.259078]}},{"properties":{"city":"Sunnyvale","createddate":"6/13/2012 9:30","iscurativefile":"FALSE","zip":"94089","openeddate":"6/13/2012 0:00","referringcustomerfilenumber":"120058048","outofstatestatus":"Not Applicable","task completed date":"6/13/2012","region":"South Northern California","countyname":"Santa Clara","closeddate":"6/27/2012 0:00","isclosed":"FALSE","geo_score":0.756,"id":"a6oksrb8e55p","filenumber":"474925","filetransactiontype":"Escrow Only","escrowofficername":"Gina Gemma","titleunit":"LandSafe Title","referringcustomer":"LandSafe_CA","primarycurativetech":"Unassigned","contract in task":"Contract In Tasks","secondarycurativetech":"Unassigned","branchoffice":"Los Gatos","isescalated":"FALSE","address":"786 Lake Muir Dr","propertyaddressline2":null,"filenotes":null,"geo_precision":"street","state":"California"},"type":"Feature","geometry":{"type":"Point","coordinates":[-122.002233,37.394572]}},{"properties":{"city":"Folsom","createddate":"6/13/2012 9:46","iscurativefile":"FALSE","zip":"95630","openeddate":"6/13/2012 0:00","referringcustomerfilenumber":"120007772","outofstatestatus":"Not Applicable","task completed date":"6/13/2012","region":"South Northern California","countyname":"Sacramento","closeddate":"8/3/2012 0:00","isclosed":"FALSE","geo_score":0.902,"id":"a6oksr4uh6h2","filenumber":"474926","filetransactiontype":"Escrow Only","escrowofficername":"Diane Oliveira-Medina","titleunit":"LandSafe Title","referringcustomer":"LandSafe_CA","primarycurativetech":"Unassigned","contract in task":"Contract In Tasks","secondarycurativetech":"Unassigned","branchoffice":"Turlock","isescalated":"FALSE","address":"101 Seergreen Way","propertyaddressline2":null,"filenotes":null,"geo_precision":"range","state":"California"},"type":"Feature","geometry":{"type":"Point","coordinates":[-121.156768,38.665386]}},{"properties":{"city":"Santa Paula","createddate":"6/13/2012 11:03","iscurativefile":"FALSE","zip":"93060","openeddate":"6/13/2012 0:00","referringcustomerfilenumber":"11-0133131","outofstatestatus":"Not Applicable","task completed date":"6/13/2012","region":"Los Angeles - Ventura California","countyname":"Ventura","closeddate":"7/24/2012 0:00","isclosed":"FALSE","geo_score":0.902,"id":"a6oksr14szaz","filenumber":"474955","filetransactiontype":"Escrow Only","escrowofficername":"Araceli De Lara-Michel","titleunit":"LandSafe Title","referringcustomer":"LandSafe_CA","primarycurativetech":"Unassigned","contract in task":"Contract In Tasks","secondarycurativetech":"Unassigned","branchoffice":"Ventura","isescalated":"FALSE","address":"313 Blanchard Ave","propertyaddressline2":null,"filenotes":null,"geo_precision":"range","state":"California"},"type":"Feature","geometry":{"type":"Point","coordinates":[-119.074328,34.353473]}},{"properties":{"city":"San Diego","createddate":"6/14/2012 9:45","iscurativefile":"FALSE","zip":"92103","openeddate":"6/14/2012 0:00","referringcustomerfilenumber":"12-0024803","outofstatestatus":"Not Applicable","task completed date":"6/14/2012","region":"So. California","countyname":"San Diego","closeddate":"7/27/2012 0:00","isclosed":"FALSE","geo_score":0.415,"id":"a6oksr1dlx2o","filenumber":"475265","filetransactiontype":"Escrow Only","escrowofficername":"(Cindy) Cynthia Furphy","titleunit":"LandSafe Title","referringcustomer":"LandSafe_CA","primarycurativetech":"Unassigned","contract in task":"Contract In Tasks","secondarycurativetech":"Unassigned","branchoffice":"La Mesa","isescalated":"FALSE","address":"4057 First Avenue, 106","propertyaddressline2":null,"filenotes":null,"geo_precision":"street","state":"California"},"type":"Feature","geometry":{"type":"Point","coordinates":[-117.163946,32.73242]}},{"properties":{"city":"Foothill Ranch","createddate":"6/14/2012 9:59","iscurativefile":"FALSE","zip":"92610","openeddate":"6/14/2012 0:00","referringcustomerfilenumber":"11-0093592","outofstatestatus":"Not Applicable","task completed date":"6/14/2012","region":"So. California","countyname":"Orange","closeddate":"7/27/2012 0:00","isclosed":"FALSE","geo_score":0.902,"id":"a6oksrbqenhh","filenumber":"475270","filetransactiontype":"Escrow Only","escrowofficername":"Michelle Huynh","titleunit":"LandSafe Title","referringcustomer":"LandSafe_CA","primarycurativetech":"Unassigned","contract in task":"Contract In Tasks","secondarycurativetech":"Unassigned","branchoffice":"Irvine","isescalated":"FALSE","address":"12 Fairfield","propertyaddressline2":null,"filenotes":null,"geo_precision":"range","state":"California"},"type":"Feature","geometry":{"type":"Point","coordinates":[-117.669199,33.687085]}},{"properties":{"city":"Riverside","createddate":"6/14/2012 10:09","iscurativefile":"FALSE","zip":"92503","openeddate":"6/14/2012 0:00","referringcustomerfilenumber":"12-0001304","outofstatestatus":"Not Applicable","task completed date":"6/14/2012","region":"Inland Empire","countyname":"Riverside","closeddate":"8/1/2012 0:00","isclosed":"FALSE","geo_score":0.798,"id":"a6oksrap0o1t","filenumber":"475273","filetransactiontype":"Escrow Only","escrowofficername":"Nyna Ensign","titleunit":"LandSafe Title","referringcustomer":"LandSafe_CA","primarycurativetech":"Unassigned","contract in task":"Contract In Tasks","secondarycurativetech":"Unassigned","branchoffice":"Riverside","isescalated":"FALSE","address":"14492 Seven Hills Dr","propertyaddressline2":null,"filenotes":null,"geo_precision":"range","state":"California"},"type":"Feature","geometry":{"type":"Point","coordinates":[-117.413335,33.879863]}},{"properties":{"city":"Whittier","createddate":"6/14/2012 10:19","iscurativefile":"FALSE","zip":"90605","openeddate":"6/14/2012 0:00","referringcustomerfilenumber":"12-0014271","outofstatestatus":"Not Applicable","task completed date":"6/14/2012","region":"Los Angeles - Ventura California","countyname":"Los Angeles","closeddate":"7/13/2012 0:00","isclosed":"FALSE","geo_score":0.902,"id":"a6oksr68l8xd","filenumber":"475277","filetransactiontype":"Escrow Only","escrowofficername":"Angela Hum","titleunit":"LandSafe Title","referringcustomer":"LandSafe_CA","primarycurativetech":"Unassigned","contract in task":"Contract In Tasks","secondarycurativetech":"Unassigned","branchoffice":"Glendale","isescalated":"FALSE","address":"12220 Carmenita Rd","propertyaddressline2":null,"filenotes":null,"geo_precision":"range","state":"California"},"type":"Feature","geometry":{"type":"Point","coordinates":[-118.046348,33.920867]}},{"properties":{"city":"Lancaster","createddate":"6/14/2012 10:28","iscurativefile":"FALSE","zip":"93535","openeddate":"6/14/2012 0:00","referringcustomerfilenumber":"12-0086170","outofstatestatus":"Not Applicable","task completed date":"6/14/2012","region":"Los Angeles - Ventura California","countyname":"Los Angeles","closeddate":"8/7/2012 0:00","isclosed":"FALSE","geo_score":0.678,"id":"a6oksrbcps1b","filenumber":"475279","filetransactiontype":"Escrow Only","escrowofficername":"Adriana Ponce","titleunit":"LandSafe Title","referringcustomer":"LandSafe_CA","primarycurativetech":"Unassigned","contract in task":"Contract In Tasks","secondarycurativetech":"Unassigned","branchoffice":"City of Industry","isescalated":"FALSE","address":"44637 Leslie St","propertyaddressline2":null,"filenotes":null,"geo_precision":"street","state":"California"},"type":"Feature","geometry":{"type":"Point","coordinates":[-118.080461,34.696846]}},{"properties":{"city":"Calexico","createddate":"6/14/2012 10:56","iscurativefile":"FALSE","zip":"92231","openeddate":"6/14/2012 0:00","referringcustomerfilenumber":"11-0109173","outofstatestatus":"Not Applicable","task completed date":"6/14/2012","region":"Inland Empire","countyname":"Imperial","closeddate":"7/27/2012 0:00","isclosed":"FALSE","geo_score":0.835,"id":"a6oksr778d60","filenumber":"475292","filetransactiontype":"Title &amp; Escrow","escrowofficername":"Colleen Yost","titleunit":"CA CPU Title-Kevin","referringcustomer":"LandSafe_CA","primarycurativetech":"Unassigned","contract in task":"Contract In Tasks","secondarycurativetech":"Unassigned","branchoffice":"Palm Desert","isescalated":"FALSE","address":"37 Las Flores","propertyaddressline2":null,"filenotes":null,"geo_precision":"range","state":"California"},"type":"Feature","geometry":{"type":"Point","coordinates":[-115.498891,32.681421]}},{"properties":{"city":"La Grange","createddate":"6/14/2012 11:10","iscurativefile":"FALSE","zip":"95329","openeddate":"6/14/2012 0:00","referringcustomerfilenumber":"12-0015444","outofstatestatus":"Not Applicable","task completed date":"6/14/2012","region":"South Northern California","countyname":"Tuolumne","closeddate":"8/10/2012 0:00","isclosed":"FALSE","geo_score":0.878,"id":"a6oksr1q6xob","filenumber":"475303","filetransactiontype":"Title &amp; Escrow","escrowofficername":"Debbi Johnson (Apodaca)","titleunit":"CA CPU Title-Kevin","referringcustomer":"LandSafe_CA","primarycurativetech":"Unassigned","contract in task":"Contract In Tasks","secondarycurativetech":"Unassigned","branchoffice":"Modesto","isescalated":"FALSE","address":"2322 Zarzamora Ct","propertyaddressline2":null,"filenotes":null,"geo_precision":"range","state":"California"},"type":"Feature","geometry":{"type":"Point","coordinates":[-120.325495,37.665741]}},{"properties":{"city":"Moreno Valley","createddate":"6/14/2012 12:11","iscurativefile":"FALSE","zip":"92557","openeddate":"6/14/2012 0:00","referringcustomerfilenumber":"11-0133147","outofstatestatus":"Not Applicable","task completed date":"6/14/2012","region":"Inland Empire","countyname":"Riverside","closeddate":"8/3/2012 0:00","isclosed":"FALSE","geo_score":0.805,"id":"a6oksr5f6hte","filenumber":"475301","filetransactiontype":"Escrow Only","escrowofficername":"Nicoloa Ames","titleunit":"LandSafe Title","referringcustomer":"LandSafe_CA","primarycurativetech":"Unassigned","contract in task":"Contract In Tasks","secondarycurativetech":"Unassigned","branchoffice":"Riverside","isescalated":"FALSE","address":"22355 Sheffield Dr","propertyaddressline2":null,"filenotes":null,"geo_precision":"street","state":"California"},"type":"Feature","geometry":{"type":"Point","coordinates":[-117.27025,33.946127]}},{"properties":{"city":"South San Francisco","createddate":"6/14/2012 16:27","iscurativefile":"FALSE","zip":"94080","openeddate":"6/14/2012 0:00","referringcustomerfilenumber":"12-0023909","outofstatestatus":"Not Applicable","task completed date":"6/14/2012","region":"South Northern California","countyname":"San Mateo","closeddate":"7/23/2012 0:00","isclosed":"FALSE","geo_score":0.902,"id":"a6oksqwv6q15","filenumber":"475456","filetransactiontype":"Escrow Only","escrowofficername":"Gina Gemma","titleunit":"LandSafe Title","referringcustomer":"LandSafe_CA","primarycurativetech":"Unassigned","contract in task":"Contract In Tasks","secondarycurativetech":"Unassigned","branchoffice":"Los Gatos","isescalated":"FALSE","address":"100 Randolph Ave","propertyaddressline2":null,"filenotes":null,"geo_precision":"range","state":"California"},"type":"Feature","geometry":{"type":"Point","coordinates":[-122.404261,37.6651]}},{"properties":{"city":"Sacramento","createddate":"6/15/2012 10:20","iscurativefile":"FALSE","zip":"95815","openeddate":"6/15/2012 0:00","referringcustomerfilenumber":"12-0050317","outofstatestatus":"Not Applicable","task completed date":"6/15/2012","region":"South Northern California","countyname":"Sacramento","closeddate":"7/5/2012 0:00","isclosed":"FALSE","geo_score":0.902,"id":"a6oksr9fgbzl","filenumber":"475599","filetransactiontype":"Escrow Only","escrowofficername":"Heather Walker","titleunit":"LandSafe Title","referringcustomer":"LandSafe_CA","primarycurativetech":"Unassigned","contract in task":"Contract In Tasks","secondarycurativetech":"Unassigned","branchoffice":"Turlock","isescalated":"FALSE","address":"2101 Waterford Rd","propertyaddressline2":null,"filenotes":null,"geo_precision":"range","state":"California"},"type":"Feature","geometry":{"type":"Point","coordinates":[-121.425095,38.606443]}},{"properties":{"city":"Modesto","createddate":"6/15/2012 10:30","iscurativefile":"FALSE","zip":"95351","openeddate":"6/15/2012 0:00","referringcustomerfilenumber":"12-0058902","outofstatestatus":"Not Applicable","task completed date":"6/15/2012","region":"South Northern California","countyname":"Stanislaus","closeddate":"6/23/2012 0:00","isclosed":"FALSE","geo_score":0.805,"id":"a6oksr9l11q0","filenumber":"475604","filetransactiontype":"Escrow Only","escrowofficername":"Vicki Gardea","titleunit":"LandSafe Title","referringcustomer":"LandSafe_CA","primarycurativetech":"Unassigned","contract in task":"Contract In Tasks","secondarycurativetech":"Unassigned","branchoffice":"Modesto","isescalated":"FALSE","address":"926 4th St","propertyaddressline2":null,"filenotes":null,"geo_precision":"range","state":"California"},"type":"Feature","geometry":{"type":"Point","coordinates":[-121.005699,37.636005]}},{"properties":{"city":"Santa Barbara","createddate":"6/15/2012 10:42","iscurativefile":"FALSE","zip":"93110","openeddate":"6/15/2012 0:00","referringcustomerfilenumber":"12-0055654","outofstatestatus":"Not Applicable","task completed date":"6/15/2012","region":"Central California","countyname":"Santa Barbara","closeddate":"7/3/2012 0:00","isclosed":"FALSE","geo_score":0.902,"id":"a6oksqx5dya3","filenumber":"475606","filetransactiontype":"Escrow Only","escrowofficername":"Mary Curry","titleunit":"LandSafe Title","referringcustomer":"LandSafe_CA","primarycurativetech":"Unassigned","contract in task":"Contract In Tasks","secondarycurativetech":"Unassigned","branchoffice":"Bakersfield","isescalated":"FALSE","address":"3920 la Colina Rd","propertyaddressline2":null,"filenotes":null,"geo_precision":"range","state":"California"},"type":"Feature","geometry":{"type":"Point","coordinates":[-119.753243,34.444269]}},{"properties":{"city":"Norco","createddate":"6/15/2012 10:50","iscurativefile":"FALSE","zip":"92860","openeddate":"6/15/2012 0:00","referringcustomerfilenumber":"11-0129122","outofstatestatus":"Not Applicable","task completed date":"6/15/2012","region":"Inland Empire","countyname":"Riverside","closeddate":"7/20/2012 0:00","isclosed":"FALSE","geo_score":0.902,"id":"a6oksr9j21qn","filenumber":"475608","filetransactiontype":"Escrow Only","escrowofficername":"(Beth) Elizabeth D'Andrea","titleunit":"LandSafe Title","referringcustomer":"LandSafe_CA","primarycurativetech":"Unassigned","contract in task":"Contract In Tasks","secondarycurativetech":"Unassigned","branchoffice":"Murrieta","isescalated":"FALSE","address":"1430 Corona Ave","propertyaddressline2":null,"filenotes":null,"geo_precision":"range","state":"California"},"type":"Feature","geometry":{"type":"Point","coordinates":[-117.552093,33.902057]}},{"properties":{"city":"Visalia","createddate":"6/15/2012 11:02","iscurativefile":"FALSE","zip":"93277","openeddate":"6/15/2012 0:00","referringcustomerfilenumber":"12-0031763","outofstatestatus":"Not Applicable","task completed date":"6/15/2012","region":"Central California","countyname":"Tulare","closeddate":"8/3/2012 0:00","isclosed":"FALSE","geo_score":0.805,"id":"a6oksrbm9mas","filenumber":"475622","filetransactiontype":"Escrow Only","escrowofficername":"Karen Sigda","titleunit":"LandSafe Title","referringcustomer":"LandSafe_CA","primarycurativetech":"Unassigned","contract in task":"Contract In Tasks","secondarycurativetech":"Unassigned","branchoffice":"Visalia","isescalated":"FALSE","address":"1820 South West St","propertyaddressline2":null,"filenotes":null,"geo_precision":"range","state":"California"},"type":"Feature","geometry":{"type":"Point","coordinates":[-119.296891,36.31449]}},{"properties":{"city":"Moreno Valley","createddate":"6/15/2012 12:31","iscurativefile":"FALSE","zip":"92551","openeddate":"6/15/2012 0:00","referringcustomerfilenumber":null,"outofstatestatus":"Not Applicable","task completed date":"6/15/2012","region":"Inland Empire","countyname":"Riverside","closeddate":"6/15/2012 0:00","isclosed":"FALSE","geo_score":0.488,"id":"a6oksqxycrfw","filenumber":"475653","filetransactiontype":"Escrow Only","escrowofficername":"Nicoloa Ames","titleunit":"LandSafe Title","referringcustomer":"LandSafe_CA","primarycurativetech":"Unassigned","contract in task":"Contract In Tasks","secondarycurativetech":"Unassigned","branchoffice":"Riverside","isescalated":"FALSE","address":"25969 Magnifica Ct","propertyaddressline2":null,"filenotes":null,"geo_precision":"zip","state":"California"},"type":"Feature","geometry":{"type":"Point","coordinates":[-116.055617,33.752886]}},{"properties":{"city":"Arvin","createddate":"6/15/2012 13:22","iscurativefile":"FALSE","zip":"93203","openeddate":"6/15/2012 0:00","referringcustomerfilenumber":"12-0021582","outofstatestatus":"Not Applicable","task completed date":"6/15/2012","region":"Central California","countyname":"Kern","closeddate":"7/11/2012 0:00","isclosed":"FALSE","geo_score":0.902,"id":"a6oksrar9jhs","filenumber":"475685","filetransactiontype":"Escrow Only","escrowofficername":"Connie Porter","titleunit":"LandSafe Title","referringcustomer":"LandSafe_CA","primarycurativetech":"Unassigned","contract in task":"Contract In Tasks","secondarycurativetech":"Unassigned","branchoffice":"Bakersfield","isescalated":"FALSE","address":"564 Walnut Dr","propertyaddressline2":null,"filenotes":null,"geo_precision":"range","state":"California"},"type":"Feature","geometry":{"type":"Point","coordinates":[-118.83756,35.204225]}},{"properties":{"city":"Watsonville","createddate":"6/18/2012 10:39","iscurativefile":"FALSE","zip":"95076","openeddate":"6/18/2012 0:00","referringcustomerfilenumber":"12-0067071","outofstatestatus":"Not Applicable","task completed date":"6/18/2012","region":"South Northern California","countyname":"Santa Cruz","closeddate":"7/6/2012 0:00","isclosed":"FALSE","geo_score":0.61,"id":"a6oksr8ngnva","filenumber":"475914","filetransactiontype":"Escrow Only","escrowofficername":"Cher'e Rich","titleunit":"LandSafe Title","referringcustomer":"LandSafe_CA","primarycurativetech":"Unassigned","contract in task":"Contract In Tasks","secondarycurativetech":"Unassigned","branchoffice":"Capitola","isescalated":"FALSE","address":"143 Marcela Dr","propertyaddressline2":null,"filenotes":null,"geo_precision":"street","state":"California"},"type":"Feature","geometry":{"type":"Point","coordinates":[-121.388948,36.854144]}},{"properties":{"city":"Santa Paula","createddate":"6/18/2012 10:49","iscurativefile":"FALSE","zip":"93060","openeddate":"6/18/2012 0:00","referringcustomerfilenumber":"11-0136908","outofstatestatus":"Not Applicable","task completed date":"6/18/2012","region":"Los Angeles - Ventura California","countyname":"Ventura","closeddate":"8/6/2012 0:00","isclosed":"FALSE","geo_score":0.837,"id":"a6oksrc4zqkw","filenumber":"475921","filetransactiontype":"Escrow Only","escrowofficername":"Araceli De Lara-Michel","titleunit":"LandSafe Title","referringcustomer":"LandSafe_CA","primarycurativetech":"Unassigned","contract in task":"Contract In Tasks","secondarycurativetech":"Unassigned","branchoffice":"Ventura","isescalated":"FALSE","address":"417 North Twelfth St","propertyaddressline2":null,"filenotes":null,"geo_precision":"range","state":"California"},"type":"Feature","geometry":{"type":"Point","coordinates":[-119.058826,34.361776]}},{"properties":{"city":"West Covina","createddate":"6/18/2012 11:14","iscurativefile":"FALSE","zip":"91792","openeddate":"6/18/2012 0:00","referringcustomerfilenumber":"11-0093604","outofstatestatus":"Not Applicable","task completed date":"6/18/2012","region":"Los Angeles - Ventura California","countyname":"Los Angeles","closeddate":"6/22/2012 0:00","isclosed":"FALSE","geo_score":0.902,"id":"a6oksr9mecwz","filenumber":"475925","filetransactiontype":"Escrow Only","escrowofficername":"Mary Schenuk","titleunit":"LandSafe Title","referringcustomer":"LandSafe_CA","primarycurativetech":"Unassigned","contract in task":"Contract In Tasks","secondarycurativetech":"Unassigned","branchoffice":"Glendale","isescalated":"FALSE","address":"1338 Brooktree Circle","propertyaddressline2":null,"filenotes":null,"geo_precision":"range","state":"California"},"type":"Feature","geometry":{"type":"Point","coordinates":[-117.916992,34.038447]}},{"properties":{"city":"Chula Vista","createddate":"6/18/2012 11:23","iscurativefile":"FALSE","zip":"91910","openeddate":"6/18/2012 0:00","referringcustomerfilenumber":"11-0131040","outofstatestatus":"Not Applicable","task completed date":"6/18/2012","region":"Inland Empire","countyname":"San Diego","closeddate":"6/28/2012 0:00","isclosed":"FALSE","geo_score":0.902,"id":"a6oksr841crx","filenumber":"475935","filetransactiontype":"Escrow Only","escrowofficername":"(Beth) Elizabeth D'Andrea","titleunit":"LandSafe Title","referringcustomer":"LandSafe_CA","primarycurativetech":"Unassigned","contract in task":"Contract In Tasks","secondarycurativetech":"Unassigned","branchoffice":"Murrieta","isescalated":"FALSE","address":"1379 Blue Falls Drive","propertyaddressline2":null,"filenotes":"Previous file # 462931","geo_precision":"range","state":"California"},"type":"Feature","geometry":{"type":"Point","coordinates":[-117.004859,32.640896]}},{"properties":{"city":"Oakland","createddate":"6/18/2012 11:36","iscurativefile":"FALSE","zip":"94605","openeddate":"6/18/2012 0:00","referringcustomerfilenumber":"12-0003538","outofstatestatus":"Not Applicable","task completed date":"6/18/2012","region":"North Northern California","countyname":"Alameda","closeddate":"7/20/2012 0:00","isclosed":"FALSE","geo_score":0.829,"id":"a6oksrbafn33","filenumber":"475907","filetransactiontype":"Escrow Only","escrowofficername":"Maggie Wong","titleunit":"LandSafe Title","referringcustomer":"LandSafe_CA","primarycurativetech":"Unassigned","contract in task":"Contract In Tasks","secondarycurativetech":"Unassigned","branchoffice":"San Francisco","isescalated":"FALSE","address":"2515 63rd Ave","propertyaddressline2":null,"filenotes":null,"geo_precision":"range","state":"California"},"type":"Feature","geometry":{"type":"Point","coordinates":[-122.189417,37.768211]}},{"properties":{"city":"Highland","createddate":"6/18/2012 11:43","iscurativefile":"FALSE","zip":"92346","openeddate":"6/18/2012 0:00","referringcustomerfilenumber":"12-0025892","outofstatestatus":"Not Applicable","task completed date":"6/18/2012","region":"Inland Empire","countyname":"San Bernardino","closeddate":"8/10/2012 0:00","isclosed":"FALSE","geo_score":0.902,"id":"a6oksr0jlb3l","filenumber":"475911","filetransactiontype":"Escrow Only","escrowofficername":"Joyce Strohm","titleunit":"LandSafe Title","referringcustomer":"LandSafe_CA","primarycurativetech":"Unassigned","contract in task":"Contract In Tasks","secondarycurativetech":"Unassigned","branchoffice":"Redlands","isescalated":"FALSE","address":"7426 Nye Dr","propertyaddressline2":null,"filenotes":null,"geo_precision":"range","state":"California"},"type":"Feature","geometry":{"type":"Point","coordinates":[-117.20189,34.117582]}},{"properties":{"city":"Hayward","createddate":"6/18/2012 11:49","iscurativefile":"FALSE","zip":"94541","openeddate":"6/18/2012 0:00","referringcustomerfilenumber":"11-0127211","outofstatestatus":"Not Applicable","task completed date":"6/18/2012","region":"North Northern California","countyname":"Alameda","closeddate":"7/19/2012 0:00","isclosed":"FALSE","geo_score":0.902,"id":"a6oksqzq9v1r","filenumber":"475915","filetransactiontype":"Escrow Only","escrowofficername":"Arlene VanCraeynest","titleunit":"LandSafe Title","referringcustomer":"LandSafe_CA","primarycurativetech":"Unassigned","contract in task":"Contract In Tasks","secondarycurativetech":"Unassigned","branchoffice":"Mill Valley","isescalated":"FALSE","address":"1476 Clay St","propertyaddressline2":null,"filenotes":null,"geo_precision":"range","state":"California"},"type":"Feature","geometry":{"type":"Point","coordinates":[-122.072447,37.674559]}},{"properties":{"city":"Newark","createddate":"6/18/2012 11:52","iscurativefile":"FALSE","zip":"94560","openeddate":"6/18/2012 0:00","referringcustomerfilenumber":"12-0086157","outofstatestatus":"Not Applicable","task completed date":"6/18/2012","region":"North Northern California","countyname":"Alameda","closeddate":"7/18/2012 0:00","isclosed":"FALSE","geo_score":0.429,"id":"a6oksr4atsll","filenumber":"475920","filetransactiontype":"Escrow Only","escrowofficername":"Maggie Wong","titleunit":"LandSafe Title","referringcustomer":"LandSafe_CA","primarycurativetech":"Unassigned","contract in task":"Contract In Tasks","secondarycurativetech":"Unassigned","branchoffice":"San Francisco","isescalated":"FALSE","address":"6304 Buena Vista Dr# C","propertyaddressline2":null,"filenotes":null,"geo_precision":"street","state":"California"},"type":"Feature","geometry":{"type":"Point","coordinates":[-122.027679,37.533968]}},{"properties":{"city":"San Bernardino","createddate":"6/18/2012 11:55","iscurativefile":"FALSE","zip":"92401","openeddate":"6/18/2012 0:00","referringcustomerfilenumber":null,"outofstatestatus":"Not Applicable","task completed date":"6/18/2012","region":"Inland Empire","countyname":"San Bernardino","closeddate":"7/11/2012 0:00","isclosed":"FALSE","geo_score":0.902,"id":"a6oksqxg0833","filenumber":"475924","filetransactiontype":"Escrow Only","escrowofficername":"Patti Black","titleunit":"LandSafe Title","referringcustomer":"LandSafe_CA","primarycurativetech":"Unassigned","contract in task":"Contract In Tasks","secondarycurativetech":"Unassigned","branchoffice":"Redlands","isescalated":"FALSE","address":"864 N Mayfield Ave","propertyaddressline2":null,"filenotes":null,"geo_precision":"range","state":"California"},"type":"Feature","geometry":{"type":"Point","coordinates":[-117.290881,34.11459]}},{"properties":{"city":"Los Angeles","createddate":"6/18/2012 12:08","iscurativefile":"FALSE","zip":"91040","openeddate":"6/18/2012 0:00","referringcustomerfilenumber":"12-0022569","outofstatestatus":"Not Applicable","task completed date":"6/18/2012","region":"Los Angeles - Ventura California","countyname":"Los Angeles","closeddate":"7/12/2012 0:00","isclosed":"FALSE","geo_score":0.823,"id":"a6oksqy7rdph","filenumber":"475957","filetransactiontype":"Escrow Only","escrowofficername":"Julie Mayorga","titleunit":"LandSafe Title","referringcustomer":"LandSafe_CA","primarycurativetech":"Unassigned","contract in task":"Contract In Tasks","secondarycurativetech":"Unassigned","branchoffice":"City of Industry","isescalated":"FALSE","address":"8318 Owens St","propertyaddressline2":null,"filenotes":null,"geo_precision":"range","state":"California"},"type":"Feature","geometry":{"type":"Point","coordinates":[-118.313596,34.263982]}},{"properties":{"city":"Atwater","createddate":"6/18/2012 12:26","iscurativefile":"FALSE","zip":"95301","openeddate":"6/18/2012 0:00","referringcustomerfilenumber":"11-0114259","outofstatestatus":"Not Applicable","task completed date":"6/18/2012","region":"Central California","countyname":"Merced","closeddate":"7/15/2012 0:00","isclosed":"FALSE","geo_score":0.902,"id":"a6oksr59oe3h","filenumber":"475965","filetransactiontype":"Title &amp; Escrow","escrowofficername":"Stacey Giguiere","titleunit":"CA CPU Title-Kevin","referringcustomer":"LandSafe_CA","primarycurativetech":"Unassigned","contract in task":"Contract In Tasks","secondarycurativetech":"Unassigned","branchoffice":"Fresno","isescalated":"FALSE","address":"3060 Steinberg Rd","propertyaddressline2":null,"filenotes":null,"geo_precision":"range","state":"California"},"type":"Feature","geometry":{"type":"Point","coordinates":[-120.659783,37.337939]}},{"properties":{"city":"Compton","createddate":"6/18/2012 13:01","iscurativefile":"FALSE","zip":"90221","openeddate":"6/18/2012 0:00","referringcustomerfilenumber":"11-0077088","outofstatestatus":"Not Applicable","task completed date":"6/18/2012","region":"Los Angeles - Ventura California","countyname":"Los Angeles","closeddate":"7/6/2012 0:00","isclosed":"FALSE","geo_score":0.902,"id":"a6oksqzkdldo","filenumber":"475963","filetransactiontype":"Escrow Only","escrowofficername":"Adriana Ponce","titleunit":"LandSafe Title","referringcustomer":"LandSafe_CA","primarycurativetech":"Unassigned","contract in task":"Contract In Tasks","secondarycurativetech":"Unassigned","branchoffice":"City of Industry","isescalated":"FALSE","address":"16338 S Bradfield Ave","propertyaddressline2":null,"filenotes":null,"geo_precision":"range","state":"California"},"type":"Feature","geometry":{"type":"Point","coordinates":[-118.202829,33.88551]}},{"properties":{"city":"Los Angeles","createddate":"6/18/2012 13:04","iscurativefile":"FALSE","zip":"90744","openeddate":"6/18/2012 0:00","referringcustomerfilenumber":"11-0104430","outofstatestatus":"Not Applicable","task completed date":"6/18/2012","region":"Los Angeles - Ventura California","countyname":"Los Angeles","closeddate":"7/19/2012 0:00","isclosed":"FALSE","geo_score":0.826,"id":"a6oksr285gbo","filenumber":"475988","filetransactiontype":"Escrow Only","escrowofficername":"Angela Hum","titleunit":"LandSafe Title","referringcustomer":"LandSafe_CA","primarycurativetech":"Unassigned","contract in task":"Contract In Tasks","secondarycurativetech":"Unassigned","branchoffice":"Glendale","isescalated":"FALSE","address":"523 Island Ave","propertyaddressline2":null,"filenotes":null,"geo_precision":"range","state":"California"},"type":"Feature","geometry":{"type":"Point","coordinates":[-118.266162,33.776531]}},{"properties":{"city":"Anaheim","createddate":"6/18/2012 13:24","iscurativefile":"FALSE","zip":"92807","openeddate":"6/18/2012 0:00","referringcustomerfilenumber":"12-0000076","outofstatestatus":"Not Applicable","task completed date":"6/18/2012","region":"So. California","countyname":"Orange","closeddate":"7/1/2012 0:00","isclosed":"FALSE","geo_score":0.902,"id":"a6oksrc8ysro","filenumber":"475999","filetransactiontype":"Escrow Only","escrowofficername":"Michelle Huynh","titleunit":"LandSafe Title","referringcustomer":"LandSafe_CA","primarycurativetech":"Unassigned","contract in task":"Contract In Tasks","secondarycurativetech":"Unassigned","branchoffice":"Irvine","isescalated":"FALSE","address":"827 South Shanada Court","propertyaddressline2":null,"filenotes":null,"geo_precision":"range","state":"California"},"type":"Feature","geometry":{"type":"Point","coordinates":[-117.781585,33.834468]}},{"properties":{"city":"Colton","createddate":"6/18/2012 15:26","iscurativefile":"FALSE","zip":"92324","openeddate":"6/18/2012 0:00","referringcustomerfilenumber":null,"outofstatestatus":"Not Applicable","task completed date":"6/18/2012","region":"Inland Empire","countyname":"San Bernardino","closeddate":"6/28/2012 0:00","isclosed":"FALSE","geo_score":0.902,"id":"a6oksr63m7j5","filenumber":"476066","filetransactiontype":"Escrow Only","escrowofficername":"Joyce Strohm","titleunit":"LandSafe Title","referringcustomer":"LandSafe_CA","primarycurativetech":"Unassigned","contract in task":"Contract In Tasks","secondarycurativetech":"Unassigned","branchoffice":"Redlands","isescalated":"FALSE","address":"1039 West H St","propertyaddressline2":null,"filenotes":null,"geo_precision":"range","state":"California"},"type":"Feature","geometry":{"type":"Point","coordinates":[-117.339417,34.069962]}},{"properties":{"city":"South Gate","createddate":"6/19/2012 9:57","iscurativefile":"FALSE","zip":"90280","openeddate":"6/19/2012 0:00","referringcustomerfilenumber":null,"outofstatestatus":"Not Applicable","task completed date":"6/19/2012","region":"Los Angeles - Ventura California","countyname":"Los Angeles","closeddate":"8/1/2012 0:00","isclosed":"FALSE","geo_score":0.902,"id":"a6oksr0kcbmc","filenumber":"476295","filetransactiontype":"Escrow Only","escrowofficername":"Angela Hum","titleunit":"LandSafe Title","referringcustomer":"LandSafe_CA","primarycurativetech":"Unassigned","contract in task":"Contract In Tasks","secondarycurativetech":"Unassigned","branchoffice":"Glendale","isescalated":"FALSE","address":"10445 Virginia Ave","propertyaddressline2":null,"filenotes":null,"geo_precision":"range","state":"California"},"type":"Feature","geometry":{"type":"Point","coordinates":[-118.20941,33.937259]}},{"properties":{"city":"Pomona","createddate":"6/19/2012 10:05","iscurativefile":"FALSE","zip":"91766","openeddate":"6/19/2012 0:00","referringcustomerfilenumber":"11-0096230","outofstatestatus":"Not Applicable","task completed date":"6/19/2012","region":"Los Angeles - Ventura California","countyname":"Los Angeles","closeddate":"7/24/2012 0:00","isclosed":"FALSE","geo_score":0.902,"id":"a6oksr8mv6az","filenumber":"476296","filetransactiontype":"Escrow Only","escrowofficername":"Adriana Ponce","titleunit":"LandSafe Title","referringcustomer":"LandSafe_CA","primarycurativetech":"Unassigned","contract in task":"Contract In Tasks","secondarycurativetech":"Unassigned","branchoffice":"City of Industry","isescalated":"FALSE","address":"1816 South San Antonio Ave","propertyaddressline2":null,"filenotes":null,"geo_precision":"range","state":"California"},"type":"Feature","geometry":{"type":"Point","coordinates":[-117.736249,34.038213]}},{"properties":{"city":"Perris","createddate":"6/19/2012 10:24","iscurativefile":"FALSE","zip":"92571","openeddate":"6/19/2012 0:00","referringcustomerfilenumber":"11-0133498","outofstatestatus":"Not Applicable","task completed date":"6/19/2012","region":"Inland Empire","countyname":"Riverside","closeddate":"7/20/2012 0:00","isclosed":"FALSE","geo_score":0.902,"id":"a6oksr0v20v7","filenumber":"476298","filetransactiontype":"Escrow Only","escrowofficername":"Mary Hudson","titleunit":"LandSafe Title","referringcustomer":"LandSafe_CA","primarycurativetech":"Unassigned","contract in task":"Contract In Tasks","secondarycurativetech":"Unassigned","branchoffice":"Riverside","isescalated":"FALSE","address":"2370 Firebrand Ave","propertyaddressline2":null,"filenotes":"Old File # 468035","geo_precision":"range","state":"California"},"type":"Feature","geometry":{"type":"Point","coordinates":[-117.220942,33.815537]}},{"properties":{"city":"Palm Desert","createddate":"6/19/2012 10:41","iscurativefile":"FALSE","zip":"92211","openeddate":"6/19/2012 0:00","referringcustomerfilenumber":"12-0006796","outofstatestatus":"Not Applicable","task completed date":"6/19/2012","region":"Inland Empire","countyname":"Riverside","closeddate":"7/23/2012 0:00","isclosed":"FALSE","geo_score":0.415,"id":"a6oksr0gzzvu","filenumber":"476294","filetransactiontype":"Escrow Only","escrowofficername":"Colleen Yost","titleunit":"LandSafe Title","referringcustomer":"LandSafe_CA","primarycurativetech":"Unassigned","contract in task":"Contract In Tasks","secondarycurativetech":"Unassigned","branchoffice":"Palm Desert","isescalated":"FALSE","address":"43376 Cook St # 196","propertyaddressline2":null,"filenotes":null,"geo_precision":"street","state":"California"},"type":"Feature","geometry":{"type":"Point","coordinates":[-116.356047,33.768519]}},{"properties":{"city":"Hanford","createddate":"6/19/2012 10:45","iscurativefile":"FALSE","zip":"93230","openeddate":"6/19/2012 0:00","referringcustomerfilenumber":"11-0014163","outofstatestatus":"Not Applicable","task completed date":"6/19/2012","region":"Central California","countyname":"Kings","closeddate":"6/29/2012 0:00","isclosed":"FALSE","geo_score":0.902,"id":"a6oksr4i5aq8","filenumber":"476306","filetransactiontype":"Title &amp; Escrow","escrowofficername":"Cheryl Amos","titleunit":"CA CPU Title-Kevin","referringcustomer":"LandSafe_CA","primarycurativetech":"Unassigned","contract in task":"Contract In Tasks","secondarycurativetech":"Unassigned","branchoffice":"Hanford","isescalated":"FALSE","address":"521 East Cameron St","propertyaddressline2":null,"filenotes":null,"geo_precision":"range","state":"California"},"type":"Feature","geometry":{"type":"Point","coordinates":[-119.638935,36.337099]}},{"properties":{"city":"Kings Beach","createddate":"6/19/2012 10:56","iscurativefile":"FALSE","zip":"96143","openeddate":"6/19/2012 0:00","referringcustomerfilenumber":"12-0051049","outofstatestatus":"Not Applicable","task completed date":"6/19/2012","region":"South Northern California","countyname":"Placer","closeddate":"8/15/2012 0:00","isclosed":"FALSE","geo_score":0.902,"id":"a6oksrc62u1j","filenumber":"476300","filetransactiontype":"Escrow Only","escrowofficername":"Vicki Gardea","titleunit":"LandSafe Title","referringcustomer":"LandSafe_CA","primarycurativetech":"Unassigned","contract in task":"Contract In Tasks","secondarycurativetech":"Unassigned","branchoffice":"Modesto","isescalated":"FALSE","address":"8616 Brook Ave","propertyaddressline2":null,"filenotes":null,"geo_precision":"range","state":"California"},"type":"Feature","geometry":{"type":"Point","coordinates":[-120.021415,39.236856]}},{"properties":{"city":"Porterville","createddate":"6/19/2012 11:00","iscurativefile":"FALSE","zip":"93257","openeddate":"6/19/2012 0:00","referringcustomerfilenumber":"12-0003540","outofstatestatus":"Not Applicable","task completed date":"6/19/2012","region":"Central California","countyname":"Tulare","closeddate":"7/13/2012 0:00","isclosed":"FALSE","geo_score":0.61,"id":"a6oksr2t538j","filenumber":"476303","filetransactiontype":"Escrow Only","escrowofficername":"Judy Loflin","titleunit":"LandSafe Title","referringcustomer":"LandSafe_CA","primarycurativetech":"Unassigned","contract in task":"Contract In Tasks","secondarycurativetech":"Unassigned","branchoffice":"Porterville","isescalated":"FALSE","address":"442 &amp; 432 W Mulberry Ave","propertyaddressline2":null,"filenotes":null,"geo_precision":"range","state":"California"},"type":"Feature","geometry":{"type":"Point","coordinates":[-119.026903,36.083977]}},{"properties":{"city":"Morgan Hill","createddate":"6/19/2012 11:48","iscurativefile":"FALSE","zip":"95037","openeddate":"6/19/2012 0:00","referringcustomerfilenumber":"11-0130660","outofstatestatus":"Not Applicable","task completed date":"6/19/2012","region":"South Northern California","countyname":"Santa Clara","closeddate":"7/6/2012 0:00","isclosed":"FALSE","geo_score":0.894,"id":"a6oksrcgfa7v","filenumber":"476339","filetransactiontype":"Escrow Only","escrowofficername":"Ida Maciel","titleunit":"LandSafe Title","referringcustomer":"LandSafe_CA","primarycurativetech":"Unassigned","contract in task":"Contract In Tasks","secondarycurativetech":"Unassigned","branchoffice":"Campbell","isescalated":"FALSE","address":"386 Cascades Court","propertyaddressline2":null,"filenotes":null,"geo_precision":"range","state":"California"},"type":"Feature","geometry":{"type":"Point","coordinates":[-121.64918,37.111264]}},{"properties":{"city":"Van Nuys","createddate":"6/19/2012 16:26","iscurativefile":"FALSE","zip":"91405","openeddate":"6/19/2012 0:00","referringcustomerfilenumber":"12-0003541","outofstatestatus":"Not Applicable","task completed date":"6/19/2012","region":"Los Angeles - Ventura California","countyname":"Los Angeles","closeddate":"6/29/2012 0:00","isclosed":"FALSE","geo_score":0.415,"id":"a6oksr1tc8qm","filenumber":"476773","filetransactiontype":"Escrow Only","escrowofficername":"Angela Hum","titleunit":"LandSafe Title","referringcustomer":"LandSafe_CA","primarycurativetech":"Unassigned","contract in task":"Contract In Tasks","secondarycurativetech":"Unassigned","branchoffice":"Glendale","isescalated":"FALSE","address":"7319 Hazeltine Ave # 4","propertyaddressline2":null,"filenotes":null,"geo_precision":"street","state":"California"},"type":"Feature","geometry":{"type":"Point","coordinates":[-118.439985,34.191952]}},{"properties":{"city":"Oxnard","createddate":"6/20/2012 10:00","iscurativefile":"FALSE","zip":"93035","openeddate":"6/20/2012 0:00","referringcustomerfilenumber":"12-0000267","outofstatestatus":"Not Applicable","task completed date":"6/20/2012","region":"Los Angeles - Ventura California","countyname":"Ventura","closeddate":"8/3/2012 0:00","isclosed":"FALSE","geo_score":0.902,"id":"a6oksqx76r2h","filenumber":"476920","filetransactiontype":"Escrow Only","escrowofficername":"Araceli De Lara-Michel","titleunit":"LandSafe Title","referringcustomer":"LandSafe_CA","primarycurativetech":"Unassigned","contract in task":"Contract In Tasks","secondarycurativetech":"Unassigned","branchoffice":"Ventura","isescalated":"FALSE","address":"912 Ontario St","propertyaddressline2":null,"filenotes":null,"geo_precision":"range","state":"California"},"type":"Feature","geometry":{"type":"Point","coordinates":[-119.196084,34.190502]}},{"properties":{"city":"Walnut Creek","createddate":"6/20/2012 12:10","iscurativefile":"FALSE","zip":"94597","openeddate":"6/20/2012 0:00","referringcustomerfilenumber":"12-0094681","outofstatestatus":"Not Applicable","task completed date":"6/20/2012","region":"North Northern California","countyname":"Contra Costa","closeddate":"7/13/2012 0:00","isclosed":"FALSE","geo_score":0.488,"id":"a6oksrakofa7","filenumber":"476921","filetransactiontype":"Escrow Only","escrowofficername":"Arlene VanCraeynest","titleunit":"Not Applicable","referringcustomer":"LandSafe_CA","primarycurativetech":"Unassigned","contract in task":"Contract In Tasks","secondarycurativetech":"Unassigned","branchoffice":"Mill Valley","isescalated":"FALSE","address":"2824 Eccleston Ave","propertyaddressline2":null,"filenotes":null,"geo_precision":"zip","state":"California"},"type":"Feature","geometry":{"type":"Point","coordinates":[-121.955399,37.777208]}},{"properties":{"city":"South San Francisco","createddate":"6/20/2012 12:19","iscurativefile":"FALSE","zip":"94080","openeddate":"6/20/2012 0:00","referringcustomerfilenumber":"11-0114966","outofstatestatus":"Not Applicable","task completed date":"6/20/2012","region":"South Northern California","countyname":"San Mateo","closeddate":"7/13/2012 0:00","isclosed":"FALSE","geo_score":0.805,"id":"a6oksr6enisp","filenumber":"476947","filetransactiontype":"Escrow Only","escrowofficername":"Vickie Stermer","titleunit":"LandSafe Title","referringcustomer":"LandSafe_CA","primarycurativetech":"Unassigned","contract in task":"Contract In Tasks","secondarycurativetech":"Unassigned","branchoffice":"Los Gatos","isescalated":"FALSE","address":"218 8th Ln","propertyaddressline2":null,"filenotes":null,"geo_precision":"range","state":"California"},"type":"Feature","geometry":{"type":"Point","coordinates":[-122.408281,37.65946]}},{"properties":{"city":"Thermal","createddate":"6/21/2012 10:02","iscurativefile":"FALSE","zip":"92274","openeddate":"6/21/2012 0:00","referringcustomerfilenumber":"11-0110218","outofstatestatus":"Not Applicable","task completed date":"6/21/2012","region":"Inland Empire","countyname":"Riverside","closeddate":"7/6/2012 0:00","isclosed":"FALSE","geo_score":0.902,"id":"a6oksrd5f6e5","filenumber":"477254","filetransactiontype":"Escrow Only","escrowofficername":"(Loreen) Dorothy Hope","titleunit":"LandSafe Title","referringcustomer":"LandSafe_CA","primarycurativetech":"Unassigned","contract in task":"Contract In Tasks","secondarycurativetech":"Unassigned","branchoffice":"Murrieta","isescalated":"FALSE","address":"57901 State Highway 86","propertyaddressline2":null,"filenotes":null,"geo_precision":"range","state":"California"},"type":"Feature","geometry":{"type":"Point","coordinates":[-116.181269,33.635069]}},{"properties":{"city":"Fresno","createddate":"6/21/2012 10:16","iscurativefile":"FALSE","zip":"93726","openeddate":"6/21/2012 0:00","referringcustomerfilenumber":"11-0134412","outofstatestatus":"Not Applicable","task completed date":"6/21/2012","region":"Central California","countyname":"Fresno","closeddate":"6/1/2012 0:00","isclosed":"FALSE","geo_score":0.902,"id":"a6oksr4fp5nl","filenumber":"477261","filetransactiontype":"Escrow Only","escrowofficername":"Stacey Giguiere","titleunit":"LandSafe Title","referringcustomer":"LandSafe_CA","primarycurativetech":"Unassigned","contract in task":"Contract In Tasks","secondarycurativetech":"Unassigned","branchoffice":"Fresno","isescalated":"FALSE","address":"4453 East Ashcroft Ave","propertyaddressline2":null,"filenotes":null,"geo_precision":"range","state":"California"},"type":"Feature","geometry":{"type":"Point","coordinates":[-119.751955,36.798171]}},{"properties":{"city":"Ontario","createddate":"6/21/2012 10:30","iscurativefile":"FALSE","zip":"91762","openeddate":"6/21/2012 0:00","referringcustomerfilenumber":"12-0033734","outofstatestatus":"Not Applicable","task completed date":"6/21/2012","region":"Inland Empire","countyname":"San Bernardino","closeddate":"7/27/2012 0:00","isclosed":"FALSE","geo_score":0.902,"id":"a6oksrbjbouh","filenumber":"477264","filetransactiontype":"Escrow Only","escrowofficername":"Diana Price","titleunit":"LandSafe Title","referringcustomer":"LandSafe_CA","primarycurativetech":"Unassigned","contract in task":"Contract In Tasks","secondarycurativetech":"Unassigned","branchoffice":"Victorville","isescalated":"FALSE","address":"11155 Tudor Ave","propertyaddressline2":null,"filenotes":null,"geo_precision":"range","state":"California"},"type":"Feature","geometry":{"type":"Point","coordinates":[-117.70101,34.049936]}},{"properties":{"city":"Crestline","createddate":"6/21/2012 10:38","iscurativefile":"FALSE","zip":"92325","openeddate":"6/21/2012 0:00","referringcustomerfilenumber":"12-0022583","outofstatestatus":"Not Applicable","task completed date":"6/21/2012","region":"Inland Empire","countyname":"San Bernardino","closeddate":"7/25/2012 0:00","isclosed":"FALSE","geo_score":0.805,"id":"a6oksqx1hgxc","filenumber":"477267","filetransactiontype":"Escrow Only","escrowofficername":"Joyce Strohm","titleunit":"LandSafe Title","referringcustomer":"LandSafe_CA","primarycurativetech":"Unassigned","contract in task":"Contract In Tasks","secondarycurativetech":"Unassigned","branchoffice":"Redlands","isescalated":"FALSE","address":"24398 Horst Dr","propertyaddressline2":null,"filenotes":null,"geo_precision":"range","state":"California"},"type":"Feature","geometry":{"type":"Point","coordinates":[-117.272974,34.23926]}},{"properties":{"city":"Roseville","createddate":"6/21/2012 12:00","iscurativefile":"FALSE","zip":"95678","openeddate":"6/21/2012 0:00","referringcustomerfilenumber":"12-0055641","outofstatestatus":"Not Applicable","task completed date":"6/21/2012","region":"North Northern California","countyname":"Placer","closeddate":"7/20/2012 0:00","isclosed":"FALSE","geo_score":0.902,"id":"a6oksrbn0ogt","filenumber":"01445-1949","filetransactiontype":"Escrow Only","escrowofficername":"Dawn Vincent","titleunit":"LandSafe Title","referringcustomer":"LandSafe_CA","primarycurativetech":"Unassigned","contract in task":"Contract In Tasks","secondarycurativetech":"Unassigned","branchoffice":"AMSAC-Fair Oaks","isescalated":"FALSE","address":"230 Fig St","propertyaddressline2":null,"filenotes":null,"geo_precision":"range","state":"California"},"type":"Feature","geometry":{"type":"Point","coordinates":[-121.297219,38.748402]}},{"properties":{"city":"French Camp","createddate":"6/21/2012 12:03","iscurativefile":"FALSE","zip":"93728","openeddate":"6/21/2012 0:00","referringcustomerfilenumber":"12-0030101","outofstatestatus":"Not Applicable","task completed date":"6/21/2012","region":"Central California","countyname":"Fresno","closeddate":"7/18/2012 0:00","isclosed":"FALSE","geo_score":0.831,"id":"a6oksraxsgxy","filenumber":"477262","filetransactiontype":"Escrow Only","escrowofficername":"Claudia Froelich","titleunit":"LandSafe Title","referringcustomer":"LandSafe_CA","primarycurativetech":"Unassigned","contract in task":"Contract In Tasks","secondarycurativetech":"Unassigned","branchoffice":"Fresno","isescalated":"FALSE","address":"801 N Echo Ave","propertyaddressline2":null,"filenotes":null,"geo_precision":"range","state":"California"},"type":"Feature","geometry":{"type":"Point","coordinates":[-119.804067,36.754]}},{"properties":{"city":"Fontana","createddate":"6/21/2012 12:15","iscurativefile":"FALSE","zip":"92337","openeddate":"6/21/2012 0:00","referringcustomerfilenumber":"11-0078157","outofstatestatus":"Not Applicable","task completed date":"6/21/2012","region":"Inland Empire","countyname":"San Bernardino","closeddate":"8/14/2012 0:00","isclosed":"FALSE","geo_score":0.532,"id":"a6oksr08gthn","filenumber":"477288","filetransactiontype":"Escrow Only","escrowofficername":"Julie Kruger","titleunit":"LandSafe Title","referringcustomer":"LandSafe_CA","primarycurativetech":"Unassigned","contract in task":"Contract In Tasks","secondarycurativetech":"Unassigned","branchoffice":"Victorville","isescalated":"FALSE","address":"16624 Parsley Ln","propertyaddressline2":null,"filenotes":null,"geo_precision":"street","state":"California"},"type":"Feature","geometry":{"type":"Point","coordinates":[-114.41387,34.47933]}},{"properties":{"city":"Sacramento","createddate":"6/21/2012 12:20","iscurativefile":"FALSE","zip":"95841","openeddate":"6/21/2012 0:00","referringcustomerfilenumber":"11-0133148","outofstatestatus":"Not Applicable","task completed date":"6/21/2012","region":"North Northern California","countyname":"Sacramento","closeddate":"7/24/2012 0:00","isclosed":"FALSE","geo_score":0.488,"id":"a6oksr0pliqs","filenumber":"01445-1951","filetransactiontype":"Escrow Only","escrowofficername":"Dawn Vincent","titleunit":"LandSafe Title","referringcustomer":"LandSafe_CA","primarycurativetech":"Unassigned","contract in task":"Contract In Tasks","secondarycurativetech":"Unassigned","branchoffice":"AMSAC-Fair Oaks","isescalated":"FALSE","address":"4777 Bucknell Court","propertyaddressline2":null,"filenotes":null,"geo_precision":"zip","state":"California"},"type":"Feature","geometry":{"type":"Point","coordinates":[-121.353862,38.665385]}},{"properties":{"city":"Whittier","createddate":"6/21/2012 12:33","iscurativefile":"FALSE","zip":"90606","openeddate":"6/21/2012 0:00","referringcustomerfilenumber":"11-0078467","outofstatestatus":"Not Applicable","task completed date":"6/21/2012","region":"Los Angeles - Ventura California","countyname":"Los Angeles","closeddate":"7/18/2012 0:00","isclosed":"FALSE","geo_score":0.902,"id":"a6oksrb1ba9t","filenumber":"477285","filetransactiontype":"Escrow Only","escrowofficername":"Adriana Ponce","titleunit":"LandSafe Title","referringcustomer":"LandSafe_CA","primarycurativetech":"Unassigned","contract in task":"Contract In Tasks","secondarycurativetech":"Unassigned","branchoffice":"City of Industry","isescalated":"FALSE","address":"11661 Burke St","propertyaddressline2":null,"filenotes":null,"geo_precision":"range","state":"California"},"type":"Feature","geometry":{"type":"Point","coordinates":[-118.069142,33.961522]}},{"properties":{"city":"Vallejo","createddate":"6/21/2012 12:55","iscurativefile":"FALSE","zip":"94591","openeddate":"6/21/2012 0:00","referringcustomerfilenumber":"12-0045626","outofstatestatus":"Not Applicable","task completed date":"6/21/2012","region":"North Northern California","countyname":"Solano","closeddate":"7/2/2012 0:00","isclosed":"FALSE","geo_score":0.902,"id":"a6oksrcreeq7","filenumber":"477324","filetransactiontype":"Escrow Only","escrowofficername":"Arlene VanCraeynest","titleunit":"LandSafe Title","referringcustomer":"LandSafe_CA","primarycurativetech":"Unassigned","contract in task":"Contract In Tasks","secondarycurativetech":"Unassigned","branchoffice":"Mill Valley","isescalated":"FALSE","address":"238 Woodrow Ave","propertyaddressline2":null,"filenotes":null,"geo_precision":"range","state":"California"},"type":"Feature","geometry":{"type":"Point","coordinates":[-122.226649,38.092182]}},{"properties":{"city":"Shasta Lake","createddate":"6/21/2012 13:14","iscurativefile":"FALSE","zip":"96019","openeddate":"6/21/2012 0:00","referringcustomerfilenumber":"11-0078239","outofstatestatus":"Not Applicable","task completed date":"6/21/2012","region":"South Northern California","countyname":"Shasta","closeddate":"7/9/2012 0:00","isclosed":"FALSE","geo_score":0.902,"id":"a6oksqy3tiiu","filenumber":"477338","filetransactiontype":"Escrow Only","escrowofficername":"Holly Weston","titleunit":"LandSafe Title","referringcustomer":"LandSafe_CA","primarycurativetech":"Unassigned","contract in task":"Contract In Tasks","secondarycurativetech":"Unassigned","branchoffice":"Turlock","isescalated":"FALSE","address":"4660 Trinity St","propertyaddressline2":null,"filenotes":null,"geo_precision":"range","state":"California"},"type":"Feature","geometry":{"type":"Point","coordinates":[-122.361611,40.659903]}},{"properties":{"city":"Avalon","createddate":"6/21/2012 14:31","iscurativefile":"FALSE","zip":"90704","openeddate":"6/21/2012 0:00","referringcustomerfilenumber":"11-0135049","outofstatestatus":"Not Applicable","task completed date":"6/21/2012","region":"Los Angeles - Ventura California","countyname":"Los Angeles","closeddate":"7/6/2012 0:00","isclosed":"FALSE","geo_score":0.536,"id":"a6oksr8t10uk","filenumber":"477395","filetransactiontype":"Escrow Only","escrowofficername":"Mary Schenuk","titleunit":"LandSafe Title","referringcustomer":"LandSafe_CA","primarycurativetech":"Unassigned","contract in task":"Contract In Tasks","secondarycurativetech":"Unassigned","branchoffice":"Glendale","isescalated":"FALSE","address":"360 Clemente Ave, Unit A7","propertyaddressline2":null,"filenotes":null,"geo_precision":"street","state":"California"},"type":"Feature","geometry":{"type":"Point","coordinates":[-118.32672,33.339376]}},{"properties":{"city":"La Puente","createddate":"6/21/2012 18:35","iscurativefile":"FALSE","zip":"91744","openeddate":"6/21/2012 0:00","referringcustomerfilenumber":"11-0081667","outofstatestatus":"Not Applicable","task completed date":"6/21/2012","region":"Los Angeles - Ventura California","countyname":"Los Angeles","closeddate":"7/12/2012 0:00","isclosed":"FALSE","geo_score":0.796,"id":"a6oksr7xcjax","filenumber":"477508","filetransactiontype":"Escrow Only","escrowofficername":"Julie Mayorga","titleunit":"LandSafe Title","referringcustomer":"LandSafe_CA","primarycurativetech":"Unassigned","contract in task":"Contract In Tasks","secondarycurativetech":"Unassigned","branchoffice":"City of Industry","isescalated":"FALSE","address":"820 Aileron","propertyaddressline2":null,"filenotes":null,"geo_precision":"range","state":"California"},"type":"Feature","geometry":{"type":"Point","coordinates":[-117.941022,34.032623]}},{"properties":{"city":"Granada Hills","createddate":"6/21/2012 18:38","iscurativefile":"FALSE","zip":"91344","openeddate":"6/21/2012 0:00","referringcustomerfilenumber":"11-0133870","outofstatestatus":"Not Applicable","task completed date":"6/21/2012","region":"Los Angeles - Ventura California","countyname":"Los Angeles","closeddate":"7/8/2012 0:00","isclosed":"FALSE","geo_score":0.902,"id":"a6oksqz0mplz","filenumber":"477514","filetransactiontype":"Escrow Only","escrowofficername":"Mary Schenuk","titleunit":"LandSafe Title","referringcustomer":"LandSafe_CA","primarycurativetech":"Unassigned","contract in task":"Contract In Tasks","secondarycurativetech":"Unassigned","branchoffice":"Glendale","isescalated":"FALSE","address":"16527 Bircher St","propertyaddressline2":null,"filenotes":null,"geo_precision":"range","state":"California"},"type":"Feature","geometry":{"type":"Point","coordinates":[-118.492534,34.281509]}},{"properties":{"city":"Lawndale","createddate":"6/22/2012 10:09","iscurativefile":"FALSE","zip":"90260","openeddate":"6/22/2012 0:00","referringcustomerfilenumber":"12-0067082","outofstatestatus":"Not Applicable","task completed date":"6/22/2012","region":"Los Angeles - Ventura California","countyname":"Los Angeles","closeddate":"7/6/2012 0:00","isclosed":"FALSE","geo_score":0.902,"id":"a6oksqy92ysu","filenumber":"477587","filetransactiontype":"Escrow Only","escrowofficername":"Julie Mayorga","titleunit":"LandSafe Title","referringcustomer":"LandSafe_CA","primarycurativetech":"Unassigned","contract in task":"Contract In Tasks","secondarycurativetech":"Unassigned","branchoffice":"City of Industry","isescalated":"FALSE","address":"4157 West 149th St","propertyaddressline2":null,"filenotes":null,"geo_precision":"range","state":"California"},"type":"Feature","geometry":{"type":"Point","coordinates":[-118.348522,33.896521]}},{"properties":{"city":"Indio","createddate":"6/22/2012 10:20","iscurativefile":"FALSE","zip":"92201","openeddate":"6/22/2012 0:00","referringcustomerfilenumber":null,"outofstatestatus":"Not Applicable","task completed date":"6/22/2012","region":"Inland Empire","countyname":"Riverside","closeddate":"7/6/2012 0:00","isclosed":"FALSE","geo_score":0.902,"id":"a6oksra17dcj","filenumber":"477594","filetransactiontype":"Escrow Only","escrowofficername":"Colleen Yost","titleunit":"LandSafe Title","referringcustomer":"LandSafe_CA","primarycurativetech":"Unassigned","contract in task":"Contract In Tasks","secondarycurativetech":"Unassigned","branchoffice":"Redlands","isescalated":"FALSE","address":"47731 Crocus Pl","propertyaddressline2":null,"filenotes":null,"geo_precision":"range","state":"California"},"type":"Feature","geometry":{"type":"Point","coordinates":[-116.257922,33.701755]}},{"properties":{"city":"Wilton","createddate":"6/22/2012 10:32","iscurativefile":"FALSE","zip":"95693","openeddate":"6/22/2012 0:00","referringcustomerfilenumber":null,"outofstatestatus":"Not Applicable","task completed date":"6/22/2012","region":"North Northern California","countyname":"Sacramento","closeddate":"7/30/2012 0:00","isclosed":"FALSE","geo_score":0.902,"id":"a6oksr9akuu2","filenumber":"477598","filetransactiontype":"Escrow Only","escrowofficername":"Arlene VanCraeynest","titleunit":"LandSafe Title","referringcustomer":"LandSafe_CA","primarycurativetech":"Unassigned","contract in task":"Contract In Tasks","secondarycurativetech":"Unassigned","branchoffice":"Mill Valley","isescalated":"FALSE","address":"9760 Dillard Rd","propertyaddressline2":null,"filenotes":null,"geo_precision":"range","state":"California"},"type":"Feature","geometry":{"type":"Point","coordinates":[-121.254167,38.402894]}},{"properties":{"city":"Los Angles","createddate":"6/22/2012 11:45","iscurativefile":"FALSE","zip":"90044","openeddate":"6/22/2012 0:00","referringcustomerfilenumber":null,"outofstatestatus":"Not Applicable","task completed date":"6/22/2012","region":"Los Angeles - Ventura California","countyname":"Los Angeles","closeddate":"7/13/2012 0:00","isclosed":"FALSE","geo_score":0.894,"id":"a6oksra77jqz","filenumber":"477631","filetransactiontype":"Escrow Only","escrowofficername":"Mary Schenuk","titleunit":"LandSafe Title","referringcustomer":"LandSafe_CA","primarycurativetech":"Unassigned","contract in task":"Contract In Tasks","secondarycurativetech":"Unassigned","branchoffice":"Glendale","isescalated":"FALSE","address":"1253 West 118th St","propertyaddressline2":null,"filenotes":null,"geo_precision":"range","state":"California"},"type":"Feature","geometry":{"type":"Point","coordinates":[-118.298676,33.926128]}},{"properties":{"city":"Corcoran","createddate":"6/22/2012 15:53","iscurativefile":"FALSE","zip":"93212","openeddate":"6/22/2012 0:00","referringcustomerfilenumber":null,"outofstatestatus":"Not Applicable","task completed date":"6/22/2012","region":"Central California","countyname":"Kings","closeddate":"7/13/2012 0:00","isclosed":"FALSE","geo_score":0.902,"id":"a6oksr3673tf","filenumber":"477739","filetransactiontype":"Title &amp; Escrow","escrowofficername":"Cheryl Amos","titleunit":"CA CPU Title-Kevin","referringcustomer":"LandSafe_CA","primarycurativetech":"Unassigned","contract in task":"Contract In Tasks","secondarycurativetech":"Unassigned","branchoffice":"Hanford","isescalated":"FALSE","address":"1311 Whitley Ave","propertyaddressline2":null,"filenotes":null,"geo_precision":"range","state":"California"},"type":"Feature","geometry":{"type":"Point","coordinates":[-119.563674,36.097969]}},{"properties":{"city":"Riverside","createddate":"6/22/2012 16:01","iscurativefile":"FALSE","zip":"92501","openeddate":"6/22/2012 0:00","referringcustomerfilenumber":null,"outofstatestatus":"Not Applicable","task completed date":"6/22/2012","region":"Inland Empire","countyname":"Riverside","closeddate":"7/6/2012 0:00","isclosed":"FALSE","geo_score":0.902,"id":"a6oksqxvkc1r","filenumber":"477748","filetransactiontype":"Escrow Only","escrowofficername":"Nyna Ensign","titleunit":"LandSafe Title","referringcustomer":"LandSafe_CA","primarycurativetech":"Unassigned","contract in task":"Contract In Tasks","secondarycurativetech":"Unassigned","branchoffice":"Riverside","isescalated":"FALSE","address":"4162 University Ave","propertyaddressline2":null,"filenotes":null,"geo_precision":"range","state":"California"},"type":"Feature","geometry":{"type":"Point","coordinates":[-117.379734,33.984255]}},{"properties":{"city":"Castroville","createddate":"6/22/2012 16:49","iscurativefile":"FALSE","zip":"95012","openeddate":"6/22/2012 0:00","referringcustomerfilenumber":null,"outofstatestatus":"Not Applicable","task completed date":"6/22/2012","region":"South Northern California","countyname":"Monterey","closeddate":"7/29/2012 0:00","isclosed":"FALSE","geo_score":0.902,"id":"a6oksr5sjdf9","filenumber":"477766","filetransactiontype":"Title &amp; Escrow","escrowofficername":"Kathleen Ross","titleunit":"CA CPU Title-Kevin","referringcustomer":"LandSafe_CA","primarycurativetech":"Unassigned","contract in task":"Contract In Tasks","secondarycurativetech":"Unassigned","branchoffice":"Saratoga","isescalated":"FALSE","address":"11741 Rico St","propertyaddressline2":null,"filenotes":null,"geo_precision":"range","state":"California"},"type":"Feature","geometry":{"type":"Point","coordinates":[-121.750836,36.770506]}},{"properties":{"city":"Concord","createddate":"6/25/2012 10:36","iscurativefile":"FALSE","zip":"94521","openeddate":"6/25/2012 0:00","referringcustomerfilenumber":null,"outofstatestatus":"Not Applicable","task completed date":"6/25/2012","region":"North Northern California","countyname":"Contra Costa","closeddate":"8/10/2012 0:00","isclosed":"FALSE","geo_score":0.707,"id":"a6oksrbsdnn4","filenumber":"477898","filetransactiontype":"Escrow Only","escrowofficername":"Arlene VanCraeynest","titleunit":"LandSafe Title","referringcustomer":"LandSafe_CA","primarycurativetech":"Unassigned","contract in task":"Contract In Tasks","secondarycurativetech":"Unassigned","branchoffice":"Mill Valley","isescalated":"FALSE","address":"18008 Alicante Ct","propertyaddressline2":null,"filenotes":null,"geo_precision":"street","state":"California"},"type":"Feature","geometry":{"type":"Point","coordinates":[-121.949808,37.953352]}},{"properties":{"city":"Los Angeles","createddate":"6/25/2012 10:43","iscurativefile":"FALSE","zip":"90013","openeddate":"6/25/2012 0:00","referringcustomerfilenumber":null,"outofstatestatus":"Not Applicable","task completed date":"6/25/2012","region":"Los Angeles - Ventura California","countyname":"Los Angeles","closeddate":"7/11/2012 0:00","isclosed":"FALSE","geo_score":0.476,"id":"a6oksr7o8tb2","filenumber":"477922","filetransactiontype":"Escrow Only","escrowofficername":"Julie Mayorga","titleunit":"LandSafe Title","referringcustomer":"LandSafe_CA","primarycurativetech":"Unassigned","contract in task":"Contract In Tasks","secondarycurativetech":"Unassigned","branchoffice":"City of Industry","isescalated":"FALSE","address":"530 Molino St, Unit 114","propertyaddressline2":null,"filenotes":null,"geo_precision":"street","state":"California"},"type":"Feature","geometry":{"type":"Point","coordinates":[-118.233969,34.042034]}},{"properties":{"city":"Galt","createddate":"6/25/2012 10:44","iscurativefile":"FALSE","zip":"95632","openeddate":"6/25/2012 0:00","referringcustomerfilenumber":null,"outofstatestatus":"Not Applicable","task completed date":"6/25/2012","region":"North Northern California","countyname":"Sacramento","closeddate":"7/23/2012 0:00","isclosed":"FALSE","geo_score":0.902,"id":"a6oksrd0g90l","filenumber":"01445-1973","filetransactiontype":"Escrow Only","escrowofficername":"Dawn Vincent","titleunit":"LandSafe Title","referringcustomer":"LandSafe_CA","primarycurativetech":"Unassigned","contract in task":"Contract In Tasks","secondarycurativetech":"Unassigned","branchoffice":"AMSAC-Fair Oaks","isescalated":"FALSE","address":"662 Cleland Court","propertyaddressline2":null,"filenotes":null,"geo_precision":"range","state":"California"},"type":"Feature","geometry":{"type":"Point","coordinates":[-121.291238,38.27126]}},{"properties":{"city":"Los Angeles","createddate":"6/25/2012 10:50","iscurativefile":"FALSE","zip":"90037","openeddate":"6/25/2012 0:00","referringcustomerfilenumber":null,"outofstatestatus":"Not Applicable","task completed date":"6/25/2012","region":"Los Angeles - Ventura California","countyname":"Los Angeles","closeddate":"6/25/2013 0:00","isclosed":"FALSE","geo_score":0.837,"id":"a6oksr25p49j","filenumber":"477927","filetransactiontype":"Escrow Only","escrowofficername":"Mary Schenuk","titleunit":"LandSafe Title","referringcustomer":"LandSafe_CA","primarycurativetech":"Unassigned","contract in task":"Contract In Tasks","secondarycurativetech":"Unassigned","branchoffice":"Glendale","isescalated":"FALSE","address":"123 West 53rd St","propertyaddressline2":null,"filenotes":null,"geo_precision":"range","state":"California"},"type":"Feature","geometry":{"type":"Point","coordinates":[-118.277903,33.994291]}},{"properties":{"city":"Los Angeles","createddate":"6/25/2012 11:02","iscurativefile":"FALSE","zip":"90003","openeddate":"6/25/2012 0:00","referringcustomerfilenumber":null,"outofstatestatus":"Not Applicable","task completed date":"6/25/2012","region":"Los Angeles - Ventura California","countyname":"Los Angeles","closeddate":"7/12/2012 0:00","isclosed":"FALSE","geo_score":0.762,"id":"a6oksqz03n3t","filenumber":"477929","filetransactiontype":"Escrow Only","escrowofficername":"Julie Mayorga","titleunit":"LandSafe Title","referringcustomer":"LandSafe_CA","primarycurativetech":"Unassigned","contract in task":"Contract In Tasks","secondarycurativetech":"Unassigned","branchoffice":"City of Industry","isescalated":"FALSE","address":"117 West 77th St, Units 1-4","propertyaddressline2":null,"filenotes":null,"geo_precision":"street","state":"California"},"type":"Feature","geometry":{"type":"Point","coordinates":[-118.273907,33.969853]}},{"properties":{"city":"Fontana","createddate":"6/25/2012 11:07","iscurativefile":"FALSE","zip":"92337","openeddate":"6/25/2012 0:00","referringcustomerfilenumber":null,"outofstatestatus":"Not Applicable","task completed date":"6/25/2012","region":"Inland Empire","countyname":"San Bernardino","closeddate":"7/18/2012 0:00","isclosed":"FALSE","geo_score":0.707,"id":"a6oksr69ghjo","filenumber":"477931","filetransactiontype":"Escrow Only","escrowofficername":"Diana Price","titleunit":"Not Applicable","referringcustomer":"LandSafe_CA","primarycurativetech":"Unassigned","contract in task":"Contract In Tasks","secondarycurativetech":"Unassigned","branchoffice":"Victorville","isescalated":"FALSE","address":"11345 Pinyon Ct","propertyaddressline2":null,"filenotes":null,"geo_precision":"street","state":"California"},"type":"Feature","geometry":{"type":"Point","coordinates":[-117.449624,34.072517]}},{"properties":{"city":"Smartville","createddate":"6/25/2012 11:56","iscurativefile":"FALSE","zip":"95977","openeddate":"6/25/2012 0:00","referringcustomerfilenumber":null,"outofstatestatus":"Not Applicable","task completed date":"6/25/2012","region":"South Northern California","countyname":"Yuba","closeddate":"7/20/2012 0:00","isclosed":"FALSE","geo_score":0.902,"id":"a6oksr2wnijo","filenumber":"477966","filetransactiontype":"Title &amp; Escrow","escrowofficername":"Patti Atkinson-Utz","titleunit":"CA CPU Title-Kevin","referringcustomer":"LandSafe_CA","primarycurativetech":"Unassigned","contract in task":"Contract In Tasks","secondarycurativetech":"Unassigned","branchoffice":"Turlock","isescalated":"FALSE","address":"8628 Mosswood Ln","propertyaddressline2":null,"filenotes":null,"geo_precision":"range","state":"California"},"type":"Feature","geometry":{"type":"Point","coordinates":[-121.297775,39.174059]}},{"properties":{"city":"Pico Rivera","createddate":"6/25/2012 12:18","iscurativefile":"FALSE","zip":"90660","openeddate":"6/25/2012 0:00","referringcustomerfilenumber":null,"outofstatestatus":"Not Applicable","task completed date":"6/25/2012","region":"Los Angeles - Ventura California","countyname":"Los Angeles","closeddate":"7/26/2012 0:00","isclosed":"FALSE","geo_score":0.459,"id":"a6oksr3qop7r","filenumber":"477972","filetransactiontype":"Escrow Only","escrowofficername":"Mary Schenuk","titleunit":"LandSafe Title","referringcustomer":"LandSafe_CA","primarycurativetech":"Unassigned","contract in task":"Contract In Tasks","secondarycurativetech":"Unassigned","branchoffice":"Glendale","isescalated":"FALSE","address":"4317 Paramount Boulvard, D","propertyaddressline2":null,"filenotes":null,"geo_precision":"street","state":"California"},"type":"Feature","geometry":{"type":"Point","coordinates":[-118.084914,34.016147]}},{"properties":{"city":"Thousand Oaks","createddate":"6/25/2012 12:37","iscurativefile":"FALSE","zip":"91361","openeddate":"6/25/2012 0:00","referringcustomerfilenumber":null,"outofstatestatus":"Not Applicable","task completed date":"6/25/2012","region":"Los Angeles - Ventura California","countyname":"Ventura","closeddate":"7/13/2012 0:00","isclosed":"FALSE","geo_score":0.823,"id":"a6oksr1uz317","filenumber":"477992","filetransactiontype":"Escrow Only","escrowofficername":"Araceli De Lara-Michel","titleunit":"LandSafe Title","referringcustomer":"LandSafe_CA","primarycurativetech":"Unassigned","contract in task":"Contract In Tasks","secondarycurativetech":"Unassigned","branchoffice":"Ventura","isescalated":"FALSE","address":"1936 Stonesgate St","propertyaddressline2":null,"filenotes":null,"geo_precision":"range","state":"California"},"type":"Feature","geometry":{"type":"Point","coordinates":[-118.842493,34.149766]}},{"properties":{"city":"Lindsay","createddate":"6/25/2012 12:47","iscurativefile":"FALSE","zip":"93247","openeddate":"6/25/2012 0:00","referringcustomerfilenumber":null,"outofstatestatus":"Not Applicable","task completed date":"6/25/2012","region":"Central California","countyname":"Tulare","closeddate":"7/20/2012 0:00","isclosed":"FALSE","geo_score":0.902,"id":"a6oksr142j99","filenumber":"478014","filetransactiontype":"Escrow Only","escrowofficername":"Judy Loflin","titleunit":"LandSafe Title","referringcustomer":"LandSafe_CA","primarycurativetech":"Unassigned","contract in task":"Contract In Tasks","secondarycurativetech":"Unassigned","branchoffice":"Porterville","isescalated":"FALSE","address":"860 Homassel Ave","propertyaddressline2":null,"filenotes":null,"geo_precision":"range","state":"California"},"type":"Feature","geometry":{"type":"Point","coordinates":[-119.08817,36.213189]}}],"is_temporal":false,"author":{"url":null,"metadata":null,"contact_name":null,"contact_address":null,"source":null,"contact_phone":null},"source":null,"pagination":{"sort":null,"start":0,"total":198,"limit":1000000},"state":"complete","tags":"","published":"2014-08-14T22:46:12-04:00","id":255859}