{"type":"FeatureCollection","data_type":"Dataset","url_type":null,"permissions":[{"permissions":{"download":true,"view":true},"group_id":"everyone"}],"classification":null,"title":"Publicagenda.org, Cities","count":33,"stream_id":2562,"contributor":{"url":"http://geocommons.com/users/2","name":"data"},"data_attributes":null,"calculation_params":null,"icon_link":null,"link":"http://geocommons.com/overlays/2562.json","extent":[-121.993,29.7605,-71.106,45.5659],"geometry_types":["point"],"unique_name":null,"name":"Publicagenda.org, Cities","feature_count":33,"description":"","next_feature":null,"is_raster":false,"short_classification":"Y","stats":{"bg_long":{"max":-71.106019,"mean":-89.5148414848485,"variance":135.00645262062,"stdev":11.6192277118843,"min":-121.993394,"median":-90.180489},"bg_lat":{"max":45.565864,"mean":37.5048673939394,"variance":21.9628928894189,"stdev":4.68645845915857,"min":29.76045,"median":38.916455}},"features":[{"properties":{"City":"Abilene","bg_long":-97.213904,"bg_lat":38.916455,"State":"KS","id":"a6cj5dky53yu"},"type":"Feature","geometry":{"type":"Point","coordinates":[-97.213904,38.916455]}},{"properties":{"City":"Abilene","bg_long":-94.591629,"bg_lat":36.873074,"State":"MO","id":"a6cj5dt6lujf"},"type":"Feature","geometry":{"type":"Point","coordinates":[-94.591629,36.873074]}},{"properties":{"City":"Albany","bg_long":-84.155989,"bg_lat":31.58076,"State":"GA","id":"a6cj5e14j0nd"},"type":"Feature","geometry":{"type":"Point","coordinates":[-84.155989,31.58076]}},{"properties":{"City":"Ann Arbor","bg_long":-83.748479,"bg_lat":42.281875,"State":"MI","id":"a6cj5dvzmd3i"},"type":"Feature","geometry":{"type":"Point","coordinates":[-83.748479,42.281875]}},{"properties":{"City":"Athens","bg_long":-83.373255,"bg_lat":33.958132,"State":"GA","id":"a6cj5dpzf1rx"},"type":"Feature","geometry":{"type":"Point","coordinates":[-83.373255,33.958132]}},{"properties":{"City":"Atlanta","bg_long":-84.391109,"bg_lat":33.748315,"State":"GA","id":"a6cj5dlwk0p7"},"type":"Feature","geometry":{"type":"Point","coordinates":[-84.391109,33.748315]}},{"properties":{"City":"Austin","bg_long":-97.742984,"bg_lat":30.267605,"State":"TX","id":"a6cj5dvugadv"},"type":"Feature","geometry":{"type":"Point","coordinates":[-97.742984,30.267605]}},{"properties":{"City":"Blacksburg","bg_long":-80.410584,"bg_lat":37.226263,"State":"VA","id":"a6cj5dm2j4xj"},"type":"Feature","geometry":{"type":"Point","coordinates":[-80.410584,37.226263]}},{"properties":{"City":"Cambridge","bg_long":-71.106019,"bg_lat":42.36679,"State":"MA","id":"a6cj5dv1z46l"},"type":"Feature","geometry":{"type":"Point","coordinates":[-71.106019,42.36679]}},{"properties":{"City":"Cedar Rapids","bg_long":-91.673759,"bg_lat":41.976345,"State":"IA","id":"a6cj5dm0jorc"},"type":"Feature","geometry":{"type":"Point","coordinates":[-91.673759,41.976345]}},{"properties":{"City":"College Station","bg_long":-96.325979,"bg_lat":30.620475,"State":"TX","id":"a6cj5dznxkgd"},"type":"Feature","geometry":{"type":"Point","coordinates":[-96.325979,30.620475]}},{"properties":{"City":"Columbus","bg_long":-83.003014,"bg_lat":39.962,"State":"OH","id":"a6cj5dqjbyhh"},"type":"Feature","geometry":{"type":"Point","coordinates":[-83.003014,39.962]}},{"properties":{"City":"Conway","bg_long":-79.050634,"bg_lat":33.834605,"State":"SC","id":"a6cj5drezir6"},"type":"Feature","geometry":{"type":"Point","coordinates":[-79.050634,33.834605]}},{"properties":{"City":"Des Moines","bg_long":-93.615674,"bg_lat":41.589785,"State":"IA","id":"a6cj5dvans2c"},"type":"Feature","geometry":{"type":"Point","coordinates":[-93.615674,41.589785]}},{"properties":{"City":"Glen Ellyn","bg_long":-88.065729,"bg_lat":41.875465,"State":"IL","id":"a6cj5dzrsq36"},"type":"Feature","geometry":{"type":"Point","coordinates":[-88.065729,41.875465]}},{"properties":{"City":"Houston","bg_long":-95.369784,"bg_lat":29.76045,"State":"TX","id":"a6cj5dorfu4q"},"type":"Feature","geometry":{"type":"Point","coordinates":[-95.369784,29.76045]}},{"properties":{"City":"Hyde Park","bg_long":-73.936204,"bg_lat":41.79128,"State":"NY","id":"a6cj5duh5hml"},"type":"Feature","geometry":{"type":"Point","coordinates":[-73.936204,41.79128]}},{"properties":{"City":"Jackson","bg_long":-90.180489,"bg_lat":32.29869,"State":"MS","id":"a6cj5dsgedcy"},"type":"Feature","geometry":{"type":"Point","coordinates":[-90.180489,32.29869]}},{"properties":{"City":"Kansas City","bg_long":-94.583062,"bg_lat":39.10296,"State":"MO","id":"a6cj5dt0bj2b"},"type":"Feature","geometry":{"type":"Point","coordinates":[-94.583062,39.10296]}},{"properties":{"City":"Little Rock","bg_long":-92.274494,"bg_lat":34.748655,"State":"AR","id":"a6cj5dwo36t5"},"type":"Feature","geometry":{"type":"Point","coordinates":[-92.274494,34.748655]}},{"properties":{"City":"Manhattan","bg_long":-96.561834,"bg_lat":39.17881,"State":"KS","id":"a6cj5dkxn14y"},"type":"Feature","geometry":{"type":"Point","coordinates":[-96.561834,39.17881]}},{"properties":{"City":"Norwalk","bg_long":-73.407654,"bg_lat":41.11366,"State":"CT","id":"a6cj5dnddour"},"type":"Feature","geometry":{"type":"Point","coordinates":[-73.407654,41.11366]}},{"properties":{"City":"Overland Park","bg_long":-94.671684,"bg_lat":38.984895,"State":"KS","id":"a6cj5dqx7wgg"},"type":"Feature","geometry":{"type":"Point","coordinates":[-94.671684,38.984895]}},{"properties":{"City":"Panama City","bg_long":-85.660334,"bg_lat":30.15987,"State":"FL","id":"a6cj5du743lx"},"type":"Feature","geometry":{"type":"Point","coordinates":[-85.660334,30.15987]}},{"properties":{"City":"Rapid City","bg_long":-103.230889,"bg_lat":44.081165,"State":"SD","id":"a6cj5do0ens2"},"type":"Feature","geometry":{"type":"Point","coordinates":[-103.230889,44.081165]}},{"properties":{"City":"Rindge","bg_long":-72.005824,"bg_lat":42.755299,"State":"NH","id":"a6cj5dw14jcr"},"type":"Feature","geometry":{"type":"Point","coordinates":[-72.005824,42.755299]}},{"properties":{"City":"Simi Valley","bg_long":-118.717659,"bg_lat":34.28946,"State":"CA","id":"a6cj5dseafzk"},"type":"Feature","geometry":{"type":"Point","coordinates":[-118.717659,34.28946]}},{"properties":{"City":"St. Cloud","bg_long":-94.197519,"bg_lat":45.565864,"State":"MN","id":"a6cj5doh7qxu"},"type":"Feature","geometry":{"type":"Point","coordinates":[-94.197519,45.565864]}},{"properties":{"City":"State College","bg_long":-77.860704,"bg_lat":40.79373,"State":"PA","id":"a6cj5dl4zs2t"},"type":"Feature","geometry":{"type":"Point","coordinates":[-77.860704,40.79373]}},{"properties":{"City":"Sumter","bg_long":-80.342364,"bg_lat":33.92434,"State":"SC","id":"a6cj5dok66y9"},"type":"Feature","geometry":{"type":"Point","coordinates":[-80.342364,33.92434]}},{"properties":{"City":"Tifton","bg_long":-83.509327,"bg_lat":31.451382,"State":"GA","id":"a6cj5dvfgpxw"},"type":"Feature","geometry":{"type":"Point","coordinates":[-83.509327,31.451382]}},{"properties":{"City":"Vacaville","bg_long":-121.993394,"bg_lat":38.35134,"State":"CA","id":"a6cj5dxgssuo"},"type":"Feature","geometry":{"type":"Point","coordinates":[-121.993394,38.35134]}},{"properties":{"City":"Wayne","bg_long":-97.017809,"bg_lat":42.23083,"State":"NE","id":"a6cj5dy81ggk"},"type":"Feature","geometry":{"type":"Point","coordinates":[-97.017809,42.23083]}}],"is_temporal":false,"author":{"url":"","metadata":"","contact_name":"","contact_address":"","source":"","contact_phone":""},"source":"","pagination":{"sort":null,"start":0,"total":33,"limit":1000000},"state":"complete","tags":"publicagenda","published":"2008-07-07T12:00:00Z","id":2562}