{"type":"FeatureCollection","data_type":"Dataset","url_type":null,"permissions":[{"permissions":{"download":true,"view":true},"group_id":"everyone"}],"classification":null,"title":"SEregion","count":33,"stream_id":256477,"contributor":{"url":"http://geocommons.com/users/46663","name":"FlynnFREAC"},"data_attributes":null,"calculation_params":null,"icon_link":null,"link":"http://geocommons.com/overlays/256477.json","extent":[-89.939,25.7183,-76.3028,38.2164],"geometry_types":["point"],"unique_name":null,"name":"SEregion","feature_count":33,"description":"","next_feature":null,"is_raster":false,"short_classification":"Y","stats":{"rank":{"max":13,"variance":11.3977272727273,"mean":6.09090909090909,"stdev":3.37605202458838,"min":1,"median":6}},"features":[{"properties":{"city":"Tuscaloosa","zip":"35401","region":"SE","w/l (2011)":"12 &amp; 1","geo_score":0.546,"rank":1,"division":"Upper","team":"Crimson Tide","id":"a6peb62lujmb","school":"Alabama","address":"300 Bryant Dr","geo_precision":"street","state":"AL"},"type":"Feature","geometry":{"type":"Point","coordinates":[-88.317368,32.727603]}},{"properties":{"city":"Columbia","zip":"29208","region":"SE","w/l (2011)":"11 &amp; 2","geo_score":0.718,"rank":2,"division":"Upper","team":"Gamecocks","id":"a6peb5rj5ru2","school":"South Carolina","address":"816 Bull St","geo_precision":"street","state":"SC"},"type":"Feature","geometry":{"type":"Point","coordinates":[-81.025669,33.995889]}},{"properties":{"city":"Athens","zip":"30602","region":"SE","w/l (2011)":"10 &amp; 4","geo_score":0.721,"rank":3,"division":"Upper","team":"Bulldogs","id":"a6peb61x5zk5","school":"Georgia","address":"212 Carlton St","geo_precision":"street","state":"GA"},"type":"Feature","geometry":{"type":"Point","coordinates":[-83.379261,33.944915]}},{"properties":{"city":"Clemson","zip":"29631","region":"SE","w/l (2011)":"10 &amp; 4","geo_score":0.805,"rank":4,"division":"Upper","team":"Tigers","id":"a6peb5zyw0za","school":"Clemson","address":"109 Daniel Dr","geo_precision":"range","state":"SC"},"type":"Feature","geometry":{"type":"Point","coordinates":[-82.832333,34.680998]}},{"properties":{"city":"Blacksburg","zip":"24061","region":"SE","w/l (2011)":"11 &amp; 3","geo_score":0.805,"rank":5,"division":"Upper","team":"Hokies","id":"a6peb5qotcbp","school":"Virginia Tech","address":"201 Otey St","geo_precision":"range","state":"VA"},"type":"Feature","geometry":{"type":"Point","coordinates":[-80.415899,37.227412]}},{"properties":{"city":"Tallahassee","zip":"32301","region":"SE","w/l (2011)":"9 &amp; 4","geo_score":0.612,"rank":6,"division":"Upper","team":"Seminoles","id":"a6peb62rwuec","school":"Florida State","address":"600 Westcott St","geo_precision":"street","state":"FL"},"type":"Feature","geometry":{"type":"Point","coordinates":[-84.294904,30.456629]}},{"properties":{"city":"Auburn","zip":"36849","region":"SE","w/l (2011)":"8 &amp; 5","geo_score":0.0,"rank":7,"division":"Upper","team":"Tigers","id":"a6peb60ri8i7","school":"Auburn","address":"251 South Donahue Dr","geo_precision":"unmatched","state":"AL"},"type":"Feature","geometry":null},{"properties":{"city":"Charlottesville","zip":"22903","region":"SE","w/l (2011)":"8 &amp; 5","geo_score":0.844,"rank":8,"division":"Upper","team":"Cavaliers","id":"a6peb66p9hei","school":"Virginia","address":"205 14th St NW","geo_precision":"range","state":"VA"},"type":"Feature","geometry":{"type":"Point","coordinates":[-78.498614,38.03604]}},{"properties":{"city":"Atlanta","zip":"30332","region":"SE","w/l (2011)":"8 &amp; 5","geo_score":0.539,"rank":9,"division":"Upper","team":"Yellow Jackets","id":"a6peb5wxhgt2","school":"Georgia Tech","address":"837 State St","geo_precision":"street","state":"GA"},"type":"Feature","geometry":{"type":"Point","coordinates":[-84.399155,33.78051]}},{"properties":{"city":"Gainesville","zip":"32611","region":"SE","w/l (2011)":"7 &amp; 6","geo_score":0.489,"rank":10,"division":"Upper","team":"Gators","id":"a6peb5yut063","school":"Florida","address":"1659 Museum Rd","geo_precision":"street","state":"FL"},"type":"Feature","geometry":{"type":"Point","coordinates":[-82.339967,29.64484]}},{"properties":{"city":"Coral Gables","zip":"33146","region":"SE","w/l (2011)":"6 &amp; 6","geo_score":0.813,"rank":1,"division":"Middle","team":"Hurricanes","id":"a6peb63baqyc","school":"Miami (FL)","address":"5501 San Amaro Dr","geo_precision":"range","state":"FL"},"type":"Feature","geometry":{"type":"Point","coordinates":[-80.282371,25.718318]}},{"properties":{"city":"Raleigh","zip":"27607","region":"SE","w/l (2011)":"8 &amp; 5","geo_score":0.576,"rank":2,"division":"Middle","team":"Wolfpack","id":"a6peb60erwzj","school":"NC State","address":"2701 Sullivan Dr","geo_precision":"street","state":"NC"},"type":"Feature","geometry":{"type":"Point","coordinates":[-78.69156,35.82116]}},{"properties":{"city":"Chapel Hill","zip":"27514","region":"SE","w/l (2011)":"7 &amp; 6","geo_score":0.902,"rank":3,"division":"Middle","team":"Tar Heels","id":"a6peb5tzrntn","school":"North Carolina","address":"305 East Cameron Ave","geo_precision":"range","state":"NC"},"type":"Feature","geometry":{"type":"Point","coordinates":[-79.049332,35.912678]}},{"properties":{"city":"Louisville","zip":"40208","region":"SE","w/l (2011)":"7 &amp; 6","geo_score":0.829,"rank":4,"division":"Middle","team":"Cardinals","id":"a6peb630ci58","school":"Louisville","address":"2301 South 3rd St","geo_precision":"range","state":"KY"},"type":"Feature","geometry":{"type":"Point","coordinates":[-85.761866,38.21636]}},{"properties":{"city":"Nashville","zip":"37240","region":"SE","w/l (2011)":"6 &amp; 7","geo_score":0.902,"rank":5,"division":"Middle","team":"Commodores","id":"a6peb5yyynds","school":"Vanderbilt","address":"2201 West End Ave","geo_precision":"range","state":"TN"},"type":"Feature","geometry":{"type":"Point","coordinates":[-86.804242,36.14893]}},{"properties":{"city":"Winston-Salem","zip":"27106","region":"SE","w/l (2011)":"6 &amp; 7","geo_score":0.586,"rank":6,"division":"Middle","team":"Demon Deacons","id":"a6peb66nj0t2","school":"Wake Forest","address":"1834 Wake Forest Rd","geo_precision":"street","state":"NC"},"type":"Feature","geometry":{"type":"Point","coordinates":[-80.286711,36.12987]}},{"properties":{"city":"Tampa","zip":"33620","region":"SE","w/l (2011)":"5 &amp; 7","geo_score":0.805,"rank":7,"division":"Middle","team":"Bulls","id":"a6peb61c94r2","school":"South Florida","address":"4202 East Fowler Ave","geo_precision":"range","state":"FL"},"type":"Feature","geometry":{"type":"Point","coordinates":[-82.41563,28.054516]}},{"properties":{"city":"Knoxville","zip":"37916","region":"SE","w/l (2011)":"5 &amp; 7","geo_score":0.84,"rank":8,"division":"Middle","team":"Volunteers","id":"a6peb60kst4k","school":"Tennessee","address":"1331 Circle Park Dr","geo_precision":"range","state":"TN"},"type":"Feature","geometry":{"type":"Point","coordinates":[-83.927849,35.953134]}},{"properties":{"city":"Lexington","zip":"40502","region":"SE","w/l (2011)":"5 &amp; 7","geo_score":0.709,"rank":9,"division":"Middle","team":"Wildcats","id":"a6peb5uw44wn","school":"Kentucky","address":"1540 University Dr","geo_precision":"street","state":"KY"},"type":"Feature","geometry":{"type":"Point","coordinates":[-84.506924,38.02462]}},{"properties":{"city":"Bowling Green","zip":"42101","region":"SE","w/l (2011)":"7 &amp; 5","geo_score":0.58,"rank":10,"division":"Middle","team":"Hilltoppers","id":"a6peb5wcywww","school":"Western Kentucky","address":"1906 College Heights Blvd","geo_precision":"street","state":"KY"},"type":"Feature","geometry":{"type":"Point","coordinates":[-86.450741,36.987787]}},{"properties":{"city":"Miami","zip":"33174","region":"SE","w/l (2011)":"8 &amp; 5","geo_score":0.902,"rank":1,"division":"Bottom","team":"Golden Panthers","id":"a6peb5vu98z3","school":"Florida International","address":"10555 West Flagler St","geo_precision":"range","state":"FL"},"type":"Feature","geometry":{"type":"Point","coordinates":[-80.367599,25.768611]}},{"properties":{"city":"Orl&amp;o","zip":"32816","region":"SE","w/l (2011)":"5 &amp; 7","geo_score":0.861,"rank":2,"division":"Bottom","team":"Knights","id":"a6peb5scrqae","school":"Central Florida","address":"4000 Central Florida Blvd","geo_precision":"range","state":"FL"},"type":"Feature","geometry":{"type":"Point","coordinates":[-81.20315,28.598647]}},{"properties":{"city":"Greenville","zip":"27858","region":"SE","w/l (2011)":"5 &amp; 7","geo_score":0.714,"rank":3,"division":"Bottom","team":"Pirates","id":"a6peb5vrls73","school":"East Carolina","address":"Ficklen Dr","geo_precision":"zip","state":"NC"},"type":"Feature","geometry":{"type":"Point","coordinates":[-77.402789,35.616949]}},{"properties":{"city":"Durham","zip":"27708","region":"SE","w/l (2011)":"3 &amp; 9","geo_score":0.659,"rank":4,"division":"Bottom","team":"Blue Devils","id":"a6peb5w0fuum","school":"Duke","address":"2 Chapel Dr","geo_precision":"range","state":"NC"},"type":"Feature","geometry":{"type":"Point","coordinates":[-78.829156,35.992529]}},{"properties":{"city":"Birmingham","zip":"35233","region":"SE","w/l (2011)":"3 &amp; 9","geo_score":0.902,"rank":5,"division":"Bottom","team":"Blazers","id":"a6peb5uwn9kj","school":"Alabama-Birmingham","address":"1400 University Blvd","geo_precision":"range","state":"AL"},"type":"Feature","geometry":{"type":"Point","coordinates":[-86.806944,33.501098]}},{"properties":{"city":"Troy","zip":"36081","region":"SE","w/l (2011)":"3 &amp; 9","geo_score":0.709,"rank":6,"division":"Bottom","team":"Trojans","id":"a6peb66kx97g","school":"Troy","address":"1 Trojan Way","geo_precision":"street","state":"AL"},"type":"Feature","geometry":{"type":"Point","coordinates":[-85.973306,31.822132]}},{"properties":{"city":"Murfreesboro","zip":"37132","region":"SE","w/l (2011)":"2 &amp; 10","geo_score":0.488,"rank":7,"division":"Bottom","team":"Blue Raiders","id":"a6peb5vr3qq0","school":"Middle Tennssee","address":"1327 Faulkinberry Dr","geo_precision":"zip","state":"TN"},"type":"Feature","geometry":{"type":"Point","coordinates":[-86.420958,35.859565]}},{"properties":{"city":"Memphis","zip":"38152","region":"SE","w/l (2011)":"2 &amp; 10","geo_score":0.717,"rank":8,"division":"Bottom","team":"Tigers","id":"a6peb5tvtm7m","school":"Memphis","address":"3720 Alumni Ave","geo_precision":"street","state":"TN"},"type":"Feature","geometry":{"type":"Point","coordinates":[-89.938971,35.118559]}},{"properties":{"city":"Boca Raton","zip":"33431","region":"SE","w/l (2011)":"1 &amp; 11","geo_score":0.902,"rank":9,"division":"Bottom","team":"Owls","id":"a6peb666pe7m","school":"Florida Atlantic","address":"777 Glades Rd","geo_precision":"range","state":"FL"},"type":"Feature","geometry":{"type":"Point","coordinates":[-80.10243,26.365372]}},{"properties":{"city":"Atlanta","zip":"30303","region":"SE","w/l (2011)":"3 &amp; 8","geo_score":0.84,"rank":10,"division":"Bottom","team":"Panthers","id":"a6peb60aolyo","school":"Georgia State","address":"14 Marietta St NW","geo_precision":"range","state":"GA"},"type":"Feature","geometry":{"type":"Point","coordinates":[-84.390549,33.754871]}},{"properties":{"city":"Mobile","zip":"36604","region":"SE","w/l (2011)":"6 &amp; 4","geo_score":0.902,"rank":11,"division":"Bottom","team":"Jaguars","id":"a6peb64hg4gf","school":"South Alabama","address":"1621 Virginia St","geo_precision":"range","state":"AL"},"type":"Feature","geometry":{"type":"Point","coordinates":[-88.07439,30.67457]}},{"properties":{"city":"Norfolk","zip":"23508","region":"SE","w/l (2011)":"10 &amp; 3","geo_score":0.902,"rank":12,"division":"Bottom","team":"Monarchs","id":"a6peb63rukpt","school":"Old Dominion","address":"5115 Hampton Blvd","geo_precision":"range","state":"VA"},"type":"Feature","geometry":{"type":"Point","coordinates":[-76.302769,36.887751]}},{"properties":{"city":"Charlotte","zip":"28223","region":"SE","w/l (2011)":"DNP","geo_score":0.902,"rank":13,"division":"Bottom","team":"49ers","id":"a6peb5shjlxn","school":"Charlotte","address":"9201 University City Blvd","geo_precision":"range","state":"NC"},"type":"Feature","geometry":{"type":"Point","coordinates":[-80.729188,35.302445]}}],"is_temporal":false,"author":{"url":"","metadata":null,"contact_name":null,"contact_address":null,"source":null,"contact_phone":null},"source":"","pagination":{"sort":null,"start":0,"total":33,"limit":1000000},"state":"complete","tags":"","published":"2014-08-14T23:45:03-04:00","id":256477}