{"type":"FeatureCollection","data_type":"Dataset","url_type":null,"permissions":[{"permissions":{"download":true,"view":true},"group_id":"everyone"}],"classification":null,"title":"NewSchoolsLatLong","count":641,"stream_id":256700,"contributor":{"url":"http://geocommons.com/users/43459","name":"ZackRubin"},"data_attributes":null,"calculation_params":null,"icon_link":null,"link":"http://geocommons.com/overlays/256700.json","extent":[-117.896,33.8842,-87.5287,42.0552],"geometry_types":["point"],"unique_name":null,"name":"NewSchoolsLatLong","feature_count":641,"description":"","next_feature":null,"is_raster":false,"short_classification":"Y","stats":{},"features":[{"properties":{"geo_score":0.845,"full name":"Elmer Diaz","id":"a6pjl7p8gn6b","address":"1759 W. Anislie  Chicago IL, 60640","geo_precision":"range"},"type":"Feature","geometry":{"type":"Point","coordinates":[-87.672971,41.971731]}},{"properties":{"geo_score":0.845,"full name":"Berta Diaz","id":"a6pjl7jkq1dk","address":"1759 W. Anislie  Chicago IL, 60640","geo_precision":"range"},"type":"Feature","geometry":{"type":"Point","coordinates":[-87.672971,41.971731]}},{"properties":{"geo_score":0.935,"full name":"Shannon Glinski","id":"a6pjl7w3aqa7","address":"285 N. Columbus Dr.  Chicago IL, 60601","geo_precision":"range"},"type":"Feature","geometry":{"type":"Point","coordinates":[-87.620697,41.886776]}},{"properties":{"geo_score":0.47,"full name":"Ebony Burnside","id":"a6pjl7o3fcqd","address":"400 E. Burnside Suite 3012 Chicago IL, 60601","geo_precision":"street"},"type":"Feature","geometry":{"type":"Point","coordinates":[-87.61672,41.727959]}},{"properties":{"geo_score":1.0,"full name":"Shea Coughlin","id":"a6pjl7vyc628","address":"Chicago IL, 60602","geo_precision":"zip"},"type":"Feature","geometry":{"type":"Point","coordinates":[-87.68732,41.811929]}},{"properties":{"geo_score":0.608,"full name":"Joe Thykattil","id":"a6pjl7tjxv34","address":"10 S. Dearbon  Chicago IL, 60603","geo_precision":"zip"},"type":"Feature","geometry":{"type":"Point","coordinates":[-87.72596,42.055179]}},{"properties":{"geo_score":1.0,"full name":"Malwina Lesna","id":"a6pjl7lw3cc7","address":"Chicago IL, 60603","geo_precision":"zip"},"type":"Feature","geometry":{"type":"Point","coordinates":[-87.72596,42.055179]}},{"properties":{"geo_score":0.873,"full name":"Yvette Dudley","id":"a6pjl7jp80ox","address":"801 S. Plymouth  Chicago IL, 60605","geo_precision":"range"},"type":"Feature","geometry":{"type":"Point","coordinates":[-87.628632,41.872288]}},{"properties":{"geo_score":0.571,"full name":"Javier Haro","id":"a6pjl7j2nwh3","address":"200 S. Wacker Drive 15th Floor Chicago IL, 60606","geo_precision":"range"},"type":"Feature","geometry":{"type":"Point","coordinates":[-87.620804,41.86125]}},{"properties":{"geo_score":0.89,"full name":"Patricia Williams","id":"a6pjl7phgugx","address":"1111 S. Laflin Apt 506  chicago IL, 60607","geo_precision":"range"},"type":"Feature","geometry":{"type":"Point","coordinates":[-87.663973,41.868401]}},{"properties":{"geo_score":0.602,"full name":"Liz Kuhn","id":"a6pjl7r04jzq","address":"1140 West Jackson Blvd  Chicago IL, 60607","geo_precision":"zip"},"type":"Feature","geometry":{"type":"Point","coordinates":[-87.81381,41.928881]}},{"properties":{"geo_score":0.728,"full name":"Ellayne Watson","id":"a6pjl7romjff","address":"933 W Van Buren St, Unit 403  Chicago IL, 60607","geo_precision":"range"},"type":"Feature","geometry":{"type":"Point","coordinates":[-87.651846,41.876526]}},{"properties":{"geo_score":0.786,"full name":"Milton Hall","id":"a6pjl7jplklu","address":"2015 S. Morgan St.  Apt 406 IL, 60608","geo_precision":"range"},"type":"Feature","geometry":{"type":"Point","coordinates":[-87.651407,41.855094]}},{"properties":{"geo_score":0.84,"full name":"Nichole Nash","id":"a6pjl7tieo6n","address":"1040 west 14th street #304  Chicago IL, 60608","geo_precision":"range"},"type":"Feature","geometry":{"type":"Point","coordinates":[-87.652117,41.86354]}},{"properties":{"geo_score":0.906,"full name":"Cesaro Pineda","id":"a6pjl7hft4vd","address":"1134 W. 18th ST  Chicago IL, 60608","geo_precision":"range"},"type":"Feature","geometry":{"type":"Point","coordinates":[-87.654798,41.858056]}},{"properties":{"geo_score":0.863,"full name":"Delette Porter Williams","id":"a6pjl7qrzujh","address":"1237 S. California  Chicago IL, 60608","geo_precision":"range"},"type":"Feature","geometry":{"type":"Point","coordinates":[-87.695721,41.862719]}},{"properties":{"geo_score":0.86,"full name":"Katherine Anderson","id":"a6pjl7hqb5xg","address":"1242 s. Fairfield  CHICAGO IL, 60608","geo_precision":"range"},"type":"Feature","geometry":{"type":"Point","coordinates":[-87.69461,41.863032]}},{"properties":{"geo_score":0.866,"full name":"Christina Cration","id":"a6pjl7j5ikbr","address":"1357 S. Blue Island  Chicago IL, 60608","geo_precision":"range"},"type":"Feature","geometry":{"type":"Point","coordinates":[-87.656106,41.863685]}},{"properties":{"geo_score":0.906,"full name":"Alex Ruiz","id":"a6pjl7w6y35x","address":"1444 W. 18th St.  Chicago IL, 60608","geo_precision":"range"},"type":"Feature","geometry":{"type":"Point","coordinates":[-87.663726,41.85791]}},{"properties":{"geo_score":0.933,"full name":"Alyssa Cardenas","id":"a6pjl7ssq6dj","address":"1527 W. Cullerton St  Chicago IL, 60608","geo_precision":"range"},"type":"Feature","geometry":{"type":"Point","coordinates":[-87.665245,41.855019]}},{"properties":{"geo_score":0.886,"full name":"Guadalupe Moreira","id":"a6pjl7wuuocr","address":"1618 W. 17th Street  Chicago IL, 60608","geo_precision":"range"},"type":"Feature","geometry":{"type":"Point","coordinates":[-87.668678,41.858668]}},{"properties":{"geo_score":0.837,"full name":"Alejandro Celio","id":"a6pjl7tf9bet","address":"1620 W. 21st  cHICAGO IL, 60608","geo_precision":"range"},"type":"Feature","geometry":{"type":"Point","coordinates":[-87.668015,41.853276]}},{"properties":{"geo_score":0.938,"full name":"Omar Hernandez","id":"a6pjl7vab0rk","address":"1736 W. Cermak Rd.  Chicago IL, 60608","geo_precision":"range"},"type":"Feature","geometry":{"type":"Point","coordinates":[-87.670147,41.852336]}},{"properties":{"geo_score":0.853,"full name":"Rolando Mardrid","id":"a6pjl7rlu8nu","address":"1819 S. Ashland  CHICAGO IL, 60608","geo_precision":"range"},"type":"Feature","geometry":{"type":"Point","coordinates":[-87.666056,41.85747]}},{"properties":{"geo_score":0.938,"full name":"Margarita Richardo","id":"a6pjl7k8357n","address":"1821 S. Laflin St  Chicago IL, 60608","geo_precision":"range"},"type":"Feature","geometry":{"type":"Point","coordinates":[-87.663664,41.85708]}},{"properties":{"geo_score":0.906,"full name":"Maura Ramos","id":"a6pjl7xket3p","address":"1837 W. 17th St.  Chicago IL, 60608","geo_precision":"range"},"type":"Feature","geometry":{"type":"Point","coordinates":[-87.672774,41.858542]}},{"properties":{"geo_score":0.906,"full name":"Gabriel Cisneros","id":"a6pjl7lk7fq8","address":"1852 W. 17th St.  Chicago IL, 60608","geo_precision":"range"},"type":"Feature","geometry":{"type":"Point","coordinates":[-87.672479,41.858697]}},{"properties":{"geo_score":0.876,"full name":"Allan Rodriguez","id":"a6pjl7tpw2gb","address":"1903 W. Cullerton  Chicago IL, 60608","geo_precision":"range"},"type":"Feature","geometry":{"type":"Point","coordinates":[-87.675881,41.854853]}},{"properties":{"geo_score":0.876,"full name":"Natalia Rodriguez","id":"a6pjl7pkijse","address":"1912 W. Cullerton  Chicago IL, 60608","geo_precision":"range"},"type":"Feature","geometry":{"type":"Point","coordinates":[-87.675697,41.855005]}},{"properties":{"geo_score":0.89,"full name":"Victor Padillo","id":"a6pjl7xslppr","address":"1914 W. 21st Place  Chicago IL, 60608","geo_precision":"range"},"type":"Feature","geometry":{"type":"Point","coordinates":[-87.675609,41.853175]}},{"properties":{"geo_score":0.906,"full name":"Guillermo Ortega","id":"a6pjl7oluh3p","address":"1951 W. 19th St.  Chicago IL, 60608","geo_precision":"range"},"type":"Feature","geometry":{"type":"Point","coordinates":[-87.674889,41.855776]}},{"properties":{"geo_score":0.906,"full name":"Lilia Avevara","id":"a6pjl7nlifac","address":"2014 W. 19th St.  Chicago IL, 60608","geo_precision":"range"},"type":"Feature","geometry":{"type":"Point","coordinates":[-87.678084,41.855878]}},{"properties":{"geo_score":0.938,"full name":"Odette Ojeda","id":"a6pjl7jdsryk","address":"2015 S. Morgan St.  Chicago IL, 60608","geo_precision":"range"},"type":"Feature","geometry":{"type":"Point","coordinates":[-87.651407,41.855094]}},{"properties":{"geo_score":0.695,"full name":"Guadulupe Rodriguez","id":"a6pjl7nw4u2w","address":"2031 W/ 18th Place  Chicago IL, 60608","geo_precision":"range"},"type":"Feature","geometry":{"type":"Point","coordinates":[-87.677733,41.856653]}},{"properties":{"geo_score":0.886,"full name":"Angelina Rocha","id":"a6pjl7ss1jri","address":"2054 W. 19th Street  Chicago IL, 60608","geo_precision":"range"},"type":"Feature","geometry":{"type":"Point","coordinates":[-87.677266,41.855893]}},{"properties":{"geo_score":0.863,"full name":"Victor Ziynskas","id":"a6pjl7m3nafs","address":"2123 S. California  Chicago IL, 60608","geo_precision":"range"},"type":"Feature","geometry":{"type":"Point","coordinates":[-87.695421,41.85354]}},{"properties":{"geo_score":0.931,"full name":"Victor Zilinskas","id":"a6pjl7qd2r3y","address":"2123 S. California Ave  Chicago IL, 60608","geo_precision":"range"},"type":"Feature","geometry":{"type":"Point","coordinates":[-87.695421,41.85354]}},{"properties":{"geo_score":0.89,"full name":"Jovita Herrera","id":"a6pjl7wfu4br","address":"2216 W. 21st Place  Chicago IL, 60608","geo_precision":"range"},"type":"Feature","geometry":{"type":"Point","coordinates":[-87.682919,41.853057]}},{"properties":{"geo_score":0.89,"full name":"Mario Padilla","id":"a6pjl7n61aui","address":"2221 W. 23rd Place  Chicago IL, 60608","geo_precision":"range"},"type":"Feature","geometry":{"type":"Point","coordinates":[-87.680778,41.849302]}},{"properties":{"geo_score":0.837,"full name":"Patricia Zarate","id":"a6pjl7uils9m","address":"2312 W. 21st  Chicago IL, 60608","geo_precision":"range"},"type":"Feature","geometry":{"type":"Point","coordinates":[-87.684881,41.853042]}},{"properties":{"geo_score":0.876,"full name":"Maria Carranza","id":"a6pjl7na5ooh","address":"2313 W. Cullerton  Chicago IL, 60608","geo_precision":"range"},"type":"Feature","geometry":{"type":"Point","coordinates":[-87.684896,41.854726]}},{"properties":{"geo_score":0.89,"full name":"Virginia Sanchez","id":"a6pjl7uzbejv","address":"2318 W. 22nd Place  Chicago IL, 60608","geo_precision":"range"},"type":"Feature","geometry":{"type":"Point","coordinates":[-87.68473,41.851208]}},{"properties":{"geo_score":0.89,"full name":"George Kozel","id":"a6pjl7jfbjs3","address":"2650 W 12th Place  Chicago IL, 60608","geo_precision":"range"},"type":"Feature","geometry":{"type":"Point","coordinates":[-87.69306,41.865732]}},{"properties":{"geo_score":0.74,"full name":"Jessica Pesola","id":"a6pjl7hxaiar","address":"2852 S. Pitney Court  Chicago IL, 60608","geo_precision":"street"},"type":"Feature","geometry":{"type":"Point","coordinates":[-87.662724,41.83886]}},{"properties":{"geo_score":0.869,"full name":"Paul Carlos","id":"a6pjl7m3m9s9","address":"3420 S Paulina  Chicago IL, 60608","geo_precision":"range"},"type":"Feature","geometry":{"type":"Point","coordinates":[-87.668046,41.831289]}},{"properties":{"geo_score":0.725,"full name":"Angeles Navarro","id":"a6pjl7nlw0c3","address":"4815 S. Honore  Chicago IL, 60608","geo_precision":"range"},"type":"Feature","geometry":{"type":"Point","coordinates":[-87.670881,41.805167]}},{"properties":{"geo_score":0.906,"full name":"Tiffany Paige","id":"a6pjl7nn0z1l","address":"826 W. 19th St  Chicago IL, 60608","geo_precision":"range"},"type":"Feature","geometry":{"type":"Point","coordinates":[-87.646898,41.85681]}},{"properties":{"geo_score":0.857,"full name":"Monique Dunlap","id":"a6pjl7q4z546","address":"IL, 60608","geo_precision":"zip"},"type":"Feature","geometry":{"type":"Point","coordinates":[-87.68732,41.811929]}},{"properties":{"geo_score":0.857,"full name":"Sabine Champagne","id":"a6pjl7tknsq7","address":"IL, 60608","geo_precision":"zip"},"type":"Feature","geometry":{"type":"Point","coordinates":[-87.68732,41.811929]}},{"properties":{"geo_score":0.89,"full name":"Shirley Washington","id":"a6pjl7tzpslr","address":"2042 West 53rd Place  Chicago IL, 60609","geo_precision":"range"},"type":"Feature","geometry":{"type":"Point","coordinates":[-87.676081,41.796718]}},{"properties":{"geo_score":0.681,"full name":"Gaspar Soto","id":"a6pjl7s0y4ta","address":"3654 S. Hermitage  Chicago IL, 60609","geo_precision":"street"},"type":"Feature","geometry":{"type":"Point","coordinates":[-87.669153,41.822362]}},{"properties":{"geo_score":0.86,"full name":"S. Elizabeth Adams","id":"a6pjl7iguxuo","address":"4018 S. State  Chicago IL, 60609","geo_precision":"range"},"type":"Feature","geometry":{"type":"Point","coordinates":[-87.626504,41.823579]}},{"properties":{"geo_score":0.887,"full name":"Elizabeth Shavers-Adams","id":"a6pjl7qtzuih","address":"4018 S. State St. #1-N  Chicago IL, 60609","geo_precision":"range"},"type":"Feature","geometry":{"type":"Point","coordinates":[-87.626504,41.823579]}},{"properties":{"geo_score":0.86,"full name":"Jaida Mitchell","id":"a6pjl7qbt8ag","address":"4201 S. Princeton  CHICAGO IL, 60609","geo_precision":"range"},"type":"Feature","geometry":{"type":"Point","coordinates":[-87.633522,41.818015]}},{"properties":{"geo_score":0.86,"full name":"Theo Williams","id":"a6pjl7ntsmpt","address":"4425 S Wells  Chicago IL, 60609","geo_precision":"range"},"type":"Feature","geometry":{"type":"Point","coordinates":[-87.632263,41.815463]}},{"properties":{"geo_score":0.937,"full name":"Juana Montano","id":"a6pjl7j7yhr9","address":"4836 S Justine St  CHICAGO IL, 60609","geo_precision":"range"},"type":"Feature","geometry":{"type":"Point","coordinates":[-87.663733,41.80509]}},{"properties":{"geo_score":0.853,"full name":"Martinez","id":"a6pjl7vofkp4","address":"5147 S. Western  Chicago IL, 60609","geo_precision":"range"},"type":"Feature","geometry":{"type":"Point","coordinates":[-87.684127,41.800385]}},{"properties":{"geo_score":0.853,"full name":"Rita Varela","id":"a6pjl7vssqu6","address":"5147 S. Western  Chicago IL, 60609","geo_precision":"range"},"type":"Feature","geometry":{"type":"Point","coordinates":[-87.684127,41.800385]}},{"properties":{"geo_score":0.853,"full name":"Rita Varell","id":"a6pjl7prsgaj","address":"5147 S. Western  Chicago IL, 60609","geo_precision":"range"},"type":"Feature","geometry":{"type":"Point","coordinates":[-87.684127,41.800385]}},{"properties":{"geo_score":0.933,"full name":"Marco Martinez","id":"a6pjl7nylvog","address":"5147 S. Western Blvd.  Chicago IL, 60609","geo_precision":"range"},"type":"Feature","geometry":{"type":"Point","coordinates":[-87.683533,41.799037]}},{"properties":{"geo_score":0.753,"full name":"Hurdistine Washington","id":"a6pjl7p2ws9t","address":"5333 S. Damen  Chicago IL, 60609","geo_precision":"street"},"type":"Feature","geometry":{"type":"Point","coordinates":[-87.674692,41.810332]}},{"properties":{"geo_score":0.665,"full name":"Patricia Porter","id":"a6pjl7qsy986","address":"7321 S. Green  Chicago IL, 60609","geo_precision":"street"},"type":"Feature","geometry":{"type":"Point","coordinates":[-87.646517,41.799761]}},{"properties":{"geo_score":0.857,"full name":"Tonya Griffis","id":"a6pjl7lu2ime","address":"IL, 60609","geo_precision":"zip"},"type":"Feature","geometry":{"type":"Point","coordinates":[-87.68732,41.811929]}},{"properties":{"geo_score":0.607,"full name":"Patricia Key","id":"a6pjl7lcnlj1","address":"3008 W. Jackson  Chicago IL, 60610","geo_precision":"zip"},"type":"Feature","geometry":{"type":"Point","coordinates":[-87.68732,41.811929]}},{"properties":{"geo_score":0.715,"full name":"Max Martinez","id":"a6pjl7mht2np","address":"5147 S. Western  Chicago IL, 60610","geo_precision":"range"},"type":"Feature","geometry":{"type":"Point","coordinates":[-87.684127,41.800385]}},{"properties":{"geo_score":0.872,"full name":"Jessica Lyons","id":"a6pjl7vteucc","address":"1007 N. Rush St. Apt 3R Chicago IL, 60611","geo_precision":"range"},"type":"Feature","geometry":{"type":"Point","coordinates":[-87.627732,41.901388]}},{"properties":{"geo_score":0.857,"full name":"english test","id":"a6pjl7r8dlx3","address":"IL, 60611","geo_precision":"zip"},"type":"Feature","geometry":{"type":"Point","coordinates":[-87.68732,41.811929]}},{"properties":{"geo_score":0.857,"full name":"test test","id":"a6pjl7k7nydo","address":"IL, 60611","geo_precision":"zip"},"type":"Feature","geometry":{"type":"Point","coordinates":[-87.68732,41.811929]}},{"properties":{"geo_score":0.857,"full name":"No Overwrite","id":"a6pjl7ig5ooa","address":"IL, 60611","geo_precision":"zip"},"type":"Feature","geometry":{"type":"Point","coordinates":[-87.68732,41.811929]}},{"properties":{"geo_score":0.854,"full name":"gladis Franklin","id":"a6pjl7qvgamk","address":"1900 W. Polk  Chicago IL, 60612","geo_precision":"range"},"type":"Feature","geometry":{"type":"Point","coordinates":[-87.674897,41.8715]}},{"properties":{"geo_score":0.935,"full name":"Latoya Bell","id":"a6pjl7me0ga0","address":"2113A W. Maypole Ave  Chicago IL, 60612","geo_precision":"range"},"type":"Feature","geometry":{"type":"Point","coordinates":[-87.679796,41.88386]}},{"properties":{"geo_score":0.607,"full name":"Shawanda Terry","id":"a6pjl7qergt8","address":"2128 w jackson  Chicago IL, 60612","geo_precision":"zip"},"type":"Feature","geometry":{"type":"Point","coordinates":[-87.68732,41.811929]}},{"properties":{"geo_score":0.93,"full name":"Andrea Collins","id":"a6pjl7n1ev4w","address":"2330 W Washington Blvd  Chicago IL, 60612","geo_precision":"range"},"type":"Feature","geometry":{"type":"Point","coordinates":[-87.685796,41.883075]}},{"properties":{"geo_score":0.927,"full name":"Cynthia Bettcher","id":"a6pjl7pey9ik","address":"2350 W. Ohio Street 2M Chicago IL, 60612","geo_precision":"range"},"type":"Feature","geometry":{"type":"Point","coordinates":[-87.686195,41.892117]}},{"properties":{"geo_score":0.684,"full name":"Diane Grissett","id":"a6pjl7nhehcb","address":"2750 W. Roosevelt  Chicago IL, 60612","geo_precision":"street"},"type":"Feature","geometry":{"type":"Point","coordinates":[-87.697128,41.866496]}},{"properties":{"geo_score":0.935,"full name":"Melitza Adames","id":"a6pjl7rzhx8x","address":"3007 W. Polk Street  Chicago IL, 60612","geo_precision":"range"},"type":"Feature","geometry":{"type":"Point","coordinates":[-87.703263,41.870908]}},{"properties":{"geo_score":0.914,"full name":"Loraine Bravo","id":"a6pjl7t91l4w","address":"3140 W. Fillmore Unit #3  Chicago IL, 60612","geo_precision":"range"},"type":"Feature","geometry":{"type":"Point","coordinates":[-87.705369,41.868304]}},{"properties":{"geo_score":0.857,"full name":"Dache Mann","id":"a6pjl7my4fc0","address":"IL, 60613","geo_precision":"zip"},"type":"Feature","geometry":{"type":"Point","coordinates":[-87.68732,41.811929]}},{"properties":{"geo_score":0.927,"full name":"Grace Thornton","id":"a6pjl7hz374a","address":"2616 N. Hampden CT #307  Chicago IL, 60614","geo_precision":"range"},"type":"Feature","geometry":{"type":"Point","coordinates":[-87.641052,41.929672]}},{"properties":{"geo_score":0.857,"full name":"Cuz Chews","id":"a6pjl7ht5odl","address":"IL, 60614","geo_precision":"zip"},"type":"Feature","geometry":{"type":"Point","coordinates":[-87.68732,41.811929]}},{"properties":{"geo_score":0.607,"full name":"Karen Stark","id":"a6pjl7o21avl","address":"4815 S. Drexel  Chicago IL, 60615","geo_precision":"zip"},"type":"Feature","geometry":{"type":"Point","coordinates":[-87.68732,41.811929]}},{"properties":{"geo_score":0.937,"full name":"Amy Zwart","id":"a6pjl7x271n6","address":"5419 S. Harper Ave  Chicago IL, 60615","geo_precision":"range"},"type":"Feature","geometry":{"type":"Point","coordinates":[-87.588964,41.797133]}},{"properties":{"geo_score":0.665,"full name":"Mildred Andrews","id":"a6pjl7hhvphk","address":"6542 S. Ingleside  Chicago IL, 60615","geo_precision":"street"},"type":"Feature","geometry":{"type":"Point","coordinates":[-87.603088,41.791371]}},{"properties":{"geo_score":0.853,"full name":"MICHAEL GARDNER","id":"a6pjl7tmx8l5","address":"3127 S INDIANA  CHICAGO IL, 60616","geo_precision":"range"},"type":"Feature","geometry":{"type":"Point","coordinates":[-87.621815,41.837025]}},{"properties":{"geo_score":0.897,"full name":"Raymond Morgan Jr","id":"a6pjl7qc7h65","address":"3245 S. Prairie apt 527  Chicago IL, 60616","geo_precision":"range"},"type":"Feature","geometry":{"type":"Point","coordinates":[-87.62055,41.83495]}},{"properties":{"geo_score":0.897,"full name":"Raymond Morgan. Jr","id":"a6pjl7sraz09","address":"3245 S. Prairie. Apt. 527  Chicago IL, 60616","geo_precision":"range"},"type":"Feature","geometry":{"type":"Point","coordinates":[-87.62055,41.83495]}},{"properties":{"geo_score":0.866,"full name":"Mikaila McGruder","id":"a6pjl7maq5mu","address":"10014 s luella  Chicago IL, 60617","geo_precision":"range"},"type":"Feature","geometry":{"type":"Point","coordinates":[-87.568285,41.71331]}},{"properties":{"geo_score":0.87,"full name":"Tiwanna Willingham","id":"a6pjl7x5kbgw","address":"10607 S Oglesby  CHICAGO IL, 60617","geo_precision":"range"},"type":"Feature","geometry":{"type":"Point","coordinates":[-87.56538,41.701381]}},{"properties":{"geo_score":0.897,"full name":"Winnona Davis","id":"a6pjl7xo6q2e","address":"1721 E. 86th Place  Chicago IL, 60617","geo_precision":"range"},"type":"Feature","geometry":{"type":"Point","coordinates":[-87.581031,41.737813]}},{"properties":{"geo_score":0.9,"full name":"Jewel Moore","id":"a6pjl7oj6r86","address":"1721 East 92nd Street  Chicago IL, 60617","geo_precision":"range"},"type":"Feature","geometry":{"type":"Point","coordinates":[-87.5813,41.727785]}},{"properties":{"geo_score":0.897,"full name":"Danielle Byndom","id":"a6pjl7jucbvj","address":"3048 E. 79th Place  Chicago IL, 60617","geo_precision":"range"},"type":"Feature","geometry":{"type":"Point","coordinates":[-87.550198,41.751111]}},{"properties":{"geo_score":0.944,"full name":"Lanisha Smith- Stewart","id":"a6pjl7mbqx8r","address":"7952 s chappel ave  Chicago IL, 60617","geo_precision":"range"},"type":"Feature","geometry":{"type":"Point","coordinates":[-87.574815,41.750295]}},{"properties":{"geo_score":0.866,"full name":"Danyelle Kennedy","id":"a6pjl7x846r6","address":"8034 S. Luella  Chicago IL, 60617","geo_precision":"range"},"type":"Feature","geometry":{"type":"Point","coordinates":[-87.569911,41.748675]}},{"properties":{"geo_score":0.955,"full name":"Alberta Edwards","id":"a6pjl7m381jy","address":"8223 S. Clyde Ave 1 south  Chicago IL, 60617","geo_precision":"range"},"type":"Feature","geometry":{"type":"Point","coordinates":[-87.573358,41.745237]}},{"properties":{"geo_score":0.81,"full name":"Kathy Watson","id":"a6pjl7onvp55","address":"8249 S. East End  CHICAGO IL, 60617","geo_precision":"range"},"type":"Feature","geometry":{"type":"Point","coordinates":[-87.582854,41.745132]}},{"properties":{"geo_score":0.886,"full name":"shapree mallory","id":"a6pjl7txkohl","address":"8354 Muskeegon Ave.  Chicago IL, 60617","geo_precision":"range"},"type":"Feature","geometry":{"type":"Point","coordinates":[-87.555251,41.743467]}},{"properties":{"geo_score":0.77,"full name":"Joy Taylor","id":"a6pjl7wnjbgg","address":"8419 S Escanaba  Chicago , 60617","geo_precision":"range"},"type":"Feature","geometry":{"type":"Point","coordinates":[-87.553856,41.741324]}},{"properties":{"geo_score":0.949,"full name":"Margie Smith","id":"a6pjl7o61sjp","address":"8638 S Marquette Ave  Chicago IL, 60617","geo_precision":"range"},"type":"Feature","geometry":{"type":"Point","coordinates":[-87.558804,41.737993]}},{"properties":{"geo_score":0.881,"full name":"Wanda Martin","id":"a6pjl7xemru1","address":"8802 S. Constance  Chicago IL, 60617","geo_precision":"range"},"type":"Feature","geometry":{"type":"Point","coordinates":[-87.579351,41.733393]}},{"properties":{"geo_score":0.615,"full name":"Jason Hinton","id":"a6pjl7ndlkfr","address":"8910 s brand  Chicago IL, 60617","geo_precision":"zip"},"type":"Feature","geometry":{"type":"Point","coordinates":[-87.536434,41.722813]}},{"properties":{"geo_score":0.884,"full name":"Ken Ford","id":"a6pjl7xgmxed","address":"9200 S. East End Ave.  Chicago IL, 60617","geo_precision":"range"},"type":"Feature","geometry":{"type":"Point","coordinates":[-87.582662,41.727395]}},{"properties":{"geo_score":0.615,"full name":"Willa Martinez","id":"a6pjl7i40aa6","address":"9235 S. Marister  Chicago IL, 60617","geo_precision":"zip"},"type":"Feature","geometry":{"type":"Point","coordinates":[-87.536434,41.722813]}},{"properties":{"geo_score":0.868,"full name":"Becky Bronson Pettway","id":"a6pjl7ozizh8","address":"IL, 60617","geo_precision":"zip"},"type":"Feature","geometry":{"type":"Point","coordinates":[-87.536434,41.722813]}},{"properties":{"geo_score":0.854,"full name":"Maria Jerez","id":"a6pjl7m78h2a","address":"3633 N. Troy  Chicago IL, 60618","geo_precision":"range"},"type":"Feature","geometry":{"type":"Point","coordinates":[-87.706569,41.948281]}},{"properties":{"geo_score":0.865,"full name":"Norman Livingston","id":"a6pjl7nlgh3p","address":"3737 N. Mozart  Chicago IL, 60618","geo_precision":"range"},"type":"Feature","geometry":{"type":"Point","coordinates":[-87.699266,41.949652]}},{"properties":{"geo_score":0.868,"full name":"Liliana Velez","id":"a6pjl7u8ah8f","address":"4146 N. Central Park  Chicago IL, 60618","geo_precision":"range"},"type":"Feature","geometry":{"type":"Point","coordinates":[-87.717976,41.956573]}},{"properties":{"geo_score":0.857,"full name":"Shekinah Horton","id":"a6pjl7ltp6a5","address":"IL, 60618","geo_precision":"zip"},"type":"Feature","geometry":{"type":"Point","coordinates":[-87.68732,41.811929]}},{"properties":{"geo_score":0.739,"full name":"David Whitaker","id":"a6pjl7mnz9s3","address":"10425 S. State Street  Chicago IL, 60619","geo_precision":"street"},"type":"Feature","geometry":{"type":"Point","coordinates":[-87.623778,41.723555]}},{"properties":{"geo_score":0.906,"full name":"Lesha Ansari-Justin","id":"a6pjl7j89v9g","address":"1518 E. 76TH Pl.  Chicago IL, 60619","geo_precision":"range"},"type":"Feature","geometry":{"type":"Point","coordinates":[-87.58703,41.756086]}},{"properties":{"geo_score":0.833,"full name":"Cooper Lester","id":"a6pjl7vrp3br","address":"253 E. 79th St. Apt. 2B  Chicago IL, 60619","geo_precision":"range"},"type":"Feature","geometry":{"type":"Point","coordinates":[-87.618873,41.750972]}},{"properties":{"geo_score":0.817,"full name":"Ethrophic Bryant","id":"a6pjl7r66d0y","address":"302 E. 81st St. 1st floor  Chicago IL, 60619","geo_precision":"range"},"type":"Feature","geometry":{"type":"Point","coordinates":[-87.61731,41.747497]}},{"properties":{"geo_score":0.837,"full name":"Christopher Moore","id":"a6pjl7u3tw4f","address":"618 E. 81st  Chicago IL, 60619","geo_precision":"range"},"type":"Feature","geometry":{"type":"Point","coordinates":[-87.608846,41.747639]}},{"properties":{"geo_score":0.886,"full name":"Jade Lindsay","id":"a6pjl7shpwh2","address":"618 E. 81st. Street  Chicago IL, 60619","geo_precision":"range"},"type":"Feature","geometry":{"type":"Point","coordinates":[-87.608846,41.747639]}},{"properties":{"geo_score":0.607,"full name":"Stephanie Davis","id":"a6pjl7tyxpiu","address":"7122 S. Drexel  Chicago IL, 60619","geo_precision":"zip"},"type":"Feature","geometry":{"type":"Point","coordinates":[-87.68732,41.811929]}},{"properties":{"geo_score":0.937,"full name":"Connie Jones","id":"a6pjl7ilzvvz","address":"7159 S. Wabash Ave  Chicago IL, 60619","geo_precision":"range"},"type":"Feature","geometry":{"type":"Point","coordinates":[-87.623205,41.764802]}},{"properties":{"geo_score":0.892,"full name":"Connie Jones","id":"a6pjl7pdh84s","address":"7159 Wabash Ave.  Chicago IL, 60619","geo_precision":"range"},"type":"Feature","geometry":{"type":"Point","coordinates":[-87.623205,41.764802]}},{"properties":{"geo_score":0.848,"full name":"Jeremy Rich","id":"a6pjl7wavlfu","address":"7254 S. Vernon  Chicago IL, 60619","geo_precision":"range"},"type":"Feature","geometry":{"type":"Point","coordinates":[-87.614058,41.763085]}},{"properties":{"geo_score":0.89,"full name":"Stacey Ware","id":"a6pjl7x5k5w3","address":"749 E. 84th Place  Chicago IL, 60619","geo_precision":"range"},"type":"Feature","geometry":{"type":"Point","coordinates":[-87.605635,41.740987]}},{"properties":{"geo_score":0.848,"full name":"David Benefield","id":"a6pjl7xn6uw9","address":"7823 S. Rhodes  Chicago IL, 60619","geo_precision":"range"},"type":"Feature","geometry":{"type":"Point","coordinates":[-87.611228,41.75159]}},{"properties":{"geo_score":0.547,"full name":"Norencia Neal","id":"a6pjl7j3ognj","address":"7954 S. Marquette  Chicago IL, 60619","geo_precision":"street"},"type":"Feature","geometry":{"type":"Point","coordinates":[-87.613067,41.773468]}},{"properties":{"geo_score":0.853,"full name":"Anelle Anderson","id":"a6pjl7xk1750","address":"8141 S. Prairie  Chicago IL, 60619","geo_precision":"range"},"type":"Feature","geometry":{"type":"Point","coordinates":[-87.618055,41.747412]}},{"properties":{"geo_score":0.848,"full name":"Deshon Allen","id":"a6pjl7mr1dub","address":"8832 S. Harper  Chicago IL, 60619","geo_precision":"range"},"type":"Feature","geometry":{"type":"Point","coordinates":[-87.586924,41.733846]}},{"properties":{"geo_score":0.925,"full name":"Janice Perkin","id":"a6pjl7w27z5o","address":"8940 South Greenwood Avenue  Chicago IL, 60619","geo_precision":"range"},"type":"Feature","geometry":{"type":"Point","coordinates":[-87.59752,41.732465]}},{"properties":{"geo_score":0.697,"full name":"Monique Whittington","id":"a6pjl7k20yqo","address":"901 E. 95th Street  Chicago IL, 60619","geo_precision":"street"},"type":"Feature","geometry":{"type":"Point","coordinates":[-87.598975,41.722138]}},{"properties":{"geo_score":0.842,"full name":"Adeoye Adeyemo","id":"a6pjl7s4qqwh","address":"9119 s. Dante  Chicago IL, 60619","geo_precision":"range"},"type":"Feature","geometry":{"type":"Point","coordinates":[-87.58911,41.729433]}},{"properties":{"geo_score":0.848,"full name":"Adam Robertson","id":"a6pjl7kkzasm","address":"9246 s wabash  Chicago IL, 60619","geo_precision":"range"},"type":"Feature","geometry":{"type":"Point","coordinates":[-87.622397,41.726267]}},{"properties":{"geo_score":0.906,"full name":"Karen Bozeman-Gross","id":"a6pjl7rgzodz","address":"1323 e 72nd st  Chicago IL, 60619","geo_precision":"range"},"type":"Feature","geometry":{"type":"Point","coordinates":[-87.592843,41.764107]}},{"properties":{"geo_score":0.712,"full name":"Angelo Grant","id":"a6pjl7v0dpql","address":"1135 W. Ardmore Ave. Apt 3  Chicago IL, 60620","geo_precision":"range"},"type":"Feature","geometry":{"type":"Point","coordinates":[-87.659218,41.987212]}},{"properties":{"geo_score":0.84,"full name":"April Lawson","id":"a6pjl7vceog9","address":"1230 W. 76th Street #156  Chicago IL, 60620","geo_precision":"range"},"type":"Feature","geometry":{"type":"Point","coordinates":[-87.658182,41.755969]}},{"properties":{"geo_score":0.824,"full name":"Michael Nichols","id":"a6pjl7wb8hu6","address":"1639 W 83rd St Apt 208  CHICAGO IL, 60620","geo_precision":"range"},"type":"Feature","geometry":{"type":"Point","coordinates":[-87.664955,41.742974]}},{"properties":{"geo_score":0.906,"full name":"Dionne Davis","id":"a6pjl7snobj0","address":"1911 W 83rd St  Chicago IL, 60620","geo_precision":"range"},"type":"Feature","geometry":{"type":"Point","coordinates":[-87.671362,41.74289]}},{"properties":{"geo_score":0.546,"full name":"Lyle Montgomery","id":"a6pjl7mvmv8j","address":"2008 W. 95th Place  Chicago IL, 60620","geo_precision":"street"},"type":"Feature","geometry":{"type":"Point","coordinates":[-87.666406,41.720286]}},{"properties":{"geo_score":0.906,"full name":"Terrell Maybon","id":"a6pjl7ky2z9k","address":"2019 W. 75th Pl.  Chicago IL, 60620","geo_precision":"range"},"type":"Feature","geometry":{"type":"Point","coordinates":[-87.675491,41.75689]}},{"properties":{"geo_score":0.886,"full name":"Mary Cooper","id":"a6pjl7vs373u","address":"2224 W. 80th Street  Chicago IL, 60620","geo_precision":"range"},"type":"Feature","geometry":{"type":"Point","coordinates":[-87.680375,41.7484]}},{"properties":{"geo_score":0.886,"full name":"Rosemary Vaughn","id":"a6pjl7mmqvw8","address":"336 W 91st Street  CHICAGO IL, 60620","geo_precision":"range"},"type":"Feature","geometry":{"type":"Point","coordinates":[-87.632517,41.728968]}},{"properties":{"geo_score":0.866,"full name":"Crystal Stevenson","id":"a6pjl7xrjtcj","address":"7722 south Sangamon  Chicago IL, 60620","geo_precision":"range"},"type":"Feature","geometry":{"type":"Point","coordinates":[-87.647812,41.752814]}},{"properties":{"geo_score":0.853,"full name":"Julius White","id":"a6pjl7klsus1","address":"7750 S. Emerald  Chicago IL, 60620","geo_precision":"range"},"type":"Feature","geometry":{"type":"Point","coordinates":[-87.642963,41.753393]}},{"properties":{"geo_score":0.832,"full name":"Billy Shaw","id":"a6pjl7mty2rc","address":"7832 South Morgan Street Bsmt  Chicago IL, 60620","geo_precision":"range"},"type":"Feature","geometry":{"type":"Point","coordinates":[-87.648988,41.751568]}},{"properties":{"geo_score":0.935,"full name":"Tasha Holloway","id":"a6pjl7pziiq8","address":"7838 S. Aberdeen St.  Chicago IL, 60620","geo_precision":"range"},"type":"Feature","geometry":{"type":"Point","coordinates":[-87.651414,41.751644]}},{"properties":{"geo_score":0.935,"full name":"Cheryl Sullivan","id":"a6pjl7nxjyq4","address":"8012 S Aberdeen St  Chicago IL, 60620","geo_precision":"range"},"type":"Feature","geometry":{"type":"Point","coordinates":[-87.651294,41.747112]}},{"properties":{"geo_score":0.935,"full name":"Danielle Stokes","id":"a6pjl7qch6od","address":"8137 S Sangamon St  chicago IL, 60620","geo_precision":"range"},"type":"Feature","geometry":{"type":"Point","coordinates":[-87.647465,41.745795]}},{"properties":{"geo_score":0.865,"full name":"James Fifer","id":"a6pjl7w5pzf1","address":"8215 S. Morgan  Chicago IL, 60620","geo_precision":"range"},"type":"Feature","geometry":{"type":"Point","coordinates":[-87.648616,41.743549]}},{"properties":{"geo_score":0.938,"full name":"Anyika Gentry","id":"a6pjl7rm06db","address":"8358 S Throop St  CHICAGO IL, 60620","geo_precision":"range"},"type":"Feature","geometry":{"type":"Point","coordinates":[-87.65602,41.742432]}},{"properties":{"geo_score":0.876,"full name":"Shane Calvin","id":"a6pjl7s9bae5","address":"8426 S. Elizabeth  Chicago IL, 60620","geo_precision":"range"},"type":"Feature","geometry":{"type":"Point","coordinates":[-87.654742,41.740037]}},{"properties":{"geo_score":0.955,"full name":"Nicole HOARD","id":"a6pjl7i2u1mk","address":"8430 S PARNELL A4  Chicago IL, 60620","geo_precision":"range"},"type":"Feature","geometry":{"type":"Point","coordinates":[-87.637746,41.740128]}},{"properties":{"geo_score":0.853,"full name":"Nicole Huard","id":"a6pjl7wmu9au","address":"8430 S. Parnell  Chicago IL, 60620","geo_precision":"range"},"type":"Feature","geometry":{"type":"Point","coordinates":[-87.637746,41.740128]}},{"properties":{"geo_score":0.932,"full name":"Nakia Akins","id":"a6pjl7q8ss8i","address":"8449 S. Gilbert Court  Chicago IL, 60620","geo_precision":"range"},"type":"Feature","geometry":{"type":"Point","coordinates":[-87.641654,41.739519]}},{"properties":{"geo_score":0.945,"full name":"Shaneka Page","id":"a6pjl7lqf2gw","address":"8516 S Ada St  Chicago IL, 60620","geo_precision":"range"},"type":"Feature","geometry":{"type":"Point","coordinates":[-87.657117,41.737997]}},{"properties":{"geo_score":0.842,"full name":"Willie Griffin","id":"a6pjl7ojwv16","address":"8637 S. Union  Chicago IL, 60620","geo_precision":"range"},"type":"Feature","geometry":{"type":"Point","coordinates":[-87.641143,41.737441]}},{"properties":{"geo_score":0.935,"full name":"Jeffrie Baker","id":"a6pjl7oh17fs","address":"8802 S. Emerald Ave  Chicago IL, 60620","geo_precision":"range"},"type":"Feature","geometry":{"type":"Point","coordinates":[-87.642378,41.732591]}},{"properties":{"geo_score":0.842,"full name":"Tamelka Bradley","id":"a6pjl7lh3326","address":"8834 S. Union  chicago IL, 60620","geo_precision":"range"},"type":"Feature","geometry":{"type":"Point","coordinates":[-87.641176,41.733175]}},{"properties":{"geo_score":0.842,"full name":"Tameika Bradley","id":"a6pjl7qcpajw","address":"8834 S. Union  Chicago IL, 60620","geo_precision":"range"},"type":"Feature","geometry":{"type":"Point","coordinates":[-87.641176,41.733175]}},{"properties":{"geo_score":0.606,"full name":"Quinn Walter","id":"a6pjl7tgwbsu","address":"8922 S. Lofin St.  Chicago IL, 60620","geo_precision":"zip"},"type":"Feature","geometry":{"type":"Point","coordinates":[-87.68732,41.811929]}},{"properties":{"geo_score":0.675,"full name":"Krystal Dixon","id":"a6pjl7j6oely","address":"9343 S. LaSalle  Chicago IL, 60620","geo_precision":"street"},"type":"Feature","geometry":{"type":"Point","coordinates":[-87.626091,41.739968]}},{"properties":{"geo_score":0.673,"full name":"Krystal Dixon","id":"a6pjl7hwpua5","address":"9349 S LaSalle Ave  Chicago IL, 60620","geo_precision":"street"},"type":"Feature","geometry":{"type":"Point","coordinates":[-87.626091,41.739968]}},{"properties":{"geo_score":0.865,"full name":"Brenda Myles","id":"a6pjl7k5r0e2","address":"9401 s. Morgan  Chicago IL, 60620","geo_precision":"range"},"type":"Feature","geometry":{"type":"Point","coordinates":[-87.648091,41.721902]}},{"properties":{"geo_score":0.865,"full name":"Brenda Myles","id":"a6pjl7i7r9f3","address":"9401 S. Morgan  Chicago IL, 60620","geo_precision":"range"},"type":"Feature","geometry":{"type":"Point","coordinates":[-87.648091,41.721902]}},{"properties":{"geo_score":0.865,"full name":"Tobie Myles","id":"a6pjl7x783nz","address":"9401 S. Morgan  Chicago IL, 60620","geo_precision":"range"},"type":"Feature","geometry":{"type":"Point","coordinates":[-87.648091,41.721902]}},{"properties":{"geo_score":0.865,"full name":"Brenda Myles","id":"a6pjl7wrl3ch","address":"9401 S. Morgan  Chicago IL, 60620","geo_precision":"range"},"type":"Feature","geometry":{"type":"Point","coordinates":[-87.648091,41.721902]}},{"properties":{"geo_score":0.74,"full name":"Germika Anderson","id":"a6pjl7na5z4z","address":"945 W. &amp; 78th Suite 3  Chicago IL, 60620","geo_precision":"range"},"type":"Feature","geometry":{"type":"Point","coordinates":[-87.648146,41.752327]}},{"properties":{"geo_score":0.886,"full name":"deborah Payne","id":"a6pjl7val43k","address":"424 west 57th street  chicago IL, 60621","geo_precision":"range"},"type":"Feature","geometry":{"type":"Point","coordinates":[-87.637238,41.790877]}},{"properties":{"geo_score":0.893,"full name":"janis black","id":"a6pjl7nsj3mu","address":"435 W Marquette # c Chicago IL, 60621","geo_precision":"range"},"type":"Feature","geometry":{"type":"Point","coordinates":[-87.636188,41.772536]}},{"properties":{"geo_score":0.842,"full name":"Yvonne Milons","id":"a6pjl7jnig8e","address":"5643 s union  Chicago IL, 60621","geo_precision":"range"},"type":"Feature","geometry":{"type":"Point","coordinates":[-87.642574,41.79148]}},{"properties":{"geo_score":0.86,"full name":"Regeana Jones","id":"a6pjl7hpti77","address":"5717 S. Princeton  Chicago IL, 60621","geo_precision":"range"},"type":"Feature","geometry":{"type":"Point","coordinates":[-87.632778,41.789181]}},{"properties":{"geo_score":0.86,"full name":"Joel Smith","id":"a6pjl7uzlev3","address":"5717 S. Princeton  Chicago IL, 60621","geo_precision":"range"},"type":"Feature","geometry":{"type":"Point","coordinates":[-87.632778,41.789181]}},{"properties":{"geo_score":0.935,"full name":"Estella Holloway","id":"a6pjl7r5udyz","address":"6547 S. Normal Blvd.  Chicago IL, 60621","geo_precision":"range"},"type":"Feature","geometry":{"type":"Point","coordinates":[-87.636778,41.774428]}},{"properties":{"geo_score":0.875,"full name":"Brenda Smith","id":"a6pjl7pelccc","address":"6565 s yale apt 607  Chicago IL, 60621","geo_precision":"range"},"type":"Feature","geometry":{"type":"Point","coordinates":[-87.631628,41.775854]}},{"properties":{"geo_score":0.93,"full name":"Janisse Norman","id":"a6pjl8abusz6","address":"6720 South Stewart Ave  Chicago IL, 60621","geo_precision":"range"},"type":"Feature","geometry":{"type":"Point","coordinates":[-87.634822,41.771457]}},{"properties":{"geo_score":0.845,"full name":"Debra Reynolds","id":"a6pjl8303iv3","address":"6842 S May  Chicago IL, 60621","geo_precision":"range"},"type":"Feature","geometry":{"type":"Point","coordinates":[-87.653092,41.76949]}},{"properties":{"geo_score":0.675,"full name":"Pamela Steward","id":"a6pjl8bsxkkj","address":"7030 S. Emerald  Chicago IL, 60621","geo_precision":"street"},"type":"Feature","geometry":{"type":"Point","coordinates":[-87.643653,41.779768]}},{"properties":{"geo_score":0.675,"full name":"Dennis Nash","id":"a6pjl85sg5l0","address":"7030 S. Emerald  Chicago IL, 60621","geo_precision":"street"},"type":"Feature","geometry":{"type":"Point","coordinates":[-87.643653,41.779768]}},{"properties":{"geo_score":0.602,"full name":"Lynn Williams","id":"a6pjl80n9uag","address":"7230 S. Wenthworth Apt 2R Chicago IL, 60621","geo_precision":"zip"},"type":"Feature","geometry":{"type":"Point","coordinates":[-87.68732,41.811929]}},{"properties":{"geo_score":0.359,"full name":"Bentu Antumsu","id":"a6pjl7ywiapm","address":"7321 S.  Chicago IL, 60621","geo_precision":"street"},"type":"Feature","geometry":{"type":"Point","coordinates":[-87.538915,41.721298]}},{"properties":{"geo_score":0.86,"full name":"Nesha Jones","id":"a6pjl7zsipjf","address":"7321 S. Green  Chicago IL, 60621","geo_precision":"range"},"type":"Feature","geometry":{"type":"Point","coordinates":[-87.645419,41.760097]}},{"properties":{"geo_score":0.86,"full name":"Patricia Porter","id":"a6pjl8edvfky","address":"7321 S. Green  Chicago IL, 60621","geo_precision":"range"},"type":"Feature","geometry":{"type":"Point","coordinates":[-87.645419,41.760097]}},{"properties":{"geo_score":0.86,"full name":"Porter Raymond","id":"a6pjl852njut","address":"7321 S. Green  Chicago IL, 60621","geo_precision":"range"},"type":"Feature","geometry":{"type":"Point","coordinates":[-87.645419,41.760097]}},{"properties":{"geo_score":0.94,"full name":"Tearra Betts-Montgomery","id":"a6pjl88rw9mc","address":"7322 S. Green St.  Chicago IL, 60621","geo_precision":"range"},"type":"Feature","geometry":{"type":"Point","coordinates":[-87.64557,41.760131]}},{"properties":{"geo_score":0.876,"full name":"Essence Cherry","id":"a6pjl84vyxz2","address":"7323 S. Carpenter  Chicago IL, 60621","geo_precision":"range"},"type":"Feature","geometry":{"type":"Point","coordinates":[-87.650273,41.76006]}},{"properties":{"geo_score":0.842,"full name":"Marsha Washington","id":"a6pjl85rmfv2","address":"7416 S. Union  Chicago IL, 60621","geo_precision":"range"},"type":"Feature","geometry":{"type":"Point","coordinates":[-87.641884,41.758714]}},{"properties":{"geo_score":0.842,"full name":"Cedric Beard","id":"a6pjl89t0h37","address":"7416 S. Union  Chicago IL, 60621","geo_precision":"range"},"type":"Feature","geometry":{"type":"Point","coordinates":[-87.641884,41.758714]}},{"properties":{"geo_score":0.842,"full name":"Devon Booker","id":"a6pjl803e1jy","address":"7416 S. Union  Chicago IL, 60621","geo_precision":"range"},"type":"Feature","geometry":{"type":"Point","coordinates":[-87.641884,41.758714]}},{"properties":{"geo_score":0.662,"full name":"Eric Frieson","id":"a6pjl8acsy63","address":"7542 S. Stewart  Chicago IL, 60621","geo_precision":"street"},"type":"Feature","geometry":{"type":"Point","coordinates":[-87.63453,41.759899]}},{"properties":{"geo_score":0.854,"full name":"Rev. Joel Washington","id":"a6pjl7xvzyym","address":"900 W. 63rd Pkwy #1011  Chicago IL, 60621","geo_precision":"range"},"type":"Feature","geometry":{"type":"Point","coordinates":[-87.648159,41.780606]}},{"properties":{"geo_score":0.857,"full name":"Stephanie Arias","id":"a6pjl8dyzw22","address":"IL, 60621","geo_precision":"zip"},"type":"Feature","geometry":{"type":"Point","coordinates":[-87.68732,41.811929]}},{"properties":{"geo_score":0.877,"full name":"Elisabeth Benoit","id":"a6pjl84cxjvq","address":"2307 W. Walton St. Unit #3w  Chicago IL, 60622","geo_precision":"range"},"type":"Feature","geometry":{"type":"Point","coordinates":[-87.684867,41.898432]}},{"properties":{"geo_score":0.838,"full name":"Dominic Correa","id":"a6pjl89f697r","address":"2444 W. Augusta  Chicago IL, 60622","geo_precision":"range"},"type":"Feature","geometry":{"type":"Point","coordinates":[-87.688898,41.899432]}},{"properties":{"geo_score":0.865,"full name":"Marlo Irizarry","id":"a6pjl85crmrx","address":"2648 W. Cortez  Chicago IL, 60622","geo_precision":"range"},"type":"Feature","geometry":{"type":"Point","coordinates":[-87.693735,41.900299]}},{"properties":{"geo_score":0.838,"full name":"Myrta Cruz","id":"a6pjl7zxtp36","address":"2755 W. Augusta  Chicago IL, 60622","geo_precision":"range"},"type":"Feature","geometry":{"type":"Point","coordinates":[-87.695732,41.899212]}},{"properties":{"geo_score":0.853,"full name":"Khosro Beik","id":"a6pjl7xv2k7v","address":"939 N. Western  Chicago IL, 60622","geo_precision":"range"},"type":"Feature","geometry":{"type":"Point","coordinates":[-87.686859,41.899273]}},{"properties":{"geo_score":0.889,"full name":"Stephanie Jordan","id":"a6pjl83swrov","address":"PO Box 221244  Chicago IL, 60622","geo_precision":"zip"},"type":"Feature","geometry":{"type":"Point","coordinates":[-87.68732,41.811929]}},{"properties":{"geo_score":0.857,"full name":"Joseph Fritz","id":"a6pjl88wd6hg","address":"1225 S. St. Louis  Chicago IL, 60623","geo_precision":"range"},"type":"Feature","geometry":{"type":"Point","coordinates":[-87.712874,41.865299]}},{"properties":{"geo_score":0.842,"full name":"Keya Ramirez","id":"a6pjl898b2vg","address":"1258 S Homan  CHICAGO IL, 60623","geo_precision":"range"},"type":"Feature","geometry":{"type":"Point","coordinates":[-87.710571,41.864743]}},{"properties":{"geo_score":0.853,"full name":"Johnette Stewart","id":"a6pjl7yq1ro2","address":"1309 S. Kostner  Chicago IL, 60623","geo_precision":"range"},"type":"Feature","geometry":{"type":"Point","coordinates":[-87.734791,41.862986]}},{"properties":{"geo_score":0.943,"full name":"Linnie Yates","id":"a6pjl7xxxlsv","address":"1330 S. Troy St.  Chicago IL, 60623","geo_precision":"range"},"type":"Feature","geometry":{"type":"Point","coordinates":[-87.704433,41.863469]}},{"properties":{"geo_score":0.857,"full name":"Charnise Stephens","id":"a6pjl84x82s9","address":"1424 S. St. Louis  Chicago IL, 60623","geo_precision":"range"},"type":"Feature","geometry":{"type":"Point","coordinates":[-87.712937,41.862289]}},{"properties":{"geo_score":0.857,"full name":"Erica Gulley","id":"a6pjl84sw8ff","address":"1424 S. St. Louis  Chicago IL, 60623","geo_precision":"range"},"type":"Feature","geometry":{"type":"Point","coordinates":[-87.712937,41.862289]}},{"properties":{"geo_score":0.848,"full name":"Leonard Alexander","id":"a6pjl8cj6fuz","address":"1525 S Hamlin  Chicago IL, 60623","geo_precision":"range"},"type":"Feature","geometry":{"type":"Point","coordinates":[-87.720022,41.859369]}},{"properties":{"geo_score":0.93,"full name":"Magnolia Hardman","id":"a6pjl84crvni","address":"1525 S. Komensky Avenue  Chicago IL, 60623","geo_precision":"range"},"type":"Feature","geometry":{"type":"Point","coordinates":[-87.726123,41.859712]}},{"properties":{"geo_score":0.857,"full name":"Letitia Stanford","id":"a6pjl82b5qo6","address":"1818 S. Lawndale  Chicago IL, 60623","geo_precision":"range"},"type":"Feature","geometry":{"type":"Point","coordinates":[-87.717649,41.855445]}},{"properties":{"geo_score":0.866,"full name":"Barbara Gordon","id":"a6pjl7z8bua4","address":"1915 S. Springfield  Chicago IL, 60623","geo_precision":"range"},"type":"Feature","geometry":{"type":"Point","coordinates":[-87.722249,41.854328]}},{"properties":{"geo_score":0.695,"full name":"Roberto Hernandez","id":"a6pjl81wkyqx","address":"21135 W. 24th Place  Chicago IL, 60623","geo_precision":"street"},"type":"Feature","geometry":{"type":"Point","coordinates":[-87.732734,41.846436]}},{"properties":{"geo_score":0.607,"full name":"Lea Bertin","id":"a6pjl87daffd","address":"2620 S. Keduale  Chicago IL, 60623","geo_precision":"zip"},"type":"Feature","geometry":{"type":"Point","coordinates":[-87.68732,41.811929]}},{"properties":{"geo_score":0.848,"full name":"Bertin Anoibel","id":"a6pjl8cyyi3r","address":"2632 S. Keeler  Chicago IL, 60623","geo_precision":"range"},"type":"Feature","geometry":{"type":"Point","coordinates":[-87.729439,41.842457]}},{"properties":{"geo_score":0.848,"full name":"Aloszig Bertin","id":"a6pjl854mjlo","address":"2632 S. Keeler  Chicago IL, 60623","geo_precision":"range"},"type":"Feature","geometry":{"type":"Point","coordinates":[-87.729439,41.842457]}},{"properties":{"geo_score":0.848,"full name":"Sasai Bertin","id":"a6pjl88oihno","address":"2632 S. Keeler  Chicago IL, 60623","geo_precision":"range"},"type":"Feature","geometry":{"type":"Point","coordinates":[-87.729439,41.842457]}},{"properties":{"geo_score":0.848,"full name":"Jazreel Bertin","id":"a6pjl8495mbm","address":"2632 S. Keeler  Chicago IL, 60623","geo_precision":"range"},"type":"Feature","geometry":{"type":"Point","coordinates":[-87.729439,41.842457]}},{"properties":{"geo_score":0.848,"full name":"Abigail Melquiades","id":"a6pjl848yptp","address":"2632 S. Keeler  Chicago IL, 60623","geo_precision":"range"},"type":"Feature","geometry":{"type":"Point","coordinates":[-87.729439,41.842457]}},{"properties":{"geo_score":0.848,"full name":"Valazquez Ofelio","id":"a6pjl8c1y76d","address":"2632 S. Keeler  Chicago IL, 60623","geo_precision":"range"},"type":"Feature","geometry":{"type":"Point","coordinates":[-87.729439,41.842457]}},{"properties":{"geo_score":0.848,"full name":"Sara Bravo","id":"a6pjl87vewvs","address":"2635 S. Karlov  Chicago IL, 60623","geo_precision":"range"},"type":"Feature","geometry":{"type":"Point","coordinates":[-87.726859,41.842532]}},{"properties":{"geo_score":0.848,"full name":"Torres Araceli","id":"a6pjl81jlgkx","address":"2637 S. Keeler  Chicago IL, 60623","geo_precision":"range"},"type":"Feature","geometry":{"type":"Point","coordinates":[-87.729291,41.842536]}},{"properties":{"geo_score":0.865,"full name":"Pozo Vetsua","id":"a6pjl83tdzch","address":"2637 S. Keeler St.  Chicago IL, 60623","geo_precision":"range"},"type":"Feature","geometry":{"type":"Point","coordinates":[-87.729291,41.842536]}},{"properties":{"geo_score":0.604,"full name":"Itari Rubio","id":"a6pjl87r71jh","address":"2640 S. Keduale Ave  Chicago IL, 60623","geo_precision":"zip"},"type":"Feature","geometry":{"type":"Point","coordinates":[-87.68732,41.811929]}},{"properties":{"geo_score":0.935,"full name":"Alma Mejia","id":"a6pjl84yipfk","address":"2725 S. Harding Ave.  Chicago IL, 60623","geo_precision":"range"},"type":"Feature","geometry":{"type":"Point","coordinates":[-87.723165,41.841037]}},{"properties":{"geo_score":0.842,"full name":"Victoria Arteaga","id":"a6pjl823yvw5","address":"2732 S. Kolin  Chicago IL, 60623","geo_precision":"range"},"type":"Feature","geometry":{"type":"Point","coordinates":[-87.733053,41.841058]}},{"properties":{"geo_score":0.857,"full name":"Abigail Milian","id":"a6pjl83v9lz1","address":"2752 S. Komensky  Chicago IL, 60623","geo_precision":"range"},"type":"Feature","geometry":{"type":"Point","coordinates":[-87.725762,41.841528]}},{"properties":{"geo_score":0.607,"full name":"Maria Romero","id":"a6pjl80kxun4","address":"2752 S. Komesky  Chicago IL, 60623","geo_precision":"zip"},"type":"Feature","geometry":{"type":"Point","coordinates":[-87.68732,41.811929]}},{"properties":{"geo_score":0.848,"full name":"Rosales Adi","id":"a6pjl7yh1dfd","address":"2753 S. Keeler  Chicago IL, 60623","geo_precision":"range"},"type":"Feature","geometry":{"type":"Point","coordinates":[-87.729258,41.841483]}},{"properties":{"geo_score":0.937,"full name":"Cortes Alma","id":"a6pjl8d2phyl","address":"2753 S. Keeler Ave  Chicago IL, 60623","geo_precision":"range"},"type":"Feature","geometry":{"type":"Point","coordinates":[-87.729258,41.841483]}},{"properties":{"geo_score":0.937,"full name":"Rosales Brigido","id":"a6pjl8dn3dss","address":"2753 S. Keeler Ave  Chicago IL, 60623","geo_precision":"range"},"type":"Feature","geometry":{"type":"Point","coordinates":[-87.729258,41.841483]}},{"properties":{"geo_score":0.937,"full name":"Blanca Rendon","id":"a6pjl893d54e","address":"2809 S. Keeler Ave  Chicago IL, 60623","geo_precision":"range"},"type":"Feature","geometry":{"type":"Point","coordinates":[-87.729188,41.838744]}},{"properties":{"geo_score":0.853,"full name":"Jaset Chicanchain","id":"a6pjl7y9jm43","address":"2828 S. Kedvale  Chicago IL, 60623","geo_precision":"range"},"type":"Feature","geometry":{"type":"Point","coordinates":[-87.728126,41.83894]}},{"properties":{"geo_score":0.935,"full name":"Keila Nunez","id":"a6pjl808z9lr","address":"2831 S. Kildare Ave  Chicago IL, 60623","geo_precision":"range"},"type":"Feature","geometry":{"type":"Point","coordinates":[-87.731622,41.83892]}},{"properties":{"geo_score":0.83,"full name":"Julia Singala","id":"a6pjl8bhh0vn","address":"2831 S. Kildore  Chicago IL, 60623","geo_precision":"range"},"type":"Feature","geometry":{"type":"Point","coordinates":[-87.731622,41.83892]}},{"properties":{"geo_score":0.853,"full name":"Daniel Flores","id":"a6pjl80h6cl7","address":"2846 S. Kedvale  Chicago IL, 60623","geo_precision":"range"},"type":"Feature","geometry":{"type":"Point","coordinates":[-87.728132,41.839107]}},{"properties":{"geo_score":0.853,"full name":"Glenola Flores","id":"a6pjl85kcuuo","address":"2846 S. Kedvale  Chicago IL, 60623","geo_precision":"range"},"type":"Feature","geometry":{"type":"Point","coordinates":[-87.728132,41.839107]}},{"properties":{"geo_score":0.853,"full name":"Arely Flores","id":"a6pjl8a3y66r","address":"2846 S. Kedvale  Chicago IL, 60623","geo_precision":"range"},"type":"Feature","geometry":{"type":"Point","coordinates":[-87.728132,41.839107]}},{"properties":{"geo_score":0.935,"full name":"Ezequira Zunun","id":"a6pjl82deeml","address":"2849 S. Kenneth Ave  Chicago IL, 60623","geo_precision":"range"},"type":"Feature","geometry":{"type":"Point","coordinates":[-87.735264,41.839041]}},{"properties":{"geo_score":0.93,"full name":"Esteban Josue","id":"a6pjl7y1yjle","address":"3011 S. Springfield Ave  Chicago IL, 60623","geo_precision":"range"},"type":"Feature","geometry":{"type":"Point","coordinates":[-87.721838,41.837114]}},{"properties":{"geo_score":0.906,"full name":"Gomez Aleyda","id":"a6pjl88os6g4","address":"3027 W. 21st Pl.  Chicago IL, 60623","geo_precision":"range"},"type":"Feature","geometry":{"type":"Point","coordinates":[-87.701726,41.852655]}},{"properties":{"geo_score":0.89,"full name":"Alexda Gomez","id":"a6pjl8ag4xih","address":"3027 W. 21st Place  Chicago IL, 60623","geo_precision":"range"},"type":"Feature","geometry":{"type":"Point","coordinates":[-87.701726,41.852655]}},{"properties":{"geo_score":0.853,"full name":"Marco Salgado","id":"a6pjl8cxa0g9","address":"3033 S. Kedvale  Chicago IL, 60623","geo_precision":"range"},"type":"Feature","geometry":{"type":"Point","coordinates":[-87.727944,41.837881]}},{"properties":{"geo_score":0.607,"full name":"Juan Sandoual","id":"a6pjl81zkwo1","address":"3037 S. Keduale  Chicago IL, 60623","geo_precision":"zip"},"type":"Feature","geometry":{"type":"Point","coordinates":[-87.68732,41.811929]}},{"properties":{"geo_score":0.857,"full name":"Diana Martinez","id":"a6pjl80mzvvo","address":"3126 S. Lawndale  Chicago IL, 60623","geo_precision":"range"},"type":"Feature","geometry":{"type":"Point","coordinates":[-87.717055,41.835223]}},{"properties":{"geo_score":0.608,"full name":"Soto Leo","id":"a6pjl8d6uugf","address":"3213 S.Karlov  Chicago IL, 60623","geo_precision":"zip"},"type":"Feature","geometry":{"type":"Point","coordinates":[-87.68732,41.811929]}},{"properties":{"geo_score":0.853,"full name":"Aurora Rubio","id":"a6pjl80u6n39","address":"3238 S. Kedvale  Chicago IL, 60623","geo_precision":"range"},"type":"Feature","geometry":{"type":"Point","coordinates":[-87.728002,41.833915]}},{"properties":{"geo_score":0.853,"full name":"Benjamin Rubio","id":"a6pjl84e5cgc","address":"3238 S. Kedvale  Chicago IL, 60623","geo_precision":"range"},"type":"Feature","geometry":{"type":"Point","coordinates":[-87.728002,41.833915]}},{"properties":{"geo_score":0.825,"full name":"Ronda Turner","id":"a6pjl86zoqf8","address":"3444 12th Place  Chicago IL, 60623","geo_precision":"range"},"type":"Feature","geometry":{"type":"Point","coordinates":[-87.71075,41.865269]}},{"properties":{"geo_score":0.837,"full name":"Ingrid McAlpin","id":"a6pjl7ydk7wn","address":"3522 W. 12th  Chicago IL, 60623","geo_precision":"range"},"type":"Feature","geometry":{"type":"Point","coordinates":[-87.714357,41.865227]}},{"properties":{"geo_score":0.658,"full name":"Eddma Salgado","id":"a6pjl84ooovi","address":"3633 S. Kedvale  Chicago IL, 60623","geo_precision":"street"},"type":"Feature","geometry":{"type":"Point","coordinates":[-87.72796,41.83502]}},{"properties":{"geo_score":0.886,"full name":"Loz Arroyo","id":"a6pjl7zap6rw","address":"4131 w 25th street  Chicago IL, 60623","geo_precision":"range"},"type":"Feature","geometry":{"type":"Point","coordinates":[-87.726806,41.845978]}},{"properties":{"geo_score":0.89,"full name":"Maria Balderas","id":"a6pjl7zfw1j2","address":"4135 W. 24th Place  Chicago IL, 60623","geo_precision":"range"},"type":"Feature","geometry":{"type":"Point","coordinates":[-87.726457,41.8469]}},{"properties":{"geo_score":0.89,"full name":"Gustavo Hernandez","id":"a6pjl8boh4l5","address":"4135 W. 24th Place  Chicago IL, 60623","geo_precision":"range"},"type":"Feature","geometry":{"type":"Point","coordinates":[-87.726457,41.8469]}},{"properties":{"geo_score":0.837,"full name":"Aviles Milca","id":"a6pjl86e0vfc","address":"4154 W. 31st  Chicago IL, 60623","geo_precision":"range"},"type":"Feature","geometry":{"type":"Point","coordinates":[-87.728804,41.836908]}},{"properties":{"geo_score":0.906,"full name":"Jahel Aviles","id":"a6pjl82apt7x","address":"4154 W. 31st St.  Chicago IL, 60623","geo_precision":"range"},"type":"Feature","geometry":{"type":"Point","coordinates":[-87.728804,41.836908]}},{"properties":{"geo_score":0.837,"full name":"Natalie Molina","id":"a6pjl87zsgf2","address":"4158 w 25th  Chicago IL, 60623","geo_precision":"range"},"type":"Feature","geometry":{"type":"Point","coordinates":[-87.728488,41.846107]}},{"properties":{"geo_score":0.906,"full name":"Reyna Sanchez","id":"a6pjl7zu1r3i","address":"4158 w 25th st  Chicago IL, 60623","geo_precision":"range"},"type":"Feature","geometry":{"type":"Point","coordinates":[-87.728488,41.846107]}},{"properties":{"geo_score":0.906,"full name":"Stacy Molina","id":"a6pjl80fgtka","address":"4158 W. 25th St  Chicago IL, 60623","geo_precision":"range"},"type":"Feature","geometry":{"type":"Point","coordinates":[-87.728488,41.846107]}},{"properties":{"geo_score":0.906,"full name":"Abishua Jiminez","id":"a6pjl82ucqc3","address":"4201 W. 26th St.  Chicago IL, 60623","geo_precision":"range"},"type":"Feature","geometry":{"type":"Point","coordinates":[-87.730629,41.844167]}},{"properties":{"geo_score":0.628,"full name":"Saueloral Azael","id":"a6pjl8ck9ozk","address":"4215 W. Keeler  Chicago IL, 60623","geo_precision":"street"},"type":"Feature","geometry":{"type":"Point","coordinates":[-87.729171,41.83501]}},{"properties":{"geo_score":0.628,"full name":"Sveeloa Luis","id":"a6pjl81t4khn","address":"4215 W. Keeler  Chicago IL, 60623","geo_precision":"street"},"type":"Feature","geometry":{"type":"Point","coordinates":[-87.729171,41.83501]}},{"properties":{"geo_score":0.732,"full name":"Kecia Rawls","id":"a6pjl8dt8q53","address":"607 N Monticello  Chicago IL, 60623","geo_precision":"range"},"type":"Feature","geometry":{"type":"Point","coordinates":[-87.717402,41.893501]}},{"properties":{"geo_score":0.81,"full name":"Geanell Sylvester","id":"a6pjl8dyd4lz","address":"1517 S. Homan Ave  Chicaog IL, 60623","geo_precision":"range"},"type":"Feature","geometry":{"type":"Point","coordinates":[-87.710264,41.859326]}},{"properties":{"geo_score":0.857,"full name":"saray soto","id":"a6pjl7ys954w","address":"IL, 60623","geo_precision":"zip"},"type":"Feature","geometry":{"type":"Point","coordinates":[-87.68732,41.811929]}},{"properties":{"geo_score":0.833,"full name":"David Fagan","id":"a6pjl8587qe3","address":"148 S Hamlin  Chicago IL, 60624","geo_precision":"range"},"type":"Feature","geometry":{"type":"Point","coordinates":[-87.720815,41.878274]}},{"properties":{"geo_score":0.842,"full name":"Lakisha Taylor","id":"a6pjl7ycol16","address":"148 S Hamlin @nd Floor 2nd floor Chicago IL, 60624","geo_precision":"range"},"type":"Feature","geometry":{"type":"Point","coordinates":[-87.720815,41.878274]}},{"properties":{"geo_score":0.853,"full name":"Donzetta Griffin","id":"a6pjl7y1wfkj","address":"3262 W. Carroll  Chicago IL, 60624","geo_precision":"range"},"type":"Feature","geometry":{"type":"Point","coordinates":[-87.71018,41.887547]}},{"properties":{"geo_score":0.869,"full name":"Annie Robertson","id":"a6pjl8908my6","address":"3303 W. Carroll St.  Chicago IL, 60624","geo_precision":"range"},"type":"Feature","geometry":{"type":"Point","coordinates":[-87.709444,41.88741]}},{"properties":{"geo_score":0.601,"full name":"Masheetta Lindsey","id":"a6pjl7z85dxd","address":"3346 W Lexington St Apt 2 CHICAGO IL, 60624","geo_precision":"zip"},"type":"Feature","geometry":{"type":"Point","coordinates":[-87.68732,41.811929]}},{"properties":{"geo_score":0.605,"full name":"Charles Phillips","id":"a6pjl7za588g","address":"3407 W. Lexington  Chicago IL, 60624","geo_precision":"zip"},"type":"Feature","geometry":{"type":"Point","coordinates":[-87.68732,41.811929]}},{"properties":{"geo_score":0.605,"full name":"Antoinette Ervin","id":"a6pjl8d7gner","address":"3410 W. Lexington  Chicago IL, 60624","geo_precision":"zip"},"type":"Feature","geometry":{"type":"Point","coordinates":[-87.68732,41.811929]}},{"properties":{"geo_score":0.869,"full name":"Lauraetta Foster","id":"a6pjl88a7a1v","address":"3443 W. Madison  Chicago IL, 60624","geo_precision":"range"},"type":"Feature","geometry":{"type":"Point","coordinates":[-87.712647,41.880823]}},{"properties":{"geo_score":0.843,"full name":"Tracey Barber","id":"a6pjl7yl4kh9","address":"3560 W. Congress  Chicago IL, 60624","geo_precision":"range"},"type":"Feature","geometry":{"type":"Point","coordinates":[-87.71324,41.874584]}},{"properties":{"geo_score":0.848,"full name":"Rosie Smith","id":"a6pjl7yl34ch","address":"423 N. Hamlin  Chicago IL, 60624","geo_precision":"range"},"type":"Feature","geometry":{"type":"Point","coordinates":[-87.720958,41.889824]}},{"properties":{"geo_score":0.938,"full name":"Sharona Drake","id":"a6pjl86uc377","address":"4457 W. Monroe St.  Chicago IL, 60624","geo_precision":"range"},"type":"Feature","geometry":{"type":"Point","coordinates":[-87.736724,41.879556]}},{"properties":{"geo_score":0.605,"full name":"Shirley Moore","id":"a6pjl8b96ocd","address":"4506 W. Wilcox St  Chicago IL, 60624","geo_precision":"zip"},"type":"Feature","geometry":{"type":"Point","coordinates":[-87.68732,41.811929]}},{"properties":{"geo_score":0.605,"full name":"Joel Anaya","id":"a6pjl7xz7yzj","address":"629 N. Christiana  Chicago IL, 60624","geo_precision":"zip"},"type":"Feature","geometry":{"type":"Point","coordinates":[-87.68732,41.811929]}},{"properties":{"geo_score":0.863,"full name":"Ashley Jackson","id":"a6pjl8ealexl","address":"644 N. Monticello  Chicago IL, 60624","geo_precision":"range"},"type":"Feature","geometry":{"type":"Point","coordinates":[-87.717533,41.892786]}},{"properties":{"geo_score":0.845,"full name":"Derrick House","id":"a6pjl8cjlrdn","address":"723 W. Monticello  Chicago IL, 60624","geo_precision":"range"},"type":"Feature","geometry":{"type":"Point","coordinates":[-87.717433,41.894526]}},{"properties":{"geo_score":0.937,"full name":"Latasha Melton","id":"a6pjl881njch","address":"729 N. Hamlin Ave  Chicago IL, 60624","geo_precision":"range"},"type":"Feature","geometry":{"type":"Point","coordinates":[-87.721097,41.894905]}},{"properties":{"geo_score":0.823,"full name":"Latasha Melton","id":"a6pjl7zu6n72","address":"729 W. Hamlin  Chicago IL, 60624","geo_precision":"range"},"type":"Feature","geometry":{"type":"Point","coordinates":[-87.721097,41.894905]}},{"properties":{"geo_score":0.853,"full name":"Doris Ann Guest","id":"a6pjl8daihm6","address":"761 S. Kenneth  Chicago IL, 60624","geo_precision":"range"},"type":"Feature","geometry":{"type":"Point","coordinates":[-87.736396,41.871174]}},{"properties":{"geo_score":0.853,"full name":"Akeiba Guest","id":"a6pjl87v2yyx","address":"762 S. Kenneth  Chicago IL, 60624","geo_precision":"range"},"type":"Feature","geometry":{"type":"Point","coordinates":[-87.736556,41.871211]}},{"properties":{"geo_score":0.857,"full name":"Chekita Buckley","id":"a6pjl844xsvw","address":"IL, 60624","geo_precision":"zip"},"type":"Feature","geometry":{"type":"Point","coordinates":[-87.68732,41.811929]}},{"properties":{"geo_score":0.848,"full name":"Frank Terezaca","id":"a6pjl8a1bbyx","address":"3716 W. Leland  Chicago IL, 60625","geo_precision":"range"},"type":"Feature","geometry":{"type":"Point","coordinates":[-87.720873,41.966573]}},{"properties":{"geo_score":0.933,"full name":"Mike Doyle","id":"a6pjl8bji5k0","address":"4440 N. St. Louis Ave  Chicago IL, 60625","geo_precision":"range"},"type":"Feature","geometry":{"type":"Point","coordinates":[-87.715711,41.96266]}},{"properties":{"geo_score":0.863,"full name":"Hortencia Hernandez","id":"a6pjl8d80qd4","address":"4609 N. Monticello  Chicago IL, 60625","geo_precision":"range"},"type":"Feature","geometry":{"type":"Point","coordinates":[-87.71934,41.966369]}},{"properties":{"geo_score":0.863,"full name":"Mauricio Jasso","id":"a6pjl8edybwn","address":"4609 N. Monticello  Chicago IL, 60625","geo_precision":"range"},"type":"Feature","geometry":{"type":"Point","coordinates":[-87.71934,41.966369]}},{"properties":{"geo_score":0.842,"full name":"Mia Rosero","id":"a6pjl832nb38","address":"4625 N. Avers  Chicago IL, 60625","geo_precision":"range"},"type":"Feature","geometry":{"type":"Point","coordinates":[-87.724226,41.966012]}},{"properties":{"geo_score":0.842,"full name":"Chrys Rosero","id":"a6pjl8csaepb","address":"4625 N. Avers  Chicago IL, 60625","geo_precision":"range"},"type":"Feature","geometry":{"type":"Point","coordinates":[-87.724226,41.966012]}},{"properties":{"geo_score":0.853,"full name":"Giselle Ruiz","id":"a6pjl85lhxl5","address":"1728 W. Farwell  Chicago IL, 60626","geo_precision":"range"},"type":"Feature","geometry":{"type":"Point","coordinates":[-87.673694,42.006629]}},{"properties":{"geo_score":0.715,"full name":"Hores Gaomen","id":"a6pjl8bfe5r1","address":"2846 S. Kedvale  Chicago IL, 60626","geo_precision":"range"},"type":"Feature","geometry":{"type":"Point","coordinates":[-87.728132,41.839107]}},{"properties":{"geo_score":0.503,"full name":"Erica Nute","id":"a6pjl80e1zf9","address":"13033 S. Evans  Chicago IL, 60627","geo_precision":"street"},"type":"Feature","geometry":{"type":"Point","coordinates":[-87.605837,41.724495]}},{"properties":{"geo_score":0.503,"full name":"Cheyenne Nute","id":"a6pjl8072z6a","address":"13033 S. Evans  Chicago IL, 60627","geo_precision":"street"},"type":"Feature","geometry":{"type":"Point","coordinates":[-87.605837,41.724495]}},{"properties":{"geo_score":0.688,"full name":"Anita Brown","id":"a6pjl8bje2xr","address":"305 e 130th apt 408  Chicago IL, 60627","geo_precision":"range"},"type":"Feature","geometry":{"type":"Point","coordinates":[-87.614572,41.659038]}},{"properties":{"geo_score":0.599,"full name":"sharon gober","id":"a6pjl8965ia3","address":"259 e.107th st.  chgo IL, 60628","geo_precision":"zip"},"type":"Feature","geometry":{"type":"Point","coordinates":[-87.68732,41.811929]}},{"properties":{"geo_score":0.853,"full name":"Carla Smith","id":"a6pjl87lloai","address":"10024 S. Lasalle  Chicago IL, 60628","geo_precision":"range"},"type":"Feature","geometry":{"type":"Point","coordinates":[-87.627285,41.711208]}},{"properties":{"geo_score":0.853,"full name":"Keisha Manning","id":"a6pjl8d7zgp3","address":"10354 S. Indiana  Chicago IL, 60628","geo_precision":"range"},"type":"Feature","geometry":{"type":"Point","coordinates":[-87.61869,41.706246]}},{"properties":{"geo_score":0.857,"full name":"Jeannette Holcomb","id":"a6pjl83rjaae","address":"10503 S. Edbrooke  Chicago IL, 60628","geo_precision":"range"},"type":"Feature","geometry":{"type":"Point","coordinates":[-87.619561,41.700419]}},{"properties":{"geo_score":0.857,"full name":"Antoinette Holcomb","id":"a6pjl80nxuhq","address":"10503 S. Edbrooke  Chicago IL, 60628","geo_precision":"range"},"type":"Feature","geometry":{"type":"Point","coordinates":[-87.619561,41.700419]}},{"properties":{"geo_score":0.857,"full name":"Monica Wiley","id":"a6pjl88mbzso","address":"10533 S. Michigan  Chicago IL, 60628","geo_precision":"range"},"type":"Feature","geometry":{"type":"Point","coordinates":[-87.620831,41.700482]}},{"properties":{"geo_score":0.857,"full name":"Myra Gray","id":"a6pjl80pceun","address":"10533 S. Michigan  Chicago IL, 60628","geo_precision":"range"},"type":"Feature","geometry":{"type":"Point","coordinates":[-87.620831,41.700482]}},{"properties":{"geo_score":0.857,"full name":"Barbara Huggins","id":"a6pjl8czmri8","address":"10620 S. Edbrooke  Chicago IL, 60628","geo_precision":"range"},"type":"Feature","geometry":{"type":"Point","coordinates":[-87.61975,41.702571]}},{"properties":{"geo_score":0.933,"full name":"Barbara Huggins","id":"a6pjl81dlcnx","address":"10620 S. Edbrooke Ave.  Chicago IL, 60628","geo_precision":"range"},"type":"Feature","geometry":{"type":"Point","coordinates":[-87.61975,41.702571]}},{"properties":{"geo_score":0.869,"full name":"Susan Satterfield","id":"a6pjl86qeni9","address":"10628 s. Halsted  Chicago IL, 60628","geo_precision":"range"},"type":"Feature","geometry":{"type":"Point","coordinates":[-87.642698,41.700157]}},{"properties":{"geo_score":0.86,"full name":"Lucious Latimer","id":"a6pjl8bsvxtq","address":"10716 S. Champlain  Chicago IL, 60628","geo_precision":"range"},"type":"Feature","geometry":{"type":"Point","coordinates":[-87.607283,41.70006]}},{"properties":{"geo_score":0.757,"full name":"LaTonya Smith","id":"a6pjl81fqybc","address":"1100 W. 112th Street  Chicago IL, 60628","geo_precision":"street"},"type":"Feature","geometry":{"type":"Point","coordinates":[-87.645361,41.6905]}},{"properties":{"geo_score":0.603,"full name":"TARITA HOLLOWAY","id":"a6pjl811mkqg","address":"11039 South Norma Ave  Chicago IL, 60628","geo_precision":"zip"},"type":"Feature","geometry":{"type":"Point","coordinates":[-87.68732,41.811929]}},{"properties":{"geo_score":0.86,"full name":"Cathy Pilarczyk","id":"a6pjl897ql4b","address":"11045 S. Wentworth  Chicago IL, 60628","geo_precision":"range"},"type":"Feature","geometry":{"type":"Point","coordinates":[-87.62784,41.693188]}},{"properties":{"geo_score":0.82,"full name":"Cree Collins","id":"a6pjl8ay58om","address":"11155 Edbrooke  Chicago IL, 60628","geo_precision":"range"},"type":"Feature","geometry":{"type":"Point","coordinates":[-87.619521,41.691301]}},{"properties":{"geo_score":0.857,"full name":"Casha Collins","id":"a6pjl7zt0vnq","address":"11155 S. Edbrooke  Chicago IL, 60628","geo_precision":"range"},"type":"Feature","geometry":{"type":"Point","coordinates":[-87.619521,41.691301]}},{"properties":{"geo_score":0.857,"full name":"Veronica Bettis","id":"a6pjl87y1wbz","address":"11312 s edbrooke  Chicago IL, 60628","geo_precision":"range"},"type":"Feature","geometry":{"type":"Point","coordinates":[-87.619534,41.686979]}},{"properties":{"geo_score":0.842,"full name":"Jessica Bocko","id":"a6pjl7zveif6","address":"11312 s union  Chicago IL, 60628","geo_precision":"range"},"type":"Feature","geometry":{"type":"Point","coordinates":[-87.639869,41.687153]}},{"properties":{"geo_score":0.848,"full name":"Emily Greene","id":"a6pjl7zvl207","address":"11317 S. Forest  Chicago IL, 60628","geo_precision":"range"},"type":"Feature","geometry":{"type":"Point","coordinates":[-87.615538,41.686182]}},{"properties":{"geo_score":0.848,"full name":"Ellen Greene","id":"a6pjl837s0rf","address":"11317 S. Forest  Chicago IL, 60628","geo_precision":"range"},"type":"Feature","geometry":{"type":"Point","coordinates":[-87.615538,41.686182]}},{"properties":{"geo_score":0.848,"full name":"Melody Taylor","id":"a6pjl8e9vux6","address":"11320 s forest  Chicago IL, 60628","geo_precision":"range"},"type":"Feature","geometry":{"type":"Point","coordinates":[-87.61569,41.686263]}},{"properties":{"geo_score":0.53,"full name":"Cassandra Moody","id":"a6pjl86nw8kp","address":"11326 S. Harbor  CHICAGO IL, 60628","geo_precision":"street"},"type":"Feature","geometry":{"type":"Point","coordinates":[-87.617251,41.881004]}},{"properties":{"geo_score":0.834,"full name":"Jenola Terry-Ward","id":"a6pjl7z71jvk","address":"11328 S. Lowe  Chicago IL, 60628","geo_precision":"range"},"type":"Feature","geometry":{"type":"Point","coordinates":[-87.638667,41.687465]}},{"properties":{"geo_score":0.933,"full name":"Seneca Noble","id":"a6pjl8d5galm","address":"11343 S Edbrooke Ave  Chicago IL, 60628","geo_precision":"range"},"type":"Feature","geometry":{"type":"Point","coordinates":[-87.619402,41.687627]}},{"properties":{"geo_score":0.857,"full name":"April Jones","id":"a6pjl81wsf9h","address":"11343 S. Edbrooke  Chicago IL, 60628","geo_precision":"range"},"type":"Feature","geometry":{"type":"Point","coordinates":[-87.619402,41.687627]}},{"properties":{"geo_score":0.857,"full name":"Sierra Noble","id":"a6pjl860fnd7","address":"11343 S. Edbrooke  Chicago IL, 60628","geo_precision":"range"},"type":"Feature","geometry":{"type":"Point","coordinates":[-87.619402,41.687627]}},{"properties":{"geo_score":0.848,"full name":"James Mathews","id":"a6pjl87dgqdg","address":"11355 s forest  Chicago IL, 60628","geo_precision":"range"},"type":"Feature","geometry":{"type":"Point","coordinates":[-87.615561,41.687037]}},{"properties":{"geo_score":0.853,"full name":"Antonio Williams","id":"a6pjl8dg2qla","address":"11619 s stewart  Chicago IL, 60628","geo_precision":"range"},"type":"Feature","geometry":{"type":"Point","coordinates":[-87.632346,41.683264]}},{"properties":{"geo_score":0.848,"full name":"Yvonne Cooley","id":"a6pjl83ep3cm","address":"11835 s normal  Chicago IL, 60628","geo_precision":"range"},"type":"Feature","geometry":{"type":"Point","coordinates":[-87.63462,41.678533]}},{"properties":{"geo_score":0.932,"full name":"Evelyn Lewis","id":"a6pjl8abe5t9","address":"12006 S. Wentworth Ave.  chicago IL, 60628","geo_precision":"range"},"type":"Feature","geometry":{"type":"Point","coordinates":[-87.62744,41.67452]}},{"properties":{"geo_score":0.853,"full name":"Nancy Williams","id":"a6pjl88dfhoz","address":"12127 S. Stewart  Chicago IL, 60628","geo_precision":"range"},"type":"Feature","geometry":{"type":"Point","coordinates":[-87.632048,41.672947]}},{"properties":{"geo_score":0.842,"full name":"Virginia Nemo","id":"a6pjl87dohij","address":"12148 S. Union  Chicago IL, 60628","geo_precision":"range"},"type":"Feature","geometry":{"type":"Point","coordinates":[-87.639352,41.673452]}},{"properties":{"geo_score":0.86,"full name":"Christina Murphy","id":"a6pjl849ckj3","address":"12248 S. Lafayette  Chicago IL, 60628","geo_precision":"range"},"type":"Feature","geometry":{"type":"Point","coordinates":[-87.623739,41.67161]}},{"properties":{"geo_score":0.86,"full name":"Latricia Edgleston","id":"a6pjl811j2v3","address":"12414 S. Wentworth  Chicago IL, 60628","geo_precision":"range"},"type":"Feature","geometry":{"type":"Point","coordinates":[-87.627196,41.667319]}},{"properties":{"geo_score":0.869,"full name":"Sheena Heard","id":"a6pjl7xx8gue","address":"12664 S. Wallace  Chicago IL, 60628","geo_precision":"range"},"type":"Feature","geometry":{"type":"Point","coordinates":[-87.6367,41.664106]}},{"properties":{"geo_score":0.853,"full name":"Twyla Gillard","id":"a6pjl86hf1ml","address":"12820 S. Parnell  Chicago IL, 60628","geo_precision":"range"},"type":"Feature","geometry":{"type":"Point","coordinates":[-87.635428,41.661294]}},{"properties":{"geo_score":0.658,"full name":"Luis Santiago","id":"a6pjl8crojg3","address":"13328 S. Corliss  Chicago IL, 60628","geo_precision":"street"},"type":"Feature","geometry":{"type":"Point","coordinates":[-87.601508,41.68942]}},{"properties":{"geo_score":0.971,"full name":"Jeanette Stuart","id":"a6pjl8cejw22","address":"216 E. 109th St  Chicago IL, 60628","geo_precision":"range"},"type":"Feature","geometry":{"type":"Point","coordinates":[-87.617668,41.696384]}},{"properties":{"geo_score":0.896,"full name":"Harvey Watts","id":"a6pjl81o4mbg","address":"221 121st place  Chicago IL, 60628","geo_precision":"range"},"type":"Feature","geometry":{"type":"Point","coordinates":[-87.617474,41.673462]}},{"properties":{"geo_score":0.906,"full name":"Marthann Campbell","id":"a6pjl8d6qgga","address":"222 w. 98TH Pl  Chicago IL, 60628","geo_precision":"range"},"type":"Feature","geometry":{"type":"Point","coordinates":[-87.629208,41.716056]}},{"properties":{"geo_score":0.906,"full name":"Jillian Campbell","id":"a6pjl8amz066","address":"222 w. 98TH Pl  Chicago IL, 60628","geo_precision":"range"},"type":"Feature","geometry":{"type":"Point","coordinates":[-87.629208,41.716056]}},{"properties":{"geo_score":0.955,"full name":"Jerry Watkins","id":"a6pjl8225n16","address":"240 W. 107th Place  Chicago IL, 60628","geo_precision":"range"},"type":"Feature","geometry":{"type":"Point","coordinates":[-87.630185,41.698953]}},{"properties":{"geo_score":0.778,"full name":"Erica Harris","id":"a6pjl870utfp","address":"312 E 112th St  Chicago IL, 60628","geo_precision":"street"},"type":"Feature","geometry":{"type":"Point","coordinates":[-87.612712,41.690923]}},{"properties":{"geo_score":0.971,"full name":"Lucinda Smith","id":"a6pjl873ahjk","address":"315 W. 110th St.  chicago IL, 60628","geo_precision":"range"},"type":"Feature","geometry":{"type":"Point","coordinates":[-87.631834,41.694228]}},{"properties":{"geo_score":0.971,"full name":"Evelyn Rainey-Smith","id":"a6pjl866xqkc","address":"329 W. 110th St  chicago IL, 60628","geo_precision":"range"},"type":"Feature","geometry":{"type":"Point","coordinates":[-87.631605,41.694232]}},{"properties":{"geo_score":0.971,"full name":"Ericka Shirley","id":"a6pjl83yis4p","address":"338 E. 103rd St  Chicago IL, 60628","geo_precision":"range"},"type":"Feature","geometry":{"type":"Point","coordinates":[-87.613826,41.707388]}},{"properties":{"geo_score":0.971,"full name":"Joanna McIntyre_Wright","id":"a6pjl8bdufup","address":"46 W. 118th st.  chicago IL, 60628","geo_precision":"range"},"type":"Feature","geometry":{"type":"Point","coordinates":[-87.624424,41.679904]}},{"properties":{"geo_score":0.74,"full name":"Shaunta Gardner","id":"a6pjl7zbe55f","address":"512 WEST 56TH STREET  Chicago IL, 60628","geo_precision":"range"},"type":"Feature","geometry":{"type":"Point","coordinates":[-87.639514,41.793116]}},{"properties":{"geo_score":0.971,"full name":"Glenn Stone","id":"a6pjl8bggac4","address":"61 w 123rd st  Chicago IL, 60628","geo_precision":"range"},"type":"Feature","geometry":{"type":"Point","coordinates":[-87.623857,41.670642]}},{"properties":{"geo_score":0.732,"full name":"Antione Spicer","id":"a6pjl8411dll","address":"6821 s paulina  Chicago IL, 60628","geo_precision":"range"},"type":"Feature","geometry":{"type":"Point","coordinates":[-87.666291,41.769346]}},{"properties":{"geo_score":0.647,"full name":"Griffin Shirley","id":"a6pjl7ymnxu0","address":"8637 S. Union  Chicago IL, 60628","geo_precision":"street"},"type":"Feature","geometry":{"type":"Point","coordinates":[-87.640739,41.719674]}},{"properties":{"geo_score":0.971,"full name":"Eloise Jones","id":"a6pjl884rmy3","address":"901 e 104th st  Chicago IL, 60628","geo_precision":"range"},"type":"Feature","geometry":{"type":"Point","coordinates":[-87.600288,41.70561]}},{"properties":{"geo_score":0.951,"full name":"Jacquline Jones","id":"a6pjl8b22y0b","address":"901 E. 104th Street C201  Chicago IL, 60628","geo_precision":"range"},"type":"Feature","geometry":{"type":"Point","coordinates":[-87.600288,41.70561]}},{"properties":{"geo_score":0.951,"full name":"Jones Jaquline","id":"a6pjl8d139qb","address":"901 E. 104th Street C201  Chicago IL, 60628","geo_precision":"range"},"type":"Feature","geometry":{"type":"Point","coordinates":[-87.600288,41.70561]}},{"properties":{"geo_score":0.971,"full name":"Melvina Alexander","id":"a6pjl80czaec","address":"951 E. 100th Pl  Chicago IL, 60628","geo_precision":"range"},"type":"Feature","geometry":{"type":"Point","coordinates":[-87.604137,41.712052]}},{"properties":{"geo_score":0.834,"full name":"Kiai Bryant","id":"a6pjl89cy1yj","address":"9523 S. Yale  Chicago IL, 60628","geo_precision":"range"},"type":"Feature","geometry":{"type":"Point","coordinates":[-87.629813,41.721605]}},{"properties":{"geo_score":0.869,"full name":"Sandra Herrod","id":"a6pjl89jdf4r","address":"9755 S. Halsted  chicago IL, 60628","geo_precision":"range"},"type":"Feature","geometry":{"type":"Point","coordinates":[-87.643008,41.716715]}},{"properties":{"geo_score":0.869,"full name":"Sandra Herrod","id":"a6pjl860c9w1","address":"9755 S. Halsted  Chicago IL, 60628","geo_precision":"range"},"type":"Feature","geometry":{"type":"Point","coordinates":[-87.643008,41.716715]}},{"properties":{"geo_score":0.86,"full name":"Patricia Hamilton","id":"a6pjl8048sr9","address":"9836 S. Greenwood  Chicago IL, 60628","geo_precision":"range"},"type":"Feature","geometry":{"type":"Point","coordinates":[-87.597079,41.715646]}},{"properties":{"geo_score":0.857,"full name":"Hope Parker","id":"a6pjl86d2jqz","address":"IL, 60628","geo_precision":"zip"},"type":"Feature","geometry":{"type":"Point","coordinates":[-87.68732,41.811929]}},{"properties":{"geo_score":0.878,"full name":"Tasha Crosby","id":"a6pjl8d6b41d","address":"2416 W. 61st.street  Chicago IL, 60629","geo_precision":"range"},"type":"Feature","geometry":{"type":"Point","coordinates":[-87.684959,41.782893]}},{"properties":{"geo_score":0.837,"full name":"Nysha Andrews","id":"a6pjl87y7iy4","address":"2543 W. 71st  Chicago IL, 60629","geo_precision":"range"},"type":"Feature","geometry":{"type":"Point","coordinates":[-87.687344,41.764558]}},{"properties":{"geo_score":0.906,"full name":"Alma Perez","id":"a6pjl8cg85u7","address":"2907 W. 59th St  Chicago IL, 60629","geo_precision":"range"},"type":"Feature","geometry":{"type":"Point","coordinates":[-87.696995,41.786275]}},{"properties":{"geo_score":0.848,"full name":"Jasmine Perez","id":"a6pjl835am17","address":"5550 S Sawyer  Chicago IL, 60629","geo_precision":"range"},"type":"Feature","geometry":{"type":"Point","coordinates":[-87.704828,41.792654]}},{"properties":{"geo_score":0.857,"full name":"Loera Carol","id":"a6pjl8cqoruo","address":"5745 S. Kilbourn  Chicago IL, 60629","geo_precision":"range"},"type":"Feature","geometry":{"type":"Point","coordinates":[-87.735191,41.788451]}},{"properties":{"geo_score":0.929,"full name":"Carlos Loera","id":"a6pjl82mr1hz","address":"5745 South Kilbourn Ave  Chicago IL, 60629","geo_precision":"range"},"type":"Feature","geometry":{"type":"Point","coordinates":[-87.735191,41.788451]}},{"properties":{"geo_score":0.873,"full name":"Emilia Avila","id":"a6pjl878gekl","address":"6041 S. Richmond  Chicago IL, 60629","geo_precision":"range"},"type":"Feature","geometry":{"type":"Point","coordinates":[-87.697093,41.783448]}},{"properties":{"geo_score":0.937,"full name":"Jozette Harvey-Williams","id":"a6pjl8e1aul6","address":"6122 S. Artesian #2 Chicago IL, 60629","geo_precision":"range"},"type":"Feature","geometry":{"type":"Point","coordinates":[-87.684995,41.781475]}},{"properties":{"geo_score":0.932,"full name":"Norita Gray","id":"a6pjl80jjyi3","address":"6237 S. Albany Avenue  chicago IL, 60629","geo_precision":"range"},"type":"Feature","geometry":{"type":"Point","coordinates":[-87.700653,41.780155]}},{"properties":{"geo_score":0.854,"full name":"Kimberly Minor","id":"a6pjl7zhx4vc","address":"6240 S. Troy  Chicago IL, 60629","geo_precision":"range"},"type":"Feature","geometry":{"type":"Point","coordinates":[-87.702023,41.780208]}},{"properties":{"geo_score":0.933,"full name":"Tequila Boyd","id":"a6pjl8ad8hps","address":"6609 S Campbell Ave  CHICAGO IL, 60629","geo_precision":"range"},"type":"Feature","geometry":{"type":"Point","coordinates":[-87.685821,41.772543]}},{"properties":{"geo_score":0.604,"full name":"Margrett Ellison","id":"a6pjl89aiyax","address":"7126 South Rockwell  CHICAGO IL, 60629","geo_precision":"zip"},"type":"Feature","geometry":{"type":"Point","coordinates":[-87.68732,41.811929]}},{"properties":{"geo_score":0.865,"full name":"Phyllis Cole","id":"a6pjl88bobap","address":"7154 S. Mozart  Chicago IL, 60629","geo_precision":"range"},"type":"Feature","geometry":{"type":"Point","coordinates":[-87.694288,41.763248]}},{"properties":{"geo_score":0.839,"full name":"Dimitriud Barrow","id":"a6pjl851fexa","address":"7218 south sacremento  Chicago IL, 60629","geo_precision":"range"},"type":"Feature","geometry":{"type":"Point","coordinates":[-87.697901,41.761146]}},{"properties":{"geo_score":0.928,"full name":"LINDA HOWARD-LAWSON","id":"a6pjl846r0cw","address":"7446 SOUTH MAPLEWOOD AVE  CHICAGO IL, 60629","geo_precision":"range"},"type":"Feature","geometry":{"type":"Point","coordinates":[-87.68683,41.758888]}},{"properties":{"geo_score":0.75,"full name":"Melanie Baez","id":"a6pjl7z7rl0h","address":"4516 N. Kasson  Chicago IN, 60630","geo_precision":"range"},"type":"Feature","geometry":{"type":"Point","coordinates":[-87.731152,41.963138]}},{"properties":{"geo_score":0.853,"full name":"Dave Marvin","id":"a6pjl7y84nws","address":"5405 W. Windsor  Chicago IL, 60630","geo_precision":"range"},"type":"Feature","geometry":{"type":"Point","coordinates":[-87.764809,41.963231]}},{"properties":{"geo_score":0.89,"full name":"Ana Zavala","id":"a6pjl8dsmbnv","address":"2422 W. 45th Place  Chicago IL, 60632","geo_precision":"range"},"type":"Feature","geometry":{"type":"Point","coordinates":[-87.684777,41.811237]}},{"properties":{"geo_score":0.906,"full name":"Maria Martinez","id":"a6pjl7yo95d8","address":"2434 W. 48th St.  Chicago IL, 60632","geo_precision":"range"},"type":"Feature","geometry":{"type":"Point","coordinates":[-87.68605,41.806664]}},{"properties":{"geo_score":0.813,"full name":"Ana Hernandez","id":"a6pjl8bhxmlj","address":"2931 W. Pershing Rd.  Chicago IL, 60632","geo_precision":"range"},"type":"Feature","geometry":{"type":"Point","coordinates":[-87.698434,41.822789]}},{"properties":{"geo_score":0.906,"full name":"Daniel Aguilar","id":"a6pjl828hxjh","address":"3407 W. 38th Pl.  Chicago IL, 60632","geo_precision":"range"},"type":"Feature","geometry":{"type":"Point","coordinates":[-87.711668,41.823319]}},{"properties":{"geo_score":0.906,"full name":"Artura Balbuena","id":"a6pjl88jh181","address":"3407 W. 38th Pl.  Chicago IL, 60632","geo_precision":"range"},"type":"Feature","geometry":{"type":"Point","coordinates":[-87.711668,41.823319]}},{"properties":{"geo_score":0.906,"full name":"Betzua Gonzalez","id":"a6pjl7zne51o","address":"3407 W. 38th Pl.  Chicago IL, 60632","geo_precision":"range"},"type":"Feature","geometry":{"type":"Point","coordinates":[-87.711668,41.823319]}},{"properties":{"geo_score":0.906,"full name":"Maria Rebollar","id":"a6pjl8073dua","address":"3407 W. 38th Pl.  Chicago IL, 60632","geo_precision":"range"},"type":"Feature","geometry":{"type":"Point","coordinates":[-87.711668,41.823319]}},{"properties":{"geo_score":0.857,"full name":"Leticia Macias","id":"a6pjl843bavp","address":"4012 S. Artesian  Chicago IL, 60632","geo_precision":"range"},"type":"Feature","geometry":{"type":"Point","coordinates":[-87.686031,41.81771]}},{"properties":{"geo_score":0.865,"full name":"Elisabeth Jaramillo","id":"a6pjl8dx4okd","address":"4301 S. Mozart  Chicago IL, 60632","geo_precision":"range"},"type":"Feature","geometry":{"type":"Point","coordinates":[-87.695599,41.81371]}},{"properties":{"geo_score":0.86,"full name":"Maria Diaz","id":"a6pjl82vchs9","address":"4324 S. Washtenaw  Chicago IL, 60632","geo_precision":"range"},"type":"Feature","geometry":{"type":"Point","coordinates":[-87.691921,41.813774]}},{"properties":{"geo_score":0.937,"full name":"Gustavo Bautista","id":"a6pjl81x2xdd","address":"4519 S. Karlov Ave.  Chicago IL, 60632","geo_precision":"range"},"type":"Feature","geometry":{"type":"Point","coordinates":[-87.726035,41.81001]}},{"properties":{"geo_score":0.912,"full name":"Lorena Vidal","id":"a6pjl86cxixy","address":"4519 S. Karlov Avw  Chicago IL, 60632","geo_precision":"range"},"type":"Feature","geometry":{"type":"Point","coordinates":[-87.726035,41.81001]}},{"properties":{"geo_score":0.857,"full name":"Anita Banaza","id":"a6pjl8cv5ach","address":"4939 S. Campbell  Chicago IL, 60632","geo_precision":"range"},"type":"Feature","geometry":{"type":"Point","coordinates":[-87.68668,41.803957]}},{"properties":{"geo_score":0.606,"full name":"Lucia Delgado","id":"a6pjl89dtso3","address":"5138 S. Rockwell  Chicago IL, 60632","geo_precision":"zip"},"type":"Feature","geometry":{"type":"Point","coordinates":[-87.68732,41.811929]}},{"properties":{"geo_score":0.857,"full name":"Lucerito Garibay","id":"a6pjl8488w3j","address":"5210 S. Kilbourn  Chicago IL, 60632","geo_precision":"range"},"type":"Feature","geometry":{"type":"Point","coordinates":[-87.735591,41.79694]}},{"properties":{"geo_score":0.857,"full name":"Salvador Martinez","id":"a6pjl7z8neqw","address":"5423 S. Komensky  Chicago IL, 60632","geo_precision":"range"},"type":"Feature","geometry":{"type":"Point","coordinates":[-87.724334,41.794083]}},{"properties":{"geo_score":0.805,"full name":"Ernest Harbour","id":"a6pjl8dht62w","address":"1700 N. Lorel Ave  Chicago IL, 60634","geo_precision":"range"},"type":"Feature","geometry":{"type":"Point","coordinates":[-87.759464,41.913109]}},{"properties":{"geo_score":0.75,"full name":"Emil Surico","id":"a6pjl823dkdk","address":"2443 N. Kildare Ave 2R Chicago IL, 60634","geo_precision":"range"},"type":"Feature","geometry":{"type":"Point","coordinates":[-87.734092,41.925959]}},{"properties":{"geo_score":0.853,"full name":"Gloria Montes Deo ca","id":"a6pjl7zmq7n9","address":"2826 N. Monitor  Chicago IL, 60634","geo_precision":"range"},"type":"Feature","geometry":{"type":"Point","coordinates":[-87.772456,41.932979]}},{"properties":{"geo_score":0.857,"full name":"Jose Matos","id":"a6pjl87h2nm1","address":"2940 N. Parkside  Chicago IL, 60634","geo_precision":"range"},"type":"Feature","geometry":{"type":"Point","coordinates":[-87.767639,41.934164]}},{"properties":{"geo_score":0.607,"full name":"Ana Maria Martinez","id":"a6pjl89as1yi","address":"30445 N. Marmot  Chicago IL, 60634","geo_precision":"zip"},"type":"Feature","geometry":{"type":"Point","coordinates":[-87.816309,41.933355]}},{"properties":{"geo_score":0.853,"full name":"Zulma Fonseca","id":"a6pjl884ynks","address":"3045 N. Marmora  Chicago IL, 60634","geo_precision":"range"},"type":"Feature","geometry":{"type":"Point","coordinates":[-87.773623,41.935836]}},{"properties":{"geo_score":0.853,"full name":"Arthur Martinez","id":"a6pjl8bn44g6","address":"3045 N. Marmora  Chicago IL, 60634","geo_precision":"range"},"type":"Feature","geometry":{"type":"Point","coordinates":[-87.773623,41.935836]}},{"properties":{"geo_score":0.853,"full name":"Magda Martinez","id":"a6pjl84puflu","address":"3045 N. Marmora  Chicago IL, 60634","geo_precision":"range"},"type":"Feature","geometry":{"type":"Point","coordinates":[-87.773623,41.935836]}},{"properties":{"geo_score":0.853,"full name":"Crystal Mora","id":"a6pjl800s13p","address":"3045 N. Marmora  Chicago IL, 60634","geo_precision":"range"},"type":"Feature","geometry":{"type":"Point","coordinates":[-87.773623,41.935836]}},{"properties":{"geo_score":0.853,"full name":"Lynette Mora","id":"a6pjl8d4o6fx","address":"3045 N. Marmora  Chicago IL, 60634","geo_precision":"range"},"type":"Feature","geometry":{"type":"Point","coordinates":[-87.773623,41.935836]}},{"properties":{"geo_score":0.86,"full name":"Hilda Diaz","id":"a6pjl82pj777","address":"6124 W. Byron  Chicago IL, 60634","geo_precision":"range"},"type":"Feature","geometry":{"type":"Point","coordinates":[-87.781022,41.951228]}},{"properties":{"geo_score":1.0,"full name":"Jose Matus","id":"a6pjl7yj594g","address":"Chicago IL, 60634","geo_precision":"zip"},"type":"Feature","geometry":{"type":"Point","coordinates":[-87.816309,41.933355]}},{"properties":{"geo_score":0.833,"full name":"Maria HERNANDEZ","id":"a6pjl811m1s7","address":"2918 n.nordica  Chicago IL, 60634","geo_precision":"range"},"type":"Feature","geometry":{"type":"Point","coordinates":[-87.803027,41.934088]}},{"properties":{"geo_score":0.906,"full name":"Latrice Turner","id":"a6pjl88nl4yy","address":"2115 W. 63rd St.  Chicago IL, 60636","geo_precision":"range"},"type":"Feature","geometry":{"type":"Point","coordinates":[-87.67702,41.779197]}},{"properties":{"geo_score":0.86,"full name":"Anita Haywood","id":"a6pjl88nli6c","address":"6027 S. Hermitage  Chicago IL, 60636","geo_precision":"range"},"type":"Feature","geometry":{"type":"Point","coordinates":[-87.667888,41.784013]}},{"properties":{"geo_score":0.845,"full name":"Nichole Lang","id":"a6pjl81rzc4r","address":"6218 S. Ada  Chicago IL, 60636","geo_precision":"range"},"type":"Feature","geometry":{"type":"Point","coordinates":[-87.658295,41.780321]}},{"properties":{"geo_score":0.821,"full name":"Shaniya Williams","id":"a6pjl8a24y8v","address":"6310 S. Cleramont  Chicago IL, 60636","geo_precision":"range"},"type":"Feature","geometry":{"type":"Point","coordinates":[-87.682353,41.778884]}},{"properties":{"geo_score":0.931,"full name":"Syreeta Bournes","id":"a6pjl80pvvj2","address":"6511 South Seeley Ave  CHICAGO IL, 60636","geo_precision":"range"},"type":"Feature","geometry":{"type":"Point","coordinates":[-87.674907,41.774063]}},{"properties":{"geo_score":0.865,"full name":"Lisa Donelson","id":"a6pjl86jbv9a","address":"6622 S. Honore  chicago il, 60636","geo_precision":"range"},"type":"Feature","geometry":{"type":"Point","coordinates":[-87.670183,41.772525]}},{"properties":{"geo_score":0.741,"full name":"Jeannettie Merchant","id":"a6pjl81k7kcz","address":"6725 S Honroe  CHICAGO , 60636","geo_precision":"range"},"type":"Feature","geometry":{"type":"Point","coordinates":[-87.670035,41.770301]}},{"properties":{"geo_score":0.863,"full name":"Carol Crawford","id":"a6pjl80gqrde","address":"6736 s winchester  CHICAGO IL, 60636","geo_precision":"range"},"type":"Feature","geometry":{"type":"Point","coordinates":[-87.672537,41.77046]}},{"properties":{"geo_score":0.931,"full name":"Anna Cooper","id":"a6pjl897pwe2","address":"6825 S Winchester Ave  Chicago IL, 60636","geo_precision":"range"},"type":"Feature","geometry":{"type":"Point","coordinates":[-87.672357,41.769365]}},{"properties":{"geo_score":0.863,"full name":"Anna Cooper","id":"a6pjl8d0dr64","address":"6825 S. Winchester  Chicago IL, 60636","geo_precision":"range"},"type":"Feature","geometry":{"type":"Point","coordinates":[-87.672357,41.769365]}},{"properties":{"geo_score":0.937,"full name":"Marcus Sanders","id":"a6pjl8bzw0pw","address":"7007 S. Oakley Ave  Chicago IL, 60636","geo_precision":"range"},"type":"Feature","geometry":{"type":"Point","coordinates":[-87.68065,41.765303]}},{"properties":{"geo_score":0.865,"full name":"Rita Nolan","id":"a6pjl8a5qvet","address":"7033 S. Honore  Chicago IL, 60636","geo_precision":"range"},"type":"Feature","geometry":{"type":"Point","coordinates":[-87.669826,41.765441]}},{"properties":{"geo_score":0.853,"full name":"Carol Collum","id":"a6pjl8dsn5sm","address":"7336 S. Wolcott  Chicago IL, 60636","geo_precision":"range"},"type":"Feature","geometry":{"type":"Point","coordinates":[-87.671048,41.760033]}},{"properties":{"geo_score":0.89,"full name":"Dionne Anderson","id":"a6pjl88awftb","address":"1510 E. 67th Place  Chicago IL, 60637","geo_precision":"range"},"type":"Feature","geometry":{"type":"Point","coordinates":[-87.587111,41.772492]}},{"properties":{"geo_score":0.894,"full name":"Patricia Batey","id":"a6pjl82zrcng","address":"186 E. Marquette Road 2nd fl Chicago IL, 60637","geo_precision":"range"},"type":"Feature","geometry":{"type":"Point","coordinates":[-87.620823,41.772953]}},{"properties":{"geo_score":0.74,"full name":"Tempie Huger-Jones","id":"a6pjl81defnu","address":"2248A E 71st St  Chicago IL, 60637","geo_precision":"range"},"type":"Feature","geometry":{"type":"Point","coordinates":[-87.570765,41.76621]}},{"properties":{"geo_score":0.606,"full name":"Andy Granados","id":"a6pjl8dcgcxb","address":"2737 W. Mallmore  Chicago IL, 60637","geo_precision":"zip"},"type":"Feature","geometry":{"type":"Point","coordinates":[-87.68732,41.811929]}},{"properties":{"geo_score":0.871,"full name":"Yakimah Jackson","id":"a6pjl8dkduez","address":"5525 S Prairie #H  Chicago IL, 60637","geo_precision":"range"},"type":"Feature","geometry":{"type":"Point","coordinates":[-87.619117,41.793479]}},{"properties":{"geo_score":0.871,"full name":"Yakimah Jackson","id":"a6pjl84lid2v","address":"5525 S Prairie H  Chicago IL, 60637","geo_precision":"range"},"type":"Feature","geometry":{"type":"Point","coordinates":[-87.619117,41.793479]}},{"properties":{"geo_score":0.839,"full name":"angela boyd","id":"a6pjl83384m0","address":"5618 south wabash  chicago IL, 60637","geo_precision":"range"},"type":"Feature","geometry":{"type":"Point","coordinates":[-87.624075,41.791381]}},{"properties":{"geo_score":0.863,"full name":"Barbara Blackstone","id":"a6pjl8cdsua2","address":"5700 s dorchester  Chicago IL, 60637","geo_precision":"range"},"type":"Feature","geometry":{"type":"Point","coordinates":[-87.591582,41.790876]}},{"properties":{"geo_score":0.872,"full name":"Tyeishia Clark","id":"a6pjl8e88gsl","address":"5910 S. King Drive Apt 3N Chicago IL, 60637","geo_precision":"range"},"type":"Feature","geometry":{"type":"Point","coordinates":[-87.615838,41.785884]}},{"properties":{"geo_score":0.407,"full name":"Raquel Butler","id":"a6pjl89fjty3","address":"6106 S. Ingelside #1  Chicago IL, 60637","geo_precision":"street"},"type":"Feature","geometry":{"type":"Point","coordinates":[-87.616705,41.727329]}},{"properties":{"geo_score":0.605,"full name":"Terranika Tate","id":"a6pjl8a5od5f","address":"6316 S Champagne  CHICAGO IL, 60637","geo_precision":"zip"},"type":"Feature","geometry":{"type":"Point","coordinates":[-87.68732,41.811929]}},{"properties":{"geo_score":0.848,"full name":"Twyla Boyd","id":"a6pjl8bhcm6z","address":"6821 S. Wabash  Chicago IL, 60637","geo_precision":"range"},"type":"Feature","geometry":{"type":"Point","coordinates":[-87.623329,41.769556]}},{"properties":{"geo_score":0.937,"full name":"Ahmed El","id":"a6pjl800zfb8","address":"6917 s wabash ave  Chicago IL, 60637","geo_precision":"range"},"type":"Feature","geometry":{"type":"Point","coordinates":[-87.623276,41.767663]}},{"properties":{"geo_score":0.475,"full name":"Tonia Greer","id":"a6pjl87bkydu","address":"75 Crandon  Chicago IL, 60637","geo_precision":"street"},"type":"Feature","geometry":{"type":"Point","coordinates":[-87.569966,41.773073]}},{"properties":{"geo_score":0.347,"full name":"Chanelle Patrick","id":"a6pjl82a0r04","address":"South  Chicago IL, 60637","geo_precision":"street"},"type":"Feature","geometry":{"type":"Point","coordinates":[-87.538915,41.721298]}},{"properties":{"geo_score":0.605,"full name":"Jennifer Fleck","id":"a6pjl8dwmrve","address":"5149 S. Nottingham  Chicago IL, 60638","geo_precision":"zip"},"type":"Feature","geometry":{"type":"Point","coordinates":[-87.68732,41.811929]}},{"properties":{"geo_score":0.868,"full name":"Jorge Jimenez","id":"a6pjl8a27kyj","address":"6108 S. Narragansett  Chicago IL, 60638","geo_precision":"range"},"type":"Feature","geometry":{"type":"Point","coordinates":[-87.78141,41.779654]}},{"properties":{"geo_score":0.935,"full name":"Nora Dempster","id":"a6pjl8bofnua","address":"6123 S. Monitor Ave  Chicago IL, 60638","geo_precision":"range"},"type":"Feature","geometry":{"type":"Point","coordinates":[-87.767841,41.780183]}},{"properties":{"geo_score":0.848,"full name":"Natasha Williams","id":"a6pjl85iaane","address":"1622 N Menard  Chicago IL, 60639","geo_precision":"range"},"type":"Feature","geometry":{"type":"Point","coordinates":[-87.770358,41.909395]}},{"properties":{"geo_score":0.848,"full name":"Carlos Vega","id":"a6pjl800ngr5","address":"1625 N. Lowell  Chicago IL, 60639","geo_precision":"range"},"type":"Feature","geometry":{"type":"Point","coordinates":[-87.734932,41.911595]}},{"properties":{"geo_score":0.883,"full name":"Sylvia Cooperwood","id":"a6pjl86i1ia8","address":"1700 . Lorel Avenue  Chicago IL, 60639","geo_precision":"range"},"type":"Feature","geometry":{"type":"Point","coordinates":[-87.759464,41.913109]}},{"properties":{"geo_score":0.842,"full name":"Quicne Cooperwood","id":"a6pjl81f66om","address":"1700 N. Lorel  Chicago IL, 60639","geo_precision":"range"},"type":"Feature","geometry":{"type":"Point","coordinates":[-87.759464,41.913109]}},{"properties":{"geo_score":0.938,"full name":"Quataria Cooperwood","id":"a6pjl836ursk","address":"1700 N. Lorel Ave  Chicago IL, 60639","geo_precision":"range"},"type":"Feature","geometry":{"type":"Point","coordinates":[-87.759464,41.913109]}},{"properties":{"geo_score":0.842,"full name":"Susan Roberts","id":"a6pjl8bmdp95","address":"1711 N. Lorel  Chicago IL, 60639","geo_precision":"range"},"type":"Feature","geometry":{"type":"Point","coordinates":[-87.759384,41.912925]}},{"properties":{"geo_score":0.848,"full name":"Paul Serrano","id":"a6pjl8bovoq2","address":"1933 N. Karlov  Chicago IL, 60639","geo_precision":"range"},"type":"Feature","geometry":{"type":"Point","coordinates":[-87.728897,41.916062]}},{"properties":{"geo_score":0.848,"full name":"Elisabel Latorre","id":"a6pjl81wh2j3","address":"2312 N. Keeler  Chicago IL, 60639","geo_precision":"range"},"type":"Feature","geometry":{"type":"Point","coordinates":[-87.731721,41.923693]}},{"properties":{"geo_score":0.842,"full name":"Juan Andvade","id":"a6pjl85xld7z","address":"2330 N. Meade  Chicago IL, 60639","geo_precision":"range"},"type":"Feature","geometry":{"type":"Point","coordinates":[-87.778199,41.922981]}},{"properties":{"geo_score":0.842,"full name":"Jesus Montaluo","id":"a6pjl8dp7g4v","address":"2330 N. Meade  Chicago IL, 60639","geo_precision":"range"},"type":"Feature","geometry":{"type":"Point","coordinates":[-87.778199,41.922981]}},{"properties":{"geo_score":0.842,"full name":"Jesornisse Montalvo","id":"a6pjl8ds5ngi","address":"2334 N. Meade  Chicago IL, 60639","geo_precision":"range"},"type":"Feature","geometry":{"type":"Point","coordinates":[-87.778197,41.922892]}},{"properties":{"geo_score":0.842,"full name":"Zenaida Montalvo","id":"a6pjl8e6pube","address":"2334 N. Meade  Chicago IL, 60639","geo_precision":"range"},"type":"Feature","geometry":{"type":"Point","coordinates":[-87.778197,41.922892]}},{"properties":{"geo_score":0.938,"full name":"Cheyla Molina","id":"a6pjl84bpoox","address":"2336 n moody ave  Chicago IL, 60639","geo_precision":"range"},"type":"Feature","geometry":{"type":"Point","coordinates":[-87.779391,41.922276]}},{"properties":{"geo_score":0.842,"full name":"Cheyla Molina","id":"a6pjl8al3zpx","address":"2336 N. Moody  Chicago IL, 60639","geo_precision":"range"},"type":"Feature","geometry":{"type":"Point","coordinates":[-87.779391,41.922276]}},{"properties":{"geo_score":0.853,"full name":"Patricia Balbuena","id":"a6pjl88cx80n","address":"2725 N. Marmora  Chicago IL, 60639","geo_precision":"range"},"type":"Feature","geometry":{"type":"Point","coordinates":[-87.773432,41.930259]}},{"properties":{"geo_score":0.635,"full name":"Ivan Calderon","id":"a6pjl855bc54","address":"4640 S. Kenneth  Chicago IL, 60639","geo_precision":"street"},"type":"Feature","geometry":{"type":"Point","coordinates":[-87.737769,41.923846]}},{"properties":{"geo_score":0.932,"full name":"Luis Arroyo","id":"a6pjl859k7tm","address":"4909 W. Fullerton Ave.  Chicago IL, 60639","geo_precision":"range"},"type":"Feature","geometry":{"type":"Point","coordinates":[-87.751076,41.924102]}},{"properties":{"geo_score":0.606,"full name":"Amy Burges","id":"a6pjl7xwu0km","address":"4914 W. Schubert  Chicago IL, 60639","geo_precision":"zip"},"type":"Feature","geometry":{"type":"Point","coordinates":[-87.68732,41.811929]}},{"properties":{"geo_score":0.935,"full name":"Mario Sanchez","id":"a6pjl7ztiot0","address":"2910 N Kildare Ave  Chicago IL, 60641","geo_precision":"range"},"type":"Feature","geometry":{"type":"Point","coordinates":[-87.734919,41.933841]}},{"properties":{"geo_score":0.643,"full name":"Gabriel Inglesias","id":"a6pjl83ojwb7","address":"3327 W. Bernice  Chicago IL, 60641","geo_precision":"street"},"type":"Feature","geometry":{"type":"Point","coordinates":[-87.746603,41.950677]}},{"properties":{"geo_score":0.869,"full name":"Jessica Reyes","id":"a6pjl7zrjp6y","address":"4827 W. Roscoe Apt 1 N Chicago IL, 60641","geo_precision":"range"},"type":"Feature","geometry":{"type":"Point","coordinates":[-87.749445,41.942444]}},{"properties":{"geo_score":0.865,"full name":"Andrew Robles","id":"a6pjl7ynp3of","address":"4837 W. Roscoe  Chicago IL, 60641","geo_precision":"range"},"type":"Feature","geometry":{"type":"Point","coordinates":[-87.749253,41.942372]}},{"properties":{"geo_score":0.876,"full name":"Vegol Alejandro","id":"a6pjl8a27ocx","address":"5109 W. Henderson  Chicago IL, 60641","geo_precision":"range"},"type":"Feature","geometry":{"type":"Point","coordinates":[-87.756629,41.941365]}},{"properties":{"geo_score":0.933,"full name":"Fausto Bustamante","id":"a6pjl80b0g1x","address":"5234 w. Henderson st  Chicago IL, 60641","geo_precision":"range"},"type":"Feature","geometry":{"type":"Point","coordinates":[-87.758475,41.941491]}},{"properties":{"geo_score":0.933,"full name":"Amy Diaz","id":"a6pjl8dnl0hp","address":"5321 W Cornelia Ave  Chicago IL, 60641","geo_precision":"range"},"type":"Feature","geometry":{"type":"Point","coordinates":[-87.761274,41.944044]}},{"properties":{"geo_score":0.794,"full name":"Jose-Baruch Quezada","id":"a6pjl890y1fv","address":"5343 Warner AVE  Chicago , 60641","geo_precision":"range"},"type":"Feature","geometry":{"type":"Point","coordinates":[-87.760534,41.955921]}},{"properties":{"geo_score":0.605,"full name":"Loz Ditlalli Gonza","id":"a6pjl8dnts5t","address":"5545 W. Melrone St.  Chicago IL, 60641","geo_precision":"zip"},"type":"Feature","geometry":{"type":"Point","coordinates":[-87.68732,41.811929]}},{"properties":{"geo_score":0.869,"full name":"Citlalli Gonzalez","id":"a6pjl87m6t50","address":"5545 W. Melrose  chicago IL, 60641","geo_precision":"range"},"type":"Feature","geometry":{"type":"Point","coordinates":[-87.765585,41.939427]}},{"properties":{"geo_score":0.869,"full name":"Tietl Gonzalez","id":"a6pjl8055xpp","address":"5545 w. melrose  Chicago IL, 60641","geo_precision":"range"},"type":"Feature","geometry":{"type":"Point","coordinates":[-87.765585,41.939427]}},{"properties":{"geo_score":0.869,"full name":"Sergio Gonzalez","id":"a6pjl84v7nls","address":"5545 W. Melrose  Chicago IL, 60641","geo_precision":"range"},"type":"Feature","geometry":{"type":"Point","coordinates":[-87.765585,41.939427]}},{"properties":{"geo_score":0.937,"full name":"Dany Flores","id":"a6pjl7y3smcr","address":"5545 W. Melrose ST.  Chicago IL, 60641","geo_precision":"range"},"type":"Feature","geometry":{"type":"Point","coordinates":[-87.765585,41.939427]}},{"properties":{"geo_score":0.937,"full name":"Mexth Gonzalez","id":"a6pjl8dvwswh","address":"5545 W. Melrose St.  Chicago IL, 60641","geo_precision":"range"},"type":"Feature","geometry":{"type":"Point","coordinates":[-87.765585,41.939427]}},{"properties":{"geo_score":0.668,"full name":"Michael Wilson","id":"a6pjl893mg1z","address":"1170 W. Erie Apt 1307  Chicago IL, 60642","geo_precision":"range"},"type":"Feature","geometry":{"type":"Point","coordinates":[-87.657411,41.893566]}},{"properties":{"geo_score":0.938,"full name":"Canosha Collier","id":"a6pjl80tyfs8","address":"10351 S. Peoria St  Chicago IL, 60643","geo_precision":"range"},"type":"Feature","geometry":{"type":"Point","coordinates":[-87.645148,41.705557]}},{"properties":{"geo_score":0.933,"full name":"Kimberly Dyson","id":"a6pjl8cum4ig","address":"10563 S. Prospect Ave  CHICAGO IL, 60643","geo_precision":"range"},"type":"Feature","geometry":{"type":"Point","coordinates":[-87.661818,41.702959]}},{"properties":{"geo_score":0.865,"full name":"Robert Moore","id":"a6pjl84m6eov","address":"11649 S. Peoria  Chicago IL, 60643","geo_precision":"range"},"type":"Feature","geometry":{"type":"Point","coordinates":[-87.644406,41.681829]}},{"properties":{"geo_score":0.865,"full name":"Robert Moore","id":"a6pjl885zu4x","address":"11649 S. Peoria  Chicago IL, 60643","geo_precision":"range"},"type":"Feature","geometry":{"type":"Point","coordinates":[-87.644406,41.681829]}},{"properties":{"geo_score":0.853,"full name":"Tiffany Boyer","id":"a6pjl8b2jp3m","address":"11842 s. watkins  Chicago IL, 60643","geo_precision":"range"},"type":"Feature","geometry":{"type":"Point","coordinates":[-87.670186,41.678267]}},{"properties":{"geo_score":0.842,"full name":"Sharese Danforth","id":"a6pjl8bbm4a5","address":"1334 W. 99th St Apt B5 Chicago IL, 60643","geo_precision":"range"},"type":"Feature","geometry":{"type":"Point","coordinates":[-87.65592,41.714126]}},{"properties":{"geo_score":0.886,"full name":"Sheila Anderson","id":"a6pjl8e6n4uq","address":"1334 W. 99th Street  Chicago IL, 60643","geo_precision":"range"},"type":"Feature","geometry":{"type":"Point","coordinates":[-87.65592,41.714126]}},{"properties":{"geo_score":0.886,"full name":"Edwina Ratliff","id":"a6pjl85e2trs","address":"1334 W. 99th Street  Chicago IL, 60643","geo_precision":"range"},"type":"Feature","geometry":{"type":"Point","coordinates":[-87.65592,41.714126]}},{"properties":{"geo_score":0.906,"full name":"Latrice Foules","id":"a6pjl81gltsy","address":"1803 W 95th ST  Chicago IL, 60643","geo_precision":"range"},"type":"Feature","geometry":{"type":"Point","coordinates":[-87.667445,41.721143]}},{"properties":{"geo_score":0.971,"full name":"Laura Sanchez","id":"a6pjl7yaxfnx","address":"1814 W. 107th St.  CHICAGO IL, 60643","geo_precision":"range"},"type":"Feature","geometry":{"type":"Point","coordinates":[-87.668811,41.699338]}},{"properties":{"geo_score":0.848,"full name":"Sherri Johnson","id":"a6pjl8dvsq1v","address":"9603 S. Racine  Chicago IL, 60643","geo_precision":"range"},"type":"Feature","geometry":{"type":"Point","coordinates":[-87.6528,41.718693]}},{"properties":{"geo_score":0.876,"full name":"Tatiana Williams","id":"a6pjl8295xx7","address":"9605 S. Carpenter  Chicago IL, 60643","geo_precision":"range"},"type":"Feature","geometry":{"type":"Point","coordinates":[-87.649114,41.71762]}},{"properties":{"geo_score":0.935,"full name":"Jennifer Colon","id":"a6pjl8a302jq","address":"9710 S. Winston Ave  Chicago IL, 60643","geo_precision":"range"},"type":"Feature","geometry":{"type":"Point","coordinates":[-87.658127,41.71419]}},{"properties":{"geo_score":0.683,"full name":"Jamie McDonald","id":"a6pjl7ycc3bd","address":"1  Chicago IL, 60644","geo_precision":"zip"},"type":"Feature","geometry":{"type":"Point","coordinates":[-87.68732,41.811929]}},{"properties":{"geo_score":0.87,"full name":"Natayia Williams","id":"a6pjl8047upz","address":"106 N. Pine Ave Apt 302 Chicago IL, 60644","geo_precision":"range"},"type":"Feature","geometry":{"type":"Point","coordinates":[-87.763397,41.884132]}},{"properties":{"geo_score":0.842,"full name":"Chamille Weddington","id":"a6pjl87xw87z","address":"117 N. Lorel  Chicago IL, 60644","geo_precision":"range"},"type":"Feature","geometry":{"type":"Point","coordinates":[-87.75887,41.884012]}},{"properties":{"geo_score":0.94,"full name":"Dorothy Ellis","id":"a6pjl88qvqov","address":"150 N. Long Ave  Chicago IL, 60644","geo_precision":"range"},"type":"Feature","geometry":{"type":"Point","coordinates":[-87.760294,41.882901]}},{"properties":{"geo_score":0.94,"full name":"Angel Williams","id":"a6pjl8cf8q94","address":"211 N. Long Ave  Chicago IL, 60644","geo_precision":"range"},"type":"Feature","geometry":{"type":"Point","coordinates":[-87.76019,41.885294]}},{"properties":{"geo_score":0.94,"full name":"Julie Walker","id":"a6pjl887u4oa","address":"232 N. Pine Ave  Chicago IL, 60644","geo_precision":"range"},"type":"Feature","geometry":{"type":"Point","coordinates":[-87.763325,41.884256]}},{"properties":{"geo_score":0.935,"full name":"Glenda Cunningham","id":"a6pjl811u2v6","address":"304 N. Central Ave  Chicago IL, 60644","geo_precision":"range"},"type":"Feature","geometry":{"type":"Point","coordinates":[-87.765187,41.887463]}},{"properties":{"geo_score":0.834,"full name":"Felecia McElroy","id":"a6pjl83ezzzz","address":"332 N. Pine  Chicago IL, 60644","geo_precision":"range"},"type":"Feature","geometry":{"type":"Point","coordinates":[-87.763477,41.886346]}},{"properties":{"geo_score":0.935,"full name":"Michaela Patton","id":"a6pjl7zkoklm","address":"39 N Central Ave  Chicago IL, 60644","geo_precision":"range"},"type":"Feature","geometry":{"type":"Point","coordinates":[-87.764812,41.881081]}},{"properties":{"geo_score":0.834,"full name":"Mary Hartsfield","id":"a6pjl8bjklrs","address":"4726 W. Race  Chicago IL, 60644","geo_precision":"range"},"type":"Feature","geometry":{"type":"Point","coordinates":[-87.745039,41.890568]}},{"properties":{"geo_score":0.865,"full name":"Whitney Nash","id":"a6pjl87l1z23","address":"4943 W. Quincy  Chicago IL, 60644","geo_precision":"range"},"type":"Feature","geometry":{"type":"Point","coordinates":[-87.747126,41.877594]}},{"properties":{"geo_score":0.841,"full name":"Cynthia Eubanks","id":"a6pjl7yq5ul8","address":"5022 West Gladys  Chicago IL, 60644","geo_precision":"range"},"type":"Feature","geometry":{"type":"Point","coordinates":[-87.752483,41.875859]}},{"properties":{"geo_score":0.933,"full name":"mary Crump","id":"a6pjl89ahmwy","address":"519 N. LeClaire Ave  chicago IL, 60644","geo_precision":"range"},"type":"Feature","geometry":{"type":"Point","coordinates":[-87.752937,41.890955]}},{"properties":{"geo_score":0.743,"full name":"janise Collins","id":"a6pjl82z9beb","address":"523 w quincy st  Chicago IL, 60644","geo_precision":"street"},"type":"Feature","geometry":{"type":"Point","coordinates":[-87.745809,41.877683]}},{"properties":{"geo_score":0.937,"full name":"Iceal Peavy","id":"a6pjl83hzekh","address":"5313 W. Gladys Ave  Chicago IL, 60644","geo_precision":"range"},"type":"Feature","geometry":{"type":"Point","coordinates":[-87.761466,41.875599]}},{"properties":{"geo_score":0.938,"full name":"Christine Miller","id":"a6pjl8cnhbq5","address":"5416 w. monroe st.  CHICAGO IL, 60644","geo_precision":"range"},"type":"Feature","geometry":{"type":"Point","coordinates":[-87.759443,41.879396]}},{"properties":{"geo_score":0.851,"full name":"John James","id":"a6pjl8132s10","address":"5420 W. Washington  Chicago IL, 60644","geo_precision":"range"},"type":"Feature","geometry":{"type":"Point","coordinates":[-87.761554,41.882363]}},{"properties":{"geo_score":0.908,"full name":"Jovan Miller","id":"a6pjl803giaf","address":"5420 W. Washington Apt 1E Chicago IL, 60644","geo_precision":"range"},"type":"Feature","geometry":{"type":"Point","coordinates":[-87.761554,41.882363]}},{"properties":{"geo_score":0.869,"full name":"Denise Smith","id":"a6pjl8a0vaoc","address":"5453 W. Madison  Chicago IL, 60644","geo_precision":"range"},"type":"Feature","geometry":{"type":"Point","coordinates":[-87.762439,41.880205]}},{"properties":{"geo_score":0.851,"full name":"Clifton Walker","id":"a6pjl84xu21g","address":"5501 W. Washington  Chicago IL, 60644","geo_precision":"range"},"type":"Feature","geometry":{"type":"Point","coordinates":[-87.764091,41.882253]}},{"properties":{"geo_score":0.834,"full name":"Eboni Edwards","id":"a6pjl8b60kwg","address":"5737 W. Race  Chicago IL, 60644","geo_precision":"range"},"type":"Feature","geometry":{"type":"Point","coordinates":[-87.769253,41.89]}},{"properties":{"geo_score":0.834,"full name":"Sharif Walker","id":"a6pjl81vg3he","address":"5804 W. Race  Chicago IL, 60644","geo_precision":"range"},"type":"Feature","geometry":{"type":"Point","coordinates":[-87.77206,41.890122]}},{"properties":{"geo_score":0.834,"full name":"Sharif Walker","id":"a6pjl7y1vlvw","address":"5804 W. Race  Chicago IL, 60644","geo_precision":"range"},"type":"Feature","geometry":{"type":"Point","coordinates":[-87.77206,41.890122]}},{"properties":{"geo_score":0.851,"full name":"Kiana Fisher","id":"a6pjl887cell","address":"5916 W. Washington  Chicago IL, 60644","geo_precision":"range"},"type":"Feature","geometry":{"type":"Point","coordinates":[-87.772684,41.882211]}},{"properties":{"geo_score":0.848,"full name":"Brian King","id":"a6pjl7ztc8kh","address":"600 N. Cicero  Chicago IL, 60644","geo_precision":"range"},"type":"Feature","geometry":{"type":"Point","coordinates":[-87.745713,41.892269]}},{"properties":{"geo_score":0.863,"full name":"Michelle Dallas","id":"a6pjl87frnl4","address":"741 N. Leamington  Chicago IL, 60644","geo_precision":"range"},"type":"Feature","geometry":{"type":"Point","coordinates":[-87.754278,41.894161]}},{"properties":{"geo_score":0.863,"full name":"Erica Baker","id":"a6pjl89deiso","address":"750 N. Leamington  Chicago IL, 60644","geo_precision":"range"},"type":"Feature","geometry":{"type":"Point","coordinates":[-87.754423,41.893958]}},{"properties":{"geo_score":0.94,"full name":"Pastor Karl Adair","id":"a6pjl7ybu9ev","address":"2527 W Lunt Ave  Chicago IL, 60645","geo_precision":"range"},"type":"Feature","geometry":{"type":"Point","coordinates":[-87.694367,42.008496]}},{"properties":{"geo_score":0.938,"full name":"Rosalyn Jones","id":"a6pjl8d2pems","address":"7369 N. Damen Ave  Chicago IL, 60645","geo_precision":"range"},"type":"Feature","geometry":{"type":"Point","coordinates":[-87.680398,42.016202]}},{"properties":{"geo_score":0.937,"full name":"Shelby Turner","id":"a6pjl82ata9h","address":"1621 N. Kedzie Ave  Chicago IL, 60647","geo_precision":"range"},"type":"Feature","geometry":{"type":"Point","coordinates":[-87.706715,41.91048]}},{"properties":{"geo_score":0.834,"full name":"Jolin Rosario","id":"a6pjl8c86m6o","address":"1642 N. Bell  Chicago IL, 60647","geo_precision":"range"},"type":"Feature","geometry":{"type":"Point","coordinates":[-87.683682,41.91191]}},{"properties":{"geo_score":0.913,"full name":"Monica Henao","id":"a6pjl8aduijf","address":"1735 N. Spaulding Save  Chicago IL, 60647","geo_precision":"range"},"type":"Feature","geometry":{"type":"Point","coordinates":[-87.710101,41.91349]}},{"properties":{"geo_score":0.842,"full name":"DeAndra Green","id":"a6pjl86mlx73","address":"1745 N. Drake  Chicago IL, 60647","geo_precision":"range"},"type":"Feature","geometry":{"type":"Point","coordinates":[-87.714958,41.913352]}},{"properties":{"geo_score":0.916,"full name":"Sijisfredo Aviles","id":"a6pjl83kqn8o","address":"1925 N. Drake Apt 2E Chicago IL, 60647","geo_precision":"range"},"type":"Feature","geometry":{"type":"Point","coordinates":[-87.715026,41.915526]}},{"properties":{"geo_score":0.848,"full name":"Justin Rodriguez","id":"a6pjl847eypw","address":"2130 N. Kedzie  Chicago IL, 60647","geo_precision":"range"},"type":"Feature","geometry":{"type":"Point","coordinates":[-87.707426,41.921096]}},{"properties":{"geo_score":0.746,"full name":"Erin Doherty","id":"a6pjl7zbz6sy","address":"2328 N. Maplewood Ave - Apt. 2 Apt. 2 Chicago IL, 60647","geo_precision":"range"},"type":"Feature","geometry":{"type":"Point","coordinates":[-87.691488,41.924423]}},{"properties":{"geo_score":0.832,"full name":"David Bustos","id":"a6pjl88r37s5","address":"2401 W. North Ave  Chicago IL, 60647","geo_precision":"range"},"type":"Feature","geometry":{"type":"Point","coordinates":[-87.687458,41.910316]}},{"properties":{"geo_score":0.707,"full name":"Robert Madrigal","id":"a6pjl8cnhjvn","address":"2523 N. Linder  Chicago IL, 60647","geo_precision":"range"},"type":"Feature","geometry":{"type":"Point","coordinates":[-87.763557,41.9268]}},{"properties":{"geo_score":0.937,"full name":"Stephen Ianno","id":"a6pjl844bhcd","address":"2707 N. Kedzie Ave  Chicago IL, 60647","geo_precision":"range"},"type":"Feature","geometry":{"type":"Point","coordinates":[-87.707324,41.930729]}},{"properties":{"geo_score":0.869,"full name":"Sonia Lopez","id":"a6pjl7zjaetv","address":"3112 W. Lyndale  Chicago IL, 60647","geo_precision":"range"},"type":"Feature","geometry":{"type":"Point","coordinates":[-87.702233,41.922385]}},{"properties":{"geo_score":0.937,"full name":"David Lopez","id":"a6pjl85kprwy","address":"3112 W. Lyndale St.  Chicago IL, 60647","geo_precision":"range"},"type":"Feature","geometry":{"type":"Point","coordinates":[-87.702233,41.922385]}},{"properties":{"geo_score":0.576,"full name":"Barry Irving","id":"a6pjl84p5ht0","address":"3263 W. Wrightwood Ave. Apt 25  Chicago IL, 60647","geo_precision":"range"},"type":"Feature","geometry":{"type":"Point","coordinates":[-87.706308,41.846309]}},{"properties":{"geo_score":0.605,"full name":"Fernanand Dejusus","id":"a6pjl83drlg8","address":"3942 W. Wrightwood  Chicago IL, 60647","geo_precision":"zip"},"type":"Feature","geometry":{"type":"Point","coordinates":[-87.68732,41.811929]}},{"properties":{"geo_score":0.89,"full name":"Andre McKinstry","id":"a6pjl85r7t0p","address":"2054 E. 72nd Place  Chicago IL, 60649","geo_precision":"range"},"type":"Feature","geometry":{"type":"Point","coordinates":[-87.573779,41.763524]}},{"properties":{"geo_score":0.707,"full name":"Tempie Jones","id":"a6pjl866mutn","address":"2328 A 71st  Chicago IL, 60649","geo_precision":"range"},"type":"Feature","geometry":{"type":"Point","coordinates":[-87.56843,41.766302]}},{"properties":{"geo_score":0.805,"full name":"Sanaa Jones","id":"a6pjl83g5uwn","address":"2329 A 71st  Chicago IL, 60649","geo_precision":"range"},"type":"Feature","geometry":{"type":"Point","coordinates":[-87.56815,41.766231]}},{"properties":{"geo_score":0.935,"full name":"Kenosha Shelton","id":"a6pjl82bvyo1","address":"6715 S Merrill Ave.  chicago IL, 60649","geo_precision":"range"},"type":"Feature","geometry":{"type":"Point","coordinates":[-87.572711,41.771933]}},{"properties":{"geo_score":0.853,"full name":"Alberta Jones","id":"a6pjl8e45fpu","address":"6930 S. Crandon  Chicago IL, 60649","geo_precision":"range"},"type":"Feature","geometry":{"type":"Point","coordinates":[-87.569825,41.768046]}},{"properties":{"geo_score":0.398,"full name":"Bobbie Bowman","id":"a6pjl85kob0k","address":"6930 South Shore Drive APT. 703  Chicago IL, 60649","geo_precision":"street"},"type":"Feature","geometry":{"type":"Point","coordinates":[-87.655907,41.910399]}},{"properties":{"geo_score":0.89,"full name":"Angela Dodd","id":"a6pjl86ej88w","address":"6934 S Crandon #1E 302 Chicago IL, 60649","geo_precision":"range"},"type":"Feature","geometry":{"type":"Point","coordinates":[-87.569901,41.76811]}},{"properties":{"geo_score":0.932,"full name":"Terea Murphy","id":"a6pjl88k8d8s","address":"6947 s constance ave  chicago IL, 60649","geo_precision":"range"},"type":"Feature","geometry":{"type":"Point","coordinates":[-87.579976,41.768799]}},{"properties":{"geo_score":0.415,"full name":"King James","id":"a6pjl85riwpi","address":"7022 S. Shore  Chicago IL, 60649","geo_precision":"street"},"type":"Feature","geometry":{"type":"Point","coordinates":[-87.655907,41.910399]}},{"properties":{"geo_score":0.853,"full name":"Rodney Meeks","id":"a6pjl85tzi9p","address":"7444 S. Chappel  Chicago IL, 60649","geo_precision":"range"},"type":"Feature","geometry":{"type":"Point","coordinates":[-87.574997,41.760118]}},{"properties":{"geo_score":0.858,"full name":"Rondalynn Houltram","id":"a6pjl8bklyxb","address":"7447 S. South Shore Dr.  Chicago IL, 60649","geo_precision":"range"},"type":"Feature","geometry":{"type":"Point","coordinates":[-87.557152,41.760677]}},{"properties":{"geo_score":0.415,"full name":"Wilma Weathersby","id":"a6pjl81xs5xm","address":"7465 s shore dr  Chicago IL, 60649","geo_precision":"street"},"type":"Feature","geometry":{"type":"Point","coordinates":[-87.655907,41.910399]}},{"properties":{"geo_score":0.605,"full name":"Robert McPherson","id":"a6pjl7zbxex0","address":"7505 S. Yate Blvd  Chicago IL, 60649","geo_precision":"zip"},"type":"Feature","geometry":{"type":"Point","coordinates":[-87.68732,41.811929]}},{"properties":{"geo_score":0.607,"full name":"Ameer Bogan","id":"a6pjl841487e","address":"7542 S. Phillip  Chicago IL, 60649","geo_precision":"zip"},"type":"Feature","geometry":{"type":"Point","coordinates":[-87.68732,41.811929]}},{"properties":{"geo_score":0.826,"full name":"Antoinette Munn","id":"a6pjl7xybfr6","address":"7601 s yates  Chicago IL, 60649","geo_precision":"range"},"type":"Feature","geometry":{"type":"Point","coordinates":[-87.566302,41.755361]}},{"properties":{"geo_score":0.857,"full name":"Visae Young","id":"a6pjl80hljmr","address":"7603 s kingston  Chicago IL, 60649","geo_precision":"range"},"type":"Feature","geometry":{"type":"Point","coordinates":[-87.56259,41.755444]}},{"properties":{"geo_score":0.86,"full name":"Evelyn Gipson","id":"a6pjl8db30xl","address":"7657 S. Ridgeland  Chicago IL, 60649","geo_precision":"range"},"type":"Feature","geometry":{"type":"Point","coordinates":[-87.582121,41.756208]}},{"properties":{"geo_score":0.794,"full name":"Tiffany Sykes","id":"a6pjl8cr1m1g","address":"7754 S. East End  Chicago IL, 60649","geo_precision":"range"},"type":"Feature","geometry":{"type":"Point","coordinates":[-87.583449,41.754334]}},{"properties":{"geo_score":0.858,"full name":"Stephanie Garcia","id":"a6pjl8bfn6zp","address":"7801 S. South Shore Dr.  Chicago IL, 60649","geo_precision":"range"},"type":"Feature","geometry":{"type":"Point","coordinates":[-87.549646,41.753479]}},{"properties":{"geo_score":0.605,"full name":"Romella Woods","id":"a6pjl89uky0y","address":"7811 S. Colfax Ave.  CHICAGO IL, 60649","geo_precision":"zip"},"type":"Feature","geometry":{"type":"Point","coordinates":[-87.68732,41.811929]}},{"properties":{"geo_score":0.7,"full name":"Wyonna Smith","id":"a6pjl8667uui","address":"8219 maryland 3fl  Chicago IL, 60649","geo_precision":"range"},"type":"Feature","geometry":{"type":"Point","coordinates":[-87.603699,41.744322]}},{"properties":{"geo_score":0.464,"full name":"Shena Blair","id":"a6pjl89lavo0","address":"1025 N. Lockwood  Chicago IL, 60651","geo_precision":"street"},"type":"Feature","geometry":{"type":"Point","coordinates":[-87.661859,41.919111]}},{"properties":{"geo_score":0.834,"full name":"Janice Simmons","id":"a6pjl8al6r10","address":"1322 N. Laramie 2nd Floor Chicago IL, 60651","geo_precision":"range"},"type":"Feature","geometry":{"type":"Point","coordinates":[-87.755925,41.905466]}},{"properties":{"geo_score":0.848,"full name":"Margaret Stavrou","id":"a6pjl8ceg36g","address":"1438 N. Kedzie  Chicago IL, 60651","geo_precision":"range"},"type":"Feature","geometry":{"type":"Point","coordinates":[-87.707035,41.908229]}},{"properties":{"geo_score":0.853,"full name":"Raven Smart","id":"a6pjl87h253p","address":"1523 N. Latrobe  Chicago IL, 60651","geo_precision":"range"},"type":"Feature","geometry":{"type":"Point","coordinates":[-87.757096,41.908571]}},{"properties":{"geo_score":0.865,"full name":"Sasha Love","id":"a6pjl87ap9sc","address":"3229 W Cortez  CHICAGO IL, 60651","geo_precision":"range"},"type":"Feature","geometry":{"type":"Point","coordinates":[-87.707409,41.900054]}},{"properties":{"geo_score":0.873,"full name":"Tia Baugh","id":"a6pjl8356i52","address":"3943 W Division  Chicago IL, 60651","geo_precision":"range"},"type":"Feature","geometry":{"type":"Point","coordinates":[-87.726092,41.9026]}},{"properties":{"geo_score":0.772,"full name":"Cornise Williams","id":"a6pjl823hnb9","address":"4359 W Crystal  Chicago , 60651","geo_precision":"range"},"type":"Feature","geometry":{"type":"Point","coordinates":[-87.734956,41.903366]}},{"properties":{"geo_score":0.873,"full name":"Jessica Ramirez","id":"a6pjl84gzcf3","address":"4401 W. Division  Chicago IL, 60651","geo_precision":"range"},"type":"Feature","geometry":{"type":"Point","coordinates":[-87.738599,41.902471]}},{"properties":{"geo_score":0.873,"full name":"Tiffany Danley","id":"a6pjl80e7ded","address":"4401 W. Division  Chicago IL, 60651","geo_precision":"range"},"type":"Feature","geometry":{"type":"Point","coordinates":[-87.738599,41.902471]}},{"properties":{"geo_score":0.938,"full name":"Dudley Locke","id":"a6pjl89awxrl","address":"4920 W. Cortez St  chicago IL, 60651","geo_precision":"range"},"type":"Feature","geometry":{"type":"Point","coordinates":[-87.750314,41.899628]}},{"properties":{"geo_score":0.865,"full name":"Mildred Wiley","id":"a6pjl879b8j5","address":"4950 W. Thomas  Chicago IL, 60651","geo_precision":"range"},"type":"Feature","geometry":{"type":"Point","coordinates":[-87.749025,41.90056]}},{"properties":{"geo_score":0.551,"full name":"Sharon Morgan","id":"a6pjl80aixz7","address":"5608 W. Washington  Chicago IL, 60651","geo_precision":"street"},"type":"Feature","geometry":{"type":"Point","coordinates":[-87.639012,41.883189]}},{"properties":{"geo_score":0.817,"full name":"Caiserene Sanders","id":"a6pjl86wenrw","address":"5943 West Rice St 2nd Floor Chicago IL, 60651","geo_precision":"range"},"type":"Feature","geometry":{"type":"Point","coordinates":[-87.774108,41.895561]}},{"properties":{"geo_score":0.935,"full name":"W. Terrell Burgess","id":"a6pjl85s0lic","address":"827 N. Latrobe Ave  Chicago IL, 60651","geo_precision":"range"},"type":"Feature","geometry":{"type":"Point","coordinates":[-87.75687,41.896747]}},{"properties":{"geo_score":0.871,"full name":"Noemi Olmo","id":"a6pjl7z5x9de","address":"912 N. Central Park  Chicago IL, 60651","geo_precision":"range"},"type":"Feature","geometry":{"type":"Point","coordinates":[-87.765554,41.897186]}},{"properties":{"geo_score":0.931,"full name":"Dionne Moore","id":"a6pjl85jrshu","address":"945 N. Monticello Ave.  Chicago IL, 60651","geo_precision":"range"},"type":"Feature","geometry":{"type":"Point","coordinates":[-87.717555,41.89828]}},{"properties":{"geo_score":0.857,"full name":"Ashley Brooks","id":"a6pjl8d90met","address":"IL, 60651","geo_precision":"zip"},"type":"Feature","geometry":{"type":"Point","coordinates":[-87.68732,41.811929]}},{"properties":{"geo_score":0.857,"full name":"Barbara Davis","id":"a6pjl88406ff","address":"IL, 60651","geo_precision":"zip"},"type":"Feature","geometry":{"type":"Point","coordinates":[-87.68732,41.811929]}},{"properties":{"geo_score":0.89,"full name":"Deborah Strong","id":"a6pjl823zm6o","address":"2729 W. 85th Place  Chicago IL, 60652","geo_precision":"range"},"type":"Feature","geometry":{"type":"Point","coordinates":[-87.69165,41.738465]}},{"properties":{"geo_score":0.906,"full name":"Crystal Shinn","id":"a6pjl8aocmhx","address":"2931 W 86th St  Chicago IL, 60652","geo_precision":"range"},"type":"Feature","geometry":{"type":"Point","coordinates":[-87.696467,41.737036]}},{"properties":{"geo_score":0.906,"full name":"Lawrence Henderson","id":"a6pjl81ee5km","address":"3528 W. 75th Pl  Chicago IL, 60652","geo_precision":"range"},"type":"Feature","geometry":{"type":"Point","coordinates":[-87.711021,41.756134]}},{"properties":{"geo_score":0.886,"full name":"Mark McGinnis","id":"a6pjl82fmre4","address":"3553 W. 75th Street  Chicago IL, 60652","geo_precision":"range"},"type":"Feature","geometry":{"type":"Point","coordinates":[-87.710155,41.756845]}},{"properties":{"geo_score":0.886,"full name":"Leon Ervin","id":"a6pjl8dl8rre","address":"3738 W. 85th Street  Chicago IL, 60652","geo_precision":"range"},"type":"Feature","geometry":{"type":"Point","coordinates":[-87.716639,41.738688]}},{"properties":{"geo_score":0.843,"full name":"Charmaine Dade","id":"a6pjl86v61t8","address":"8014 South Troy  Chicago IL, 60652","geo_precision":"range"},"type":"Feature","geometry":{"type":"Point","coordinates":[-87.701153,41.746431]}},{"properties":{"geo_score":0.86,"full name":"Theresa McIntosh","id":"a6pjl84nberk","address":"8033 S. Fairfield  Chicago IL, 60652","geo_precision":"range"},"type":"Feature","geometry":{"type":"Point","coordinates":[-87.691247,41.746925]}},{"properties":{"geo_score":0.603,"full name":"Regina Lampley","id":"a6pjl7zxa1yl","address":"8151 S. Christiana St.  Chicago IL, 60652","geo_precision":"zip"},"type":"Feature","geometry":{"type":"Point","coordinates":[-87.68732,41.811929]}},{"properties":{"geo_score":0.714,"full name":"Michael Anderson","id":"a6pjl8dgynab","address":"1061 E. 41st Place  Chicago IL, 60653","geo_precision":"street"},"type":"Feature","geometry":{"type":"Point","coordinates":[-87.601192,41.819604]}},{"properties":{"geo_score":0.837,"full name":"Ray Lofton","id":"a6pjl8cbeclh","address":"127 E. 36th  Chicago IL, 60653","geo_precision":"range"},"type":"Feature","geometry":{"type":"Point","coordinates":[-87.622083,41.828661]}},{"properties":{"geo_score":0.853,"full name":"Danny Hughes","id":"a6pjl84qf9lb","address":"4053 s indiana  Chicago IL, 60653","geo_precision":"range"},"type":"Feature","geometry":{"type":"Point","coordinates":[-87.62145,41.820988]}},{"properties":{"geo_score":0.785,"full name":"Elaine Parker","id":"a6pjl8abwtpq","address":"4151 s Indiana Ave. 4420 South Drexel Chicago IL, 60653","geo_precision":"range"},"type":"Feature","geometry":{"type":"Point","coordinates":[-87.621403,41.819288]}},{"properties":{"geo_score":0.851,"full name":"Royale Jones","id":"a6pjl8bpi0q0","address":"4321 S. St.Lawrence  Chicago IL, 60653","geo_precision":"range"},"type":"Feature","geometry":{"type":"Point","coordinates":[-87.611641,41.816728]}},{"properties":{"geo_score":0.853,"full name":"Aziza Butler","id":"a6pjl8bf2s9a","address":"4548 S. Prairie  Chicago IL, 60653","geo_precision":"range"},"type":"Feature","geometry":{"type":"Point","coordinates":[-87.619738,41.812037]}},{"properties":{"geo_score":0.373,"full name":"Yolanda Johnson","id":"a6pjl8bbqdx2","address":"4554 S Drexel Blvd Apt 102 Chicago IL, 60653","geo_precision":"street"},"type":"Feature","geometry":{"type":"Point","coordinates":[-87.52868,41.710612]}},{"properties":{"geo_score":0.86,"full name":"William Cooper","id":"a6pjl8ap07u4","address":"4560 S Lake Park  Chicago IL, 60653","geo_precision":"range"},"type":"Feature","geometry":{"type":"Point","coordinates":[-87.595686,41.812614]}},{"properties":{"geo_score":0.837,"full name":"Samantha Dancy","id":"a6pjl81dldsc","address":"743 E. 38th  Chicago IL, 60653","geo_precision":"range"},"type":"Feature","geometry":{"type":"Point","coordinates":[-87.609686,41.825649]}},{"properties":{"geo_score":0.857,"full name":"Rather Stanton","id":"a6pjl87c6ayw","address":"IL, 60657","geo_precision":"zip"},"type":"Feature","geometry":{"type":"Point","coordinates":[-87.68732,41.811929]}},{"properties":{"geo_score":0.857,"full name":"Olivia Watkins","id":"a6pjl85noku6","address":"6120 N. Hamilton  chicago IL, 60659","geo_precision":"range"},"type":"Feature","geometry":{"type":"Point","coordinates":[-87.683638,41.992525]}},{"properties":{"geo_score":0.805,"full name":"Ana Alanis","id":"a6pjl85yriq2","address":"1832 N. Humboldt Blvd.  Chicago IL, 60667","geo_precision":"range"},"type":"Feature","geometry":{"type":"Point","coordinates":[-87.702442,41.915045]}},{"properties":{"geo_score":0.707,"full name":"Yolanda Nunez","id":"a6pjl7ywcu4l","address":"2831 S. Keeler  Chicago IL, 60673","geo_precision":"range"},"type":"Feature","geometry":{"type":"Point","coordinates":[-87.729192,41.838948]}},{"properties":{"geo_score":0.892,"full name":"Terri Brown","id":"a6pjl87tgcvc","address":"PO BOX 2527  chicago IL, 60690","geo_precision":"zip"},"type":"Feature","geometry":{"type":"Point","coordinates":[-87.68732,41.811929]}},{"properties":{"geo_score":0.667,"full name":"Angel Kendall","id":"a6pjl85ugrho","address":"2023 N. Harlem A5 Chicago IL, 60707","geo_precision":"range"},"type":"Feature","geometry":{"type":"Point","coordinates":[-87.805935,41.916228]}},{"properties":{"geo_score":0.834,"full name":"Sonia Garcia","id":"a6pjl8676y77","address":"2546 N. Mont Clare  Chicago IL, 60707","geo_precision":"range"},"type":"Feature","geometry":{"type":"Point","coordinates":[-87.803974,41.926304]}},{"properties":{"geo_score":0.834,"full name":"Marcein Garcia","id":"a6pjl8356z14","address":"2546 N. Mont Clare  Chicago IL, 60707","geo_precision":"range"},"type":"Feature","geometry":{"type":"Point","coordinates":[-87.803974,41.926304]}},{"properties":{"geo_score":0.834,"full name":"Daniela Garcia","id":"a6pjl7ylaipa","address":"2546 N. Mont Clare  Chicago IL, 60707","geo_precision":"range"},"type":"Feature","geometry":{"type":"Point","coordinates":[-87.803974,41.926304]}},{"properties":{"geo_score":0.825,"full name":"Gabriel Garcia","id":"a6pjl8a8ffzy","address":"2546 N. Montclare  Chicago IL, 60707","geo_precision":"range"},"type":"Feature","geometry":{"type":"Point","coordinates":[-87.803974,41.926304]}},{"properties":{"geo_score":0.821,"full name":"Marcial Gomez","id":"a6pjl7y0esza","address":"2742 N Mont Clare AVE  Chicago IL, 60707","geo_precision":"range"},"type":"Feature","geometry":{"type":"Point","coordinates":[-87.804104,41.930002]}},{"properties":{"geo_score":0.591,"full name":"Armando Casas","id":"a6pjl8ablpar","address":"1925B Grove Ave.  Berwyn IL, 60804","geo_precision":"zip"},"type":"Feature","geometry":{"type":"Point","coordinates":[-87.68732,41.811929]}},{"properties":{"geo_score":0.785,"full name":"Guadalupe Velazquez","id":"a6pjl802h9t7","address":"1332 S. 59th St.  Chicago IL, 60804","geo_precision":"range"},"type":"Feature","geometry":{"type":"Point","coordinates":[-87.77166,41.862437]}},{"properties":{"geo_score":0.574,"full name":"Salondra Burel","id":"a6pjl850zufp","address":"13133 s st. lawrence  Chicago IL, 60807","geo_precision":"street"},"type":"Feature","geometry":{"type":"Point","coordinates":[-87.608274,41.685883]}},{"properties":{"geo_score":0.509,"full name":"Claudette Kincaide","id":"a6pjl8anl339","address":"13146 Shangley  Chicago IL, 60821","geo_precision":"city"},"type":"Feature","geometry":{"type":"Point","coordinates":[-87.68732,41.811929]}},{"properties":{"geo_score":0.811,"full name":"Kevin Forte","id":"a6pjl8aegjxz","address":"12760 S. Loomis  Calumet IL, 60827","geo_precision":"range"},"type":"Feature","geometry":{"type":"Point","coordinates":[-87.656057,41.661666]}},{"properties":{"geo_score":0.81,"full name":"Barbara Woods","id":"a6pjl7zntiss","address":"12627 S. Elizabeth  Chicago IL, 60827","geo_precision":"range"},"type":"Feature","geometry":{"type":"Point","coordinates":[-87.652337,41.663957]}},{"properties":{"geo_score":0.798,"full name":"Frederick Hamilton","id":"a6pjl82sts0k","address":"13072 s ellis  Chicago IL, 60827","geo_precision":"range"},"type":"Feature","geometry":{"type":"Point","coordinates":[-87.597659,41.658132]}},{"properties":{"geo_score":0.481,"full name":"Camile Westfield","id":"a6pjl7z75ibd","address":"13227 S. Saint Lawrence At. 1813  Chicago IL, 60827","geo_precision":"street"},"type":"Feature","geometry":{"type":"Point","coordinates":[-87.654738,41.660885]}},{"properties":{"geo_score":0.811,"full name":"Marcus Holden","id":"a6pjl887v5tm","address":"13317 s langley  Chicago IL, 60827","geo_precision":"range"},"type":"Feature","geometry":{"type":"Point","coordinates":[-87.604932,41.654126]}},{"properties":{"geo_score":0.816,"full name":"Latorsha Frierson","id":"a6pjl8blc8d0","address":"13328 S. Corliss  Chicago IL, 60827","geo_precision":"range"},"type":"Feature","geometry":{"type":"Point","coordinates":[-87.60214,41.653628]}},{"properties":{"geo_score":0.799,"full name":"Patricia Mack","id":"a6pjl854vjpa","address":"13358 S. Carliss  Chicago IL, 60827","geo_precision":"range"},"type":"Feature","geometry":{"type":"Point","coordinates":[-87.60225,41.654103]}},{"properties":{"geo_score":0.816,"full name":"Yvette Harvey","id":"a6pjl84qvsq0","address":"13358 S. Corliss  Chicago IL, 60827","geo_precision":"range"},"type":"Feature","geometry":{"type":"Point","coordinates":[-87.60225,41.654103]}},{"properties":{"geo_score":0.786,"full name":"Fabia Moore","id":"a6pjl864lozp","address":"220 E. 132nd Street  Chicago IL, 60827","geo_precision":"range"},"type":"Feature","geometry":{"type":"Point","coordinates":[-87.616925,41.65568]}},{"properties":{"geo_score":0.786,"full name":"Pastor Marcus Randle","id":"a6pjl83nugq5","address":"244 E 138th street  Chicago IL, 60827","geo_precision":"range"},"type":"Feature","geometry":{"type":"Point","coordinates":[-87.615965,41.644663]}},{"properties":{"geo_score":0.582,"full name":"Jasmine Lee","id":"a6pjl88tdna0","address":"600 e 133rd st lawrence  Chicago IL, 60827","geo_precision":"street"},"type":"Feature","geometry":{"type":"Point","coordinates":[-87.607563,41.65732]}},{"properties":{"geo_score":0.582,"full name":"Charmaine Jordan","id":"a6pjl8dmsgoa","address":"600a e 133rd st lawrence  Chicago IL, 60827","geo_precision":"street"},"type":"Feature","geometry":{"type":"Point","coordinates":[-87.607563,41.65732]}},{"properties":{"geo_score":0.594,"full name":"Evelyn Reed","id":"a6pjl81wsofk","address":"645 w. 105 street  Chicago IL, 60827","geo_precision":"zip"},"type":"Feature","geometry":{"type":"Point","coordinates":[-87.68732,41.811929]}},{"properties":{"geo_score":0.777,"full name":"Dakisha Smith","id":"a6pjl8blok6m","address":"664A E. 133rd  Chicago IL, 60827","geo_precision":"range"},"type":"Feature","geometry":{"type":"Point","coordinates":[-87.605421,41.653781]}},{"properties":{"geo_score":0.782,"full name":"Maria Jenkins","id":"a6pjl8dwj4lt","address":"732 E. 132nd St.  Chicago IL, 60827","geo_precision":"range"},"type":"Feature","geometry":{"type":"Point","coordinates":[-87.603155,41.655893]}},{"properties":{"geo_score":0.733,"full name":"Kenneth Wright","id":"a6pjl893xkv1","address":"739 east 131  Chicago IL, 60827","geo_precision":"range"},"type":"Feature","geometry":{"type":"Point","coordinates":[-87.60243,41.657125]}},{"properties":{"geo_score":0.786,"full name":"Rush Canise","id":"a6pjl82hv9vp","address":"748 E. 131st Street  Chicago IL, 60827","geo_precision":"range"},"type":"Feature","geometry":{"type":"Point","coordinates":[-87.6026,41.657277]}},{"properties":{"geo_score":0.786,"full name":"Mildred Steward","id":"a6pjl7zc9i8f","address":"748 E. 131st Street  Chicago IL, 60827","geo_precision":"range"},"type":"Feature","geometry":{"type":"Point","coordinates":[-87.6026,41.657277]}},{"properties":{"geo_score":0.853,"full name":"nunez Esmerelda","id":"a6pjl8asxa33","address":"2831 S. Kildare  Chicago IL, 60623","geo_precision":"range"},"type":"Feature","geometry":{"type":"Point","coordinates":[-87.731622,41.83892]}},{"properties":{"geo_score":0.593,"full name":"Ethropic Palmer Bryant","id":"a6pjl85wqf7c","address":"302 E. 81st Street  1st Floor IL,","geo_precision":"range"},"type":"Feature","geometry":{"type":"Point","coordinates":[-97.114627,37.387465]}},{"properties":{"geo_score":0.607,"full name":"Jr. Zunun","id":"a6pjl7y3mrkn","address":"2849 S. Nemeth  Chicago IL, 60623","geo_precision":"zip"},"type":"Feature","geometry":{"type":"Point","coordinates":[-87.68732,41.811929]}},{"properties":{"geo_score":0.932,"full name":"Karen Boseman-Gross","id":"a6pjl85jmta8","address":"6936 S. Hermitage Ave  chicago IL, 60636","geo_precision":"range"},"type":"Feature","geometry":{"type":"Point","coordinates":[-87.667588,41.766875]}},{"properties":{"geo_score":0.597,"full name":"Rosales Otir","id":"a6pjl83peutg","address":"2753 S. Keeler Ave.  Chicago IL,","geo_precision":"range"},"type":"Feature","geometry":{"type":"Point","coordinates":[-87.729258,41.841483]}},{"properties":{"geo_score":0.442,"full name":"Noah Pastington","id":"a6pjl82hxzpj","address":"1238 Fullerton  Chicago IL,","geo_precision":"street"},"type":"Feature","geometry":{"type":"Point","coordinates":[-117.89574,33.884209]}},{"properties":{"geo_score":0.404,"full name":"Andrea Hall","id":"a6pjl89obnz2","address":"125 S. Clark  Chicago IL,","geo_precision":"street"},"type":"Feature","geometry":{"type":"Point","coordinates":[-87.603552,41.764426]}},{"properties":{"geo_score":0.407,"full name":"Serena Durr-Jones","id":"a6pjl8a0y6fy","address":"13212 S. Prairie Ave  Chicago IL,","geo_precision":"street"},"type":"Feature","geometry":{"type":"Point","coordinates":[-87.616543,41.676291]}},{"properties":{"geo_score":0.601,"full name":"Susan Morcera","id":"a6pjl8cw55h8","address":"1618 W. 17th Street  Chicago IL,","geo_precision":"range"},"type":"Feature","geometry":{"type":"Point","coordinates":[-87.667868,41.896141]}},{"properties":{"geo_score":0.406,"full name":"Berruta Brown","id":"a6pjl85q4uoo","address":"1687 E. 83rd Street  Chicago IL,","geo_precision":"street"},"type":"Feature","geometry":{"type":"Point","coordinates":[-87.620249,41.896788]}},{"properties":{"geo_score":0.604,"full name":"Patricia Garcia","id":"a6pjl83ghnir","address":"1737 W. 18th Place  Chicago IL,","geo_precision":"range"},"type":"Feature","geometry":{"type":"Point","coordinates":[-87.672092,41.895917]}},{"properties":{"geo_score":0.425,"full name":"Veronica Garcia","id":"a6pjl84ivz2r","address":"1842 S. Laflin  Chicago IL,","geo_precision":"street"},"type":"Feature","geometry":{"type":"Point","coordinates":[-87.663708,41.865683]}},{"properties":{"geo_score":0.41,"full name":"angelica Reynoso","id":"a6pjl87mc63q","address":"1926 s. cicero  Chicago IL,","geo_precision":"street"},"type":"Feature","geometry":{"type":"Point","coordinates":[-87.744828,41.868255]}},{"properties":{"geo_score":0.605,"full name":"Sharon Alvarado","id":"a6pjl874b4ej","address":"2023 N. Sawyer  Chicago IL,","geo_precision":"range"},"type":"Feature","geometry":{"type":"Point","coordinates":[-87.708877,41.918245]}},{"properties":{"geo_score":0.614,"full name":"Norma Quevedo","id":"a6pjl8ea91bx","address":"2038 W. 19th St  Chicago IL,","geo_precision":"range"},"type":"Feature","geometry":{"type":"Point","coordinates":[-87.678669,41.895959]}},{"properties":{"geo_score":0.614,"full name":"Lynette McCline","id":"a6pjl83kzy0v","address":"2141 S. Trumbull  Chicago IL,","geo_precision":"range"},"type":"Feature","geometry":{"type":"Point","coordinates":[-87.711105,41.853068]}},{"properties":{"geo_score":0.605,"full name":"Beverly Rivera","id":"a6pjl8996571","address":"2215 S. Hamlin  Chicago IL,","geo_precision":"range"},"type":"Feature","geometry":{"type":"Point","coordinates":[-87.719792,41.851411]}},{"properties":{"geo_score":0.423,"full name":"Jones Jaison","id":"a6pjl840iem7","address":"2328 71st Ave  Chicago IL,","geo_precision":"street"},"type":"Feature","geometry":{"type":"Point","coordinates":[-87.620249,41.896788]}},{"properties":{"geo_score":0.418,"full name":"Aaron Johnson","id":"a6pjl8531dl7","address":"2401 North Ave.  Chicago IL,","geo_precision":"street"},"type":"Feature","geometry":{"type":"Point","coordinates":[-87.620249,41.896788]}},{"properties":{"geo_score":0.614,"full name":"Kelsey Panora","id":"a6pjl8ar3gwu","address":"2423 N. Ridgeway  Chicago IL,","geo_precision":"range"},"type":"Feature","geometry":{"type":"Point","coordinates":[-87.720588,41.924636]}},{"properties":{"geo_score":0.605,"full name":"Natan Rodriguez","id":"a6pjl82novir","address":"2657 S. Keeler  Chicago IL,","geo_precision":"range"},"type":"Feature","geometry":{"type":"Point","coordinates":[-87.7293,41.842916]}},{"properties":{"geo_score":0.614,"full name":"Cesia Milian","id":"a6pjl884az0p","address":"2752 S. Komensky  Chicago IL,","geo_precision":"range"},"type":"Feature","geometry":{"type":"Point","coordinates":[-87.725762,41.841528]}},{"properties":{"geo_score":0.605,"full name":"Michael Mora","id":"a6pjl8atffuq","address":"2753 S. Keeler  Chicago IL,","geo_precision":"range"},"type":"Feature","geometry":{"type":"Point","coordinates":[-87.729258,41.841483]}},{"properties":{"geo_score":0.61,"full name":"Abigail Nunez","id":"a6pjl7z82xvs","address":"2831 S. Kildare  Chicago IL,","geo_precision":"range"},"type":"Feature","geometry":{"type":"Point","coordinates":[-87.731622,41.83892]}},{"properties":{"geo_score":0.404,"full name":"Jesus Nunez","id":"a6pjl8dxpzd6","address":"2831 Skydale  Chicago IL,","geo_precision":"street"},"type":"Feature","geometry":{"type":"Point","coordinates":[-87.620249,41.896788]}},{"properties":{"geo_score":0.48,"full name":"Arturo Hernandez","id":"a6pjl80crmxt","address":"2931 W. Pershing Rd.  Chicago IL,","geo_precision":"range"},"type":"Feature","geometry":{"type":"Point","coordinates":[-87.698434,41.822789]}},{"properties":{"geo_score":0.492,"full name":"Kally McGill","id":"a6pjl8bazo9n","address":"302 E. 89th Pl  Chicago IL,","geo_precision":"range"},"type":"Feature","geometry":{"type":"Point","coordinates":[-87.620248,41.896713]}},{"properties":{"geo_score":0.711,"full name":"Bernardo Molina","id":"a6pjl8czitz5","address":"4158 w 25th st  Chicago ,","geo_precision":"range"},"type":"Feature","geometry":{"type":"Point","coordinates":[-87.728488,41.846107]}},{"properties":{"geo_score":0.505,"full name":"Karie Jackson","id":"a6pjl8da47qt","address":"501 E. 32nd St #613  Chicago IL,","geo_precision":"street"},"type":"Feature","geometry":{"type":"Point","coordinates":[-87.620249,41.896788]}},{"properties":{"geo_score":0.61,"full name":"Sawyer Dantrell","id":"a6pjl8d880wh","address":"5147 S. Western  Chicago IL,","geo_precision":"range"},"type":"Feature","geometry":{"type":"Point","coordinates":[-87.684127,41.800385]}},{"properties":{"geo_score":0.619,"full name":"Agee Soma","id":"a6pjl84b35j8","address":"6119 S. Champlain  Chicago IL,","geo_precision":"range"},"type":"Feature","geometry":{"type":"Point","coordinates":[-87.609551,41.782504]}},{"properties":{"geo_score":0.61,"full name":"Tahji Willis","id":"a6pjl81b9z4a","address":"6119 St. Champlain  Chicago IL,","geo_precision":"range"},"type":"Feature","geometry":{"type":"Point","coordinates":[-87.609551,41.782504]}},{"properties":{"geo_score":0.619,"full name":"Dwight Kilgoa","id":"a6pjl84yyvrj","address":"6132 S. Champlain  Chicago IL,","geo_precision":"range"},"type":"Feature","geometry":{"type":"Point","coordinates":[-87.609706,41.782762]}},{"properties":{"geo_score":0.386,"full name":"Georgia Curtis","id":"a6pjl8d51d1k","address":"6493 130th Place  Chicago IL,","geo_precision":"street"},"type":"Feature","geometry":{"type":"Point","coordinates":[-87.772292,41.894755]}},{"properties":{"geo_score":0.605,"full name":"Lewis Dom","id":"a6pjl7zx9165","address":"6731 S. Euclid  Chicago IL,","geo_precision":"range"},"type":"Feature","geometry":{"type":"Point","coordinates":[-87.577615,41.772173]}},{"properties":{"geo_score":0.606,"full name":"Kathy Parker","id":"a6pjl8cvmeek","address":"7501 E. 133 St.  Chicago IL,","geo_precision":"range"},"type":"Feature","geometry":{"type":"Point","coordinates":[-87.594225,41.757715]}},{"properties":{"geo_score":0.614,"full name":"Marcus Mitchell","id":"a6pjl8e9zqdw","address":"7756 S. Maryland  Chicago IL,","geo_precision":"range"},"type":"Feature","geometry":{"type":"Point","coordinates":[-87.604106,41.754165]}},{"properties":{"geo_score":0.404,"full name":"Myron Collins","id":"a6pjl7ysjxj2","address":"8355 S. Yates  Chicago IL,","geo_precision":"street"},"type":"Feature","geometry":{"type":"Point","coordinates":[-87.585925,41.751746]}},{"properties":{"geo_score":0.507,"full name":"Sandorva Jusona?","id":"a6pjl8551ft0","address":"Chicago IL,","geo_precision":"street"},"type":"Feature","geometry":{"type":"Point","coordinates":[-87.628986,41.896665]}},{"properties":{"geo_score":0.619,"full name":"Ed Deechew Bishop","id":"a6pjl7yrvp8c","address":"5848 S. Princeton  Chicago IL,","geo_precision":"range"},"type":"Feature","geometry":{"type":"Point","coordinates":[-87.632894,41.788015]}},{"properties":{"geo_score":0.614,"full name":"Arturo Salzato","id":"a6pjl832u68v","address":"2102 W. 22nd St  chicago IL,","geo_precision":"range"},"type":"Feature","geometry":{"type":"Point","coordinates":[-87.681913,41.895903]}},{"properties":{"geo_score":0.41,"full name":"Noe Ramriez","id":"a6pjl80oolmq","address":"2601 S. Cicero  chicago IL,","geo_precision":"street"},"type":"Feature","geometry":{"type":"Point","coordinates":[-87.744828,41.868255]}}],"is_temporal":false,"author":{"url":"","metadata":"","contact_name":"","contact_address":"","source":"","contact_phone":""},"source":"","pagination":{"sort":null,"start":0,"total":641,"limit":1000000},"state":"complete","tags":"","published":"2014-08-14T23:55:13-04:00","id":256700}