{"type":"FeatureCollection","data_type":"Dataset","url_type":null,"permissions":[{"permissions":{"download":true,"view":true},"group_id":"everyone"}],"classification":null,"title":"AJE Seeker Accounts By State","count":49,"stream_id":257039,"contributor":{"url":"http://geocommons.com/users/48267","name":"sinha2018"},"data_attributes":null,"calculation_params":null,"icon_link":null,"link":"http://geocommons.com/overlays/257039.json","extent":[0.0,0.0,0.0,0.0],"geometry_types":[],"unique_name":null,"name":"AJE Seeker Accounts By State","feature_count":49,"description":"Shows the number of AJE seeker accounts in each state.","next_feature":null,"is_raster":false,"short_classification":"Y","stats":{"total seeker accounts":{"max":280695,"variance":1687818985.05187,"mean":20562.1020408163,"stdev":41083.0741918356,"min":631,"median":10069},"state":{}},"features":[{"properties":{"geo_precision0":"unmatched","geo_score0":0.0,"id":"a6q42l6vt571","total seeker accounts":280695,"state":"NY"},"type":"Feature","geometry":null},{"properties":{"geo_precision0":"unmatched","geo_score0":0.0,"id":"a6q42l9lkos1","total seeker accounts":65762,"state":"FL"},"type":"Feature","geometry":null},{"properties":{"geo_precision0":"unmatched","geo_score0":0.0,"id":"a6q42l7b0xqm","total seeker accounts":60961,"state":"CA"},"type":"Feature","geometry":null},{"properties":{"geo_precision0":"unmatched","geo_score0":0.0,"id":"a6q42l3sc6px","total seeker accounts":51250,"state":"TX"},"type":"Feature","geometry":null},{"properties":{"geo_precision0":"unmatched","geo_score0":0.0,"id":"a6q42l8dwltx","total seeker accounts":45018,"state":"NJ"},"type":"Feature","geometry":null},{"properties":{"geo_precision0":"unmatched","geo_score0":0.0,"id":"a6q42lih24wj","total seeker accounts":37928,"state":"NV"},"type":"Feature","geometry":null},{"properties":{"geo_precision0":"unmatched","geo_score0":0.0,"id":"a6q42leq97js","total seeker accounts":34393,"state":"IL"},"type":"Feature","geometry":null},{"properties":{"geo_precision0":"unmatched","geo_score0":0.0,"id":"a6q42leitxjg","total seeker accounts":32979,"state":"GA"},"type":"Feature","geometry":null},{"properties":{"geo_precision0":"unmatched","geo_score0":0.0,"id":"a6q42l4ylnxd","total seeker accounts":28397,"state":"NC"},"type":"Feature","geometry":null},{"properties":{"geo_precision0":"unmatched","geo_score0":0.0,"id":"a6q42le6rbbn","total seeker accounts":28093,"state":"OH"},"type":"Feature","geometry":null},{"properties":{"geo_precision0":"unmatched","geo_score0":0.0,"id":"a6q42ledmuzi","total seeker accounts":25248,"state":"PA"},"type":"Feature","geometry":null},{"properties":{"geo_precision0":"unmatched","geo_score0":0.0,"id":"a6q42lfywhk7","total seeker accounts":24599,"state":"WI"},"type":"Feature","geometry":null},{"properties":{"geo_precision0":"unmatched","geo_score0":0.0,"id":"a6q42l54k39h","total seeker accounts":23396,"state":"VA"},"type":"Feature","geometry":null},{"properties":{"geo_precision0":"unmatched","geo_score0":0.0,"id":"a6q42lis7sm0","total seeker accounts":22290,"state":"MI"},"type":"Feature","geometry":null},{"properties":{"geo_precision0":"unmatched","geo_score0":0.0,"id":"a6q42lfhh3k6","total seeker accounts":18295,"state":"MD"},"type":"Feature","geometry":null},{"properties":{"geo_precision0":"unmatched","geo_score0":0.0,"id":"a6q42ljas4r5","total seeker accounts":16394,"state":"SC"},"type":"Feature","geometry":null},{"properties":{"geo_precision0":"unmatched","geo_score0":0.0,"id":"a6q42l64r8qg","total seeker accounts":15993,"state":"TN"},"type":"Feature","geometry":null},{"properties":{"geo_precision0":"unmatched","geo_score0":0.0,"id":"a6q42lac00ot","total seeker accounts":15176,"state":"MA"},"type":"Feature","geometry":null},{"properties":{"geo_precision0":"unmatched","geo_score0":0.0,"id":"a6q42li42omq","total seeker accounts":14057,"state":"IN"},"type":"Feature","geometry":null},{"properties":{"geo_precision0":"unmatched","geo_score0":0.0,"id":"a6q42l6ps43w","total seeker accounts":13286,"state":"AZ"},"type":"Feature","geometry":null},{"properties":{"geo_precision0":"unmatched","geo_score0":0.0,"id":"a6q42lj50h2o","total seeker accounts":12682,"state":"CO"},"type":"Feature","geometry":null},{"properties":{"geo_precision0":"unmatched","geo_score0":0.0,"id":"a6q42l4r7zcq","total seeker accounts":11950,"state":"MO"},"type":"Feature","geometry":null},{"properties":{"geo_precision0":"unmatched","geo_score0":0.0,"id":"a6q42l88e0hu","total seeker accounts":11887,"state":"KY"},"type":"Feature","geometry":null},{"properties":{"geo_precision0":"unmatched","geo_score0":0.0,"id":"a6q42lbbdd85","total seeker accounts":10659,"state":"AL"},"type":"Feature","geometry":null},{"properties":{"geo_precision0":"unmatched","geo_score0":0.0,"id":"a6q42leth4a0","total seeker accounts":10069,"state":"WA"},"type":"Feature","geometry":null},{"properties":{"geo_precision0":"unmatched","geo_score0":0.0,"id":"a6q42lfhnd0a","total seeker accounts":8993,"state":"LA"},"type":"Feature","geometry":null},{"properties":{"geo_precision0":"unmatched","geo_score0":0.0,"id":"a6q42l63ctj9","total seeker accounts":8794,"state":"RI"},"type":"Feature","geometry":null},{"properties":{"geo_precision0":"unmatched","geo_score0":0.0,"id":"a6q42lajzkw0","total seeker accounts":8623,"state":"CT"},"type":"Feature","geometry":null},{"properties":{"geo_precision0":"unmatched","geo_score0":0.0,"id":"a6q42l66xlrk","total seeker accounts":8181,"state":"MN"},"type":"Feature","geometry":null},{"properties":{"geo_precision0":"unmatched","geo_score0":0.0,"id":"a6q42l6x35l6","total seeker accounts":5315,"state":"MS"},"type":"Feature","geometry":null},{"properties":{"geo_precision0":"unmatched","geo_score0":0.0,"id":"a6q42l8qy3yk","total seeker accounts":5166,"state":"OK"},"type":"Feature","geometry":null},{"properties":{"geo_precision0":"unmatched","geo_score0":0.0,"id":"a6q42lde3o0k","total seeker accounts":5024,"state":"UT"},"type":"Feature","geometry":null},{"properties":{"geo_precision0":"unmatched","geo_score0":0.0,"id":"a6q42l628277","total seeker accounts":4810,"state":"ME"},"type":"Feature","geometry":null},{"properties":{"geo_precision0":"unmatched","geo_score0":0.0,"id":"a6q42litoiu7","total seeker accounts":4779,"state":"KS"},"type":"Feature","geometry":null},{"properties":{"geo_precision0":"unmatched","geo_score0":0.0,"id":"a6q42l4onxdy","total seeker accounts":4313,"state":"OR"},"type":"Feature","geometry":null},{"properties":{"geo_precision0":"unmatched","geo_score0":0.0,"id":"a6q42lh6lr30","total seeker accounts":3779,"state":"NH"},"type":"Feature","geometry":null},{"properties":{"geo_precision0":"unmatched","geo_score0":0.0,"id":"a6q42l72z7fg","total seeker accounts":3412,"state":"HI"},"type":"Feature","geometry":null},{"properties":{"geo_precision0":"unmatched","geo_score0":0.0,"id":"a6q42l4jk8fw","total seeker accounts":3407,"state":"AR"},"type":"Feature","geometry":null},{"properties":{"geo_precision0":"unmatched","geo_score0":0.0,"id":"a6q42l8py5bt","total seeker accounts":3332,"state":"NM"},"type":"Feature","geometry":null},{"properties":{"geo_precision0":"unmatched","geo_score0":0.0,"id":"a6q42lh8hwpv","total seeker accounts":2853,"state":"IA"},"type":"Feature","geometry":null},{"properties":{"geo_precision0":"unmatched","geo_score0":0.0,"id":"a6q42lirki85","total seeker accounts":2793,"state":"WV"},"type":"Feature","geometry":null},{"properties":{"geo_precision0":"unmatched","geo_score0":0.0,"id":"a6q42lf614xp","total seeker accounts":2756,"state":"DE"},"type":"Feature","geometry":null},{"properties":{"geo_precision0":"unmatched","geo_score0":0.0,"id":"a6q42lcl8nqs","total seeker accounts":2709,"state":"NE"},"type":"Feature","geometry":null},{"properties":{"geo_precision0":"unmatched","geo_score0":0.0,"id":"a6q42l9d80bz","total seeker accounts":2295,"state":"ID"},"type":"Feature","geometry":null},{"properties":{"geo_precision0":"unmatched","geo_score0":0.0,"id":"a6q42l7dv5ka","total seeker accounts":1128,"state":"MT"},"type":"Feature","geometry":null},{"properties":{"geo_precision0":"unmatched","geo_score0":0.0,"id":"a6q42lj1wol2","total seeker accounts":1128,"state":"WY"},"type":"Feature","geometry":null},{"properties":{"geo_precision0":"unmatched","geo_score0":0.0,"id":"a6q42lg8bofu","total seeker accounts":1051,"state":"ND"},"type":"Feature","geometry":null},{"properties":{"geo_precision0":"unmatched","geo_score0":0.0,"id":"a6q42l3ntlh1","total seeker accounts":814,"state":"AK"},"type":"Feature","geometry":null},{"properties":{"geo_precision0":"unmatched","geo_score0":0.0,"id":"a6q42lcj3fa3","total seeker accounts":631,"state":"SD"},"type":"Feature","geometry":null}],"is_temporal":false,"author":{"url":"","metadata":"","contact_name":"","contact_address":"","source":"America's Job Exchange","contact_phone":""},"source":"","pagination":{"sort":null,"start":0,"total":49,"limit":1000000},"state":"complete","tags":"","published":"2012-06-27T16:00:00Z","id":257039}