{"type":"FeatureCollection","data_type":"Dataset","url_type":null,"permissions":[{"permissions":{"download":true,"edit":true,"view":true},"group_id":49886},{"permissions":{"download":true,"view":true},"group_id":"everyone"}],"classification":null,"title":"Electroswing Citites","count":399,"stream_id":260293,"contributor":{"url":"http://geocommons.com/users/48954","name":"cm4fan"},"data_attributes":null,"calculation_params":null,"icon_link":null,"link":"http://geocommons.com/overlays/260293.json","extent":[-123.509,-37.8136,174.763,63.4305],"geometry_types":["point"],"unique_name":null,"name":"Electroswing Citites","feature_count":399,"description":"Cities around the world in which electroswing is popular.","next_feature":null,"is_raster":false,"short_classification":"Y","stats":{"trackscount":{"max":110,"variance":77.3492021511064,"mean":3.54385964912281,"stdev":8.79483951821216,"min":1,"median":1},"latitude":{"max":63.4305149,"variance":382.243726802311,"mean":42.0753926197995,"stdev":19.5510543654891,"min":-37.8136111,"median":48.3714407},"userscount":{"max":60,"variance":16.3176786186573,"mean":2.03759398496241,"stdev":4.03951465137302,"min":1,"median":1},"longitude":{"max":174.7633315,"variance":2619.55685697596,"mean":-3.90565953483709,"stdev":51.1816066275372,"min":-123.5088755,"median":3.876716}},"features":[{"properties":{"city":"London, UK","trackscount":96,"latitude":51.5073346,"userscount":60,"longitude":-0.1276831,"id":"a720us3kpkma"},"type":"Feature","geometry":{"type":"Point","coordinates":[-0.1276831,51.5073346]}},{"properties":{"city":"Berlin, Germany","trackscount":47,"latitude":52.519171,"userscount":35,"longitude":13.4060912,"id":"a720us649snu"},"type":"Feature","geometry":{"type":"Point","coordinates":[13.4060912,52.519171]}},{"properties":{"city":"Paris, France","trackscount":110,"latitude":48.856614,"userscount":26,"longitude":2.3522219,"id":"a720usa8922f"},"type":"Feature","geometry":{"type":"Point","coordinates":[2.3522219,48.856614]}},{"properties":{"city":"Brighton, The City of Brighton and Hove, UK","trackscount":55,"latitude":50.82253,"userscount":18,"longitude":-0.137163,"id":"a720urvjnr7a"},"type":"Feature","geometry":{"type":"Point","coordinates":[-0.137163,50.82253]}},{"properties":{"city":"Vienna, Austria","trackscount":41,"latitude":48.2081743,"userscount":18,"longitude":16.3738189,"id":"a720us8z4yqd"},"type":"Feature","geometry":{"type":"Point","coordinates":[16.3738189,48.2081743]}},{"properties":{"city":"Bristol, UK","trackscount":21,"latitude":51.454513,"userscount":13,"longitude":-2.58791,"id":"a720usar0rxt"},"type":"Feature","geometry":{"type":"Point","coordinates":[-2.58791,51.454513]}},{"properties":{"city":"Melbourne VIC, Australia","trackscount":14,"latitude":-37.8136111,"userscount":10,"longitude":144.9630556,"id":"a720urxgu6l7"},"type":"Feature","geometry":{"type":"Point","coordinates":[144.9630556,-37.8136111]}},{"properties":{"city":"Munich, Germany","trackscount":13,"latitude":48.1366069,"userscount":10,"longitude":11.5770851,"id":"a720us7nhe2y"},"type":"Feature","geometry":{"type":"Point","coordinates":[11.5770851,48.1366069]}},{"properties":{"city":"Nottingham, UK","trackscount":15,"latitude":52.95477,"userscount":7,"longitude":-1.158086,"id":"a720urxc5r8o"},"type":"Feature","geometry":{"type":"Point","coordinates":[-1.158086,52.95477]}},{"properties":{"city":"Cologne, Germany","trackscount":11,"latitude":50.937531,"userscount":7,"longitude":6.9602786,"id":"a720us93d1f2"},"type":"Feature","geometry":{"type":"Point","coordinates":[6.9602786,50.937531]}},{"properties":{"city":"San Francisco, CA, USA","trackscount":19,"latitude":37.7749295,"userscount":7,"longitude":-122.4194155,"id":"a720us29zpw8"},"type":"Feature","geometry":{"type":"Point","coordinates":[-122.4194155,37.7749295]}},{"properties":{"city":"Birmingham, West Midlands, UK","trackscount":18,"latitude":52.486243,"userscount":6,"longitude":-1.890401,"id":"a720us0qzpuz"},"type":"Feature","geometry":{"type":"Point","coordinates":[-1.890401,52.486243]}},{"properties":{"city":"Zurich, Switzerland","trackscount":16,"latitude":47.3686498,"userscount":9,"longitude":8.5391825,"id":"a720usackx2p"},"type":"Feature","geometry":{"type":"Point","coordinates":[8.5391825,47.3686498]}},{"properties":{"city":"Vancouver, BC, Canada","trackscount":8,"latitude":49.261226,"userscount":7,"longitude":-123.1139268,"id":"a720us0yxixu"},"type":"Feature","geometry":{"type":"Point","coordinates":[-123.1139268,49.261226]}},{"properties":{"city":"Amsterdam, The Netherlands","trackscount":5,"latitude":52.3702157,"userscount":5,"longitude":4.8951679,"id":"a720usatncyy"},"type":"Feature","geometry":{"type":"Point","coordinates":[4.8951679,52.3702157]}},{"properties":{"city":"Sydney NSW, Australia","trackscount":6,"latitude":-33.873651,"userscount":5,"longitude":151.2068896,"id":"a720urwar7kt"},"type":"Feature","geometry":{"type":"Point","coordinates":[151.2068896,-33.873651]}},{"properties":{"city":"Moscow, Russia","trackscount":10,"latitude":55.7427928,"userscount":7,"longitude":37.6154009,"id":"a720us84br3s"},"type":"Feature","geometry":{"type":"Point","coordinates":[37.6154009,55.7427928]}},{"properties":{"city":"Brooklyn, NY, USA","trackscount":10,"latitude":40.65,"userscount":5,"longitude":-73.95,"id":"a720us554uvg"},"type":"Feature","geometry":{"type":"Point","coordinates":[-73.95,40.65]}},{"properties":{"city":"Freiburg im Breisgau, Germany","trackscount":4,"latitude":47.9990077,"userscount":4,"longitude":7.8421043,"id":"a720us0fs9ot"},"type":"Feature","geometry":{"type":"Point","coordinates":[7.8421043,47.9990077]}},{"properties":{"city":"Cape Town, South Africa","trackscount":6,"latitude":-33.9248685,"userscount":4,"longitude":18.4240553,"id":"a720usb2qbr2"},"type":"Feature","geometry":{"type":"Point","coordinates":[18.4240553,-33.9248685]}},{"properties":{"city":"Leeds, West Yorkshire, UK","trackscount":28,"latitude":53.801279,"userscount":5,"longitude":-1.548567,"id":"a720us24te1a"},"type":"Feature","geometry":{"type":"Point","coordinates":[-1.548567,53.801279]}},{"properties":{"city":"Edinburgh, City of Edinburgh, UK","trackscount":12,"latitude":55.953252,"userscount":4,"longitude":-3.188267,"id":"a720us68wuf0"},"type":"Feature","geometry":{"type":"Point","coordinates":[-3.188267,55.953252]}},{"properties":{"city":"Toronto, ON, Canada","trackscount":7,"latitude":43.653226,"userscount":6,"longitude":-79.3831843,"id":"a720urxbfthm"},"type":"Feature","geometry":{"type":"Point","coordinates":[-79.3831843,43.653226]}},{"properties":{"city":"Prague, Czech Republic","trackscount":10,"latitude":50.0878114,"userscount":7,"longitude":14.4204598,"id":"a720us2y8sub"},"type":"Feature","geometry":{"type":"Point","coordinates":[14.4204598,50.0878114]}},{"properties":{"city":"Copenhagen, Denmark","trackscount":7,"latitude":55.6760968,"userscount":4,"longitude":12.5683371,"id":"a720urzavih0"},"type":"Feature","geometry":{"type":"Point","coordinates":[12.5683371,55.6760968]}},{"properties":{"city":"Linz, Austria","trackscount":5,"latitude":48.30694,"userscount":5,"longitude":14.28583,"id":"a720us80p0cr"},"type":"Feature","geometry":{"type":"Point","coordinates":[14.28583,48.30694]}},{"properties":{"city":"Dublin, Co. Dublin, Ireland","trackscount":5,"latitude":53.344104,"userscount":4,"longitude":-6.2674937,"id":"a720urz9v9eh"},"type":"Feature","geometry":{"type":"Point","coordinates":[-6.2674937,53.344104]}},{"properties":{"city":"Los Angeles, CA, USA","trackscount":5,"latitude":34.0522342,"userscount":4,"longitude":-118.2436849,"id":"a720us0s3ml9"},"type":"Feature","geometry":{"type":"Point","coordinates":[-118.2436849,34.0522342]}},{"properties":{"city":"Lille, France","trackscount":5,"latitude":50.62925,"userscount":3,"longitude":3.057256,"id":"a720us8avz5t"},"type":"Feature","geometry":{"type":"Point","coordinates":[3.057256,50.62925]}},{"properties":{"city":"Cardiff, UK","trackscount":3,"latitude":51.481581,"userscount":3,"longitude":-3.17909,"id":"a720us0n3qd2"},"type":"Feature","geometry":{"type":"Point","coordinates":[-3.17909,51.481581]}},{"properties":{"city":"Gent, Belgium","trackscount":7,"latitude":51.053468,"userscount":5,"longitude":3.73038,"id":"a720us73onu0"},"type":"Feature","geometry":{"type":"Point","coordinates":[3.73038,51.053468]}},{"properties":{"city":"LÃ¼neburg, Germany","trackscount":7,"latitude":53.2464214,"userscount":3,"longitude":10.4115179,"id":"a720us3469hc"},"type":"Feature","geometry":{"type":"Point","coordinates":[10.4115179,53.2464214]}},{"properties":{"city":"Ottawa, ON, Canada","trackscount":8,"latitude":45.4215296,"userscount":3,"longitude":-75.6971931,"id":"a720urxmcrk3"},"type":"Feature","geometry":{"type":"Point","coordinates":[-75.6971931,45.4215296]}},{"properties":{"city":"Athens, Greece","trackscount":5,"latitude":37.9753357,"userscount":3,"longitude":23.7361497,"id":"a720usa763bn"},"type":"Feature","geometry":{"type":"Point","coordinates":[23.7361497,37.9753357]}},{"properties":{"city":"Siegen, Germany","trackscount":3,"latitude":50.8838492,"userscount":3,"longitude":8.0209591,"id":"a720ury85sia"},"type":"Feature","geometry":{"type":"Point","coordinates":[8.0209591,50.8838492]}},{"properties":{"city":"Montreal, QC, Canada","trackscount":5,"latitude":45.5086699,"userscount":4,"longitude":-73.5539925,"id":"a720urviznsg"},"type":"Feature","geometry":{"type":"Point","coordinates":[-73.5539925,45.5086699]}},{"properties":{"city":"Lyon, France","trackscount":9,"latitude":45.764043,"userscount":3,"longitude":4.835659,"id":"a720urv84soj"},"type":"Feature","geometry":{"type":"Point","coordinates":[4.835659,45.764043]}},{"properties":{"city":"Chicago, IL, USA","trackscount":4,"latitude":41.8781136,"userscount":3,"longitude":-87.6297982,"id":"a720uryvbzx0"},"type":"Feature","geometry":{"type":"Point","coordinates":[-87.6297982,41.8781136]}},{"properties":{"city":"Nantes, France","trackscount":3,"latitude":47.218371,"userscount":3,"longitude":-1.553621,"id":"a720us948ea0"},"type":"Feature","geometry":{"type":"Point","coordinates":[-1.553621,47.218371]}},{"properties":{"city":"Toulouse, France","trackscount":10,"latitude":43.604652,"userscount":6,"longitude":1.444209,"id":"a720us8hvio1"},"type":"Feature","geometry":{"type":"Point","coordinates":[1.444209,43.604652]}},{"properties":{"city":"Bremen, Germany","trackscount":13,"latitude":53.0792962,"userscount":4,"longitude":8.8016937,"id":"a720us5yzm4z"},"type":"Feature","geometry":{"type":"Point","coordinates":[8.8016937,53.0792962]}},{"properties":{"city":"Seattle, WA, USA","trackscount":6,"latitude":47.6062095,"userscount":3,"longitude":-122.3320708,"id":"a720us63cxzz"},"type":"Feature","geometry":{"type":"Point","coordinates":[-122.3320708,47.6062095]}},{"properties":{"city":"Marseille, France","trackscount":10,"latitude":43.296482,"userscount":4,"longitude":5.36978,"id":"a720urxkzr8g"},"type":"Feature","geometry":{"type":"Point","coordinates":[5.36978,43.296482]}},{"properties":{"city":"Budapest, Hungary","trackscount":8,"latitude":47.4984056,"userscount":3,"longitude":19.0407578,"id":"a720urvy3sb2"},"type":"Feature","geometry":{"type":"Point","coordinates":[19.0407578,47.4984056]}},{"properties":{"city":"United Kingdom","trackscount":10,"latitude":55.378051,"userscount":4,"longitude":-3.435973,"id":"a720uryotso9"},"type":"Feature","geometry":{"type":"Point","coordinates":[-3.435973,55.378051]}},{"properties":{"city":"Oslo, Norway","trackscount":2,"latitude":59.9138688,"userscount":2,"longitude":10.7522454,"id":"a720us7kwfsg"},"type":"Feature","geometry":{"type":"Point","coordinates":[10.7522454,59.9138688]}},{"properties":{"city":"Szeged, Hungary","trackscount":2,"latitude":46.2536169,"userscount":2,"longitude":20.1461345,"id":"a720us1cdtjz"},"type":"Feature","geometry":{"type":"Point","coordinates":[20.1461345,46.2536169]}},{"properties":{"city":"Abbotsford, BC, Canada","trackscount":2,"latitude":49.0568,"userscount":2,"longitude":-122.285045,"id":"a720urwq4bba"},"type":"Feature","geometry":{"type":"Point","coordinates":[-122.285045,49.0568]}},{"properties":{"city":"BogotÃ¡, Bogota, Colombia","trackscount":2,"latitude":4.5980556,"userscount":2,"longitude":-74.0758333,"id":"a720us072tlm"},"type":"Feature","geometry":{"type":"Point","coordinates":[-74.0758333,4.5980556]}},{"properties":{"city":"Tel Aviv, Israel","trackscount":7,"latitude":32.066158,"userscount":4,"longitude":34.777819,"id":"a720us78f2h1"},"type":"Feature","geometry":{"type":"Point","coordinates":[34.777819,32.066158]}},{"properties":{"city":"Hamburg, Germany","trackscount":2,"latitude":53.5510846,"userscount":2,"longitude":9.9936818,"id":"a720us7m035m"},"type":"Feature","geometry":{"type":"Point","coordinates":[9.9936818,53.5510846]}},{"properties":{"city":"Bangkok, Thailand","trackscount":3,"latitude":13.7522222,"userscount":2,"longitude":100.4938889,"id":"a720us365ju2"},"type":"Feature","geometry":{"type":"Point","coordinates":[100.4938889,13.7522222]}},{"properties":{"city":"Erfurt, Germany","trackscount":2,"latitude":50.9847679,"userscount":2,"longitude":11.0298799,"id":"a720urx1m0f2"},"type":"Feature","geometry":{"type":"Point","coordinates":[11.0298799,50.9847679]}},{"properties":{"city":"Plymouth, UK","trackscount":2,"latitude":50.3719165,"userscount":2,"longitude":-4.1360198,"id":"a720urz6jild"},"type":"Feature","geometry":{"type":"Point","coordinates":[-4.1360198,50.3719165]}},{"properties":{"city":"Hong Kong Island, Hong Kong","trackscount":2,"latitude":22.2478599,"userscount":2,"longitude":114.2033843,"id":"a720usbg0jr3"},"type":"Feature","geometry":{"type":"Point","coordinates":[114.2033843,22.2478599]}},{"properties":{"city":"Oldenburg, Germany","trackscount":2,"latitude":53.147739,"userscount":2,"longitude":8.2106028,"id":"a720urw6xmtd"},"type":"Feature","geometry":{"type":"Point","coordinates":[8.2106028,53.147739]}},{"properties":{"city":"Antwerpen, Belgium","trackscount":5,"latitude":51.2192159,"userscount":4,"longitude":4.4028818,"id":"a720urw2eqx9"},"type":"Feature","geometry":{"type":"Point","coordinates":[4.4028818,51.2192159]}},{"properties":{"city":"Nancy, France","trackscount":4,"latitude":48.692054,"userscount":2,"longitude":6.184417,"id":"a720urzy2g7p"},"type":"Feature","geometry":{"type":"Point","coordinates":[6.184417,48.692054]}},{"properties":{"city":"Barcelona, Spain","trackscount":5,"latitude":41.387917,"userscount":4,"longitude":2.1699187,"id":"a720us73qtdh"},"type":"Feature","geometry":{"type":"Point","coordinates":[2.1699187,41.387917]}},{"properties":{"city":"Johannesburg, South Africa","trackscount":4,"latitude":-26.2041028,"userscount":2,"longitude":28.0473051,"id":"a720usb6pf7l"},"type":"Feature","geometry":{"type":"Point","coordinates":[28.0473051,-26.2041028]}},{"properties":{"city":"Falmouth, Cornwall, UK","trackscount":4,"latitude":50.152571,"userscount":3,"longitude":-5.06627,"id":"a720us3hf3ec"},"type":"Feature","geometry":{"type":"Point","coordinates":[-5.06627,50.152571]}},{"properties":{"city":"Dresden, Germany","trackscount":3,"latitude":51.0504088,"userscount":3,"longitude":13.7372621,"id":"a720us3s5nac"},"type":"Feature","geometry":{"type":"Point","coordinates":[13.7372621,51.0504088]}},{"properties":{"city":"Istanbul/Istanbul Province, Turkey","trackscount":2,"latitude":41.00527,"userscount":2,"longitude":28.97696,"id":"a720urw6vt0h"},"type":"Feature","geometry":{"type":"Point","coordinates":[28.97696,41.00527]}},{"properties":{"city":"Florence, Italy","trackscount":3,"latitude":43.7687324,"userscount":3,"longitude":11.2569013,"id":"a720urvk1mpi"},"type":"Feature","geometry":{"type":"Point","coordinates":[11.2569013,43.7687324]}},{"properties":{"city":"Rhone-Alpes, France","trackscount":2,"latitude":45.1695797,"userscount":2,"longitude":5.4502821,"id":"a720urwct3kl"},"type":"Feature","geometry":{"type":"Point","coordinates":[5.4502821,45.1695797]}},{"properties":{"city":"Exeter, Devon, UK","trackscount":4,"latitude":50.718412,"userscount":2,"longitude":-3.533899,"id":"a720us2bar0o"},"type":"Feature","geometry":{"type":"Point","coordinates":[-3.533899,50.718412]}},{"properties":{"city":"Oxford, UK","trackscount":7,"latitude":51.751724,"userscount":3,"longitude":-1.255285,"id":"a720us6bir42"},"type":"Feature","geometry":{"type":"Point","coordinates":[-1.255285,51.751724]}},{"properties":{"city":"Guadalajara, JAL, Mexico","trackscount":5,"latitude":20.67359,"userscount":2,"longitude":-103.343803,"id":"a720us1937fz"},"type":"Feature","geometry":{"type":"Point","coordinates":[-103.343803,20.67359]}},{"properties":{"city":"Southampton, UK","trackscount":4,"latitude":50.9097004,"userscount":2,"longitude":-1.4043509,"id":"a720us8u6604"},"type":"Feature","geometry":{"type":"Point","coordinates":[-1.4043509,50.9097004]}},{"properties":{"city":"Ljubljana, Slovenia","trackscount":3,"latitude":46.0514263,"userscount":2,"longitude":14.5059655,"id":"a720us57tjh1"},"type":"Feature","geometry":{"type":"Point","coordinates":[14.5059655,46.0514263]}},{"properties":{"city":"Newcastle Upon Tyne, Tyne and Wear, UK","trackscount":3,"latitude":54.978252,"userscount":3,"longitude":-1.61778,"id":"a720urwcdvcv"},"type":"Feature","geometry":{"type":"Point","coordinates":[-1.61778,54.978252]}},{"properties":{"city":"Belgrade, Serbia","trackscount":5,"latitude":44.8205556,"userscount":3,"longitude":20.4622222,"id":"a720us1y9312"},"type":"Feature","geometry":{"type":"Point","coordinates":[20.4622222,44.8205556]}},{"properties":{"city":"Caen, France","trackscount":2,"latitude":49.182863,"userscount":2,"longitude":-0.370679,"id":"a720us6x4l85"},"type":"Feature","geometry":{"type":"Point","coordinates":[-0.370679,49.182863]}},{"properties":{"city":"Cambridge, UK","trackscount":2,"latitude":52.205337,"userscount":2,"longitude":0.121817,"id":"a720us1ue0ae"},"type":"Feature","geometry":{"type":"Point","coordinates":[0.121817,52.205337]}},{"properties":{"city":"New York, NY, USA","trackscount":11,"latitude":40.7143528,"userscount":7,"longitude":-74.0059731,"id":"a720us241uxo"},"type":"Feature","geometry":{"type":"Point","coordinates":[-74.0059731,40.7143528]}},{"properties":{"city":"Sofia, Bulgaria","trackscount":2,"latitude":42.6964917,"userscount":2,"longitude":23.3260106,"id":"a720us6ywij3"},"type":"Feature","geometry":{"type":"Point","coordinates":[23.3260106,42.6964917]}},{"properties":{"city":"Sheffield, South Yorkshire, UK","trackscount":5,"latitude":53.381129,"userscount":2,"longitude":-1.470085,"id":"a720us1c03yq"},"type":"Feature","geometry":{"type":"Point","coordinates":[-1.470085,53.381129]}},{"properties":{"city":"Stuttgart, Germany","trackscount":11,"latitude":48.7754181,"userscount":2,"longitude":9.1817588,"id":"a720urybu558"},"type":"Feature","geometry":{"type":"Point","coordinates":[9.1817588,48.7754181]}},{"properties":{"city":"Augsburg, Germany","trackscount":2,"latitude":48.3714407,"userscount":2,"longitude":10.8982552,"id":"a720usag7dim"},"type":"Feature","geometry":{"type":"Point","coordinates":[10.8982552,48.3714407]}},{"properties":{"city":"Singapore","trackscount":2,"latitude":1.2894365,"userscount":2,"longitude":103.8499802,"id":"a720us21u5by"},"type":"Feature","geometry":{"type":"Point","coordinates":[103.8499802,1.2894365]}},{"properties":{"city":"Durban, South Africa","trackscount":3,"latitude":-29.857876,"userscount":2,"longitude":31.027581,"id":"a720us8t9466"},"type":"Feature","geometry":{"type":"Point","coordinates":[31.027581,-29.857876]}},{"properties":{"city":"Turin, Italy","trackscount":9,"latitude":45.0708515,"userscount":5,"longitude":7.6843404,"id":"a720urxn3lcu"},"type":"Feature","geometry":{"type":"Point","coordinates":[7.6843404,45.0708515]}},{"properties":{"city":"Calgary, AB, Canada","trackscount":7,"latitude":51.045113,"userscount":2,"longitude":-114.057141,"id":"a720us9jihxw"},"type":"Feature","geometry":{"type":"Point","coordinates":[-114.057141,51.045113]}},{"properties":{"city":"Brisbane QLD, Australia","trackscount":7,"latitude":-27.4709331,"userscount":5,"longitude":153.0235024,"id":"a720us5691mi"},"type":"Feature","geometry":{"type":"Point","coordinates":[153.0235024,-27.4709331]}},{"properties":{"city":"Warsaw, Poland","trackscount":5,"latitude":52.2296756,"userscount":2,"longitude":21.0122287,"id":"a720urzs848c"},"type":"Feature","geometry":{"type":"Point","coordinates":[21.0122287,52.2296756]}},{"properties":{"city":"Trier, Germany","trackscount":2,"latitude":49.7468826,"userscount":2,"longitude":6.6347507,"id":"a720us0bj2ul"},"type":"Feature","geometry":{"type":"Point","coordinates":[6.6347507,49.7468826]}},{"properties":{"city":"Guildford, Surrey, UK","trackscount":11,"latitude":51.23622,"userscount":2,"longitude":-0.570409,"id":"a720us5hmnla"},"type":"Feature","geometry":{"type":"Point","coordinates":[-0.570409,51.23622]}},{"properties":{"city":"Miami, FL, USA","trackscount":3,"latitude":25.7889689,"userscount":3,"longitude":-80.2264393,"id":"a720us8oreh9"},"type":"Feature","geometry":{"type":"Point","coordinates":[-80.2264393,25.7889689]}},{"properties":{"city":"Arles, France","trackscount":2,"latitude":43.676675,"userscount":2,"longitude":4.627502,"id":"a720usbdk1aw"},"type":"Feature","geometry":{"type":"Point","coordinates":[4.627502,43.676675]}},{"properties":{"city":"Huddersfield, West Yorkshire, UK","trackscount":3,"latitude":53.645792,"userscount":2,"longitude":-1.785035,"id":"a720us085wr5"},"type":"Feature","geometry":{"type":"Point","coordinates":[-1.785035,53.645792]}},{"properties":{"city":"Geneva, Switzerland","trackscount":2,"latitude":46.1983922,"userscount":2,"longitude":6.1422961,"id":"a720urz70but"},"type":"Feature","geometry":{"type":"Point","coordinates":[6.1422961,46.1983922]}},{"properties":{"city":"Cork, Co. Cork, Ireland","trackscount":2,"latitude":51.8978719,"userscount":2,"longitude":-8.4710874,"id":"a720us8bf83b"},"type":"Feature","geometry":{"type":"Point","coordinates":[-8.4710874,51.8978719]}},{"properties":{"city":"Tours, France","trackscount":4,"latitude":47.394144,"userscount":2,"longitude":0.68484,"id":"a720us6vbfzw"},"type":"Feature","geometry":{"type":"Point","coordinates":[0.68484,47.394144]}},{"properties":{"city":"Saint-Genis-Laval, France","trackscount":1,"latitude":45.691999,"userscount":1,"longitude":4.792768,"id":"a720us89vzpa"},"type":"Feature","geometry":{"type":"Point","coordinates":[4.792768,45.691999]}},{"properties":{"city":"Miami House, 38 Sandy Ln N, Wallington, Surrey SM6 8JX, UK","trackscount":2,"latitude":51.362316,"userscount":1,"longitude":-0.134904,"id":"a720us8dv3da"},"type":"Feature","geometry":{"type":"Point","coordinates":[-0.134904,51.362316]}},{"properties":{"city":"Apeldoorn, The Netherlands","trackscount":1,"latitude":52.211157,"userscount":1,"longitude":5.9699231,"id":"a720us5it5i6"},"type":"Feature","geometry":{"type":"Point","coordinates":[5.9699231,52.211157]}},{"properties":{"city":"Devon, UK","trackscount":3,"latitude":50.7772135,"userscount":1,"longitude":-3.999461,"id":"a720usaqwkxr"},"type":"Feature","geometry":{"type":"Point","coordinates":[-3.999461,50.7772135]}},{"properties":{"city":"ÄuÄice, Czech Republic","trackscount":3,"latitude":49.1400208,"userscount":1,"longitude":16.2772337,"id":"a720urvjsk89"},"type":"Feature","geometry":{"type":"Point","coordinates":[16.2772337,49.1400208]}},{"properties":{"city":"French Riviera","trackscount":1,"latitude":43.7801064,"userscount":1,"longitude":7.6019731,"id":"a720us0k8q4i"},"type":"Feature","geometry":{"type":"Point","coordinates":[7.6019731,43.7801064]}},{"properties":{"city":"Northumberland, UK","trackscount":1,"latitude":55.2082542,"userscount":1,"longitude":-2.0784138,"id":"a720us800jv4"},"type":"Feature","geometry":{"type":"Point","coordinates":[-2.0784138,55.2082542]}},{"properties":{"city":"Dublin St, Cork, Co. Cork, Ireland","trackscount":1,"latitude":51.9146923,"userscount":1,"longitude":-8.4702135,"id":"a720us6kh4j6"},"type":"Feature","geometry":{"type":"Point","coordinates":[-8.4702135,51.9146923]}},{"properties":{"city":"Vilnius district municipality, Lithuania","trackscount":1,"latitude":54.6893865,"userscount":1,"longitude":25.2800243,"id":"a720urzycwj8"},"type":"Feature","geometry":{"type":"Point","coordinates":[25.2800243,54.6893865]}},{"properties":{"city":"DÃ¼sseldorf, Germany","trackscount":1,"latitude":51.2277411,"userscount":1,"longitude":6.7734556,"id":"a720us7xw3r2"},"type":"Feature","geometry":{"type":"Point","coordinates":[6.7734556,51.2277411]}},{"properties":{"city":"Bournemouth, UK","trackscount":7,"latitude":50.719164,"userscount":3,"longitude":-1.880769,"id":"a720usa323b8"},"type":"Feature","geometry":{"type":"Point","coordinates":[-1.880769,50.719164]}},{"properties":{"city":"Innsbruck, Austria","trackscount":1,"latitude":47.2692124,"userscount":1,"longitude":11.4041024,"id":"a720us2rsyyx"},"type":"Feature","geometry":{"type":"Point","coordinates":[11.4041024,47.2692124]}},{"properties":{"city":"St John's, NL, Canada","trackscount":1,"latitude":47.5605413,"userscount":1,"longitude":-52.7128315,"id":"a720us5b4fa6"},"type":"Feature","geometry":{"type":"Point","coordinates":[-52.7128315,47.5605413]}},{"properties":{"city":"East Sussex, UK","trackscount":2,"latitude":50.9285982,"userscount":1,"longitude":0.2764899,"id":"a720us4s16qu"},"type":"Feature","geometry":{"type":"Point","coordinates":[0.2764899,50.9285982]}},{"properties":{"city":"Mexico City, Distrito Federal, Mexico","trackscount":1,"latitude":19.4326077,"userscount":1,"longitude":-99.133208,"id":"a720urxp4o6b"},"type":"Feature","geometry":{"type":"Point","coordinates":[-99.133208,19.4326077]}},{"properties":{"city":"Brno, Czech Republic","trackscount":1,"latitude":49.1920506,"userscount":1,"longitude":16.6131909,"id":"a720usa5x26r"},"type":"Feature","geometry":{"type":"Point","coordinates":[16.6131909,49.1920506]}},{"properties":{"city":"Macclesfield, Cheshire East, UK","trackscount":2,"latitude":53.258663,"userscount":1,"longitude":-2.119287,"id":"a720us05puwd"},"type":"Feature","geometry":{"type":"Point","coordinates":[-2.119287,53.258663]}},{"properties":{"city":"Lausanne, Switzerland","trackscount":2,"latitude":46.5199617,"userscount":2,"longitude":6.6335971,"id":"a720us6r9qhx"},"type":"Feature","geometry":{"type":"Point","coordinates":[6.6335971,46.5199617]}},{"properties":{"city":"Heraklion, Greece","trackscount":2,"latitude":35.329162,"userscount":1,"longitude":25.138526,"id":"a720us4ejh9s"},"type":"Feature","geometry":{"type":"Point","coordinates":[25.138526,35.329162]}},{"properties":{"city":"Hautes-Alpes, France","trackscount":2,"latitude":44.6008723,"userscount":1,"longitude":6.3226072,"id":"a720us5uuuuc"},"type":"Feature","geometry":{"type":"Point","coordinates":[6.3226072,44.6008723]}},{"properties":{"city":"San Diego, CA, USA","trackscount":2,"latitude":32.7153292,"userscount":1,"longitude":-117.1572551,"id":"a720us0ioypu"},"type":"Feature","geometry":{"type":"Point","coordinates":[-117.1572551,32.7153292]}},{"properties":{"city":"Amstetten, Austria","trackscount":1,"latitude":48.12502,"userscount":1,"longitude":14.86934,"id":"a720urxf6z2t"},"type":"Feature","geometry":{"type":"Point","coordinates":[14.86934,48.12502]}},{"properties":{"city":"352 01 AÅ¡, Czech Republic","trackscount":1,"latitude":50.2234879,"userscount":1,"longitude":12.1945839,"id":"a720usamb4sd"},"type":"Feature","geometry":{"type":"Point","coordinates":[12.1945839,50.2234879]}},{"properties":{"city":"Quito Canton, Ecuador","trackscount":1,"latitude":-0.2166667,"userscount":1,"longitude":-78.5166667,"id":"a720usa44ghs"},"type":"Feature","geometry":{"type":"Point","coordinates":[-78.5166667,-0.2166667]}},{"properties":{"city":"Tallahassee, FL, USA","trackscount":1,"latitude":30.4382559,"userscount":1,"longitude":-84.2807329,"id":"a720urx7kxw4"},"type":"Feature","geometry":{"type":"Point","coordinates":[-84.2807329,30.4382559]}},{"properties":{"city":"Gothenburg, Sweden","trackscount":1,"latitude":57.70887,"userscount":1,"longitude":11.97456,"id":"a720us5trkru"},"type":"Feature","geometry":{"type":"Point","coordinates":[11.97456,57.70887]}},{"properties":{"city":"St Gallen, Switzerland","trackscount":1,"latitude":47.4241,"userscount":1,"longitude":9.37088,"id":"a720us15wcge"},"type":"Feature","geometry":{"type":"Point","coordinates":[9.37088,47.4241]}},{"properties":{"city":"Shanghai, China","trackscount":5,"latitude":31.230393,"userscount":1,"longitude":121.473704,"id":"a720urwoiwze"},"type":"Feature","geometry":{"type":"Point","coordinates":[121.473704,31.230393]}},{"properties":{"city":"Germany","trackscount":2,"latitude":51.165691,"userscount":2,"longitude":10.451526,"id":"a720urydn14g"},"type":"Feature","geometry":{"type":"Point","coordinates":[10.451526,51.165691]}},{"properties":{"city":"Weimar, Germany","trackscount":1,"latitude":50.984712,"userscount":1,"longitude":11.3225398,"id":"a720us6kh0ez"},"type":"Feature","geometry":{"type":"Point","coordinates":[11.3225398,50.984712]}},{"properties":{"city":"Mousehole, Cornwall, UK","trackscount":1,"latitude":50.084245,"userscount":1,"longitude":-5.539062,"id":"a720us087vvm"},"type":"Feature","geometry":{"type":"Point","coordinates":[-5.539062,50.084245]}},{"properties":{"city":"Brunswick VIC 3056, Australia","trackscount":1,"latitude":-37.767872,"userscount":1,"longitude":144.961929,"id":"a720us552s0f"},"type":"Feature","geometry":{"type":"Point","coordinates":[144.961929,-37.767872]}},{"properties":{"city":"Braga, Portugal","trackscount":1,"latitude":41.5517605,"userscount":1,"longitude":-8.4229034,"id":"a720us8hvve0"},"type":"Feature","geometry":{"type":"Point","coordinates":[-8.4229034,41.5517605]}},{"properties":{"city":"Ulm, Germany","trackscount":1,"latitude":48.4042981,"userscount":1,"longitude":9.979349,"id":"a720us3qip0h"},"type":"Feature","geometry":{"type":"Point","coordinates":[9.979349,48.4042981]}},{"properties":{"city":"Reno, NV, USA","trackscount":1,"latitude":39.5296329,"userscount":1,"longitude":-119.8138027,"id":"a720us90iavf"},"type":"Feature","geometry":{"type":"Point","coordinates":[-119.8138027,39.5296329]}},{"properties":{"city":"Bedford, UK","trackscount":1,"latitude":52.1359783,"userscount":1,"longitude":-0.4666513,"id":"a720us13fh5w"},"type":"Feature","geometry":{"type":"Point","coordinates":[-0.4666513,52.1359783]}},{"properties":{"city":"Bordeaux, France","trackscount":3,"latitude":44.837789,"userscount":3,"longitude":-0.57918,"id":"a720us2kgbjl"},"type":"Feature","geometry":{"type":"Point","coordinates":[-0.57918,44.837789]}},{"properties":{"city":"Burbank, CA, USA","trackscount":1,"latitude":34.1808392,"userscount":1,"longitude":-118.3089661,"id":"a720usaxfyxv"},"type":"Feature","geometry":{"type":"Point","coordinates":[-118.3089661,34.1808392]}},{"properties":{"city":"Preititz, 02694 Malschwitz, Germany","trackscount":1,"latitude":51.222557,"userscount":1,"longitude":14.546324,"id":"a720urwn1s8b"},"type":"Feature","geometry":{"type":"Point","coordinates":[14.546324,51.222557]}},{"properties":{"city":"Utrecht, The Netherlands","trackscount":2,"latitude":52.0901422,"userscount":2,"longitude":5.1096649,"id":"a720us4263h5"},"type":"Feature","geometry":{"type":"Point","coordinates":[5.1096649,52.0901422]}},{"properties":{"city":"Wigan, UK","trackscount":1,"latitude":53.54544,"userscount":1,"longitude":-2.637474,"id":"a720us68lpz4"},"type":"Feature","geometry":{"type":"Point","coordinates":[-2.637474,53.54544]}},{"properties":{"city":"Fernie, BC, Canada","trackscount":1,"latitude":49.5040452,"userscount":1,"longitude":-115.063065,"id":"a720us686mb0"},"type":"Feature","geometry":{"type":"Point","coordinates":[-115.063065,49.5040452]}},{"properties":{"city":"Castle Rock, CO, USA","trackscount":1,"latitude":39.3722121,"userscount":1,"longitude":-104.8560902,"id":"a720us9zfste"},"type":"Feature","geometry":{"type":"Point","coordinates":[-104.8560902,39.3722121]}},{"properties":{"city":"Kent, UK","trackscount":1,"latitude":51.260145,"userscount":1,"longitude":0.8442802,"id":"a720us5u05ip"},"type":"Feature","geometry":{"type":"Point","coordinates":[0.8442802,51.260145]}},{"properties":{"city":"Nuremberg, Germany","trackscount":1,"latitude":49.45203,"userscount":1,"longitude":11.07675,"id":"a720us3jk5cq"},"type":"Feature","geometry":{"type":"Point","coordinates":[11.07675,49.45203]}},{"properties":{"city":"Ferienwohnung B.C. Koekkoek-Haus, KavarinerstraÃe 33, 47533 Kleve, Germany","trackscount":1,"latitude":51.7899144,"userscount":1,"longitude":6.1378098,"id":"a720us8pz236"},"type":"Feature","geometry":{"type":"Point","coordinates":[6.1378098,51.7899144]}},{"properties":{"city":"Fribourg, Switzerland","trackscount":1,"latitude":46.8016663,"userscount":1,"longitude":7.1455683,"id":"a720us3wex46"},"type":"Feature","geometry":{"type":"Point","coordinates":[7.1455683,46.8016663]}},{"properties":{"city":"Bucharest, Romania","trackscount":1,"latitude":44.437711,"userscount":1,"longitude":26.0973669,"id":"a720usa8yg42"},"type":"Feature","geometry":{"type":"Point","coordinates":[26.0973669,44.437711]}},{"properties":{"city":"PlzeÅ, Czech Republic","trackscount":10,"latitude":49.7474848,"userscount":1,"longitude":13.3776036,"id":"a720urxzgp7z"},"type":"Feature","geometry":{"type":"Point","coordinates":[13.3776036,49.7474848]}},{"properties":{"city":"Oxford St, Ellesmere Port, Cheshire West and Chester CH65, UK","trackscount":1,"latitude":53.2855524,"userscount":1,"longitude":-2.8942673,"id":"a720urzhq0aw"},"type":"Feature","geometry":{"type":"Point","coordinates":[-2.8942673,53.2855524]}},{"properties":{"city":"Marburg, Germany","trackscount":2,"latitude":50.8021728,"userscount":1,"longitude":8.7667933,"id":"a720us0ic3t0"},"type":"Feature","geometry":{"type":"Point","coordinates":[8.7667933,50.8021728]}},{"properties":{"city":"Salamanca, Spain","trackscount":1,"latitude":40.9649681,"userscount":1,"longitude":-5.6630253,"id":"a720us7dsdtd"},"type":"Feature","geometry":{"type":"Point","coordinates":[-5.6630253,40.9649681]}},{"properties":{"city":"Minneapolis, MN, USA","trackscount":1,"latitude":44.983334,"userscount":1,"longitude":-93.26667,"id":"a720us2vrhqz"},"type":"Feature","geometry":{"type":"Point","coordinates":[-93.26667,44.983334]}},{"properties":{"city":"Milan, Italy","trackscount":3,"latitude":45.463681,"userscount":3,"longitude":9.1881714,"id":"a720urwlgz1d"},"type":"Feature","geometry":{"type":"Point","coordinates":[9.1881714,45.463681]}},{"properties":{"city":"Buenos Aires, Autonomous City of Buenos Aires, Argentina","trackscount":4,"latitude":-34.6037232,"userscount":1,"longitude":-58.3815931,"id":"a720usbb5ezy"},"type":"Feature","geometry":{"type":"Point","coordinates":[-58.3815931,-34.6037232]}},{"properties":{"city":"Kitchener, ON, Canada","trackscount":2,"latitude":43.434311,"userscount":1,"longitude":-80.4777469,"id":"a720us4flwd3"},"type":"Feature","geometry":{"type":"Point","coordinates":[-80.4777469,43.434311]}},{"properties":{"city":"Nova Scotia, Canada","trackscount":1,"latitude":44.6819866,"userscount":1,"longitude":-63.744311,"id":"a720us3e5cps"},"type":"Feature","geometry":{"type":"Point","coordinates":[-63.744311,44.6819866]}},{"properties":{"city":"52100 Arezzo Province of Arezzo, Italy","trackscount":1,"latitude":43.4712011,"userscount":1,"longitude":11.8630617,"id":"a720us7ew4bi"},"type":"Feature","geometry":{"type":"Point","coordinates":[11.8630617,43.4712011]}},{"properties":{"city":"Manchester, UK","trackscount":6,"latitude":53.479251,"userscount":2,"longitude":-2.247926,"id":"a720usayh6l8"},"type":"Feature","geometry":{"type":"Point","coordinates":[-2.247926,53.479251]}},{"properties":{"city":"Av. SÃ£o Paulo - Porto Alegre - Rio Grande do Sul, Brazil","trackscount":1,"latitude":-30.0072051,"userscount":1,"longitude":-51.2039053,"id":"a720us08yyl4"},"type":"Feature","geometry":{"type":"Point","coordinates":[-51.2039053,-30.0072051]}},{"properties":{"city":"Bristol Ave, Belfast BT15, UK","trackscount":1,"latitude":54.6340526,"userscount":1,"longitude":-5.9304837,"id":"a720us9j9d3f"},"type":"Feature","geometry":{"type":"Point","coordinates":[-5.9304837,54.6340526]}},{"properties":{"city":"Stellenbosch, South Africa","trackscount":1,"latitude":-33.923119,"userscount":1,"longitude":18.865219,"id":"a720urz6eipk"},"type":"Feature","geometry":{"type":"Point","coordinates":[18.865219,-33.923119]}},{"properties":{"city":"Saragossa, Spain","trackscount":2,"latitude":41.6568307,"userscount":2,"longitude":-0.8799101,"id":"a720us8kf1n6"},"type":"Feature","geometry":{"type":"Point","coordinates":[-0.8799101,41.6568307]}},{"properties":{"city":"Atlanta, GA, USA","trackscount":1,"latitude":33.7489954,"userscount":1,"longitude":-84.3879824,"id":"a720usbh6uvm"},"type":"Feature","geometry":{"type":"Point","coordinates":[-84.3879824,33.7489954]}},{"properties":{"city":"The World of Glass St Helens Ltd, Chalon Way E, St Helens, Merseyside WA10 1AU, UK","trackscount":1,"latitude":53.4505532,"userscount":1,"longitude":-2.7354303,"id":"a720us2zzty2"},"type":"Feature","geometry":{"type":"Point","coordinates":[-2.7354303,53.4505532]}},{"properties":{"city":"Karlsruhe, Germany","trackscount":1,"latitude":49.009148,"userscount":1,"longitude":8.3799444,"id":"a720us47fhqr"},"type":"Feature","geometry":{"type":"Point","coordinates":[8.3799444,49.009148]}},{"properties":{"city":"Veliko Tarnovo, Bulgaria","trackscount":1,"latitude":43.0785562,"userscount":1,"longitude":25.6271574,"id":"a720usaqcz4e"},"type":"Feature","geometry":{"type":"Point","coordinates":[25.6271574,43.0785562]}},{"properties":{"city":"BanskÃ¡ Bystrica, Slovakia","trackscount":1,"latitude":48.736277,"userscount":1,"longitude":19.1461917,"id":"a720urveq8es"},"type":"Feature","geometry":{"type":"Point","coordinates":[19.1461917,48.736277]}},{"properties":{"city":"MÃ¼hlheim am Main, Germany","trackscount":1,"latitude":50.1202168,"userscount":1,"longitude":8.8382646,"id":"a720urwjqh60"},"type":"Feature","geometry":{"type":"Point","coordinates":[8.8382646,50.1202168]}},{"properties":{"city":"Sioux Falls, SD, USA","trackscount":1,"latitude":43.5499749,"userscount":1,"longitude":-96.700327,"id":"a720urz9bzk9"},"type":"Feature","geometry":{"type":"Point","coordinates":[-96.700327,43.5499749]}},{"properties":{"city":"Colchester, Essex, UK","trackscount":1,"latitude":51.895927,"userscount":1,"longitude":0.891874,"id":"a720us70g89o"},"type":"Feature","geometry":{"type":"Point","coordinates":[0.891874,51.895927]}},{"properties":{"city":"Australia","trackscount":2,"latitude":-25.274398,"userscount":1,"longitude":133.775136,"id":"a720us084790"},"type":"Feature","geometry":{"type":"Point","coordinates":[133.775136,-25.274398]}},{"properties":{"city":"Woolacombe, Devon, UK","trackscount":1,"latitude":51.17255,"userscount":1,"longitude":-4.206596,"id":"a720uryxc3h6"},"type":"Feature","geometry":{"type":"Point","coordinates":[-4.206596,51.17255]}},{"properties":{"city":"Halle, Germany","trackscount":1,"latitude":51.47971,"userscount":1,"longitude":11.96864,"id":"a720urw1b4g7"},"type":"Feature","geometry":{"type":"Point","coordinates":[11.96864,51.47971]}},{"properties":{"city":"Bergneustadt, Germany","trackscount":1,"latitude":51.024104,"userscount":1,"longitude":7.649794,"id":"a720urx0dgjf"},"type":"Feature","geometry":{"type":"Point","coordinates":[7.649794,51.024104]}},{"properties":{"city":"Gunma Prefecture, Japan","trackscount":1,"latitude":36.3906675,"userscount":1,"longitude":139.0604061,"id":"a720us1ukdu6"},"type":"Feature","geometry":{"type":"Point","coordinates":[139.0604061,36.3906675]}},{"properties":{"city":"Portsmouth, UK","trackscount":4,"latitude":50.8166667,"userscount":1,"longitude":-1.0833333,"id":"a720urymdzi1"},"type":"Feature","geometry":{"type":"Point","coordinates":[-1.0833333,50.8166667]}},{"properties":{"city":"Vladivostok, Primorsky Krai, Russia","trackscount":1,"latitude":43.1666667,"userscount":1,"longitude":131.9333333,"id":"a720ury1yhxj"},"type":"Feature","geometry":{"type":"Point","coordinates":[131.9333333,43.1666667]}},{"properties":{"city":"Bude, Cornwall, UK","trackscount":1,"latitude":50.826636,"userscount":1,"longitude":-4.543678,"id":"a720usb6ialx"},"type":"Feature","geometry":{"type":"Point","coordinates":[-4.543678,50.826636]}},{"properties":{"city":"Saintes, France","trackscount":1,"latitude":45.744175,"userscount":1,"longitude":-0.633389,"id":"a720us2zey3n"},"type":"Feature","geometry":{"type":"Point","coordinates":[-0.633389,45.744175]}},{"properties":{"city":"Preston, Lancashire, UK","trackscount":3,"latitude":53.763201,"userscount":1,"longitude":-2.70309,"id":"a720us5utl64"},"type":"Feature","geometry":{"type":"Point","coordinates":[-2.70309,53.763201]}},{"properties":{"city":"Berne, Switzerland","trackscount":5,"latitude":46.9479222,"userscount":3,"longitude":7.4446085,"id":"a720usa6l69w"},"type":"Feature","geometry":{"type":"Point","coordinates":[7.4446085,46.9479222]}},{"properties":{"city":"New Britain, CT, USA","trackscount":1,"latitude":41.6612104,"userscount":1,"longitude":-72.7795419,"id":"a720us879esi"},"type":"Feature","geometry":{"type":"Point","coordinates":[-72.7795419,41.6612104]}},{"properties":{"city":"Wales, UK","trackscount":26,"latitude":52.1306607,"userscount":2,"longitude":-3.7837117,"id":"a720us2ufgr1"},"type":"Feature","geometry":{"type":"Point","coordinates":[-3.7837117,52.1306607]}},{"properties":{"city":"Acton, MA, USA","trackscount":1,"latitude":42.485,"userscount":1,"longitude":-71.4333333,"id":"a720urwi0ap2"},"type":"Feature","geometry":{"type":"Point","coordinates":[-71.4333333,42.485]}},{"properties":{"city":"AlmerÃ­a, Spain","trackscount":1,"latitude":36.8401632,"userscount":1,"longitude":-2.467904,"id":"a720us2dc5yr"},"type":"Feature","geometry":{"type":"Point","coordinates":[-2.467904,36.8401632]}},{"properties":{"city":"Drunen, The Netherlands","trackscount":2,"latitude":51.6869459,"userscount":1,"longitude":5.137751,"id":"a720us935ptu"},"type":"Feature","geometry":{"type":"Point","coordinates":[5.137751,51.6869459]}},{"properties":{"city":"Guatemala","trackscount":2,"latitude":15.783471,"userscount":1,"longitude":-90.230759,"id":"a720us1t6mcs"},"type":"Feature","geometry":{"type":"Point","coordinates":[-90.230759,15.783471]}},{"properties":{"city":"Haasdonk, Beveren, Belgium","trackscount":1,"latitude":51.1810333,"userscount":1,"longitude":4.2378789,"id":"a720urxi88en"},"type":"Feature","geometry":{"type":"Point","coordinates":[4.2378789,51.1810333]}},{"properties":{"city":"Norway","trackscount":1,"latitude":60.472024,"userscount":1,"longitude":8.468946,"id":"a720usaarv20"},"type":"Feature","geometry":{"type":"Point","coordinates":[8.468946,60.472024]}},{"properties":{"city":"84070 Salento Province of Salerno, Italy","trackscount":1,"latitude":40.249531,"userscount":1,"longitude":15.190494,"id":"a720us8dpwaz"},"type":"Feature","geometry":{"type":"Point","coordinates":[15.190494,40.249531]}},{"properties":{"city":"Norwich, Norfolk, UK","trackscount":2,"latitude":52.6308859,"userscount":2,"longitude":1.297355,"id":"a720us7v6twz"},"type":"Feature","geometry":{"type":"Point","coordinates":[1.297355,52.6308859]}},{"properties":{"city":"East Midlands International Airport (EMA), Donington Park, Castle Donington, Derbyshire, East Midlands DE74 2RP, UK","trackscount":2,"latitude":52.82587,"userscount":1,"longitude":-1.330595,"id":"a720urwvfogz"},"type":"Feature","geometry":{"type":"Point","coordinates":[-1.330595,52.82587]}},{"properties":{"city":"Figueira da Foz Municipality, Portugal","trackscount":1,"latitude":40.1507844,"userscount":1,"longitude":-8.8512131,"id":"a720urwp6751"},"type":"Feature","geometry":{"type":"Point","coordinates":[-8.8512131,40.1507844]}},{"properties":{"city":"Bonn, Germany","trackscount":1,"latitude":50.73743,"userscount":1,"longitude":7.0982068,"id":"a720urxlb4d0"},"type":"Feature","geometry":{"type":"Point","coordinates":[7.0982068,50.73743]}},{"properties":{"city":"Adelaide SA 5000, Australia","trackscount":1,"latitude":-34.9287264,"userscount":1,"longitude":138.5999453,"id":"a720us49ehm2"},"type":"Feature","geometry":{"type":"Point","coordinates":[138.5999453,-34.9287264]}},{"properties":{"city":"SkjÃ¸rringvej, 8464 Galten, Denmark","trackscount":1,"latitude":56.1688086,"userscount":1,"longitude":9.8971953,"id":"a720us4e2pt2"},"type":"Feature","geometry":{"type":"Point","coordinates":[9.8971953,56.1688086]}},{"properties":{"city":"Phnom Penh, Cambodia","trackscount":1,"latitude":11.558831,"userscount":1,"longitude":104.917445,"id":"a720urxut75w"},"type":"Feature","geometry":{"type":"Point","coordinates":[104.917445,11.558831]}},{"properties":{"city":"Bendigo VIC 3550, Australia","trackscount":1,"latitude":-36.7587112,"userscount":1,"longitude":144.2837459,"id":"a720usa6tdnk"},"type":"Feature","geometry":{"type":"Point","coordinates":[144.2837459,-36.7587112]}},{"properties":{"city":"Auxerre, France","trackscount":2,"latitude":47.798202,"userscount":1,"longitude":3.573781,"id":"a720urzfy1p1"},"type":"Feature","geometry":{"type":"Point","coordinates":[3.573781,47.798202]}},{"properties":{"city":"Kiev, Kyiv city, Ukraine, 02000","trackscount":2,"latitude":50.4501,"userscount":1,"longitude":30.5234,"id":"a720urvxizyo"},"type":"Feature","geometry":{"type":"Point","coordinates":[30.5234,50.4501]}},{"properties":{"city":"Lucerne, Switzerland","trackscount":1,"latitude":47.0503348,"userscount":1,"longitude":8.3156129,"id":"a720us2fvz0s"},"type":"Feature","geometry":{"type":"Point","coordinates":[8.3156129,47.0503348]}},{"properties":{"city":"Santiago, Santiago Metropolitan Region, Chile","trackscount":1,"latitude":-33.4691199,"userscount":1,"longitude":-70.641997,"id":"a720urzqwuu9"},"type":"Feature","geometry":{"type":"Point","coordinates":[-70.641997,-33.4691199]}},{"properties":{"city":"Bologna, Italy","trackscount":1,"latitude":44.4941903,"userscount":1,"longitude":11.3465185,"id":"a720us09flhi"},"type":"Feature","geometry":{"type":"Point","coordinates":[11.3465185,44.4941903]}},{"properties":{"city":"SzÃ©kesfehÃ©rvÃ¡r, Hungary","trackscount":1,"latitude":47.1887157,"userscount":1,"longitude":18.4138088,"id":"a720urxbzk3k"},"type":"Feature","geometry":{"type":"Point","coordinates":[18.4138088,47.1887157]}},{"properties":{"city":"Bielefeld, Germany","trackscount":2,"latitude":52.0212965,"userscount":2,"longitude":8.5302966,"id":"a720urxs3pek"},"type":"Feature","geometry":{"type":"Point","coordinates":[8.5302966,52.0212965]}},{"properties":{"city":"Salzburg, Austria","trackscount":2,"latitude":47.80949,"userscount":1,"longitude":13.05501,"id":"a720us804mfu"},"type":"Feature","geometry":{"type":"Point","coordinates":[13.05501,47.80949]}},{"properties":{"city":"Brixton, London Borough of Lambeth, London SW2, UK","trackscount":4,"latitude":51.459677,"userscount":1,"longitude":-0.123429,"id":"a720us1ixfcd"},"type":"Feature","geometry":{"type":"Point","coordinates":[-0.123429,51.459677]}},{"properties":{"city":"Hirzel, Switzerland","trackscount":1,"latitude":47.2166667,"userscount":1,"longitude":8.6,"id":"a720us73fqcj"},"type":"Feature","geometry":{"type":"Point","coordinates":[8.6,47.2166667]}},{"properties":{"city":"MÃ¼nster, Germany","trackscount":9,"latitude":51.9514808,"userscount":1,"longitude":7.6255388,"id":"a720us1m6bgf"},"type":"Feature","geometry":{"type":"Point","coordinates":[7.6255388,51.9514808]}},{"properties":{"city":"IaÈi, Romania","trackscount":2,"latitude":47.1569444,"userscount":1,"longitude":27.5902778,"id":"a720uryev3vr"},"type":"Feature","geometry":{"type":"Point","coordinates":[27.5902778,47.1569444]}},{"properties":{"city":"NeuenbÃ¼rg, Germany","trackscount":4,"latitude":48.848368,"userscount":1,"longitude":8.5879973,"id":"a720urz3bbdg"},"type":"Feature","geometry":{"type":"Point","coordinates":[8.5879973,48.848368]}},{"properties":{"city":"HradiÅ¡tÄ u BlatnÃ© 387 42 LnÃ¡Åe, Czech Republic","trackscount":1,"latitude":49.4497016,"userscount":1,"longitude":13.7741712,"id":"a720urylohcy"},"type":"Feature","geometry":{"type":"Point","coordinates":[13.7741712,49.4497016]}},{"properties":{"city":"VeszprÃ©m, Hungary","trackscount":1,"latitude":47.092967,"userscount":1,"longitude":17.913785,"id":"a720us6m4v9s"},"type":"Feature","geometry":{"type":"Point","coordinates":[17.913785,47.092967]}},{"properties":{"city":"Erlenbach, Switzerland","trackscount":1,"latitude":47.3027783,"userscount":1,"longitude":8.6006925,"id":"a720us92btqt"},"type":"Feature","geometry":{"type":"Point","coordinates":[8.6006925,47.3027783]}},{"properties":{"city":"Cambo-les-Bains, France","trackscount":1,"latitude":43.361106,"userscount":1,"longitude":-1.399376,"id":"a720us7itw0f"},"type":"Feature","geometry":{"type":"Point","coordinates":[-1.399376,43.361106]}},{"properties":{"city":"Seoul, South Korea","trackscount":2,"latitude":37.566535,"userscount":2,"longitude":126.9779692,"id":"a720us3rg3fx"},"type":"Feature","geometry":{"type":"Point","coordinates":[126.9779692,37.566535]}},{"properties":{"city":"East Flanders, Belgium","trackscount":1,"latitude":51.0362101,"userscount":1,"longitude":3.7373124,"id":"a720us04zdca"},"type":"Feature","geometry":{"type":"Point","coordinates":[3.7373124,51.0362101]}},{"properties":{"city":"Caldas da Rainha, Portugal","trackscount":1,"latitude":39.4070697,"userscount":1,"longitude":-9.1345843,"id":"a720usaoaxu3"},"type":"Feature","geometry":{"type":"Point","coordinates":[-9.1345843,39.4070697]}},{"properties":{"city":"Rijeka, Croatia","trackscount":1,"latitude":45.3284797,"userscount":1,"longitude":14.4364051,"id":"a720us9feuzm"},"type":"Feature","geometry":{"type":"Point","coordinates":[14.4364051,45.3284797]}},{"properties":{"city":"Saskatoon, SK, Canada","trackscount":2,"latitude":52.1343699,"userscount":1,"longitude":-106.647656,"id":"a720us8eux8f"},"type":"Feature","geometry":{"type":"Point","coordinates":[-106.647656,52.1343699]}},{"properties":{"city":"ZlÃ­n, Czech Republic","trackscount":2,"latitude":49.2268877,"userscount":1,"longitude":17.6689027,"id":"a720us4vpb1x"},"type":"Feature","geometry":{"type":"Point","coordinates":[17.6689027,49.2268877]}},{"properties":{"city":"Baku, Azerbaijan","trackscount":1,"latitude":40.4349504,"userscount":1,"longitude":49.8676232,"id":"a720us02d8ea"},"type":"Feature","geometry":{"type":"Point","coordinates":[49.8676232,40.4349504]}},{"properties":{"city":"Central, Hong Kong","trackscount":2,"latitude":22.2819444,"userscount":1,"longitude":114.1580556,"id":"a720us67iykj"},"type":"Feature","geometry":{"type":"Point","coordinates":[114.1580556,22.2819444]}},{"properties":{"city":"Leicester, UK","trackscount":1,"latitude":52.6368778,"userscount":1,"longitude":-1.1397592,"id":"a720urv7g8dt"},"type":"Feature","geometry":{"type":"Point","coordinates":[-1.1397592,52.6368778]}},{"properties":{"city":"Savoie, France","trackscount":1,"latitude":45.4932045,"userscount":1,"longitude":6.4724,"id":"a720us330ay9"},"type":"Feature","geometry":{"type":"Point","coordinates":[6.4724,45.4932045]}},{"properties":{"city":"Chomutov, Czech Republic","trackscount":1,"latitude":50.4603769,"userscount":1,"longitude":13.4180051,"id":"a720usa787d9"},"type":"Feature","geometry":{"type":"Point","coordinates":[13.4180051,50.4603769]}},{"properties":{"city":"Potsdam, Germany","trackscount":1,"latitude":52.3941887,"userscount":1,"longitude":13.072691,"id":"a720us4jppas"},"type":"Feature","geometry":{"type":"Point","coordinates":[13.072691,52.3941887]}},{"properties":{"city":"Ourcq, France","trackscount":1,"latitude":49.1106245,"userscount":1,"longitude":3.3027935,"id":"a720urvlz18u"},"type":"Feature","geometry":{"type":"Point","coordinates":[3.3027935,49.1106245]}},{"properties":{"city":"ÃstÃ­ nad Labem, Czech Republic","trackscount":1,"latitude":50.6610266,"userscount":1,"longitude":14.0329968,"id":"a720us264p73"},"type":"Feature","geometry":{"type":"Point","coordinates":[14.0329968,50.6610266]}},{"properties":{"city":"Spain","trackscount":2,"latitude":40.463667,"userscount":1,"longitude":-3.74922,"id":"a720us9y4qzt"},"type":"Feature","geometry":{"type":"Point","coordinates":[-3.74922,40.463667]}},{"properties":{"city":"67027 Raiano Province of L'Aquila, Italy","trackscount":2,"latitude":42.1026073,"userscount":1,"longitude":13.8148149,"id":"a720us57ea06"},"type":"Feature","geometry":{"type":"Point","coordinates":[13.8148149,42.1026073]}},{"properties":{"city":"MÃ¼lheim, Germany","trackscount":4,"latitude":51.4309558,"userscount":1,"longitude":6.8807461,"id":"a720us794j6b"},"type":"Feature","geometry":{"type":"Point","coordinates":[6.8807461,51.4309558]}},{"properties":{"city":"Aachen, Germany","trackscount":1,"latitude":50.7753455,"userscount":1,"longitude":6.0838868,"id":"a720us61hfqm"},"type":"Feature","geometry":{"type":"Point","coordinates":[6.0838868,50.7753455]}},{"properties":{"city":"Scotland, UK","trackscount":6,"latitude":56.4906712,"userscount":1,"longitude":-4.2026458,"id":"a720us5pyh3f"},"type":"Feature","geometry":{"type":"Point","coordinates":[-4.2026458,56.4906712]}},{"properties":{"city":"Sherborne, Dorset DT9, UK","trackscount":1,"latitude":50.947822,"userscount":1,"longitude":-2.5144829,"id":"a720us49juxa"},"type":"Feature","geometry":{"type":"Point","coordinates":[-2.5144829,50.947822]}},{"properties":{"city":"Surrey, UK","trackscount":1,"latitude":51.2622513,"userscount":1,"longitude":-0.4672517,"id":"a720us2lohzp"},"type":"Feature","geometry":{"type":"Point","coordinates":[-0.4672517,51.2622513]}},{"properties":{"city":"BrianÃ§on, France","trackscount":1,"latitude":44.899416,"userscount":1,"longitude":6.643179,"id":"a720uryzy1pw"},"type":"Feature","geometry":{"type":"Point","coordinates":[6.643179,44.899416]}},{"properties":{"city":"Basle, Switzerland","trackscount":2,"latitude":47.557421,"userscount":1,"longitude":7.5925727,"id":"a720us2nx0tp"},"type":"Feature","geometry":{"type":"Point","coordinates":[7.5925727,47.557421]}},{"properties":{"city":"Forcalquier, France","trackscount":1,"latitude":43.959933,"userscount":1,"longitude":5.780712,"id":"a720us56o1pp"},"type":"Feature","geometry":{"type":"Point","coordinates":[5.780712,43.959933]}},{"properties":{"city":"Wil, Switzerland","trackscount":1,"latitude":47.4665017,"userscount":1,"longitude":9.0456583,"id":"a720us3hg2hz"},"type":"Feature","geometry":{"type":"Point","coordinates":[9.0456583,47.4665017]}},{"properties":{"city":"Canterbury, Kent, UK","trackscount":1,"latitude":51.280233,"userscount":1,"longitude":1.0789089,"id":"a720urx04ner"},"type":"Feature","geometry":{"type":"Point","coordinates":[1.0789089,51.280233]}},{"properties":{"city":"Hatfield, Hertfordshire, UK","trackscount":5,"latitude":51.763366,"userscount":1,"longitude":-0.22309,"id":"a720urvsd6z2"},"type":"Feature","geometry":{"type":"Point","coordinates":[-0.22309,51.763366]}},{"properties":{"city":"Sector, MazatlÃ¡n, Sinaloa, Mexico","trackscount":1,"latitude":23.2369203,"userscount":1,"longitude":-106.4232602,"id":"a720us0d0575"},"type":"Feature","geometry":{"type":"Point","coordinates":[-106.4232602,23.2369203]}},{"properties":{"city":"San Cristobal, Venezuela","trackscount":1,"latitude":7.764951,"userscount":1,"longitude":-72.226061,"id":"a720urvzmd5r"},"type":"Feature","geometry":{"type":"Point","coordinates":[-72.226061,7.764951]}},{"properties":{"city":"Dorking, Surrey, UK","trackscount":3,"latitude":51.232202,"userscount":1,"longitude":-0.332378,"id":"a720us5dkuhk"},"type":"Feature","geometry":{"type":"Point","coordinates":[-0.332378,51.232202]}},{"properties":{"city":"City of Brussels, Belgium","trackscount":4,"latitude":50.8503396,"userscount":3,"longitude":4.3517103,"id":"a720urx7yvt9"},"type":"Feature","geometry":{"type":"Point","coordinates":[4.3517103,50.8503396]}},{"properties":{"city":"Hanover, Germany","trackscount":2,"latitude":52.3758916,"userscount":2,"longitude":9.7320104,"id":"a720us9pc1ia"},"type":"Feature","geometry":{"type":"Point","coordinates":[9.7320104,52.3758916]}},{"properties":{"city":"Soorts-Hossegor, France","trackscount":1,"latitude":43.676891,"userscount":1,"longitude":-1.424724,"id":"a720usnfwbji"},"type":"Feature","geometry":{"type":"Point","coordinates":[-1.424724,43.676891]}},{"properties":{"city":"Helsinki, Finland","trackscount":1,"latitude":60.1665856,"userscount":1,"longitude":24.9435553,"id":"a720usclxils"},"type":"Feature","geometry":{"type":"Point","coordinates":[24.9435553,60.1665856]}},{"properties":{"city":"Grenoble, France","trackscount":5,"latitude":45.188529,"userscount":1,"longitude":5.724524,"id":"a720usdcth4t"},"type":"Feature","geometry":{"type":"Point","coordinates":[5.724524,45.188529]}},{"properties":{"city":"Brasilia International Airport (BSB) - Lago Sul, BrasÃ­lia - Federal District, 71608-900, Brazil","trackscount":1,"latitude":-15.869807,"userscount":1,"longitude":-47.921486,"id":"a720usp39ass"},"type":"Feature","geometry":{"type":"Point","coordinates":[-47.921486,-15.869807]}},{"properties":{"city":"Tokyo, Japan","trackscount":1,"latitude":35.6894875,"userscount":1,"longitude":139.6917064,"id":"a720ush37bvg"},"type":"Feature","geometry":{"type":"Point","coordinates":[139.6917064,35.6894875]}},{"properties":{"city":"Strasbourg, France","trackscount":1,"latitude":48.583148,"userscount":1,"longitude":7.747882,"id":"a720usk5v70j"},"type":"Feature","geometry":{"type":"Point","coordinates":[7.747882,48.583148]}},{"properties":{"city":"Saint-Hilaire-la-Palud, France","trackscount":1,"latitude":46.263285,"userscount":1,"longitude":-0.71246,"id":"a720ushwyxeb"},"type":"Feature","geometry":{"type":"Point","coordinates":[-0.71246,46.263285]}},{"properties":{"city":"Karlsborg, Sweden","trackscount":1,"latitude":58.5300853,"userscount":1,"longitude":14.5105655,"id":"a720usph3iza"},"type":"Feature","geometry":{"type":"Point","coordinates":[14.5105655,58.5300853]}},{"properties":{"city":"Rotterdam, The Netherlands","trackscount":1,"latitude":51.924216,"userscount":1,"longitude":4.481776,"id":"a720usnri3m2"},"type":"Feature","geometry":{"type":"Point","coordinates":[4.481776,51.924216]}},{"properties":{"city":"Stoke-on-Trent, UK","trackscount":1,"latitude":53.002668,"userscount":1,"longitude":-2.179404,"id":"a720use3341u"},"type":"Feature","geometry":{"type":"Point","coordinates":[-2.179404,53.002668]}},{"properties":{"city":"Braunschweig, Germany","trackscount":1,"latitude":52.2688736,"userscount":1,"longitude":10.5267696,"id":"a720usg5znwk"},"type":"Feature","geometry":{"type":"Point","coordinates":[10.5267696,52.2688736]}},{"properties":{"city":"Montech, France","trackscount":1,"latitude":43.957295,"userscount":1,"longitude":1.228583,"id":"a720usp96cqm"},"type":"Feature","geometry":{"type":"Point","coordinates":[1.228583,43.957295]}},{"properties":{"city":"St Louis, MO, USA","trackscount":1,"latitude":38.6270025,"userscount":1,"longitude":-90.1994042,"id":"a720usloexth"},"type":"Feature","geometry":{"type":"Point","coordinates":[-90.1994042,38.6270025]}},{"properties":{"city":"Elgin, IL, USA","trackscount":2,"latitude":42.0372487,"userscount":1,"longitude":-88.2811895,"id":"a720usg3pdmr"},"type":"Feature","geometry":{"type":"Point","coordinates":[-88.2811895,42.0372487]}},{"properties":{"city":"Lohhof, Germany","trackscount":4,"latitude":48.2808849,"userscount":1,"longitude":11.5747419,"id":"a720usekq2ja"},"type":"Feature","geometry":{"type":"Point","coordinates":[11.5747419,48.2808849]}},{"properties":{"city":"Austria, Asuncion, Paraguay","trackscount":2,"latitude":-25.2900858,"userscount":2,"longitude":-57.5627921,"id":"a720uscbsya6"},"type":"Feature","geometry":{"type":"Point","coordinates":[-57.5627921,-25.2900858]}},{"properties":{"city":"MÃ¼nnerstadt, Germany","trackscount":1,"latitude":50.247561,"userscount":1,"longitude":10.1944102,"id":"a720usncpr7u"},"type":"Feature","geometry":{"type":"Point","coordinates":[10.1944102,50.247561]}},{"properties":{"city":"Frankfurt, Germany","trackscount":5,"latitude":50.1109221,"userscount":1,"longitude":8.6821267,"id":"a720ush8th1v"},"type":"Feature","geometry":{"type":"Point","coordinates":[8.6821267,50.1109221]}},{"properties":{"city":"Victoria, BC, Canada","trackscount":1,"latitude":48.4286111,"userscount":1,"longitude":-123.3655556,"id":"a720usmiq0g1"},"type":"Feature","geometry":{"type":"Point","coordinates":[-123.3655556,48.4286111]}},{"properties":{"city":"Saint-Brieuc, France","trackscount":2,"latitude":48.51418,"userscount":1,"longitude":-2.765835,"id":"a720uskhho4a"},"type":"Feature","geometry":{"type":"Point","coordinates":[-2.765835,48.51418]}},{"properties":{"city":"Nijmegen, The Netherlands","trackscount":1,"latitude":51.842867,"userscount":1,"longitude":5.854622,"id":"a720usdw9vb6"},"type":"Feature","geometry":{"type":"Point","coordinates":[5.854622,51.842867]}},{"properties":{"city":"Steyning, West Sussex BN44, UK","trackscount":2,"latitude":50.887403,"userscount":1,"longitude":-0.326676,"id":"a720uslx1l3j"},"type":"Feature","geometry":{"type":"Point","coordinates":[-0.326676,50.887403]}},{"properties":{"city":"Shrewsbury, Shropshire, UK","trackscount":6,"latitude":52.706935,"userscount":2,"longitude":-2.752722,"id":"a720usn38mie"},"type":"Feature","geometry":{"type":"Point","coordinates":[-2.752722,52.706935]}},{"properties":{"city":"Sarasota, FL, USA","trackscount":1,"latitude":27.3364347,"userscount":1,"longitude":-82.5306527,"id":"a720ushh1s9w"},"type":"Feature","geometry":{"type":"Point","coordinates":[-82.5306527,27.3364347]}},{"properties":{"city":"SfÃ¢ntu Gheorghe, Romania","trackscount":1,"latitude":45.8636111,"userscount":1,"longitude":25.7875,"id":"a720uslz563z"},"type":"Feature","geometry":{"type":"Point","coordinates":[25.7875,45.8636111]}},{"properties":{"city":"Gold Coast, QLD, Australia","trackscount":1,"latitude":-28.0172605,"userscount":1,"longitude":153.4256987,"id":"a720uscs72cr"},"type":"Feature","geometry":{"type":"Point","coordinates":[153.4256987,-28.0172605]}},{"properties":{"city":"Hildesheim, Germany","trackscount":1,"latitude":52.1409542,"userscount":1,"longitude":9.9658683,"id":"a720uslgxcsn"},"type":"Feature","geometry":{"type":"Point","coordinates":[9.9658683,52.1409542]}},{"properties":{"city":"ZOU EVENTS, 14 Avenue Antoine Laurent Lavoisier, 64 140 Lons, France","trackscount":1,"latitude":43.3073382,"userscount":1,"longitude":-0.4155037,"id":"a720usp0c5qc"},"type":"Feature","geometry":{"type":"Point","coordinates":[-0.4155037,43.3073382]}},{"properties":{"city":"Edmonton, AB, Canada","trackscount":2,"latitude":53.5333333,"userscount":2,"longitude":-113.5,"id":"a720uskymxo7"},"type":"Feature","geometry":{"type":"Point","coordinates":[-113.5,53.5333333]}},{"properties":{"city":"Zabrze, Poland","trackscount":1,"latitude":50.3249278,"userscount":1,"longitude":18.7857186,"id":"a720usj6tne6"},"type":"Feature","geometry":{"type":"Point","coordinates":[18.7857186,50.3249278]}},{"properties":{"city":"Wohlen, Switzerland","trackscount":1,"latitude":47.3519764,"userscount":1,"longitude":8.2757284,"id":"a720usez8fyc"},"type":"Feature","geometry":{"type":"Point","coordinates":[8.2757284,47.3519764]}},{"properties":{"city":"Koblenz, Germany","trackscount":1,"latitude":50.360025,"userscount":1,"longitude":7.589907,"id":"a720usibjafz"},"type":"Feature","geometry":{"type":"Point","coordinates":[7.589907,50.360025]}},{"properties":{"city":"Fairfax, VA, USA","trackscount":1,"latitude":38.8462236,"userscount":1,"longitude":-77.3063733,"id":"a720usjbcgdv"},"type":"Feature","geometry":{"type":"Point","coordinates":[-77.3063733,38.8462236]}},{"properties":{"city":"Rennes, France","trackscount":2,"latitude":48.113475,"userscount":1,"longitude":-1.675708,"id":"a720usd8e6st"},"type":"Feature","geometry":{"type":"Point","coordinates":[-1.675708,48.113475]}},{"properties":{"city":"Island Lake, Ardenhurst, MN 56661, USA","trackscount":1,"latitude":47.8116052,"userscount":1,"longitude":-94.2385108,"id":"a720uscnu8q3"},"type":"Feature","geometry":{"type":"Point","coordinates":[-94.2385108,47.8116052]}},{"properties":{"city":"Orlando, FL, USA","trackscount":1,"latitude":28.5383355,"userscount":1,"longitude":-81.3792365,"id":"a720usfnf8ym"},"type":"Feature","geometry":{"type":"Point","coordinates":[-81.3792365,28.5383355]}},{"properties":{"city":"Ãrhusgade, 2100 Copenhagen, Denmark","trackscount":2,"latitude":55.7067506,"userscount":1,"longitude":12.5859509,"id":"a720usi3mxhx"},"type":"Feature","geometry":{"type":"Point","coordinates":[12.5859509,55.7067506]}},{"properties":{"city":"Reading, UK","trackscount":1,"latitude":51.4528837,"userscount":1,"longitude":-0.973906,"id":"a720uskkzny1"},"type":"Feature","geometry":{"type":"Point","coordinates":[-0.973906,51.4528837]}},{"properties":{"city":"Baden-WÃ¼rttemberg, Germany","trackscount":1,"latitude":48.6616037,"userscount":1,"longitude":9.3501336,"id":"a720usck0klo"},"type":"Feature","geometry":{"type":"Point","coordinates":[9.3501336,48.6616037]}},{"properties":{"city":"Hedon, East Riding of Yorkshire HU12, UK","trackscount":1,"latitude":53.741199,"userscount":1,"longitude":-0.198666,"id":"a720usl8glyp"},"type":"Feature","geometry":{"type":"Point","coordinates":[-0.198666,53.741199]}},{"properties":{"city":"Spanischer Eck, Hesperange, Luxembourg","trackscount":2,"latitude":49.5878648,"userscount":1,"longitude":6.1747369,"id":"a720usc3n62n"},"type":"Feature","geometry":{"type":"Point","coordinates":[6.1747369,49.5878648]}},{"properties":{"city":"Bari, Italy","trackscount":1,"latitude":41.1259135,"userscount":1,"longitude":16.8721133,"id":"a720ushwal8d"},"type":"Feature","geometry":{"type":"Point","coordinates":[16.8721133,41.1259135]}},{"properties":{"city":"Lisbon, Portugal","trackscount":1,"latitude":38.706932,"userscount":1,"longitude":-9.1356321,"id":"a720usdzgjll"},"type":"Feature","geometry":{"type":"Point","coordinates":[-9.1356321,38.706932]}},{"properties":{"city":"Saint-Ghislain, Belgium","trackscount":1,"latitude":50.4491086,"userscount":1,"longitude":3.8183757,"id":"a720usjz4xvu"},"type":"Feature","geometry":{"type":"Point","coordinates":[3.8183757,50.4491086]}},{"properties":{"city":"Ben Gurion International Airport (TLV), Ben-Gurion Airport, Israel","trackscount":2,"latitude":31.995971,"userscount":1,"longitude":34.895667,"id":"a720usg56bf8"},"type":"Feature","geometry":{"type":"Point","coordinates":[34.895667,31.995971]}},{"properties":{"city":"Northern Ireland, UK","trackscount":1,"latitude":54.7877149,"userscount":1,"longitude":-6.4923145,"id":"a720uspukp6t"},"type":"Feature","geometry":{"type":"Point","coordinates":[-6.4923145,54.7877149]}},{"properties":{"city":"Rome, Italy","trackscount":2,"latitude":41.8905198,"userscount":2,"longitude":12.4942486,"id":"a720usea6ho4"},"type":"Feature","geometry":{"type":"Point","coordinates":[12.4942486,41.8905198]}},{"properties":{"city":"Ãle-de-France, France","trackscount":1,"latitude":48.8499198,"userscount":1,"longitude":2.6370411,"id":"a720usdgpqfw"},"type":"Feature","geometry":{"type":"Point","coordinates":[2.6370411,48.8499198]}},{"properties":{"city":"Dorchester, Dorset, UK","trackscount":4,"latitude":50.7111639,"userscount":1,"longitude":-2.441181,"id":"a720usi9a2rd"},"type":"Feature","geometry":{"type":"Point","coordinates":[-2.441181,50.7111639]}},{"properties":{"city":"Southend-on-Sea, UK","trackscount":2,"latitude":51.5459269,"userscount":1,"longitude":0.7077123,"id":"a720usd2u6ht"},"type":"Feature","geometry":{"type":"Point","coordinates":[0.7077123,51.5459269]}},{"properties":{"city":"KrakÃ³w, Poland","trackscount":5,"latitude":50.0646501,"userscount":2,"longitude":19.9449799,"id":"a720usk5yv0f"},"type":"Feature","geometry":{"type":"Point","coordinates":[19.9449799,50.0646501]}},{"properties":{"city":"Missoula, Mt, USA","trackscount":1,"latitude":46.8605189,"userscount":1,"longitude":-114.019501,"id":"a720uso7rq55"},"type":"Feature","geometry":{"type":"Point","coordinates":[-114.019501,46.8605189]}},{"properties":{"city":"Newport News, VA, USA","trackscount":1,"latitude":37.0870821,"userscount":1,"longitude":-76.4730122,"id":"a720usitpnu1"},"type":"Feature","geometry":{"type":"Point","coordinates":[-76.4730122,37.0870821]}},{"properties":{"city":"La Plata, Buenos Aires Province, Argentina","trackscount":1,"latitude":-34.92125,"userscount":1,"longitude":-57.9543333,"id":"a720uslnl78q"},"type":"Feature","geometry":{"type":"Point","coordinates":[-57.9543333,-34.92125]}},{"properties":{"city":"Leuven, Belgium","trackscount":1,"latitude":50.877571,"userscount":1,"longitude":4.704328,"id":"a720usmolo3a"},"type":"Feature","geometry":{"type":"Point","coordinates":[4.704328,50.877571]}},{"properties":{"city":"England, UK","trackscount":1,"latitude":52.3555177,"userscount":1,"longitude":-1.1743197,"id":"a720usc3s50k"},"type":"Feature","geometry":{"type":"Point","coordinates":[-1.1743197,52.3555177]}},{"properties":{"city":"Ciampino (CIA), 00043 Rome, Italy","trackscount":1,"latitude":41.8003881,"userscount":1,"longitude":12.5908322,"id":"a720usczss5p"},"type":"Feature","geometry":{"type":"Point","coordinates":[12.5908322,41.8003881]}},{"properties":{"city":"5 Lower Town, Sampford Peverell, Tiverton, Devon EX16 7BJ, UK","trackscount":1,"latitude":50.9197067,"userscount":1,"longitude":-3.3784833,"id":"a720usgd278z"},"type":"Feature","geometry":{"type":"Point","coordinates":[-3.3784833,50.9197067]}},{"properties":{"city":"Valencia, Spain","trackscount":1,"latitude":39.4702393,"userscount":1,"longitude":-0.3768049,"id":"a720uslr07rf"},"type":"Feature","geometry":{"type":"Point","coordinates":[-0.3768049,39.4702393]}},{"properties":{"city":"Bamberg, Germany","trackscount":1,"latitude":49.8988135,"userscount":1,"longitude":10.9027636,"id":"a720usj1oqq3"},"type":"Feature","geometry":{"type":"Point","coordinates":[10.9027636,49.8988135]}},{"properties":{"city":"Fremantle WA, Australia","trackscount":1,"latitude":-32.0560399,"userscount":1,"longitude":115.7471797,"id":"a720usn11rny"},"type":"Feature","geometry":{"type":"Point","coordinates":[115.7471797,-32.0560399]}},{"properties":{"city":"Arcachon, France","trackscount":2,"latitude":44.661383,"userscount":1,"longitude":-1.170215,"id":"a720usqtcz7o"},"type":"Feature","geometry":{"type":"Point","coordinates":[-1.170215,44.661383]}},{"properties":{"city":"Palermo, Italy","trackscount":6,"latitude":38.11564,"userscount":1,"longitude":13.3614059,"id":"a720ushypr3w"},"type":"Feature","geometry":{"type":"Point","coordinates":[13.3614059,38.11564]}},{"properties":{"city":"Bochum, Germany","trackscount":1,"latitude":51.4818445,"userscount":1,"longitude":7.2162363,"id":"a720usiqq8q1"},"type":"Feature","geometry":{"type":"Point","coordinates":[7.2162363,51.4818445]}},{"properties":{"city":"Westport, Co. Mayo, Ireland","trackscount":3,"latitude":53.8011282,"userscount":1,"longitude":-9.522312,"id":"a720usq1skt0"},"type":"Feature","geometry":{"type":"Point","coordinates":[-9.522312,53.8011282]}},{"properties":{"city":"Genoa, Italy","trackscount":1,"latitude":44.4070624,"userscount":1,"longitude":8.9339889,"id":"a720usfdqhin"},"type":"Feature","geometry":{"type":"Point","coordinates":[8.9339889,44.4070624]}},{"properties":{"city":"Truro, Cornwall, UK","trackscount":1,"latitude":50.263195,"userscount":1,"longitude":-5.051041,"id":"a720usmu9uk0"},"type":"Feature","geometry":{"type":"Point","coordinates":[-5.051041,50.263195]}},{"properties":{"city":"Riga, Latvia","trackscount":1,"latitude":56.9462031,"userscount":1,"longitude":24.1042872,"id":"a720uslls0n3"},"type":"Feature","geometry":{"type":"Point","coordinates":[24.1042872,56.9462031]}},{"properties":{"city":"VÃ¡c, Hungary","trackscount":1,"latitude":47.7754454,"userscount":1,"longitude":19.1377076,"id":"a720ush133yd"},"type":"Feature","geometry":{"type":"Point","coordinates":[19.1377076,47.7754454]}},{"properties":{"city":"Indiana, USA","trackscount":1,"latitude":40.2671941,"userscount":1,"longitude":-86.1349019,"id":"a720usgy46ut"},"type":"Feature","geometry":{"type":"Point","coordinates":[-86.1349019,40.2671941]}},{"properties":{"city":"University of St Andrews, 65, N Street, The Scores, St Andrews, Fife KY16 9AJ, UK","trackscount":1,"latitude":56.3411815,"userscount":1,"longitude":-2.7930498,"id":"a720uslmux3i"},"type":"Feature","geometry":{"type":"Point","coordinates":[-2.7930498,56.3411815]}},{"properties":{"city":"Troy, MI, USA","trackscount":1,"latitude":42.6055893,"userscount":1,"longitude":-83.1499304,"id":"a720ushgn41h"},"type":"Feature","geometry":{"type":"Point","coordinates":[-83.1499304,42.6055893]}},{"properties":{"city":"Riverside, CA, USA","trackscount":1,"latitude":33.9533487,"userscount":1,"longitude":-117.3961564,"id":"a720usksmpnq"},"type":"Feature","geometry":{"type":"Point","coordinates":[-117.3961564,33.9533487]}},{"properties":{"city":"Coventry, West Midlands, UK","trackscount":1,"latitude":52.406822,"userscount":1,"longitude":-1.519693,"id":"a720uscnqlet"},"type":"Feature","geometry":{"type":"Point","coordinates":[-1.519693,52.406822]}},{"properties":{"city":"London Rd, Guildford, Surrey, UK","trackscount":4,"latitude":51.2501169,"userscount":1,"longitude":-0.5531171,"id":"a720uspdyrb9"},"type":"Feature","geometry":{"type":"Point","coordinates":[-0.5531171,51.2501169]}},{"properties":{"city":"64Âª Esquadra LX, Estr. de Alfragide, 2720-016 Amadora, Portugal","trackscount":1,"latitude":38.7377144,"userscount":1,"longitude":-9.2134294,"id":"a720usohh2mv"},"type":"Feature","geometry":{"type":"Point","coordinates":[-9.2134294,38.7377144]}},{"properties":{"city":"Indio, CA, USA","trackscount":1,"latitude":33.7205771,"userscount":1,"longitude":-116.2155619,"id":"a720uspe0mp0"},"type":"Feature","geometry":{"type":"Point","coordinates":[-116.2155619,33.7205771]}},{"properties":{"city":"30140 Anduze, France","trackscount":2,"latitude":44.053386,"userscount":1,"longitude":3.98651,"id":"a720ushnhw0s"},"type":"Feature","geometry":{"type":"Point","coordinates":[3.98651,44.053386]}},{"properties":{"city":"Zapopan, JAL, Mexico","trackscount":1,"latitude":20.7166667,"userscount":1,"longitude":-103.4,"id":"a720usk0qg1b"},"type":"Feature","geometry":{"type":"Point","coordinates":[-103.4,20.7166667]}},{"properties":{"city":"SaarbrÃ¼cken, Germany","trackscount":2,"latitude":49.2401572,"userscount":1,"longitude":6.9969327,"id":"a720usdnresc"},"type":"Feature","geometry":{"type":"Point","coordinates":[6.9969327,49.2401572]}},{"properties":{"city":"Poitiers, France","trackscount":1,"latitude":46.580224,"userscount":1,"longitude":0.340375,"id":"a720usj0yii7"},"type":"Feature","geometry":{"type":"Point","coordinates":[0.340375,46.580224]}},{"properties":{"city":"Uppsala, Sweden","trackscount":2,"latitude":59.8585638,"userscount":1,"longitude":17.6389267,"id":"a720useec3t7"},"type":"Feature","geometry":{"type":"Point","coordinates":[17.6389267,59.8585638]}},{"properties":{"city":"Colmar, France","trackscount":1,"latitude":48.0793589,"userscount":1,"longitude":7.358512,"id":"a720usl2rjal"},"type":"Feature","geometry":{"type":"Point","coordinates":[7.358512,48.0793589]}},{"properties":{"city":"Zagreb, Croatia","trackscount":1,"latitude":45.814912,"userscount":1,"longitude":15.9785145,"id":"a720uslc3e7o"},"type":"Feature","geometry":{"type":"Point","coordinates":[15.9785145,45.814912]}},{"properties":{"city":"Toulon, France","trackscount":1,"latitude":43.124228,"userscount":1,"longitude":5.928,"id":"a720uspj1ur9"},"type":"Feature","geometry":{"type":"Point","coordinates":[5.928,43.124228]}},{"properties":{"city":"Liverpool Rd, Newcastle-under-Lyme, Staffordshire ST5, UK","trackscount":1,"latitude":53.0554937,"userscount":1,"longitude":-2.2556625,"id":"a720ushm0601"},"type":"Feature","geometry":{"type":"Point","coordinates":[-2.2556625,53.0554937]}},{"properties":{"city":"Haslemere, Surrey, UK","trackscount":1,"latitude":51.090856,"userscount":1,"longitude":-0.713373,"id":"a720uslysme0"},"type":"Feature","geometry":{"type":"Point","coordinates":[-0.713373,51.090856]}},{"properties":{"city":"Tilburg, The Netherlands","trackscount":2,"latitude":51.5862949,"userscount":1,"longitude":5.0791272,"id":"a720usei9hht"},"type":"Feature","geometry":{"type":"Point","coordinates":[5.0791272,51.5862949]}},{"properties":{"city":"DÄÄÃ­n, Czech Republic","trackscount":2,"latitude":50.7817726,"userscount":1,"longitude":14.2145834,"id":"a720usnz3yn9"},"type":"Feature","geometry":{"type":"Point","coordinates":[14.2145834,50.7817726]}},{"properties":{"city":"Whistler, BC V0N, Canada","trackscount":1,"latitude":50.116168,"userscount":1,"longitude":-122.959423,"id":"a720usjw0el7"},"type":"Feature","geometry":{"type":"Point","coordinates":[-122.959423,50.116168]}},{"properties":{"city":"Madrid, Spain","trackscount":1,"latitude":40.4166909,"userscount":1,"longitude":-3.7003454,"id":"a720usopyuu2"},"type":"Feature","geometry":{"type":"Point","coordinates":[-3.7003454,40.4166909]}},{"properties":{"city":"Brittany, France","trackscount":1,"latitude":48.2020471,"userscount":1,"longitude":-2.9326435,"id":"a720usmdaxla"},"type":"Feature","geometry":{"type":"Point","coordinates":[-2.9326435,48.2020471]}},{"properties":{"city":"Zama, Kanagawa Prefecture, Japan","trackscount":1,"latitude":35.4885872,"userscount":1,"longitude":139.4076731,"id":"a720ushc81kn"},"type":"Feature","geometry":{"type":"Point","coordinates":[139.4076731,35.4885872]}},{"properties":{"city":"Cognac, France","trackscount":5,"latitude":45.691046,"userscount":1,"longitude":-0.328744,"id":"a720usffzscc"},"type":"Feature","geometry":{"type":"Point","coordinates":[-0.328744,45.691046]}},{"properties":{"city":"Liebenwalde, Germany","trackscount":1,"latitude":52.8711065,"userscount":1,"longitude":13.3966523,"id":"a720uspjcwu1"},"type":"Feature","geometry":{"type":"Point","coordinates":[13.3966523,52.8711065]}},{"properties":{"city":"Oryol, Oryol Oblast, Russia","trackscount":1,"latitude":52.9666667,"userscount":1,"longitude":36.0666667,"id":"a720usr2g36v"},"type":"Feature","geometry":{"type":"Point","coordinates":[36.0666667,52.9666667]}},{"properties":{"city":"Cary, NC, USA","trackscount":1,"latitude":35.79154,"userscount":1,"longitude":-78.7811169,"id":"a720usootp35"},"type":"Feature","geometry":{"type":"Point","coordinates":[-78.7811169,35.79154]}},{"properties":{"city":"Liege, Belgium","trackscount":2,"latitude":50.6325574,"userscount":1,"longitude":5.5796662,"id":"a720usmxn0jf"},"type":"Feature","geometry":{"type":"Point","coordinates":[5.5796662,50.6325574]}},{"properties":{"city":"Darmstadt, Germany","trackscount":1,"latitude":49.8776483,"userscount":1,"longitude":8.6517617,"id":"a720uskhthk9"},"type":"Feature","geometry":{"type":"Point","coordinates":[8.6517617,49.8776483]}},{"properties":{"city":"Turin St, London Borough of Tower Hamlets, E2, UK","trackscount":1,"latitude":51.526889,"userscount":1,"longitude":-0.0683098,"id":"a720usj5b3qr"},"type":"Feature","geometry":{"type":"Point","coordinates":[-0.0683098,51.526889]}},{"properties":{"city":"FÄlticeni, Romania","trackscount":1,"latitude":47.4597222,"userscount":1,"longitude":26.3,"id":"a720usqfre8e"},"type":"Feature","geometry":{"type":"Point","coordinates":[26.3,47.4597222]}},{"properties":{"city":"Hull, Kingston upon Hull, UK","trackscount":1,"latitude":53.7456709,"userscount":1,"longitude":-0.3367413,"id":"a720usgx4zde"},"type":"Feature","geometry":{"type":"Point","coordinates":[-0.3367413,53.7456709]}},{"properties":{"city":"MalmÃ¶, Sweden","trackscount":2,"latitude":55.604981,"userscount":1,"longitude":13.003822,"id":"a720usf1ht60"},"type":"Feature","geometry":{"type":"Point","coordinates":[13.003822,55.604981]}},{"properties":{"city":"Barcelona, Buenos Aires, Autonomous City of Buenos Aires, Argentina","trackscount":5,"latitude":-34.6607018,"userscount":1,"longitude":-58.4389267,"id":"a720usf7wzag"},"type":"Feature","geometry":{"type":"Point","coordinates":[-58.4389267,-34.6607018]}},{"properties":{"city":"Trondheim, Norway","trackscount":1,"latitude":63.4305149,"userscount":1,"longitude":10.3950528,"id":"a720usqhuslw"},"type":"Feature","geometry":{"type":"Point","coordinates":[10.3950528,63.4305149]}},{"properties":{"city":"Castille La Mancha, Spain","trackscount":1,"latitude":39.2795607,"userscount":1,"longitude":-3.097702,"id":"a720usjxvf80"},"type":"Feature","geometry":{"type":"Point","coordinates":[-3.097702,39.2795607]}},{"properties":{"city":"Faversham, Kent ME13, UK","trackscount":1,"latitude":51.315994,"userscount":1,"longitude":0.889358,"id":"a720usdtno02"},"type":"Feature","geometry":{"type":"Point","coordinates":[0.889358,51.315994]}},{"properties":{"city":"Cincinnati, OH, USA","trackscount":1,"latitude":39.1031182,"userscount":1,"longitude":-84.5120196,"id":"a720usbygjgu"},"type":"Feature","geometry":{"type":"Point","coordinates":[-84.5120196,39.1031182]}},{"properties":{"city":"Magdeburg, Germany","trackscount":1,"latitude":52.130807,"userscount":1,"longitude":11.628878,"id":"a720usd1205j"},"type":"Feature","geometry":{"type":"Point","coordinates":[11.628878,52.130807]}},{"properties":{"city":"Aalborg, Denmark","trackscount":1,"latitude":57.028811,"userscount":1,"longitude":9.917771,"id":"a720usg0k9cl"},"type":"Feature","geometry":{"type":"Point","coordinates":[9.917771,57.028811]}},{"properties":{"city":"Saltspring Island, Salt Spring Island, BC, Canada","trackscount":1,"latitude":48.8166622,"userscount":1,"longitude":-123.5088755,"id":"a720uso4ej3x"},"type":"Feature","geometry":{"type":"Point","coordinates":[-123.5088755,48.8166622]}},{"properties":{"city":"BrÃ¼hl, Germany","trackscount":1,"latitude":50.8268726,"userscount":1,"longitude":6.900167,"id":"a720usl55n14"},"type":"Feature","geometry":{"type":"Point","coordinates":[6.900167,50.8268726]}},{"properties":{"city":"7350 Elvas Municipality, Portugal","trackscount":2,"latitude":38.8810976,"userscount":1,"longitude":-7.1638337,"id":"a720usbu4112"},"type":"Feature","geometry":{"type":"Point","coordinates":[-7.1638337,38.8810976]}},{"properties":{"city":"Berkhamsted, Hertfordshire, UK","trackscount":1,"latitude":51.759766,"userscount":1,"longitude":-0.5678569,"id":"a720usqe5ium"},"type":"Feature","geometry":{"type":"Point","coordinates":[-0.5678569,51.759766]}},{"properties":{"city":"Aix-en-Provence, France","trackscount":1,"latitude":43.529742,"userscount":1,"longitude":5.447427,"id":"a720ushj4dm7"},"type":"Feature","geometry":{"type":"Point","coordinates":[5.447427,43.529742]}},{"properties":{"city":"Lancaster, Lancashire, UK","trackscount":4,"latitude":54.046575,"userscount":1,"longitude":-2.8007399,"id":"a720usd5o6yq"},"type":"Feature","geometry":{"type":"Point","coordinates":[-2.8007399,54.046575]}},{"properties":{"city":"Italy","trackscount":1,"latitude":41.87194,"userscount":1,"longitude":12.56738,"id":"a720usdrm5wz"},"type":"Feature","geometry":{"type":"Point","coordinates":[12.56738,41.87194]}},{"properties":{"city":"Novi Sad, Serbia","trackscount":1,"latitude":45.262231,"userscount":1,"longitude":19.851858,"id":"a720usqrrdy6"},"type":"Feature","geometry":{"type":"Point","coordinates":[19.851858,45.262231]}},{"properties":{"city":"Rue du Canada, 57970 Yutz, France","trackscount":1,"latitude":49.3475135,"userscount":1,"longitude":6.2083281,"id":"a720usmzrfa4"},"type":"Feature","geometry":{"type":"Point","coordinates":[6.2083281,49.3475135]}},{"properties":{"city":"Northampton, MA, USA","trackscount":1,"latitude":42.3250896,"userscount":1,"longitude":-72.6412013,"id":"a720useclb4l"},"type":"Feature","geometry":{"type":"Point","coordinates":[-72.6412013,42.3250896]}},{"properties":{"city":"BesanÃ§on, France","trackscount":1,"latitude":47.237829,"userscount":1,"longitude":6.0240539,"id":"a720uslp7o1s"},"type":"Feature","geometry":{"type":"Point","coordinates":[6.0240539,47.237829]}},{"properties":{"city":"73053 Leuca Province of Lecce, Italy","trackscount":1,"latitude":39.798801,"userscount":1,"longitude":18.350439,"id":"a720usnzg3tg"},"type":"Feature","geometry":{"type":"Point","coordinates":[18.350439,39.798801]}},{"properties":{"city":"Charlotte, NC, USA","trackscount":2,"latitude":35.2270869,"userscount":1,"longitude":-80.8431267,"id":"a720usqiia61"},"type":"Feature","geometry":{"type":"Point","coordinates":[-80.8431267,35.2270869]}},{"properties":{"city":"Wells, Somerset BA5, UK","trackscount":1,"latitude":51.209347,"userscount":1,"longitude":-2.6445979,"id":"a720usfy2a2x"},"type":"Feature","geometry":{"type":"Point","coordinates":[-2.6445979,51.209347]}},{"properties":{"city":"Barbastro, Spain","trackscount":1,"latitude":42.0347969,"userscount":1,"longitude":0.1239805,"id":"a720usob7tyz"},"type":"Feature","geometry":{"type":"Point","coordinates":[0.1239805,42.0347969]}},{"properties":{"city":"Asturias, Spain","trackscount":1,"latitude":43.2504393,"userscount":1,"longitude":-5.9832577,"id":"a720usn6gkvc"},"type":"Feature","geometry":{"type":"Point","coordinates":[-5.9832577,43.2504393]}},{"properties":{"city":"Gravesend, Kent, UK","trackscount":1,"latitude":51.441884,"userscount":1,"longitude":0.370759,"id":"a720usdewxxh"},"type":"Feature","geometry":{"type":"Point","coordinates":[0.370759,51.441884]}},{"properties":{"city":"Viz Rey Dr, San Antonio, TX 78224, USA","trackscount":1,"latitude":29.3283476,"userscount":1,"longitude":-98.5270857,"id":"a720ushnwf9i"},"type":"Feature","geometry":{"type":"Point","coordinates":[-98.5270857,29.3283476]}},{"properties":{"city":"MladÃ¡ Boleslav, Czech Republic","trackscount":1,"latitude":50.410745,"userscount":1,"longitude":14.9028046,"id":"a720usksb1yk"},"type":"Feature","geometry":{"type":"Point","coordinates":[14.9028046,50.410745]}},{"properties":{"city":"United States","trackscount":1,"latitude":37.09024,"userscount":1,"longitude":-95.712891,"id":"a720usmva9zd"},"type":"Feature","geometry":{"type":"Point","coordinates":[-95.712891,37.09024]}},{"properties":{"city":"Strood, Medway ME2, UK","trackscount":1,"latitude":51.39247,"userscount":1,"longitude":0.478497,"id":"a720usc50kpj"},"type":"Feature","geometry":{"type":"Point","coordinates":[0.478497,51.39247]}},{"properties":{"city":"Ipoh, Perak, Malaysia","trackscount":2,"latitude":4.61175,"userscount":1,"longitude":101.113506,"id":"a720usqrs87r"},"type":"Feature","geometry":{"type":"Point","coordinates":[101.113506,4.61175]}},{"properties":{"city":"Torquay, Torbay, UK","trackscount":1,"latitude":50.4619209,"userscount":1,"longitude":-3.525315,"id":"a720usna9wsp"},"type":"Feature","geometry":{"type":"Point","coordinates":[-3.525315,50.4619209]}},{"properties":{"city":"Naples, Italy","trackscount":1,"latitude":40.8399833,"userscount":1,"longitude":14.2525421,"id":"a720usiwptov"},"type":"Feature","geometry":{"type":"Point","coordinates":[14.2525421,40.8399833]}},{"properties":{"city":"Sutton, Greater London, UK","trackscount":1,"latitude":51.3614279,"userscount":1,"longitude":-0.193961,"id":"a720usmm9wjl"},"type":"Feature","geometry":{"type":"Point","coordinates":[-0.193961,51.3614279]}},{"properties":{"city":"Eiffel Tower, Avenue Gustave Eiffel, 75007 Paris, France","trackscount":1,"latitude":48.858278,"userscount":1,"longitude":2.294254,"id":"a720uspaw2wf"},"type":"Feature","geometry":{"type":"Point","coordinates":[2.294254,48.858278]}},{"properties":{"city":"Rue de Berlin, Tunisia","trackscount":1,"latitude":36.7141557,"userscount":1,"longitude":10.1990946,"id":"a720usjomb5c"},"type":"Feature","geometry":{"type":"Point","coordinates":[10.1990946,36.7141557]}},{"properties":{"city":"Guaymas, Sonora, Mexico","trackscount":1,"latitude":27.9139609,"userscount":1,"longitude":-110.9020749,"id":"a720usg43t62"},"type":"Feature","geometry":{"type":"Point","coordinates":[-110.9020749,27.9139609]}},{"properties":{"city":"Warren, MI, USA","trackscount":1,"latitude":42.493,"userscount":1,"longitude":-83.028197,"id":"a720uspbwmcx"},"type":"Feature","geometry":{"type":"Point","coordinates":[-83.028197,42.493]}},{"properties":{"city":"Wels, Austria","trackscount":1,"latitude":48.16542,"userscount":1,"longitude":14.03664,"id":"a720usr5ln4c"},"type":"Feature","geometry":{"type":"Point","coordinates":[14.03664,48.16542]}},{"properties":{"city":"Neuss, Germany","trackscount":1,"latitude":51.2041968,"userscount":1,"longitude":6.6879511,"id":"a720usq5z0ou"},"type":"Feature","geometry":{"type":"Point","coordinates":[6.6879511,51.2041968]}},{"properties":{"city":"Rabat, Morocco","trackscount":1,"latitude":34.015049,"userscount":1,"longitude":-6.83272,"id":"a720usom96q6"},"type":"Feature","geometry":{"type":"Point","coordinates":[-6.83272,34.015049]}},{"properties":{"city":"Davenport, IA, USA","trackscount":1,"latitude":41.5236437,"userscount":1,"longitude":-90.5776367,"id":"a720usieuh5a"},"type":"Feature","geometry":{"type":"Point","coordinates":[-90.5776367,41.5236437]}},{"properties":{"city":"Houston, TX, USA","trackscount":1,"latitude":29.7601927,"userscount":1,"longitude":-95.3693896,"id":"a720uski3h5v"},"type":"Feature","geometry":{"type":"Point","coordinates":[-95.3693896,29.7601927]}},{"properties":{"city":"Hollywood, FL, USA","trackscount":1,"latitude":26.0112014,"userscount":1,"longitude":-80.1494901,"id":"a720usof7jso"},"type":"Feature","geometry":{"type":"Point","coordinates":[-80.1494901,26.0112014]}},{"properties":{"city":"London Rd, SL5, UK","trackscount":1,"latitude":51.4855319,"userscount":1,"longitude":-0.5740061,"id":"a720usm6ss7k"},"type":"Feature","geometry":{"type":"Point","coordinates":[-0.5740061,51.4855319]}},{"properties":{"city":"Montpellier, France","trackscount":1,"latitude":43.610769,"userscount":1,"longitude":3.876716,"id":"a720usow38hh"},"type":"Feature","geometry":{"type":"Point","coordinates":[3.876716,43.610769]}},{"properties":{"city":"Lanzarote, Spain","trackscount":1,"latitude":29.0468535,"userscount":1,"longitude":-13.5899733,"id":"a720use10p78"},"type":"Feature","geometry":{"type":"Point","coordinates":[-13.5899733,29.0468535]}},{"properties":{"city":"Menlo Park, CA, USA","trackscount":1,"latitude":37.4538274,"userscount":1,"longitude":-122.1821871,"id":"a720usdsrfew"},"type":"Feature","geometry":{"type":"Point","coordinates":[-122.1821871,37.4538274]}},{"properties":{"city":"Perugia, Italy","trackscount":1,"latitude":43.1107009,"userscount":1,"longitude":12.389172,"id":"a720usgm1kef"},"type":"Feature","geometry":{"type":"Point","coordinates":[12.389172,43.1107009]}},{"properties":{"city":"St Petersburg, Russia","trackscount":1,"latitude":60.0762383,"userscount":1,"longitude":30.1213829,"id":"a720usojglvj"},"type":"Feature","geometry":{"type":"Point","coordinates":[30.1213829,60.0762383]}},{"properties":{"city":"Wevelgem, Belgium","trackscount":1,"latitude":50.810241,"userscount":1,"longitude":3.181306,"id":"a720uspva715"},"type":"Feature","geometry":{"type":"Point","coordinates":[3.181306,50.810241]}},{"properties":{"city":"356 01 Sokolov, Czech Republic","trackscount":1,"latitude":50.1813973,"userscount":1,"longitude":12.6397362,"id":"a720usp8rwx7"},"type":"Feature","geometry":{"type":"Point","coordinates":[12.6397362,50.1813973]}},{"properties":{"city":"Northampton, UK","trackscount":5,"latitude":52.240477,"userscount":1,"longitude":-0.902656,"id":"a720usolp9as"},"type":"Feature","geometry":{"type":"Point","coordinates":[-0.902656,52.240477]}},{"properties":{"city":"Matlock, Derbyshire DE4, UK","trackscount":1,"latitude":53.137156,"userscount":1,"longitude":-1.551774,"id":"a720usmwrd6e"},"type":"Feature","geometry":{"type":"Point","coordinates":[-1.551774,53.137156]}},{"properties":{"city":"Reutlingen, Germany","trackscount":1,"latitude":48.5069389,"userscount":1,"longitude":9.2038043,"id":"a720usnh868k"},"type":"Feature","geometry":{"type":"Point","coordinates":[9.2038043,48.5069389]}},{"properties":{"city":"Donegal, Co. Donegal, Ireland","trackscount":1,"latitude":54.654487,"userscount":1,"longitude":-8.1107141,"id":"a720usfk1267"},"type":"Feature","geometry":{"type":"Point","coordinates":[-8.1107141,54.654487]}},{"properties":{"city":"Auckland, New Zealand","trackscount":1,"latitude":-36.8484597,"userscount":1,"longitude":174.7633315,"id":"a720usmp4i7d"},"type":"Feature","geometry":{"type":"Point","coordinates":[174.7633315,-36.8484597]}}],"is_temporal":false,"author":{"url":"","metadata":"","contact_name":"","contact_address":"","source":"","contact_phone":""},"source":"","pagination":{"sort":null,"start":0,"total":399,"limit":1000000},"state":"complete","tags":"music","published":"2014-08-14T15:09:54-04:00","id":260293}