{"type":"FeatureCollection","data_type":"Dataset","url_type":null,"permissions":[{"permissions":{"download":true,"view":true},"group_id":"everyone"}],"classification":null,"title":"CitiesandGPcsvupload","count":573,"stream_id":260944,"contributor":{"url":"http://geocommons.com/users/27147","name":"AschneiderGroupon"},"data_attributes":null,"calculation_params":null,"icon_link":null,"link":"http://geocommons.com/overlays/260944.json","extent":[-168.022,19.4644,-68.3055,63.6736],"geometry_types":["point"],"unique_name":null,"name":"CitiesandGPcsvupload","feature_count":573,"description":"","next_feature":null,"is_raster":false,"short_classification":"Y","stats":{"total gp":{"max":169176.0,"variance":468047728.368777,"mean":21501.5026701571,"stdev":21634.4107469738,"min":0.0,"median":14973.75}},"features":[{"properties":{"city":"Absecon","geo_score":0.714,"total gp":12712.8,"id":"a740znbz3tdk","geo_precision":"city","state":"NJ"},"type":"Feature","geometry":{"type":"Point","coordinates":[-74.47404,39.446784]}},{"properties":{"city":"Alamo","geo_score":0.714,"total gp":0.0,"id":"a740zn2glqnr","geo_precision":"city","state":"NV"},"type":"Feature","geometry":{"type":"Point","coordinates":[-115.143709,37.472491]}},{"properties":{"city":"Albuquerque","geo_score":0.714,"total gp":9087.88,"id":"a740zn2r65dr","geo_precision":"city","state":"NM"},"type":"Feature","geometry":{"type":"Point","coordinates":[-106.651137,35.084491]}},{"properties":{"city":"Alexander City","geo_score":0.0,"total gp":5467.6,"id":"a740zn0pchmt","geo_precision":"unmatched","state":"AL"},"type":"Feature","geometry":null},{"properties":{"city":"Alford","geo_score":0.714,"total gp":6249.38,"id":"a740zn53hdi7","geo_precision":"city","state":"FL"},"type":"Feature","geometry":{"type":"Point","coordinates":[-85.375585,30.641158]}},{"properties":{"city":"Alpine","geo_score":0.714,"total gp":6176.88,"id":"a740zn6u612r","geo_precision":"city","state":"TX"},"type":"Feature","geometry":{"type":"Point","coordinates":[-103.66029,30.357926]}},{"properties":{"city":"Amherst","geo_score":0.714,"total gp":31729.9,"id":"a740zndi5wjy","geo_precision":"city","state":"VA"},"type":"Feature","geometry":{"type":"Point","coordinates":[-79.108441,37.59162]}},{"properties":{"city":"Anaheim","geo_score":0.714,"total gp":13550.63,"id":"a740zn78k99m","geo_precision":"city","state":"CA"},"type":"Feature","geometry":{"type":"Point","coordinates":[-117.769442,33.640302]}},{"properties":{"city":"Anderson","geo_score":0.714,"total gp":15210.65,"id":"a740zn7ya3pl","geo_precision":"city","state":"CA"},"type":"Feature","geometry":{"type":"Point","coordinates":[-122.278404,40.469324]}},{"properties":{"city":"Angel Fire","geo_score":0.714,"total gp":17417.6,"id":"a740zna2pop8","geo_precision":"city","state":"NM"},"type":"Feature","geometry":{"type":"Point","coordinates":[-108.078098,32.845353]}},{"properties":{"city":"Anna Maria Island","geo_score":0.714,"total gp":12806.2,"id":"a740zn820msp","geo_precision":"city","state":"FL"},"type":"Feature","geometry":{"type":"Point","coordinates":[-80.252552,25.378169]}},{"properties":{"city":"Annapolis","geo_score":0.714,"total gp":6307.2,"id":"a740zmyi35v6","geo_precision":"city","state":"MD"},"type":"Feature","geometry":{"type":"Point","coordinates":[-77.131648,39.281772]}},{"properties":{"city":"Apalachicola","geo_score":0.714,"total gp":8203.4,"id":"a740zn17zhct","geo_precision":"city","state":"FL"},"type":"Feature","geometry":{"type":"Point","coordinates":[-84.852937,29.819333]}},{"properties":{"city":"Arlington","geo_score":0.714,"total gp":35157.5,"id":"a740zn67cdof","geo_precision":"city","state":"VT"},"type":"Feature","geometry":{"type":"Point","coordinates":[-73.134727,43.065719]}},{"properties":{"city":"Arrington","geo_score":0.714,"total gp":6274.45,"id":"a740znax5n2p","geo_precision":"city","state":"VA"},"type":"Feature","geometry":{"type":"Point","coordinates":[-78.947944,37.690183]}},{"properties":{"city":"Asbury Park","geo_score":0.714,"total gp":6838.95,"id":"a740zn2yrrtd","geo_precision":"city","state":"NJ"},"type":"Feature","geometry":{"type":"Point","coordinates":[-75.028089,40.695034]}},{"properties":{"city":"Ashburn","geo_score":0.714,"total gp":15288.0,"id":"a740zn7xlrj0","geo_precision":"city","state":"VA"},"type":"Feature","geometry":{"type":"Point","coordinates":[-77.645224,39.085309]}},{"properties":{"city":"Ashland","geo_score":0.714,"total gp":20644.98,"id":"a740zn0haz2l","geo_precision":"city","state":"OR"},"type":"Feature","geometry":{"type":"Point","coordinates":[-122.537356,42.148098]}},{"properties":{"city":"Aspen","geo_score":0.714,"total gp":15158.83,"id":"a740zmyewos0","geo_precision":"city","state":"CO"},"type":"Feature","geometry":{"type":"Point","coordinates":[-106.776744,39.169324]}},{"properties":{"city":"Astoria","geo_score":0.714,"total gp":11165.0,"id":"a740znbfvn8b","geo_precision":"city","state":"OR"},"type":"Feature","geometry":{"type":"Point","coordinates":[-123.795996,46.142206]}},{"properties":{"city":"Atlanta","geo_score":0.714,"total gp":24013.35,"id":"a740zn1pe58p","geo_precision":"city","state":"GA"},"type":"Feature","geometry":{"type":"Point","coordinates":[-84.47405,33.844371]}},{"properties":{"city":"Atlantic Beach","geo_score":0.714,"total gp":64478.05,"id":"a740zn4djsi9","geo_precision":"city","state":"NC"},"type":"Feature","geometry":{"type":"Point","coordinates":[-82.470127,35.711779]}},{"properties":{"city":"Atlantic City","geo_score":0.714,"total gp":96132.3,"id":"a740zmzbrgvr","geo_precision":"city","state":"NJ"},"type":"Feature","geometry":{"type":"Point","coordinates":[-74.05617,40.404762]}},{"properties":{"city":"Atmore","geo_score":0.714,"total gp":21479.13,"id":"a740zmymvwz7","geo_precision":"city","state":"AL"},"type":"Feature","geometry":{"type":"Point","coordinates":[-87.470001,31.119972]}},{"properties":{"city":"Auburn","geo_score":0.714,"total gp":9726.75,"id":"a740zn8qlxya","geo_precision":"city","state":"CA"},"type":"Feature","geometry":{"type":"Point","coordinates":[-121.07047,39.014933]}},{"properties":{"city":"Augusta","geo_score":0.714,"total gp":3199.9,"id":"a740zn3us8wk","geo_precision":"city","state":"GA"},"type":"Feature","geometry":{"type":"Point","coordinates":[-81.969184,33.456687]}},{"properties":{"city":"Aurora","geo_score":0.714,"total gp":3216.4,"id":"a740zne0kr7v","geo_precision":"city","state":"TX"},"type":"Feature","geometry":{"type":"Point","coordinates":[-97.503356,33.060678]}},{"properties":{"city":"Austin","geo_score":0.714,"total gp":73359.65,"id":"a740znbdz2l8","geo_precision":"city","state":"TX"},"type":"Feature","geometry":{"type":"Point","coordinates":[-97.771258,30.326374]}},{"properties":{"city":"Baker City","geo_score":0.714,"total gp":1520.5,"id":"a740znctos6w","geo_precision":"city","state":"OR"},"type":"Feature","geometry":{"type":"Point","coordinates":[-117.742659,44.754237]}},{"properties":{"city":"Balsam","geo_score":0.714,"total gp":53448.0,"id":"a740zn22vioi","geo_precision":"city","state":"NC"},"type":"Feature","geometry":{"type":"Point","coordinates":[-83.092783,35.430091]}},{"properties":{"city":"Baltimore","geo_score":0.714,"total gp":44433.68,"id":"a740zn2oi1m7","geo_precision":"city","state":"MD"},"type":"Feature","geometry":{"type":"Point","coordinates":[-75.844658,39.058168]}},{"properties":{"city":"Bandera","geo_score":0.714,"total gp":22040.85,"id":"a740zn83wlxg","geo_precision":"city","state":"TX"},"type":"Feature","geometry":{"type":"Point","coordinates":[-99.104014,29.724328]}},{"properties":{"city":"Bandon","geo_score":0.714,"total gp":15285.05,"id":"a740znap9jlr","geo_precision":"city","state":"OR"},"type":"Feature","geometry":{"type":"Point","coordinates":[-124.389936,43.088824]}},{"properties":{"city":"Banner Elk","geo_score":0.714,"total gp":50310.05,"id":"a740znbi0q3e","geo_precision":"city","state":"NC"},"type":"Feature","geometry":{"type":"Point","coordinates":[-81.910144,36.072025]}},{"properties":{"city":"Bar Harbor","geo_score":0.714,"total gp":5079.38,"id":"a740znb9wpsn","geo_precision":"city","state":"ME"},"type":"Feature","geometry":{"type":"Point","coordinates":[-68.305513,44.362323]}},{"properties":{"city":"Bartlesville","geo_score":0.714,"total gp":4795.88,"id":"a740zn7jtg97","geo_precision":"city","state":"OK"},"type":"Feature","geometry":{"type":"Point","coordinates":[-95.970182,36.759485]}},{"properties":{"city":"Bartow","geo_score":0.714,"total gp":2864.55,"id":"a740zndcljrr","geo_precision":"city","state":"FL"},"type":"Feature","geometry":{"type":"Point","coordinates":[-87.427479,30.965739]}},{"properties":{"city":"battle creek","geo_score":0.714,"total gp":3560.04,"id":"a740znbdxgl5","geo_precision":"city","state":"MI"},"type":"Feature","geometry":{"type":"Point","coordinates":[-85.860379,43.712217]}},{"properties":{"city":"Battle Ground","geo_score":0.714,"total gp":8256.3,"id":"a740zn997ptm","geo_precision":"city","state":"WA"},"type":"Feature","geometry":{"type":"Point","coordinates":[-122.531645,45.803592]}},{"properties":{"city":"Bay St. Louis","geo_score":0.714,"total gp":4219.11,"id":"a740zmzz1yne","geo_precision":"city","state":"MS"},"type":"Feature","geometry":{"type":"Point","coordinates":[-90.592812,32.980758]}},{"properties":{"city":"Beachwood","geo_score":0.714,"total gp":10173.74,"id":"a740zn6gw0wj","geo_precision":"city","state":"OH"},"type":"Feature","geometry":{"type":"Point","coordinates":[-84.510503,39.598389]}},{"properties":{"city":"Beaufort","geo_score":0.714,"total gp":11795.84,"id":"a740zn63h25i","geo_precision":"city","state":"SC"},"type":"Feature","geometry":{"type":"Point","coordinates":[-80.565343,32.424353]}},{"properties":{"city":"Bedford","geo_score":0.714,"total gp":89329.24,"id":"a740zn303jd0","geo_precision":"city","state":"PA"},"type":"Feature","geometry":{"type":"Point","coordinates":[-78.574759,39.95464]}},{"properties":{"city":"Bellaire","geo_score":0.714,"total gp":7957.95,"id":"a740zn0jf78w","geo_precision":"city","state":"MI"},"type":"Feature","geometry":{"type":"Point","coordinates":[-85.198742,44.997248]}},{"properties":{"city":"Bellevue","geo_score":0.714,"total gp":169176.0,"id":"a740zmyuwvgv","geo_precision":"city","state":"WA"},"type":"Feature","geometry":{"type":"Point","coordinates":[-122.207221,47.615471]}},{"properties":{"city":"Bend","geo_score":0.714,"total gp":37358.1,"id":"a740znb4pq53","geo_precision":"city","state":"OR"},"type":"Feature","geometry":{"type":"Point","coordinates":[-122.764819,45.416785]}},{"properties":{"city":"Berea","geo_score":0.714,"total gp":14557.73,"id":"a740zn6bu93f","geo_precision":"city","state":"KY"},"type":"Feature","geometry":{"type":"Point","coordinates":[-84.235247,37.592589]}},{"properties":{"city":"Bergheim","geo_score":0.0,"total gp":25338.78,"id":"a740znc46bhu","geo_precision":"unmatched","state":"TX"},"type":"Feature","geometry":null},{"properties":{"city":"Berkeley","geo_score":0.714,"total gp":47082.75,"id":"a740zn2oh9h1","geo_precision":"city","state":"CA"},"type":"Feature","geometry":{"type":"Point","coordinates":[-122.29673,37.860576]}},{"properties":{"city":"Berryville","geo_score":0.714,"total gp":15382.5,"id":"a740znb2ql11","geo_precision":"city","state":"VA"},"type":"Feature","geometry":{"type":"Point","coordinates":[-77.991926,39.135711]}},{"properties":{"city":"Bethesda","geo_score":0.714,"total gp":24652.9,"id":"a740zmxzxsol","geo_precision":"city","state":"MD"},"type":"Feature","geometry":{"type":"Point","coordinates":[-77.207617,39.143979]}},{"properties":{"city":"Bethlehem","geo_score":0.714,"total gp":10008.1,"id":"a740znd32ul2","geo_precision":"city","state":"NH"},"type":"Feature","geometry":{"type":"Point","coordinates":[-71.728049,44.30632]}},{"properties":{"city":"Big Bear Lake","geo_score":0.714,"total gp":62189.99,"id":"a740zn56zd7f","geo_precision":"city","state":"CA"},"type":"Feature","geometry":{"type":"Point","coordinates":[-120.094087,39.386018]}},{"properties":{"city":"Big Sky","geo_score":0.714,"total gp":7080.0,"id":"a740znawjc1n","geo_precision":"city","state":"MT"},"type":"Feature","geometry":{"type":"Point","coordinates":[-107.342553,48.457237]}},{"properties":{"city":"Birmingham","geo_score":0.714,"total gp":3565.38,"id":"a740zndyovq8","geo_precision":"city","state":"AL"},"type":"Feature","geometry":{"type":"Point","coordinates":[-86.801904,33.456412]}},{"properties":{"city":"Bisbee","geo_score":0.714,"total gp":9599.2,"id":"a740zn8zb7hh","geo_precision":"city","state":"AZ"},"type":"Feature","geometry":{"type":"Point","coordinates":[-109.819216,31.445577]}},{"properties":{"city":"Biwabik","geo_score":0.714,"total gp":16088.88,"id":"a740znd9hk84","geo_precision":"city","state":"MN"},"type":"Feature","geometry":{"type":"Point","coordinates":[-92.340774,47.532826]}},{"properties":{"city":"Black Mountain","geo_score":0.714,"total gp":11623.2,"id":"a740zmzjwnug","geo_precision":"city","state":"NC"},"type":"Feature","geometry":{"type":"Point","coordinates":[-82.408745,35.984555]}},{"properties":{"city":"Bloomington","geo_score":0.714,"total gp":11952.62,"id":"a740zn6erq3i","geo_precision":"city","state":"MN"},"type":"Feature","geometry":{"type":"Point","coordinates":[-93.29828,44.840798]}},{"properties":{"city":"Blowing Rock","geo_score":0.714,"total gp":18820.69,"id":"a740zn3l9z5q","geo_precision":"city","state":"NC"},"type":"Feature","geometry":{"type":"Point","coordinates":[-81.714505,36.163862]}},{"properties":{"city":"Boca Raton","geo_score":0.714,"total gp":9691.9,"id":"a740zn96j6sg","geo_precision":"city","state":"FL"},"type":"Feature","geometry":{"type":"Point","coordinates":[-81.331733,28.828325]}},{"properties":{"city":"Bodega","geo_score":0.714,"total gp":39300.25,"id":"a740znc25o95","geo_precision":"city","state":"CA"},"type":"Feature","geometry":{"type":"Point","coordinates":[-122.974134,38.351416]}},{"properties":{"city":"Boern","geo_score":0.714,"total gp":23368.48,"id":"a740zn42qk12","geo_precision":"city","state":"TX"},"type":"Feature","geometry":{"type":"Point","coordinates":[-98.838546,27.429451]}},{"properties":{"city":"Bondville","geo_score":0.714,"total gp":6999.65,"id":"a740zmxylp50","geo_precision":"city","state":"VT"},"type":"Feature","geometry":{"type":"Point","coordinates":[-72.91514,43.16409]}},{"properties":{"city":"Bonita Springs","geo_score":0.714,"total gp":31870.8,"id":"a740znctq0v4","geo_precision":"city","state":"FL"},"type":"Feature","geometry":{"type":"Point","coordinates":[-84.327675,30.08076]}},{"properties":{"city":"Boone","geo_score":0.714,"total gp":19402.5,"id":"a740zmzyb84z","geo_precision":"city","state":"NC"},"type":"Feature","geometry":{"type":"Point","coordinates":[-78.208581,35.982555]}},{"properties":{"city":"Boonville","geo_score":0.714,"total gp":10445.63,"id":"a740zn5q0a9b","geo_precision":"city","state":"MO"},"type":"Feature","geometry":{"type":"Point","coordinates":[-92.733329,38.884444]}},{"properties":{"city":"Bradford","geo_score":0.714,"total gp":3699.6,"id":"a740zn1ayir7","geo_precision":"city","state":"NH"},"type":"Feature","geometry":{"type":"Point","coordinates":[-71.971471,43.237299]}},{"properties":{"city":"Branson","geo_score":0.714,"total gp":57559.37,"id":"a740zncsw0fb","geo_precision":"city","state":"MO"},"type":"Feature","geometry":{"type":"Point","coordinates":[-93.235798,36.660981]}},{"properties":{"city":"Bridgeton","geo_score":0.714,"total gp":11652.3,"id":"a740zn2csg1k","geo_precision":"city","state":"MO"},"type":"Feature","geometry":{"type":"Point","coordinates":[-90.386505,38.74644]}},{"properties":{"city":"Brooklyn","geo_score":0.714,"total gp":16169.0,"id":"a740zn001tg8","geo_precision":"city","state":"NY"},"type":"Feature","geometry":{"type":"Point","coordinates":[-73.989319,40.694481]}},{"properties":{"city":"Bruceton Mills","geo_score":0.714,"total gp":22582.8,"id":"a740zn1apngv","geo_precision":"city","state":"WV"},"type":"Feature","geometry":{"type":"Point","coordinates":[-79.620241,39.666293]}},{"properties":{"city":"Bryson City","geo_score":0.714,"total gp":26058.18,"id":"a740zmz3mp44","geo_precision":"city","state":"NC"},"type":"Feature","geometry":{"type":"Point","coordinates":[-83.508554,35.38563]}},{"properties":{"city":"Buffalo","geo_score":0.714,"total gp":11797.36,"id":"a740zn5s8qr0","geo_precision":"city","state":"NY"},"type":"Feature","geometry":{"type":"Point","coordinates":[-78.832706,42.929303]}},{"properties":{"city":"Burbank","geo_score":0.714,"total gp":2479.95,"id":"a740zn3ffmox","geo_precision":"city","state":"CA"},"type":"Feature","geometry":{"type":"Point","coordinates":[-118.298662,33.786594]}},{"properties":{"city":"Bush","geo_score":0.714,"total gp":2538.25,"id":"a740zn6e0qmt","geo_precision":"city","state":"LA"},"type":"Feature","geometry":{"type":"Point","coordinates":[-91.339546,30.596789]}},{"properties":{"city":"Butler","geo_score":0.714,"total gp":2765.75,"id":"a740zn708ym4","geo_precision":"city","state":"TN"},"type":"Feature","geometry":{"type":"Point","coordinates":[-81.919401,36.362685]}},{"properties":{"city":"Cadillac","geo_score":0.714,"total gp":10491.6,"id":"a740zn69nltv","geo_precision":"city","state":"MI"},"type":"Feature","geometry":{"type":"Point","coordinates":[-85.549093,44.335278]}},{"properties":{"city":"Calistoga","geo_score":0.714,"total gp":14407.8,"id":"a740zmysap6s","geo_precision":"city","state":"CA"},"type":"Feature","geometry":{"type":"Point","coordinates":[-122.507742,38.615055]}},{"properties":{"city":"Cambria","geo_score":0.714,"total gp":14929.75,"id":"a740zn00ab4t","geo_precision":"city","state":"CA"},"type":"Feature","geometry":{"type":"Point","coordinates":[-120.954454,35.587748]}},{"properties":{"city":"Camden","geo_score":0.714,"total gp":18204.45,"id":"a740zn45q15l","geo_precision":"city","state":"ME"},"type":"Feature","geometry":{"type":"Point","coordinates":[-69.029238,44.12613]}},{"properties":{"city":"Canadaigua","geo_score":0.0,"total gp":7354.75,"id":"a740zncg6hr3","geo_precision":"unmatched","state":"NY"},"type":"Feature","geometry":null},{"properties":{"city":"Candler","geo_score":0.714,"total gp":27849.6,"id":"a740zn4jpoj5","geo_precision":"city","state":"NC"},"type":"Feature","geometry":{"type":"Point","coordinates":[-82.529962,35.535096]}},{"properties":{"city":"Cannon Beach","geo_score":0.714,"total gp":29553.93,"id":"a740zmyobmdp","geo_precision":"city","state":"OR"},"type":"Feature","geometry":{"type":"Point","coordinates":[-123.918749,45.941497]}},{"properties":{"city":"Canton","geo_score":0.714,"total gp":7592.84,"id":"a740zne4t33g","geo_precision":"city","state":"OH"},"type":"Feature","geometry":{"type":"Point","coordinates":[-83.616923,40.6401]}},{"properties":{"city":"Cape Coral","geo_score":0.714,"total gp":39249.5,"id":"a740zn9c75xc","geo_precision":"city","state":"FL"},"type":"Feature","geometry":{"type":"Point","coordinates":[-81.95016,26.606491]}},{"properties":{"city":"Cape Gables","geo_score":0.0,"total gp":2081.2,"id":"a740zn5pfcx4","geo_precision":"unmatched","state":"FL"},"type":"Feature","geometry":null},{"properties":{"city":"Cape Haze","geo_score":0.714,"total gp":30680.0,"id":"a740zn9rsl94","geo_precision":"city","state":"FL"},"type":"Feature","geometry":{"type":"Point","coordinates":[-82.294261,26.850343]}},{"properties":{"city":"Cape May","geo_score":0.714,"total gp":18169.31,"id":"a740zndz3nyd","geo_precision":"city","state":"NJ"},"type":"Feature","geometry":{"type":"Point","coordinates":[-74.767939,39.110337]}},{"properties":{"city":"Carefree","geo_score":0.714,"total gp":16997.18,"id":"a740zn3ksj9o","geo_precision":"city","state":"AZ"},"type":"Feature","geometry":{"type":"Point","coordinates":[-112.18717,33.276539]}},{"properties":{"city":"Carlsbad","geo_score":0.714,"total gp":29203.9,"id":"a740zndxhyy4","geo_precision":"city","state":"CA"},"type":"Feature","geometry":{"type":"Point","coordinates":[-116.846046,33.016928]}},{"properties":{"city":"Carmel","geo_score":0.714,"total gp":50346.45,"id":"a740zn2uhyji","geo_precision":"city","state":"CA"},"type":"Feature","geometry":{"type":"Point","coordinates":[-121.922515,36.549729]}},{"properties":{"city":"Carrabassett Valley","geo_score":0.0,"total gp":23122.2,"id":"a740zn4qnl6x","geo_precision":"unmatched","state":"ME"},"type":"Feature","geometry":null},{"properties":{"city":"Cascade","geo_score":0.714,"total gp":6910.2,"id":"a740zn1nlfe5","geo_precision":"city","state":"ID"},"type":"Feature","geometry":{"type":"Point","coordinates":[-115.641659,44.692713]}},{"properties":{"city":"Castroville","geo_score":0.714,"total gp":27412.13,"id":"a740zndc8nib","geo_precision":"city","state":"TX"},"type":"Feature","geometry":{"type":"Point","coordinates":[-98.909219,29.364948]}},{"properties":{"city":"Cat Spring","geo_score":0.714,"total gp":10659.0,"id":"a740zn0gv2mp","geo_precision":"city","state":"TX"},"type":"Feature","geometry":{"type":"Point","coordinates":[-98.961457,33.370103]}},{"properties":{"city":"Cavendish","geo_score":0.714,"total gp":33733.07,"id":"a740zmydqlpt","geo_precision":"city","state":"VT"},"type":"Feature","geometry":{"type":"Point","coordinates":[-72.583854,43.402135]}},{"properties":{"city":"Central City","geo_score":0.714,"total gp":10911.88,"id":"a740zn4s3ip9","geo_precision":"city","state":"CO"},"type":"Feature","geometry":{"type":"Point","coordinates":[-105.545631,39.821626]}},{"properties":{"city":"Centralia","geo_score":0.714,"total gp":49510.77,"id":"a740zmxt3lxb","geo_precision":"city","state":"WA"},"type":"Feature","geometry":{"type":"Point","coordinates":[-123.692386,46.973428]}},{"properties":{"city":"Chadds Ford","geo_score":0.714,"total gp":27240.7,"id":"a740zn6wyc72","geo_precision":"city","state":"PA"},"type":"Feature","geometry":{"type":"Point","coordinates":[-75.557698,39.865567]}},{"properties":{"city":"Champions Gate","geo_score":0.0,"total gp":44554.5,"id":"a740zn8ds1sn","geo_precision":"unmatched","state":"FL"},"type":"Feature","geometry":null},{"properties":{"city":"Chapel Hill","geo_score":0.714,"total gp":8012.55,"id":"a740zn7a5sn7","geo_precision":"city","state":"NC"},"type":"Feature","geometry":{"type":"Point","coordinates":[-79.054475,36.004647]}},{"properties":{"city":"Charles Town","geo_score":0.714,"total gp":6338.15,"id":"a740zn6r0qpy","geo_precision":"city","state":"WV"},"type":"Feature","geometry":{"type":"Point","coordinates":[-77.860278,39.313538]}},{"properties":{"city":"Charleston","geo_score":0.714,"total gp":29656.49,"id":"a740znc3o0zg","geo_precision":"city","state":"SC"},"type":"Feature","geometry":{"type":"Point","coordinates":[-79.970643,32.85712]}},{"properties":{"city":"Charlevoix","geo_score":0.0,"total gp":22292.5,"id":"a740zn0f20xe","geo_precision":"unmatched","state":"MI"},"type":"Feature","geometry":null},{"properties":{"city":"Charlotte","geo_score":0.714,"total gp":3320.1,"id":"a740zn4mcisd","geo_precision":"city","state":"NC"},"type":"Feature","geometry":{"type":"Point","coordinates":[-80.804151,35.26002]}},{"properties":{"city":"Charlottesville","geo_score":0.714,"total gp":8265.6,"id":"a740zne4y7d8","geo_precision":"city","state":"VA"},"type":"Feature","geometry":{"type":"Point","coordinates":[-78.476678,38.029306]}},{"properties":{"city":"Chatanooga","geo_score":0.714,"total gp":43686.23,"id":"a740zn0yjd7l","geo_precision":"city","state":"TN"},"type":"Feature","geometry":{"type":"Point","coordinates":[-85.206426,35.017818]}},{"properties":{"city":"Cherokee","geo_score":0.714,"total gp":37678.2,"id":"a740zn6d12ah","geo_precision":"city","state":"NC"},"type":"Feature","geometry":{"type":"Point","coordinates":[-83.34906,35.494881]}},{"properties":{"city":"Chesapeake Beach","geo_score":0.714,"total gp":23094.72,"id":"a740zmyxtg57","geo_precision":"city","state":"MD"},"type":"Feature","geometry":{"type":"Point","coordinates":[-76.264123,39.47372]}},{"properties":{"city":"Chicago","geo_score":0.714,"total gp":103786.5,"id":"a740zn98egb8","geo_precision":"city","state":"IL"},"type":"Feature","geometry":{"type":"Point","coordinates":[-87.68732,41.811929]}},{"properties":{"city":"Chicagoland","geo_score":0.0,"total gp":960.32,"id":"a740zna86a8x","geo_precision":"unmatched","state":"IL"},"type":"Feature","geometry":null},{"properties":{"city":"Chittenden","geo_score":0.714,"total gp":6827.5,"id":"a740znbgeret","geo_precision":"city","state":"VT"},"type":"Feature","geometry":{"type":"Point","coordinates":[-72.925199,43.713218]}},{"properties":{"city":"Chittendon","geo_score":0.714,"total gp":22429.5,"id":"a740zne69xlj","geo_precision":"city","state":"VT"},"type":"Feature","geometry":{"type":"Point","coordinates":[-72.925199,43.713218]}},{"properties":{"city":"Cincinnati","geo_score":0.714,"total gp":16554.45,"id":"a740zmywu6pj","geo_precision":"city","state":"OH"},"type":"Feature","geometry":{"type":"Point","coordinates":[-84.53822,39.166759]}},{"properties":{"city":"Claremont","geo_score":0.714,"total gp":13747.59,"id":"a740zn2pfj6t","geo_precision":"city","state":"NH"},"type":"Feature","geometry":{"type":"Point","coordinates":[-72.377867,43.368407]}},{"properties":{"city":"Clayton","geo_score":0.714,"total gp":6655.35,"id":"a740zncje0bf","geo_precision":"city","state":"MO"},"type":"Feature","geometry":{"type":"Point","coordinates":[-93.934987,39.897521]}},{"properties":{"city":"Cloverdale","geo_score":0.714,"total gp":7336.0,"id":"a740zn362rdk","geo_precision":"city","state":"CA"},"type":"Feature","geometry":{"type":"Point","coordinates":[-120.609928,38.157975]}},{"properties":{"city":"Cocoa Beach","geo_score":0.714,"total gp":35039.63,"id":"a740zn87lcta","geo_precision":"city","state":"FL"},"type":"Feature","geometry":{"type":"Point","coordinates":[-81.912591,29.604691]}},{"properties":{"city":"Coconut Grove","geo_score":0.714,"total gp":18186.38,"id":"a740zmz5vqyq","geo_precision":"city","state":"FL"},"type":"Feature","geometry":{"type":"Point","coordinates":[-80.178935,26.251748]}},{"properties":{"city":"Coeur D'Alene","geo_score":0.714,"total gp":6169.93,"id":"a740zn819p5g","geo_precision":"city","state":"ID"},"type":"Feature","geometry":{"type":"Point","coordinates":[-111.379111,43.049919]}},{"properties":{"city":"Colorado Springs","geo_score":0.714,"total gp":14521.28,"id":"a740znda6mxx","geo_precision":"city","state":"CO"},"type":"Feature","geometry":{"type":"Point","coordinates":[-104.857828,38.861469]}},{"properties":{"city":"Columbia","geo_score":0.0,"total gp":12616.83,"id":"a740znakoyvp","geo_precision":"unmatched","state":"OR"},"type":"Feature","geometry":null},{"properties":{"city":"Columbia Falls","geo_score":0.714,"total gp":2745.75,"id":"a740zn2ot9tg","geo_precision":"city","state":"MT"},"type":"Feature","geometry":{"type":"Point","coordinates":[-114.345902,48.358322]}},{"properties":{"city":"Concord","geo_score":0.714,"total gp":51031.51,"id":"a740znd9f9u6","geo_precision":"city","state":"MA"},"type":"Feature","geometry":{"type":"Point","coordinates":[-71.459405,42.446396]}},{"properties":{"city":"Cordele","geo_score":0.714,"total gp":5623.1,"id":"a740znbcszws","geo_precision":"city","state":"GA"},"type":"Feature","geometry":{"type":"Point","coordinates":[-83.785365,31.917178]}},{"properties":{"city":"Cornwall","geo_score":0.714,"total gp":32929.6,"id":"a740zn7ru524","geo_precision":"city","state":"PA"},"type":"Feature","geometry":{"type":"Point","coordinates":[-76.405309,40.275536]}},{"properties":{"city":"Covington","geo_score":0.714,"total gp":9800.0,"id":"a740zn8low6n","geo_precision":"city","state":"LA"},"type":"Feature","geometry":{"type":"Point","coordinates":[-90.011991,30.435893]}},{"properties":{"city":"Cresco","geo_score":0.714,"total gp":27962.9,"id":"a740zna1mnty","geo_precision":"city","state":"PA"},"type":"Feature","geometry":{"type":"Point","coordinates":[-75.276395,41.152364]}},{"properties":{"city":"Dallas","geo_score":0.714,"total gp":26684.3,"id":"a740zn27kn6y","geo_precision":"city","state":"TX"},"type":"Feature","geometry":{"type":"Point","coordinates":[-96.240533,32.370699]}},{"properties":{"city":"Dawsonville","geo_score":0.714,"total gp":10184.4,"id":"a740zmz566f5","geo_precision":"city","state":"GA"},"type":"Feature","geometry":{"type":"Point","coordinates":[-84.155043,34.453661]}},{"properties":{"city":"Daytona Beach","geo_score":0.714,"total gp":63440.92,"id":"a740zn6wwp7p","geo_precision":"city","state":"FL"},"type":"Feature","geometry":{"type":"Point","coordinates":[-80.982832,29.176093]}},{"properties":{"city":"Dedham","geo_score":0.714,"total gp":12225.6,"id":"a740zn4ahap5","geo_precision":"city","state":"ME"},"type":"Feature","geometry":{"type":"Point","coordinates":[-68.661975,44.69174]}},{"properties":{"city":"Delavan","geo_score":0.714,"total gp":82188.0,"id":"a740zmyryvqd","geo_precision":"city","state":"WI"},"type":"Feature","geometry":{"type":"Point","coordinates":[-88.653496,42.641556]}},{"properties":{"city":"Denali National Park","geo_score":0.714,"total gp":26964.28,"id":"a740zn7gg5c2","geo_precision":"city","state":"AK"},"type":"Feature","geometry":{"type":"Point","coordinates":[-145.883333,63.673611]}},{"properties":{"city":"Denton","geo_score":0.714,"total gp":1578.38,"id":"a740zn9uhj70","geo_precision":"city","state":"TX"},"type":"Feature","geometry":{"type":"Point","coordinates":[-97.200555,33.244683]}},{"properties":{"city":"Denver","geo_score":0.714,"total gp":28758.68,"id":"a740zndpk7qy","geo_precision":"city","state":"CO"},"type":"Feature","geometry":{"type":"Point","coordinates":[-104.856808,39.726303]}},{"properties":{"city":"Depoe Bay","geo_score":0.714,"total gp":7327.2,"id":"a740zn5mmrlm","geo_precision":"city","state":"OR"},"type":"Feature","geometry":{"type":"Point","coordinates":[-124.050272,44.832205]}},{"properties":{"city":"Des Moines","geo_score":0.714,"total gp":38923.2,"id":"a740znc8scds","geo_precision":"city","state":"IA"},"type":"Feature","geometry":{"type":"Point","coordinates":[-93.572173,41.672687]}},{"properties":{"city":"Desert Hot Springs","geo_score":0.714,"total gp":38521.73,"id":"a740zne1z7v2","geo_precision":"city","state":"CA"},"type":"Feature","geometry":{"type":"Point","coordinates":[-120.78606,39.894894]}},{"properties":{"city":"Dillon","geo_score":0.714,"total gp":10367.7,"id":"a740zn4sls8u","geo_precision":"city","state":"CO"},"type":"Feature","geometry":{"type":"Point","coordinates":[-105.974117,39.595212]}},{"properties":{"city":"Dorset","geo_score":0.714,"total gp":12662.5,"id":"a740zn5yibsm","geo_precision":"city","state":"VT"},"type":"Feature","geometry":{"type":"Point","coordinates":[-73.139173,43.261817]}},{"properties":{"city":"Dover","geo_score":0.714,"total gp":14973.75,"id":"a740znd7583m","geo_precision":"city","state":"DE"},"type":"Feature","geometry":{"type":"Point","coordinates":[-75.49549,39.156376]}},{"properties":{"city":"Dubuque","geo_score":0.714,"total gp":13846.2,"id":"a740znarzso2","geo_precision":"city","state":"IA"},"type":"Feature","geometry":{"type":"Point","coordinates":[-90.877135,42.458876]}},{"properties":{"city":"Duck","geo_score":0.0,"total gp":10402.8,"id":"a740zmxrd1c5","geo_precision":"unmatched","state":"NC"},"type":"Feature","geometry":null},{"properties":{"city":"Dulles","geo_score":0.714,"total gp":15566.95,"id":"a740zn200ltr","geo_precision":"city","state":"VA"},"type":"Feature","geometry":{"type":"Point","coordinates":[-77.442066,39.002125]}},{"properties":{"city":"Eagle","geo_score":0.714,"total gp":32008.0,"id":"a740znb8kei5","geo_precision":"city","state":"CO"},"type":"Feature","geometry":{"type":"Point","coordinates":[-106.805111,39.607401]}},{"properties":{"city":"Edwards","geo_score":0.714,"total gp":17054.4,"id":"a740znaitb8n","geo_precision":"city","state":"CO"},"type":"Feature","geometry":{"type":"Point","coordinates":[-106.620644,39.638166]}},{"properties":{"city":"El Paso","geo_score":0.714,"total gp":1080.45,"id":"a740zn1mjk3f","geo_precision":"city","state":"TX"},"type":"Feature","geometry":{"type":"Point","coordinates":[-99.561747,32.342351]}},{"properties":{"city":"El Portal","geo_score":0.714,"total gp":39287.85,"id":"a740zn9yta23","geo_precision":"city","state":"CA"},"type":"Feature","geometry":{"type":"Point","coordinates":[-120.542224,39.800456]}},{"properties":{"city":"Elizabeth","geo_score":0.714,"total gp":4207.5,"id":"a740znaln2a0","geo_precision":"city","state":"Indiana"},"type":"Feature","geometry":{"type":"Point","coordinates":[-85.988349,38.094629]}},{"properties":{"city":"Elk","geo_score":0.714,"total gp":25282.4,"id":"a740zndqa9hn","geo_precision":"city","state":"CA"},"type":"Feature","geometry":{"type":"Point","coordinates":[-123.618031,39.076371]}},{"properties":{"city":"Ely","geo_score":0.714,"total gp":9125.0,"id":"a740zn8sg3h1","geo_precision":"city","state":"MN"},"type":"Feature","geometry":{"type":"Point","coordinates":[-92.020778,47.918943]}},{"properties":{"city":"Englewood","geo_score":0.714,"total gp":1626.63,"id":"a740zn7by299","geo_precision":"city","state":"CO"},"type":"Feature","geometry":{"type":"Point","coordinates":[-104.973852,39.648958]}},{"properties":{"city":"Essex","geo_score":0.0,"total gp":4503.6,"id":"a740zn8h22db","geo_precision":"unmatched","state":"MT"},"type":"Feature","geometry":null},{"properties":{"city":"Essex Junction","geo_score":0.0,"total gp":65037.0,"id":"a740zn77c6vm","geo_precision":"unmatched","state":"VT"},"type":"Feature","geometry":null},{"properties":{"city":"Estes Park","geo_score":0.714,"total gp":37138.59,"id":"a740zn2c0zts","geo_precision":"city","state":"CO"},"type":"Feature","geometry":{"type":"Point","coordinates":[-105.569245,40.628112]}},{"properties":{"city":"Eugene","geo_score":0.714,"total gp":3353.7,"id":"a740zne4vlup","geo_precision":"city","state":"OR"},"type":"Feature","geometry":{"type":"Point","coordinates":[-123.074193,44.117868]}},{"properties":{"city":"Eureka Springs","geo_score":0.714,"total gp":21172.27,"id":"a740zn3eqlbf","geo_precision":"city","state":"AR"},"type":"Feature","geometry":{"type":"Point","coordinates":[-92.392377,35.188694]}},{"properties":{"city":"Exeter","geo_score":0.0,"total gp":3723.5,"id":"a740zn6ge9of","geo_precision":"unmatched","state":"NH"},"type":"Feature","geometry":null},{"properties":{"city":"Fennville","geo_score":0.714,"total gp":20613.48,"id":"a740znb0kwfv","geo_precision":"city","state":"MI"},"type":"Feature","geometry":{"type":"Point","coordinates":[-86.11849,42.542809]}},{"properties":{"city":"Fire Island","geo_score":0.714,"total gp":33460.0,"id":"a740zn8cmjsu","geo_precision":"city","state":"NY"},"type":"Feature","geometry":{"type":"Point","coordinates":[-77.646948,43.277284]}},{"properties":{"city":"Flat Rock","geo_score":0.714,"total gp":46094.0,"id":"a740zn5jkgsm","geo_precision":"city","state":"NC"},"type":"Feature","geometry":{"type":"Point","coordinates":[-80.569785,36.512357]}},{"properties":{"city":"Fontana Dam","geo_score":0.714,"total gp":37352.7,"id":"a740zn0q3hwy","geo_precision":"city","state":"NC"},"type":"Feature","geometry":{"type":"Point","coordinates":[-77.59113,35.687351]}},{"properties":{"city":"Fort McDowell","geo_score":0.714,"total gp":8007.0,"id":"a740zmzhmr62","geo_precision":"city","state":"AZ"},"type":"Feature","geometry":{"type":"Point","coordinates":[-111.677135,33.625163]}},{"properties":{"city":"Fort Meyers","geo_score":0.714,"total gp":12169.3,"id":"a740znayhxx5","geo_precision":"city","state":"FL"},"type":"Feature","geometry":{"type":"Point","coordinates":[-81.863698,26.561465]}},{"properties":{"city":"Fort Myers","geo_score":0.714,"total gp":17141.0,"id":"a740zn1lqpp5","geo_precision":"city","state":"FL"},"type":"Feature","geometry":{"type":"Point","coordinates":[-81.863698,26.561465]}},{"properties":{"city":"Fort Myers Beach","geo_score":0.714,"total gp":19377.6,"id":"a740zn6h7yiw","geo_precision":"city","state":"FL"},"type":"Feature","geometry":{"type":"Point","coordinates":[-81.863698,26.561465]}},{"properties":{"city":"Fort Walton Beach","geo_score":0.714,"total gp":5844.3,"id":"a740zn0rgirv","geo_precision":"city","state":"FL"},"type":"Feature","geometry":{"type":"Point","coordinates":[-81.92122,30.435237]}},{"properties":{"city":"Fort Worth","geo_score":0.714,"total gp":13331.18,"id":"a740zndxxg7d","geo_precision":"city","state":"TX"},"type":"Feature","geometry":{"type":"Point","coordinates":[-98.399458,29.049969]}},{"properties":{"city":"Franconia","geo_score":0.714,"total gp":9644.87,"id":"a740zn5adefj","geo_precision":"city","state":"NH"},"type":"Feature","geometry":{"type":"Point","coordinates":[-71.737162,44.212814]}},{"properties":{"city":"Fraser","geo_score":0.714,"total gp":9360.0,"id":"a740zn13s7a6","geo_precision":"city","state":"CO"},"type":"Feature","geometry":{"type":"Point","coordinates":[-105.792637,39.958523]}},{"properties":{"city":"Fredericksburg","geo_score":0.714,"total gp":1204.2,"id":"a740zndvtp60","geo_precision":"city","state":"VA"},"type":"Feature","geometry":{"type":"Point","coordinates":[-77.483689,38.295135]}},{"properties":{"city":"Freeport","geo_score":0.714,"total gp":3970.05,"id":"a740zn65v8tk","geo_precision":"city","state":"NY"},"type":"Feature","geometry":{"type":"Point","coordinates":[-73.585222,40.651251]}},{"properties":{"city":"Fresno","geo_score":0.714,"total gp":7478.25,"id":"a740zn6tyibt","geo_precision":"city","state":"CA"},"type":"Feature","geometry":{"type":"Point","coordinates":[-119.801015,36.8411]}},{"properties":{"city":"Friday Harbor","geo_score":0.714,"total gp":30826.13,"id":"a740zn0lr2at","geo_precision":"city","state":"WA"},"type":"Feature","geometry":{"type":"Point","coordinates":[-117.797447,47.913372]}},{"properties":{"city":"Ft Washington","geo_score":0.714,"total gp":0.0,"id":"a740zn088kej","geo_precision":"city","state":"MD"},"type":"Feature","geometry":{"type":"Point","coordinates":[-77.172591,39.138815]}},{"properties":{"city":"Ft. Lauderdale","geo_score":0.714,"total gp":23979.38,"id":"a740zndz8ja3","geo_precision":"city","state":"FL"},"type":"Feature","geometry":{"type":"Point","coordinates":[-80.208381,26.166474]}},{"properties":{"city":"Ft. Worth","geo_score":0.714,"total gp":3396.83,"id":"a740zndtoxt9","geo_precision":"city","state":"TX"},"type":"Feature","geometry":{"type":"Point","coordinates":[-96.367821,32.955476]}},{"properties":{"city":"Gainesville","geo_score":0.714,"total gp":18686.0,"id":"a740znbtf7c0","geo_precision":"city","state":"FL"},"type":"Feature","geometry":{"type":"Point","coordinates":[-82.345739,29.68041]}},{"properties":{"city":"Garberville","geo_score":0.714,"total gp":15351.53,"id":"a740zn77qv21","geo_precision":"city","state":"CA"},"type":"Feature","geometry":{"type":"Point","coordinates":[-123.795029,40.100145]}},{"properties":{"city":"Gardnderville","geo_score":0.0,"total gp":388.5,"id":"a740zn8bcb6k","geo_precision":"unmatched","state":"NV"},"type":"Feature","geometry":null},{"properties":{"city":"Gatlinburg","geo_score":0.714,"total gp":71240.0,"id":"a740zn2fufde","geo_precision":"city","state":"TN"},"type":"Feature","geometry":{"type":"Point","coordinates":[-83.436982,35.727782]}},{"properties":{"city":"Geneva","geo_score":0.714,"total gp":37287.6,"id":"a740zn4lqg45","geo_precision":"city","state":"IL"},"type":"Feature","geometry":{"type":"Point","coordinates":[-88.406165,41.97974]}},{"properties":{"city":"Georgetown","geo_score":0.714,"total gp":7775.63,"id":"a740zn5b9pox","geo_precision":"city","state":"DE"},"type":"Feature","geometry":{"type":"Point","coordinates":[-75.334263,38.632891]}},{"properties":{"city":"Gettysburg","geo_score":0.714,"total gp":8776.13,"id":"a740znat20dg","geo_precision":"city","state":"PA"},"type":"Feature","geometry":{"type":"Point","coordinates":[-77.226591,39.840922]}},{"properties":{"city":"Glen Cove","geo_score":0.714,"total gp":20396.48,"id":"a740zna26wf1","geo_precision":"city","state":"NY"},"type":"Feature","geometry":{"type":"Point","coordinates":[-74.344578,42.894241]}},{"properties":{"city":"Gleneden Beach","geo_score":0.714,"total gp":54247.73,"id":"a740zn6t97um","geo_precision":"city","state":"OR"},"type":"Feature","geometry":{"type":"Point","coordinates":[-123.994219,44.885]}},{"properties":{"city":"Gloucester","geo_score":0.714,"total gp":30100.0,"id":"a740znd5utjt","geo_precision":"city","state":"MA"},"type":"Feature","geometry":{"type":"Point","coordinates":[-70.694179,42.630011]}},{"properties":{"city":"Gold Canyon","geo_score":0.0,"total gp":16815.15,"id":"a740znb5z2xh","geo_precision":"unmatched","state":"AZ"},"type":"Feature","geometry":null},{"properties":{"city":"Golden","geo_score":0.714,"total gp":6440.0,"id":"a740znayrpbc","geo_precision":"city","state":"CO"},"type":"Feature","geometry":{"type":"Point","coordinates":[-104.500735,40.536158]}},{"properties":{"city":"Government Camp","geo_score":0.714,"total gp":5190.9,"id":"a740zna2udpx","geo_precision":"city","state":"OR"},"type":"Feature","geometry":{"type":"Point","coordinates":[-121.739004,45.297173]}},{"properties":{"city":"Grapevine","geo_score":0.714,"total gp":48267.17,"id":"a740zn3okzm7","geo_precision":"city","state":"TX"},"type":"Feature","geometry":{"type":"Point","coordinates":[-97.080802,32.932843]}},{"properties":{"city":"Great Falls","geo_score":0.714,"total gp":8800.0,"id":"a740zn289f5z","geo_precision":"city","state":"MT"},"type":"Feature","geometry":{"type":"Point","coordinates":[-111.422948,47.402024]}},{"properties":{"city":"Greensboro","geo_score":0.714,"total gp":6114.57,"id":"a740znc3h3nk","geo_precision":"city","state":"NC"},"type":"Feature","geometry":{"type":"Point","coordinates":[-79.831692,36.055285]}},{"properties":{"city":"Greer","geo_score":0.714,"total gp":30612.08,"id":"a740zn1d4rjq","geo_precision":"city","state":"AZ"},"type":"Feature","geometry":{"type":"Point","coordinates":[-109.52295,35.237487]}},{"properties":{"city":"Groveland","geo_score":0.714,"total gp":25107.5,"id":"a740zn4iynuq","geo_precision":"city","state":"CA"},"type":"Feature","geometry":{"type":"Point","coordinates":[-120.088197,37.867634]}},{"properties":{"city":"Grover","geo_score":0.714,"total gp":16311.4,"id":"a740zna6bvk4","geo_precision":"city","state":"NC"},"type":"Feature","geometry":{"type":"Point","coordinates":[-81.471909,35.204027]}},{"properties":{"city":"Guerneville","geo_score":0.714,"total gp":14993.7,"id":"a740zn7pcutz","geo_precision":"city","state":"CA"},"type":"Feature","geometry":{"type":"Point","coordinates":[-121.324308,36.323971]}},{"properties":{"city":"Gurnee","geo_score":0.714,"total gp":53942.24,"id":"a740znap3ook","geo_precision":"city","state":"IL"},"type":"Feature","geometry":{"type":"Point","coordinates":[-89.772048,39.742274]}},{"properties":{"city":"Gustavus","geo_score":0.714,"total gp":12390.0,"id":"a740zn4sjhda","geo_precision":"city","state":"AK"},"type":"Feature","geometry":{"type":"Point","coordinates":[-135.181256,58.331798]}},{"properties":{"city":"Half Moon Bay","geo_score":0.714,"total gp":12847.5,"id":"a740zn8h37uo","geo_precision":"city","state":"CA"},"type":"Feature","geometry":{"type":"Point","coordinates":[-122.415566,37.389057]}},{"properties":{"city":"Hampton","geo_score":0.714,"total gp":17141.03,"id":"a740zna2lfa5","geo_precision":"city","state":"NH"},"type":"Feature","geometry":{"type":"Point","coordinates":[-70.811997,42.907313]}},{"properties":{"city":"Harrison","geo_score":0.714,"total gp":9828.98,"id":"a740zmzka5jq","geo_precision":"city","state":"AR"},"type":"Feature","geometry":{"type":"Point","coordinates":[-93.092861,36.295086]}},{"properties":{"city":"Healdsburg","geo_score":0.714,"total gp":13860.0,"id":"a740zmz69j3r","geo_precision":"city","state":"CA"},"type":"Feature","geometry":{"type":"Point","coordinates":[-122.787101,38.512761]}},{"properties":{"city":"Hebron","geo_score":0.714,"total gp":8869.18,"id":"a740zn0rubaw","geo_precision":"city","state":"NH"},"type":"Feature","geometry":{"type":"Point","coordinates":[-71.889483,43.718268]}},{"properties":{"city":"Helen","geo_score":0.714,"total gp":13485.0,"id":"a740zmz36n9o","geo_precision":"city","state":"GA"},"type":"Feature","geometry":{"type":"Point","coordinates":[-83.720937,34.729196]}},{"properties":{"city":"Henderson","geo_score":0.714,"total gp":85848.13,"id":"a740zn4i56rf","geo_precision":"city","state":"NV"},"type":"Feature","geometry":{"type":"Point","coordinates":[-114.972061,35.927901]}},{"properties":{"city":"Hershey","geo_score":0.714,"total gp":750.0,"id":"a740zn0itwru","geo_precision":"city","state":"PA"},"type":"Feature","geometry":{"type":"Point","coordinates":[-76.636357,40.269748]}},{"properties":{"city":"High Point","geo_score":0.0,"total gp":7440.0,"id":"a740zn2i3oxi","geo_precision":"unmatched","state":"NC"},"type":"Feature","geometry":null},{"properties":{"city":"Hillsboro","geo_score":0.714,"total gp":6316.2,"id":"a740znb5uflu","geo_precision":"city","state":"OR"},"type":"Feature","geometry":{"type":"Point","coordinates":[-122.977963,45.458397]}},{"properties":{"city":"Hilton Head","geo_score":0.714,"total gp":46063.2,"id":"a740zn86alu1","geo_precision":"city","state":"SC"},"type":"Feature","geometry":{"type":"Point","coordinates":[-81.306209,34.137092]}},{"properties":{"city":"Hixson","geo_score":0.0,"total gp":38403.0,"id":"a740zn5dbylf","geo_precision":"unmatched","state":"TN"},"type":"Feature","geometry":null},{"properties":{"city":"Hollywood","geo_score":0.714,"total gp":21489.65,"id":"a740zn20lzds","geo_precision":"city","state":"FL"},"type":"Feature","geometry":{"type":"Point","coordinates":[-80.192966,26.091514]}},{"properties":{"city":"Honolulu","geo_score":0.714,"total gp":51461.03,"id":"a740zn5fswbw","geo_precision":"city","state":"HI"},"type":"Feature","geometry":{"type":"Point","coordinates":[-168.021815,24.859832]}},{"properties":{"city":"Hood River","geo_score":0.714,"total gp":17256.25,"id":"a740zn5fltc0","geo_precision":"city","state":"OR"},"type":"Feature","geometry":{"type":"Point","coordinates":[-121.677126,45.638312]}},{"properties":{"city":"Hope","geo_score":0.714,"total gp":6651.05,"id":"a740zn3wb2w1","geo_precision":"city","state":"NJ"},"type":"Feature","geometry":{"type":"Point","coordinates":[-74.984628,40.919658]}},{"properties":{"city":"Hotchkiss","geo_score":0.714,"total gp":3219.75,"id":"a740zn8j4nev","geo_precision":"city","state":"CO"},"type":"Feature","geometry":{"type":"Point","coordinates":[-107.752349,38.859973]}},{"properties":{"city":"Hungry Horse","geo_score":0.714,"total gp":6110.8,"id":"a740zn8370mg","geo_precision":"city","state":"MT"},"type":"Feature","geometry":{"type":"Point","coordinates":[-113.910545,48.279332]}},{"properties":{"city":"Hunt Valley","geo_score":0.714,"total gp":7484.4,"id":"a740zn8rk8jd","geo_precision":"city","state":"MD"},"type":"Feature","geometry":{"type":"Point","coordinates":[-76.39135,39.53344]}},{"properties":{"city":"Hunter","geo_score":0.714,"total gp":7172.33,"id":"a740zn7xfqj3","geo_precision":"city","state":"NY"},"type":"Feature","geometry":{"type":"Point","coordinates":[-74.241582,42.233275]}},{"properties":{"city":"Huntington","geo_score":0.714,"total gp":23762.25,"id":"a740zn4588xz","geo_precision":"city","state":"NY"},"type":"Feature","geometry":{"type":"Point","coordinates":[-75.861867,43.976174]}},{"properties":{"city":"Huntington Beach","geo_score":0.714,"total gp":6639.75,"id":"a740zn68av5i","geo_precision":"city","state":"CA"},"type":"Feature","geometry":{"type":"Point","coordinates":[-119.235956,37.231612]}},{"properties":{"city":"Independence","geo_score":0.714,"total gp":6412.2,"id":"a740zmzi0514","geo_precision":"city","state":"MO"},"type":"Feature","geometry":{"type":"Point","coordinates":[-94.409828,39.107798]}},{"properties":{"city":"Indian Wells","geo_score":0.714,"total gp":40927.2,"id":"a740zn9swrem","geo_precision":"city","state":"CA"},"type":"Feature","geometry":{"type":"Point","coordinates":[-120.944264,38.161589]}},{"properties":{"city":"Indianapolis","geo_score":0.714,"total gp":2839.2,"id":"a740zn9bdehi","geo_precision":"city","state":"IN"},"type":"Feature","geometry":{"type":"Point","coordinates":[-86.13216,39.775092]}},{"properties":{"city":"Indiannapolis","geo_score":0.714,"total gp":11558.89,"id":"a740zn9u2z0e","geo_precision":"city","state":"Indiana"},"type":"Feature","geometry":{"type":"Point","coordinates":[-86.13216,39.775092]}},{"properties":{"city":"Islamorada","geo_score":0.714,"total gp":35433.75,"id":"a740zn8k8ndu","geo_precision":"city","state":"FL"},"type":"Feature","geometry":{"type":"Point","coordinates":[-80.682667,24.90169]}},{"properties":{"city":"Isle of Palms","geo_score":0.714,"total gp":13647.55,"id":"a740zncvw5tg","geo_precision":"city","state":"SC"},"type":"Feature","geometry":{"type":"Point","coordinates":[-79.760516,32.807206]}},{"properties":{"city":"Jackpot","geo_score":0.0,"total gp":5195.03,"id":"a740znbj4pci","geo_precision":"unmatched","state":"NV"},"type":"Feature","geometry":null},{"properties":{"city":"Jackson","geo_score":0.0,"total gp":16883.3,"id":"a740znabz2qm","geo_precision":"unmatched","state":"NH"},"type":"Feature","geometry":null},{"properties":{"city":"Jackson Hole","geo_score":0.0,"total gp":17640.68,"id":"a740znccbww6","geo_precision":"unmatched","state":"WY"},"type":"Feature","geometry":null},{"properties":{"city":"Jacksonville","geo_score":0.0,"total gp":20406.75,"id":"a740zmy87ubb","geo_precision":"unmatched","state":"FL"},"type":"Feature","geometry":null},{"properties":{"city":"Jefferson City","geo_score":0.714,"total gp":4387.63,"id":"a740zn9dj0fx","geo_precision":"city","state":"MO"},"type":"Feature","geometry":{"type":"Point","coordinates":[-92.165194,38.494029]}},{"properties":{"city":"Julian","geo_score":0.714,"total gp":5066.6,"id":"a740zmzqpw2r","geo_precision":"city","state":"CA"},"type":"Feature","geometry":{"type":"Point","coordinates":[-121.21385,36.023549]}},{"properties":{"city":"Juneau","geo_score":0.714,"total gp":1158.3,"id":"a740zn3hmjg7","geo_precision":"city","state":"AK"},"type":"Feature","geometry":{"type":"Point","coordinates":[-134.523946,58.373561]}},{"properties":{"city":"Kansas City","geo_score":0.714,"total gp":26715.15,"id":"a740zn6lo7w4","geo_precision":"city","state":"MO"},"type":"Feature","geometry":{"type":"Point","coordinates":[-94.598583,39.102404]}},{"properties":{"city":"Kapa'au","geo_score":0.714,"total gp":4235.63,"id":"a740zn8500ys","geo_precision":"city","state":"HI"},"type":"Feature","geometry":{"type":"Point","coordinates":[-159.406197,22.074197]}},{"properties":{"city":"Kauai","geo_score":0.714,"total gp":7065.31,"id":"a740zn9d5bnj","geo_precision":"city","state":"HI"},"type":"Feature","geometry":{"type":"Point","coordinates":[-155.927222,19.464444]}},{"properties":{"city":"Kennebunkport","geo_score":0.714,"total gp":3588.0,"id":"a740zmzl939b","geo_precision":"city","state":"ME"},"type":"Feature","geometry":{"type":"Point","coordinates":[-70.508663,43.377863]}},{"properties":{"city":"Kent","geo_score":0.714,"total gp":20343.8,"id":"a740zn40d1ry","geo_precision":"city","state":"CT"},"type":"Feature","geometry":{"type":"Point","coordinates":[-73.401908,41.774725]}},{"properties":{"city":"Ketchum","geo_score":0.714,"total gp":1666.23,"id":"a740zmyks4u2","geo_precision":"city","state":"ID"},"type":"Feature","geometry":{"type":"Point","coordinates":[-114.485781,43.669159]}},{"properties":{"city":"Keystone","geo_score":0.714,"total gp":24613.38,"id":"a740zncy10xv","geo_precision":"city","state":"SD"},"type":"Feature","geometry":{"type":"Point","coordinates":[-103.399471,43.884764]}},{"properties":{"city":"Kill Devil Hills","geo_score":0.714,"total gp":21256.0,"id":"a740zn4u1j40","geo_precision":"city","state":"NC"},"type":"Feature","geometry":{"type":"Point","coordinates":[-81.730653,35.436237]}},{"properties":{"city":"Kissimmee","geo_score":0.714,"total gp":50673.98,"id":"a740znboms02","geo_precision":"city","state":"FL"},"type":"Feature","geometry":{"type":"Point","coordinates":[-81.407571,28.291956]}},{"properties":{"city":"Klamath Falls","geo_score":0.714,"total gp":4282.3,"id":"a740zn923uds","geo_precision":"city","state":"OR"},"type":"Feature","geometry":{"type":"Point","coordinates":[-121.816873,42.293293]}},{"properties":{"city":"Kohala Coast","geo_score":0.714,"total gp":37206.15,"id":"a740zn1tpt3b","geo_precision":"city","state":"HI"},"type":"Feature","geometry":{"type":"Point","coordinates":[-156.259166,20.859244]}},{"properties":{"city":"La Conner","geo_score":0.714,"total gp":27496.0,"id":"a740znbe837b","geo_precision":"city","state":"WA"},"type":"Feature","geometry":{"type":"Point","coordinates":[-122.508364,48.414123]}},{"properties":{"city":"La Jolla","geo_score":0.714,"total gp":22304.1,"id":"a740zn8brona","geo_precision":"city","state":"CA"},"type":"Feature","geometry":{"type":"Point","coordinates":[-117.225744,32.898511]}},{"properties":{"city":"La Quinta","geo_score":0.714,"total gp":132441.65,"id":"a740znc46ypu","geo_precision":"city","state":"CA"},"type":"Feature","geometry":{"type":"Point","coordinates":[-122.214722,38.850382]}},{"properties":{"city":"La Veta","geo_score":0.714,"total gp":18562.5,"id":"a740znb9k18c","geo_precision":"city","state":"CO"},"type":"Feature","geometry":{"type":"Point","coordinates":[-105.057545,37.511672]}},{"properties":{"city":"Laconia","geo_score":0.714,"total gp":10053.52,"id":"a740zn8pouox","geo_precision":"city","state":"NH"},"type":"Feature","geometry":{"type":"Point","coordinates":[-71.426997,43.535461]}},{"properties":{"city":"Lafayette","geo_score":0.714,"total gp":29891.95,"id":"a740zn1hwf8q","geo_precision":"city","state":"OR"},"type":"Feature","geometry":{"type":"Point","coordinates":[-123.110948,45.232882]}},{"properties":{"city":"Laguna Beach","geo_score":0.714,"total gp":9391.18,"id":"a740zn58vr4d","geo_precision":"city","state":"CA"},"type":"Feature","geometry":{"type":"Point","coordinates":[-117.78311,33.542248]}},{"properties":{"city":"Lahaina","geo_score":0.714,"total gp":29328.75,"id":"a740zn4n5zmo","geo_precision":"city","state":"HI"},"type":"Feature","geometry":{"type":"Point","coordinates":[-156.717614,20.919823]}},{"properties":{"city":"Lake Buena Vista","geo_score":0.714,"total gp":69852.5,"id":"a740zn61fkbq","geo_precision":"city","state":"FL"},"type":"Feature","geometry":{"type":"Point","coordinates":[-80.191714,25.813153]}},{"properties":{"city":"Lake Chelan","geo_score":0.714,"total gp":14080.0,"id":"a740zn3i10yg","geo_precision":"city","state":"WA"},"type":"Feature","geometry":{"type":"Point","coordinates":[-120.07775,47.876985]}},{"properties":{"city":"Lake Geneva","geo_score":0.714,"total gp":124554.0,"id":"a740zn2gg7dk","geo_precision":"city","state":"WI"},"type":"Feature","geometry":{"type":"Point","coordinates":[-88.52023,42.617877]}},{"properties":{"city":"Lake Ozark","geo_score":0.714,"total gp":21612.53,"id":"a740znakv1qj","geo_precision":"city","state":"MO"},"type":"Feature","geometry":{"type":"Point","coordinates":[-92.682496,38.113071]}},{"properties":{"city":"Lake Tahoe","geo_score":0.0,"total gp":38701.58,"id":"a740znawe5w2","geo_precision":"unmatched","state":"NV"},"type":"Feature","geometry":null},{"properties":{"city":"Lake Toxaway","geo_score":0.0,"total gp":24567.74,"id":"a740zmz6jacz","geo_precision":"unmatched","state":"NC"},"type":"Feature","geometry":null},{"properties":{"city":"Lake Wales","geo_score":0.714,"total gp":5280.83,"id":"a740zn8w0k2a","geo_precision":"city","state":"FL"},"type":"Feature","geometry":{"type":"Point","coordinates":[-87.179971,30.677414]}},{"properties":{"city":"Lakeland","geo_score":0.714,"total gp":1716.0,"id":"a740zn9jc65x","geo_precision":"city","state":"Florida"},"type":"Feature","geometry":{"type":"Point","coordinates":[-81.956122,28.059997]}},{"properties":{"city":"Lakeport","geo_score":0.714,"total gp":9815.43,"id":"a740zn95mdsn","geo_precision":"city","state":"CA"},"type":"Feature","geometry":{"type":"Point","coordinates":[-122.919291,39.05345]}},{"properties":{"city":"Lambertville","geo_score":0.714,"total gp":31855.15,"id":"a740zn5jtpal","geo_precision":"city","state":"NJ"},"type":"Feature","geometry":{"type":"Point","coordinates":[-74.80007,39.962299]}},{"properties":{"city":"LaPorte","geo_score":0.714,"total gp":67375.68,"id":"a740zn5tzqmr","geo_precision":"city","state":"IN"},"type":"Feature","geometry":{"type":"Point","coordinates":[-86.73764,41.537585]}},{"properties":{"city":"Las Vegas","geo_score":0.714,"total gp":145686.6,"id":"a740zn8uejhj","geo_precision":"city","state":"NV"},"type":"Feature","geometry":{"type":"Point","coordinates":[-115.10647,36.17372]}},{"properties":{"city":"Lawrence","geo_score":0.714,"total gp":6615.38,"id":"a740zndqi0mq","geo_precision":"city","state":"KS"},"type":"Feature","geometry":{"type":"Point","coordinates":[-95.283982,38.907518]}},{"properties":{"city":"Leavenworth","geo_score":0.714,"total gp":16328.48,"id":"a740znbcoilk","geo_precision":"city","state":"WA"},"type":"Feature","geometry":{"type":"Point","coordinates":[-120.799413,47.695101]}},{"properties":{"city":"Lee","geo_score":0.714,"total gp":3870.93,"id":"a740zn36ii0x","geo_precision":"city","state":"MA"},"type":"Feature","geometry":{"type":"Point","coordinates":[-73.267465,42.369856]}},{"properties":{"city":"Leesburg","geo_score":0.714,"total gp":6523.3,"id":"a740zn6xrnkf","geo_precision":"city","state":"VA"},"type":"Feature","geometry":{"type":"Point","coordinates":[-77.605404,39.041987]}},{"properties":{"city":"Lewes","geo_score":0.714,"total gp":13822.8,"id":"a740zn4mgcad","geo_precision":"city","state":"DE"},"type":"Feature","geometry":{"type":"Point","coordinates":[-75.325612,38.65536]}},{"properties":{"city":"Lewiston","geo_score":0.714,"total gp":36668.5,"id":"a740zmzao2wu","geo_precision":"city","state":"NY"},"type":"Feature","geometry":{"type":"Point","coordinates":[-78.989515,43.170805]}},{"properties":{"city":"Lincoln","geo_score":0.714,"total gp":39208.73,"id":"a740zn7w6q2m","geo_precision":"city","state":"NH"},"type":"Feature","geometry":{"type":"Point","coordinates":[-71.653505,44.049183]}},{"properties":{"city":"LIncoln City","geo_score":0.714,"total gp":130490.58,"id":"a740zn20jr6e","geo_precision":"city","state":"OR"},"type":"Feature","geometry":{"type":"Point","coordinates":[-123.98885,44.908891]}},{"properties":{"city":"Lincolnville","geo_score":0.714,"total gp":1877.3,"id":"a740zn5d6gyl","geo_precision":"city","state":"ME"},"type":"Feature","geometry":{"type":"Point","coordinates":[-69.149559,44.478694]}},{"properties":{"city":"Lisle","geo_score":0.714,"total gp":11771.1,"id":"a740zn02oeqy","geo_precision":"city","state":"IL"},"type":"Feature","geometry":{"type":"Point","coordinates":[-89.0866,41.365092]}},{"properties":{"city":"Little River","geo_score":0.714,"total gp":24727.95,"id":"a740zn88t7ro","geo_precision":"city","state":"CA"},"type":"Feature","geometry":{"type":"Point","coordinates":[-115.802525,34.932852]}},{"properties":{"city":"Little Rock","geo_score":0.714,"total gp":8015.5,"id":"a740zn0k505o","geo_precision":"city","state":"AR"},"type":"Feature","geometry":{"type":"Point","coordinates":[-91.793741,33.464557]}},{"properties":{"city":"Littleriver","geo_score":0.714,"total gp":26237.25,"id":"a740zn3t80yn","geo_precision":"city","state":"CA"},"type":"Feature","geometry":{"type":"Point","coordinates":[-123.696392,39.267235]}},{"properties":{"city":"Long Beach","geo_score":0.714,"total gp":78518.75,"id":"a740znc7d5k5","geo_precision":"city","state":"WA"},"type":"Feature","geometry":{"type":"Point","coordinates":[-123.995591,46.376798]}},{"properties":{"city":"Long Island","geo_score":0.714,"total gp":8030.4,"id":"a740znbeg07e","geo_precision":"city","state":"NY"},"type":"Feature","geometry":{"type":"Point","coordinates":[-77.646948,43.277284]}},{"properties":{"city":"Longboat Key","geo_score":0.714,"total gp":6160.0,"id":"a740zmz5fddh","geo_precision":"city","state":"FL"},"type":"Feature","geometry":{"type":"Point","coordinates":[-82.443071,27.357231]}},{"properties":{"city":"Los Angeles","geo_score":0.714,"total gp":25074.0,"id":"a740zmy40uyh","geo_precision":"city","state":"CA"},"type":"Feature","geometry":{"type":"Point","coordinates":[-120.618608,38.052816]}},{"properties":{"city":"Los Osos","geo_score":0.714,"total gp":10495.2,"id":"a740zna0lud7","geo_precision":"city","state":"CA"},"type":"Feature","geometry":{"type":"Point","coordinates":[-118.345664,37.400762]}},{"properties":{"city":"Louisville","geo_score":0.714,"total gp":32738.75,"id":"a740zn5ds2ak","geo_precision":"city","state":"KY"},"type":"Feature","geometry":{"type":"Point","coordinates":[-85.676819,38.188962]}},{"properties":{"city":"Luray","geo_score":0.714,"total gp":49031.45,"id":"a740zn05gk12","geo_precision":"city","state":"VA"},"type":"Feature","geometry":{"type":"Point","coordinates":[-78.481288,38.645981]}},{"properties":{"city":"Mackinac Island","geo_score":0.714,"total gp":70550.98,"id":"a740zn0whg94","geo_precision":"city","state":"MI"},"type":"Feature","geometry":{"type":"Point","coordinates":[-87.197629,45.639415]}},{"properties":{"city":"Madison","geo_score":0.714,"total gp":14713.1,"id":"a740zn5uxa3e","geo_precision":"city","state":"WI"},"type":"Feature","geometry":{"type":"Point","coordinates":[-89.423861,43.06956]}},{"properties":{"city":"Malibu","geo_score":0.714,"total gp":23333.31,"id":"a740zn24rh2e","geo_precision":"city","state":"CA"},"type":"Feature","geometry":{"type":"Point","coordinates":[-118.298662,33.786594]}},{"properties":{"city":"Manasquan","geo_score":0.714,"total gp":5112.3,"id":"a740zn5to3lg","geo_precision":"city","state":"NJ"},"type":"Feature","geometry":{"type":"Point","coordinates":[-74.074583,40.100115]}},{"properties":{"city":"Manchester","geo_score":0.714,"total gp":12942.0,"id":"a740zn17m2g2","geo_precision":"city","state":"VT"},"type":"Feature","geometry":{"type":"Point","coordinates":[-73.045787,43.177204]}},{"properties":{"city":"Manchester Village","geo_score":0.714,"total gp":18248.4,"id":"a740znc9ldrw","geo_precision":"city","state":"VT"},"type":"Feature","geometry":{"type":"Point","coordinates":[-73.045787,43.177204]}},{"properties":{"city":"Mancos","geo_score":0.714,"total gp":18053.75,"id":"a740zn2wzbuj","geo_precision":"city","state":"CO"},"type":"Feature","geometry":{"type":"Point","coordinates":[-108.468364,37.336041]}},{"properties":{"city":"Marathon","geo_score":0.714,"total gp":44457.65,"id":"a740zn0bliwd","geo_precision":"city","state":"FL"},"type":"Feature","geometry":{"type":"Point","coordinates":[-81.294685,24.687724]}},{"properties":{"city":"Mariaville","geo_score":0.714,"total gp":10835.55,"id":"a740zn32fxq5","geo_precision":"city","state":"NY"},"type":"Feature","geometry":{"type":"Point","coordinates":[-74.135128,42.828686]}},{"properties":{"city":"Marlinton","geo_score":0.714,"total gp":15750.8,"id":"a740zn34g8se","geo_precision":"city","state":"WV"},"type":"Feature","geometry":{"type":"Point","coordinates":[-80.605351,40.398401]}},{"properties":{"city":"Mason","geo_score":0.714,"total gp":41061.52,"id":"a740zn82tcjd","geo_precision":"city","state":"OH"},"type":"Feature","geometry":{"type":"Point","coordinates":[-84.180906,39.397999]}},{"properties":{"city":"Maui","geo_score":0.0,"total gp":82120.5,"id":"a740zn1etpp8","geo_precision":"unmatched","state":"HI"},"type":"Feature","geometry":null},{"properties":{"city":"Mayville","geo_score":0.714,"total gp":10672.93,"id":"a740zmy76hkj","geo_precision":"city","state":"WI"},"type":"Feature","geometry":{"type":"Point","coordinates":[-88.545925,43.483463]}},{"properties":{"city":"Mendocino","geo_score":0.714,"total gp":52181.25,"id":"a740zn3xbgxg","geo_precision":"city","state":"CA"},"type":"Feature","geometry":{"type":"Point","coordinates":[-123.734377,39.319949]}},{"properties":{"city":"Mendocino Coast","geo_score":0.714,"total gp":7206.24,"id":"a740zn0nmvy7","geo_precision":"city","state":"CA"},"type":"Feature","geometry":{"type":"Point","coordinates":[-115.967051,34.839964]}},{"properties":{"city":"Mesa","geo_score":0.714,"total gp":9563.4,"id":"a740zmyo0svp","geo_precision":"city","state":"AZ"},"type":"Feature","geometry":{"type":"Point","coordinates":[-111.856967,33.440695]}},{"properties":{"city":"Mescalaro","geo_score":0.714,"total gp":3302.5,"id":"a740znav1y4p","geo_precision":"city","state":"NM"},"type":"Feature","geometry":{"type":"Point","coordinates":[-105.803067,33.154212]}},{"properties":{"city":"Miami","geo_score":0.714,"total gp":28875.6,"id":"a740zmz2299p","geo_precision":"city","state":"FL"},"type":"Feature","geometry":{"type":"Point","coordinates":[-80.193659,25.774266]}},{"properties":{"city":"Miami Beach","geo_score":0.714,"total gp":38887.8,"id":"a740znc12o5q","geo_precision":"city","state":"FL"},"type":"Feature","geometry":{"type":"Point","coordinates":[-80.193659,25.774266]}},{"properties":{"city":"Miami Lakes","geo_score":0.714,"total gp":7230.6,"id":"a740zmymeoua","geo_precision":"city","state":"FL"},"type":"Feature","geometry":{"type":"Point","coordinates":[-80.193659,25.774266]}},{"properties":{"city":"Michigan City","geo_score":0.714,"total gp":11910.0,"id":"a740zn6m35ur","geo_precision":"city","state":"IN"},"type":"Feature","geometry":{"type":"Point","coordinates":[-86.756985,41.594185]}},{"properties":{"city":"Middleburg","geo_score":0.714,"total gp":4867.5,"id":"a740zn81lyhp","geo_precision":"city","state":"VA"},"type":"Feature","geometry":{"type":"Point","coordinates":[-77.693844,39.029599]}},{"properties":{"city":"Midland","geo_score":0.714,"total gp":12047.63,"id":"a740zn257p3l","geo_precision":"city","state":"MI"},"type":"Feature","geometry":{"type":"Point","coordinates":[-84.33803,43.626132]}},{"properties":{"city":"Millersburg","geo_score":0.714,"total gp":45187.35,"id":"a740zn9qm7pe","geo_precision":"city","state":"OH"},"type":"Feature","geometry":{"type":"Point","coordinates":[-81.878772,40.544738]}},{"properties":{"city":"Milton","geo_score":0.714,"total gp":14843.03,"id":"a740zncvp06a","geo_precision":"city","state":"FL"},"type":"Feature","geometry":{"type":"Point","coordinates":[-85.29714,29.832708]}},{"properties":{"city":"Milwaukee","geo_score":0.714,"total gp":12491.88,"id":"a740zmy3pdjn","geo_precision":"city","state":"WI"},"type":"Feature","geometry":{"type":"Point","coordinates":[-87.958409,43.011264]}},{"properties":{"city":"Minneapolis","geo_score":0.714,"total gp":31081.33,"id":"a740zn5kcxxs","geo_precision":"city","state":"MN"},"type":"Feature","geometry":{"type":"Point","coordinates":[-93.273024,44.979265]}},{"properties":{"city":"Mishawaka","geo_score":0.714,"total gp":1698.4,"id":"a740znas791f","geo_precision":"city","state":"IN"},"type":"Feature","geometry":{"type":"Point","coordinates":[-86.287884,41.61536]}},{"properties":{"city":"Monarch","geo_score":0.714,"total gp":10330.65,"id":"a740zn8ewv8c","geo_precision":"city","state":"CO"},"type":"Feature","geometry":{"type":"Point","coordinates":[-106.243422,38.545757]}},{"properties":{"city":"Montague","geo_score":0.714,"total gp":27031.43,"id":"a740zn5p1xgq","geo_precision":"city","state":"MI"},"type":"Feature","geometry":{"type":"Point","coordinates":[-86.339517,43.42404]}},{"properties":{"city":"Montauk","geo_score":0.714,"total gp":29638.13,"id":"a740znaob0wx","geo_precision":"city","state":"NY"},"type":"Feature","geometry":{"type":"Point","coordinates":[-72.637078,40.922326]}},{"properties":{"city":"Monument","geo_score":0.714,"total gp":11534.74,"id":"a740zn260n3y","geo_precision":"city","state":"CO"},"type":"Feature","geometry":{"type":"Point","coordinates":[-105.046392,37.206962]}},{"properties":{"city":"Morgantown","geo_score":0.714,"total gp":11083.0,"id":"a740znapk45h","geo_precision":"city","state":"WV"},"type":"Feature","geometry":{"type":"Point","coordinates":[-79.983141,39.609911]}},{"properties":{"city":"Mount Dora","geo_score":0.714,"total gp":8535.35,"id":"a740zn8s8jdi","geo_precision":"city","state":"FL"},"type":"Feature","geometry":{"type":"Point","coordinates":[-81.653642,28.811078]}},{"properties":{"city":"Mount Laurel","geo_score":0.714,"total gp":21957.98,"id":"a740zmyrfz8y","geo_precision":"city","state":"NJ"},"type":"Feature","geometry":{"type":"Point","coordinates":[-75.212842,39.751571]}},{"properties":{"city":"Mount Pcono","geo_score":0.714,"total gp":31826.03,"id":"a740zn8cf3uf","geo_precision":"city","state":"PA"},"type":"Feature","geometry":{"type":"Point","coordinates":[-79.899498,41.063118]}},{"properties":{"city":"Mount Pleasant","geo_score":0.714,"total gp":13273.93,"id":"a740zn46x5fo","geo_precision":"city","state":"SC"},"type":"Feature","geometry":{"type":"Point","coordinates":[-81.990395,33.915963]}},{"properties":{"city":"Mount Pocono","geo_score":0.714,"total gp":16635.21,"id":"a740znc3uuxo","geo_precision":"city","state":"PA"},"type":"Feature","geometry":{"type":"Point","coordinates":[-79.899498,41.063118]}},{"properties":{"city":"Mount Shasta","geo_score":0.714,"total gp":17220.3,"id":"a740zmxtf91k","geo_precision":"city","state":"CA"},"type":"Feature","geometry":{"type":"Point","coordinates":[-122.473307,41.427158]}},{"properties":{"city":"Mt Laurel","geo_score":0.0,"total gp":48895.6,"id":"a740zn2xjjo3","geo_precision":"unmatched","state":"NJ"},"type":"Feature","geometry":null},{"properties":{"city":"Mt. Pocono","geo_score":0.714,"total gp":36649.8,"id":"a740zncnrkle","geo_precision":"city","state":"PA"},"type":"Feature","geometry":{"type":"Point","coordinates":[-75.399118,39.918804]}},{"properties":{"city":"Mt. Sunapee","geo_score":0.714,"total gp":7461.3,"id":"a740znczdnmf","geo_precision":"city","state":"NH"},"type":"Feature","geometry":{"type":"Point","coordinates":[-72.15471,43.426838]}},{"properties":{"city":"Murrells Inlet","geo_score":0.714,"total gp":8057.0,"id":"a740zn93juyj","geo_precision":"city","state":"SC"},"type":"Feature","geometry":{"type":"Point","coordinates":[-79.04822,33.529642]}},{"properties":{"city":"Myrtle Beach","geo_score":0.714,"total gp":39122.98,"id":"a740zn9vpgwq","geo_precision":"city","state":"SC"},"type":"Feature","geometry":{"type":"Point","coordinates":[-78.852005,33.711741]}},{"properties":{"city":"Napa","geo_score":0.714,"total gp":19571.75,"id":"a740zn8qfclt","geo_precision":"city","state":"CA"},"type":"Feature","geometry":{"type":"Point","coordinates":[-122.311921,38.516158]}},{"properties":{"city":"Napa Valley","geo_score":0.714,"total gp":51628.48,"id":"a740zn3bjomd","geo_precision":"city","state":"CA"},"type":"Feature","geometry":{"type":"Point","coordinates":[-121.677764,40.517936]}},{"properties":{"city":"Naples","geo_score":0.714,"total gp":23187.45,"id":"a740zn385iik","geo_precision":"city","state":"FL"},"type":"Feature","geometry":{"type":"Point","coordinates":[-81.79481,26.142036]}},{"properties":{"city":"Nashville","geo_score":0.714,"total gp":28493.1,"id":"a740zna6kp25","geo_precision":"city","state":"TN"},"type":"Feature","geometry":{"type":"Point","coordinates":[-86.778098,36.165688]}},{"properties":{"city":"Natchez","geo_score":0.714,"total gp":15831.55,"id":"a740zn9i2i7q","geo_precision":"city","state":"MS"},"type":"Feature","geometry":{"type":"Point","coordinates":[-91.307025,31.527752]}},{"properties":{"city":"New Castle","geo_score":0.714,"total gp":6296.4,"id":"a740znax28ml","geo_precision":"city","state":"DE"},"type":"Feature","geometry":{"type":"Point","coordinates":[-75.651466,39.592895]}},{"properties":{"city":"New Holland","geo_score":0.714,"total gp":13803.08,"id":"a740zn1j4f0u","geo_precision":"city","state":"PA"},"type":"Feature","geometry":{"type":"Point","coordinates":[-76.073814,40.14607]}},{"properties":{"city":"New Marlborough","geo_score":0.714,"total gp":17374.35,"id":"a740zn1n5xb3","geo_precision":"city","state":"MA"},"type":"Feature","geometry":{"type":"Point","coordinates":[-73.228722,42.122869]}},{"properties":{"city":"New Orleans","geo_score":0.714,"total gp":21158.55,"id":"a740zn5we66k","geo_precision":"city","state":"LA"},"type":"Feature","geometry":{"type":"Point","coordinates":[-89.930956,30.068812]}},{"properties":{"city":"New Smyrna Beach","geo_score":0.714,"total gp":11964.15,"id":"a740zmzh8t9n","geo_precision":"city","state":"FL"},"type":"Feature","geometry":{"type":"Point","coordinates":[-81.033705,28.951931]}},{"properties":{"city":"New York","geo_score":0.714,"total gp":65344.58,"id":"a740zna9f4uz","geo_precision":"city","state":"NY"},"type":"Feature","geometry":{"type":"Point","coordinates":[-74.005973,40.714269]}},{"properties":{"city":"Newagen","geo_score":0.714,"total gp":32340.0,"id":"a740zn0dcyh8","geo_precision":"city","state":"ME"},"type":"Feature","geometry":{"type":"Point","coordinates":[-69.523263,44.021333]}},{"properties":{"city":"Newark","geo_score":0.714,"total gp":8500.8,"id":"a740zndjzvwm","geo_precision":"city","state":"DE"},"type":"Feature","geometry":{"type":"Point","coordinates":[-75.701277,39.614737]}},{"properties":{"city":"Newport","geo_score":0.714,"total gp":46475.65,"id":"a740zn560ztq","geo_precision":"city","state":"OR"},"type":"Feature","geometry":{"type":"Point","coordinates":[-124.024426,44.552413]}},{"properties":{"city":"Niagara Falls","geo_score":0.714,"total gp":59565.55,"id":"a740zmz6owb8","geo_precision":"city","state":"NY"},"type":"Feature","geometry":{"type":"Point","coordinates":[-79.009414,43.089805]}},{"properties":{"city":"Nitro","geo_score":0.714,"total gp":25520.7,"id":"a740zn8esyuh","geo_precision":"city","state":"WV"},"type":"Feature","geometry":{"type":"Point","coordinates":[-81.616124,38.323042]}},{"properties":{"city":"Norfolk","geo_score":0.714,"total gp":12594.05,"id":"a740zmyvojai","geo_precision":"city","state":"CT"},"type":"Feature","geometry":{"type":"Point","coordinates":[-73.184674,41.886811]}},{"properties":{"city":"Norman","geo_score":0.714,"total gp":3852.1,"id":"a740znalvbf0","geo_precision":"city","state":"OK"},"type":"Feature","geometry":{"type":"Point","coordinates":[-97.44451,35.208566]}},{"properties":{"city":"North Las Vegas","geo_score":0.714,"total gp":29287.78,"id":"a740znd9ir0j","geo_precision":"city","state":"NV"},"type":"Feature","geometry":{"type":"Point","coordinates":[-115.10647,36.17372]}},{"properties":{"city":"North Myrtle Beach","geo_score":0.714,"total gp":23808.63,"id":"a740zncykq39","geo_precision":"city","state":"SC"},"type":"Feature","geometry":{"type":"Point","coordinates":[-78.852005,33.711741]}},{"properties":{"city":"North Utica","geo_score":0.714,"total gp":23402.4,"id":"a740zmz1owbl","geo_precision":"city","state":"IL"},"type":"Feature","geometry":{"type":"Point","coordinates":[-89.008197,41.411759]}},{"properties":{"city":"North Wales","geo_score":0.714,"total gp":14404.5,"id":"a740zn8cqpv1","geo_precision":"city","state":"PA"},"type":"Feature","geometry":{"type":"Point","coordinates":[-75.237877,40.220106]}},{"properties":{"city":"Northbrook","geo_score":0.714,"total gp":10435.11,"id":"a740zmzfwq85","geo_precision":"city","state":"IL"},"type":"Feature","geometry":{"type":"Point","coordinates":[-88.140635,42.207802]}},{"properties":{"city":"Northfield","geo_score":0.714,"total gp":5509.08,"id":"a740zn611852","geo_precision":"city","state":"MA"},"type":"Feature","geometry":{"type":"Point","coordinates":[-70.375475,41.652967]}},{"properties":{"city":"Novi","geo_score":0.714,"total gp":12511.0,"id":"a740zmxwbe9k","geo_precision":"city","state":"MI"},"type":"Feature","geometry":{"type":"Point","coordinates":[-83.522221,42.468959]}},{"properties":{"city":"Oahu","geo_score":0.0,"total gp":12032.35,"id":"a740zn1uslvj","geo_precision":"unmatched","state":"HI"},"type":"Feature","geometry":null},{"properties":{"city":"Oakland","geo_score":0.714,"total gp":1014.75,"id":"a740zn5z867b","geo_precision":"city","state":"CA"},"type":"Feature","geometry":{"type":"Point","coordinates":[-122.223779,37.786027]}},{"properties":{"city":"Ocean City","geo_score":0.714,"total gp":23789.85,"id":"a740znb6oc7j","geo_precision":"city","state":"NJ"},"type":"Feature","geometry":{"type":"Point","coordinates":[-74.604409,39.24853]}},{"properties":{"city":"Ocean Grove","geo_score":0.714,"total gp":20838.3,"id":"a740znabc6yd","geo_precision":"city","state":"NJ"},"type":"Feature","geometry":{"type":"Point","coordinates":[-74.123285,40.278922]}},{"properties":{"city":"Ocean Shores","geo_score":0.714,"total gp":3620.35,"id":"a740zn2qi019","geo_precision":"city","state":"WA"},"type":"Feature","geometry":{"type":"Point","coordinates":[-124.152461,47.071971]}},{"properties":{"city":"Oglesby","geo_score":0.714,"total gp":9709.0,"id":"a740zn07ft43","geo_precision":"city","state":"IL"},"type":"Feature","geometry":{"type":"Point","coordinates":[-89.040428,41.225813]}},{"properties":{"city":"Ojai","geo_score":0.714,"total gp":17619.8,"id":"a740zn3uao1v","geo_precision":"city","state":"CA"},"type":"Feature","geometry":{"type":"Point","coordinates":[-119.25876,34.478806]}},{"properties":{"city":"Oklahoma City","geo_score":0.714,"total gp":16891.88,"id":"a740zn40bv9l","geo_precision":"city","state":"OK"},"type":"Feature","geometry":{"type":"Point","coordinates":[-97.562817,35.491608]}},{"properties":{"city":"Old Forge","geo_score":0.714,"total gp":2435.4,"id":"a740znbhj0ub","geo_precision":"city","state":"NY"},"type":"Feature","geometry":{"type":"Point","coordinates":[-74.873176,43.752203]}},{"properties":{"city":"Olympia","geo_score":0.714,"total gp":3717.48,"id":"a740zmzxh3mo","geo_precision":"city","state":"WA"},"type":"Feature","geometry":{"type":"Point","coordinates":[-122.869079,46.984767]}},{"properties":{"city":"Olympic Valley","geo_score":0.714,"total gp":25292.75,"id":"a740zn1cqjpd","geo_precision":"city","state":"CA"},"type":"Feature","geometry":{"type":"Point","coordinates":[-121.677764,40.517936]}},{"properties":{"city":"Omaha","geo_score":0.714,"total gp":18710.33,"id":"a740zna0aqzs","geo_precision":"city","state":"NE"},"type":"Feature","geometry":{"type":"Point","coordinates":[-96.171104,41.291736]}},{"properties":{"city":"Orange Park","geo_score":0.714,"total gp":7857.63,"id":"a740zmzrvhnt","geo_precision":"city","state":"FL"},"type":"Feature","geometry":{"type":"Point","coordinates":[-81.883212,29.986046]}},{"properties":{"city":"Orlando","geo_score":0.714,"total gp":91699.65,"id":"a740zn8h9qhh","geo_precision":"city","state":"FL"},"type":"Feature","geometry":{"type":"Point","coordinates":[-81.373291,28.545179]}},{"properties":{"city":"Osprey","geo_score":0.714,"total gp":6113.25,"id":"a740zn32d3iv","geo_precision":"city","state":"FL"},"type":"Feature","geometry":{"type":"Point","coordinates":[-82.488818,27.213378]}},{"properties":{"city":"Ouray","geo_score":0.714,"total gp":8599.8,"id":"a740zn531385","geo_precision":"city","state":"CO"},"type":"Feature","geometry":{"type":"Point","coordinates":[-107.728712,38.087654]}},{"properties":{"city":"Overland Park","geo_score":0.714,"total gp":10962.0,"id":"a740zn4jj2pb","geo_precision":"city","state":"KS"},"type":"Feature","geometry":{"type":"Point","coordinates":[-100.233439,39.063922]}},{"properties":{"city":"Owenton","geo_score":0.714,"total gp":29722.65,"id":"a740zn8vxel5","geo_precision":"city","state":"KY"},"type":"Feature","geometry":{"type":"Point","coordinates":[-84.843115,38.493552]}},{"properties":{"city":"Oxford","geo_score":0.0,"total gp":30154.74,"id":"a740znbkpz0h","geo_precision":"unmatched","state":"MD"},"type":"Feature","geometry":null},{"properties":{"city":"Oxnard","geo_score":0.0,"total gp":2726.7,"id":"a740zn6euyxh","geo_precision":"unmatched","state":"CA"},"type":"Feature","geometry":null},{"properties":{"city":"Oxon Hill","geo_score":0.0,"total gp":18536.45,"id":"a740zn05jjw2","geo_precision":"unmatched","state":"MD"},"type":"Feature","geometry":null},{"properties":{"city":"Pacific Grove","geo_score":0.714,"total gp":9528.75,"id":"a740zn6zq36x","geo_precision":"city","state":"CA"},"type":"Feature","geometry":{"type":"Point","coordinates":[-122.480015,37.616774]}},{"properties":{"city":"Pahoa","geo_score":0.714,"total gp":10407.08,"id":"a740zn2s0pp3","geo_precision":"city","state":"HI"},"type":"Feature","geometry":{"type":"Point","coordinates":[-159.399444,21.968611]}},{"properties":{"city":"Painesville","geo_score":0.714,"total gp":21867.45,"id":"a740zn27y24p","geo_precision":"city","state":"OH"},"type":"Feature","geometry":{"type":"Point","coordinates":[-81.855414,39.575349]}},{"properties":{"city":"Palm Beach","geo_score":0.714,"total gp":6801.71,"id":"a740zn0hwhih","geo_precision":"city","state":"FL"},"type":"Feature","geometry":{"type":"Point","coordinates":[-80.138655,26.823395]}},{"properties":{"city":"Palm Coast","geo_score":0.714,"total gp":26985.38,"id":"a740zn2dejqt","geo_precision":"city","state":"FL"},"type":"Feature","geometry":{"type":"Point","coordinates":[-81.282815,29.466085]}},{"properties":{"city":"Palm Desert","geo_score":0.714,"total gp":24303.95,"id":"a740zn4hfdjk","geo_precision":"city","state":"CA"},"type":"Feature","geometry":{"type":"Point","coordinates":[-116.339766,33.76437]}},{"properties":{"city":"Palm Springs","geo_score":0.714,"total gp":83214.43,"id":"a740zncbnv1u","geo_precision":"city","state":"CA"},"type":"Feature","geometry":{"type":"Point","coordinates":[-120.78606,39.894894]}},{"properties":{"city":"Palos Verdes","geo_score":0.714,"total gp":108852.9,"id":"a740znc5vbro","geo_precision":"city","state":"CA"},"type":"Feature","geometry":{"type":"Point","coordinates":[-118.298662,33.786594]}},{"properties":{"city":"Park City","geo_score":0.714,"total gp":9812.0,"id":"a740zn1vcd0e","geo_precision":"city","state":"UT"},"type":"Feature","geometry":{"type":"Point","coordinates":[-111.448892,40.71188]}},{"properties":{"city":"Parshall","geo_score":0.714,"total gp":8106.0,"id":"a740zn5kgosq","geo_precision":"city","state":"CO"},"type":"Feature","geometry":{"type":"Point","coordinates":[-106.093005,39.953932]}},{"properties":{"city":"Pawley's Island","geo_score":0.714,"total gp":13686.48,"id":"a740zn6atekn","geo_precision":"city","state":"SC"},"type":"Feature","geometry":{"type":"Point","coordinates":[-79.183904,33.464107]}},{"properties":{"city":"Pawleys Island","geo_score":0.714,"total gp":22332.6,"id":"a740zn6zj8vl","geo_precision":"city","state":"SC"},"type":"Feature","geometry":{"type":"Point","coordinates":[-79.183904,33.464107]}},{"properties":{"city":"Payson","geo_score":0.714,"total gp":20211.25,"id":"a740znagbsa5","geo_precision":"city","state":"AZ"},"type":"Feature","geometry":{"type":"Point","coordinates":[-111.075088,33.864471]}},{"properties":{"city":"Pearl River","geo_score":0.714,"total gp":5131.88,"id":"a740zncjp9kn","geo_precision":"city","state":"LA"},"type":"Feature","geometry":{"type":"Point","coordinates":[-89.921823,30.423603]}},{"properties":{"city":"Pescadero","geo_score":0.714,"total gp":14868.0,"id":"a740zn34dzqo","geo_precision":"city","state":"CA"},"type":"Feature","geometry":{"type":"Point","coordinates":[-122.343782,37.211194]}},{"properties":{"city":"Phoenix","geo_score":0.0,"total gp":28238.7,"id":"a740zn4945tx","geo_precision":"unmatched","state":"AZ"},"type":"Feature","geometry":null},{"properties":{"city":"Pigeon Forge","geo_score":0.714,"total gp":28589.55,"id":"a740zn7vvozj","geo_precision":"city","state":"TN"},"type":"Feature","geometry":{"type":"Point","coordinates":[-83.568939,35.83391]}},{"properties":{"city":"Pittsboro","geo_score":0.714,"total gp":5047.9,"id":"a740znc8yofa","geo_precision":"city","state":"NC"},"type":"Feature","geometry":{"type":"Point","coordinates":[-79.213195,35.745239]}},{"properties":{"city":"Placerville","geo_score":0.714,"total gp":5586.0,"id":"a740zmzoxhf0","geo_precision":"city","state":"CA"},"type":"Feature","geometry":{"type":"Point","coordinates":[-120.797149,38.730224]}},{"properties":{"city":"Pleasanton","geo_score":0.714,"total gp":8047.91,"id":"a740zncf508o","geo_precision":"city","state":"KS"},"type":"Feature","geometry":{"type":"Point","coordinates":[-95.269695,38.85556]}},{"properties":{"city":"Plumtree","geo_score":0.714,"total gp":11595.38,"id":"a740zn19n7rd","geo_precision":"city","state":"NC"},"type":"Feature","geometry":{"type":"Point","coordinates":[-82.003691,36.044098]}},{"properties":{"city":"Plymouth","geo_score":0.714,"total gp":12055.05,"id":"a740zn1bw8yo","geo_precision":"city","state":"NH"},"type":"Feature","geometry":{"type":"Point","coordinates":[-71.694017,43.710919]}},{"properties":{"city":"Point Arena","geo_score":0.714,"total gp":34918.1,"id":"a740zmzkc9c4","geo_precision":"city","state":"CA"},"type":"Feature","geometry":{"type":"Point","coordinates":[-120.676309,37.370772]}},{"properties":{"city":"Port Ludlow","geo_score":0.714,"total gp":19800.38,"id":"a740zn7m8ksi","geo_precision":"city","state":"WA"},"type":"Feature","geometry":{"type":"Point","coordinates":[-123.035409,46.63677]}},{"properties":{"city":"Port St. Joe","geo_score":0.714,"total gp":10909.08,"id":"a740zndngc3k","geo_precision":"city","state":"FL"},"type":"Feature","geometry":{"type":"Point","coordinates":[-87.102495,30.88276]}},{"properties":{"city":"Port St. Lucie","geo_score":0.714,"total gp":12766.61,"id":"a740znczipiw","geo_precision":"city","state":"FL"},"type":"Feature","geometry":{"type":"Point","coordinates":[-81.777051,30.725235]}},{"properties":{"city":"Portland","geo_score":0.714,"total gp":31388.18,"id":"a740zmyl4jj5","geo_precision":"city","state":"OR"},"type":"Feature","geometry":{"type":"Point","coordinates":[-122.693157,45.498931]}},{"properties":{"city":"Pottsboro","geo_score":0.714,"total gp":12696.0,"id":"a740zn1tcjsh","geo_precision":"city","state":"TX"},"type":"Feature","geometry":{"type":"Point","coordinates":[-96.676191,33.817503]}},{"properties":{"city":"Powell Butte","geo_score":0.714,"total gp":11738.93,"id":"a740zmzo7tsa","geo_precision":"city","state":"OR"},"type":"Feature","geometry":{"type":"Point","coordinates":[-121.259056,42.464842]}},{"properties":{"city":"Prescott","geo_score":0.714,"total gp":14145.18,"id":"a740zne1skfn","geo_precision":"city","state":"AZ"},"type":"Feature","geometry":{"type":"Point","coordinates":[-112.307777,34.668291]}},{"properties":{"city":"Preston","geo_score":0.714,"total gp":5754.6,"id":"a740zn0t1kx4","geo_precision":"city","state":"CT"},"type":"Feature","geometry":{"type":"Point","coordinates":[-71.993427,41.522369]}},{"properties":{"city":"Princeton","geo_score":0.714,"total gp":8445.25,"id":"a740znbyozpl","geo_precision":"city","state":"NJ"},"type":"Feature","geometry":{"type":"Point","coordinates":[-74.64795,40.363882]}},{"properties":{"city":"Proctorsville","geo_score":0.714,"total gp":23956.43,"id":"a740znc2vgho","geo_precision":"city","state":"VT"},"type":"Feature","geometry":{"type":"Point","coordinates":[-72.620659,43.439854]}},{"properties":{"city":"Providence","geo_score":0.714,"total gp":13755.0,"id":"a740znbx735m","geo_precision":"city","state":"RI"},"type":"Feature","geometry":{"type":"Point","coordinates":[-71.414451,41.82275]}},{"properties":{"city":"Provincetown","geo_score":0.714,"total gp":27246.88,"id":"a740zn0vbc2i","geo_precision":"city","state":"MA"},"type":"Feature","geometry":{"type":"Point","coordinates":[-70.091057,41.888775]}},{"properties":{"city":"Prudenville","geo_score":0.714,"total gp":4500.0,"id":"a740znaglxfr","geo_precision":"city","state":"MI"},"type":"Feature","geometry":{"type":"Point","coordinates":[-84.647139,44.343508]}},{"properties":{"city":"Red Hook","geo_score":0.714,"total gp":6228.3,"id":"a740zn8cjv1r","geo_precision":"city","state":"NY"},"type":"Feature","geometry":{"type":"Point","coordinates":[-74.009584,40.675103]}},{"properties":{"city":"Red Lodge","geo_score":0.714,"total gp":1090.8,"id":"a740zncml5xs","geo_precision":"city","state":"MT"},"type":"Feature","geometry":{"type":"Point","coordinates":[-109.323626,45.241262]}},{"properties":{"city":"Redmond","geo_score":0.714,"total gp":6169.08,"id":"a740znaftldl","geo_precision":"city","state":"OR"},"type":"Feature","geometry":{"type":"Point","coordinates":[-121.266414,44.268862]}},{"properties":{"city":"Reno","geo_score":0.714,"total gp":18879.3,"id":"a740zncykeea","geo_precision":"city","state":"NV"},"type":"Feature","geometry":{"type":"Point","coordinates":[-119.704614,39.65558]}},{"properties":{"city":"Reunion","geo_score":0.0,"total gp":0.0,"id":"a740zmy92dhi","geo_precision":"unmatched","state":"FL"},"type":"Feature","geometry":null},{"properties":{"city":"Rhinebeck","geo_score":0.714,"total gp":26880.0,"id":"a740zndatszx","geo_precision":"city","state":"NY"},"type":"Feature","geometry":{"type":"Point","coordinates":[-73.760423,41.836548]}},{"properties":{"city":"Rhinecliff","geo_score":0.714,"total gp":13850.8,"id":"a740zmytohj6","geo_precision":"city","state":"NY"},"type":"Feature","geometry":{"type":"Point","coordinates":[-73.95173,41.915068]}},{"properties":{"city":"Richmond","geo_score":0.714,"total gp":11288.11,"id":"a740zn1b0v5s","geo_precision":"city","state":"VA"},"type":"Feature","geometry":{"type":"Point","coordinates":[-76.83774,37.914858]}},{"properties":{"city":"Ridgedale","geo_score":0.714,"total gp":18758.03,"id":"a740zncviog1","geo_precision":"city","state":"MO"},"type":"Feature","geometry":{"type":"Point","coordinates":[-93.230334,36.610226]}},{"properties":{"city":"Ridgway","geo_score":0.714,"total gp":11176.8,"id":"a740znbdqmx3","geo_precision":"city","state":"CO"},"type":"Feature","geometry":{"type":"Point","coordinates":[-107.72736,38.177464]}},{"properties":{"city":"Rindge","geo_score":0.714,"total gp":35637.83,"id":"a740zn339pya","geo_precision":"city","state":"NH"},"type":"Feature","geometry":{"type":"Point","coordinates":[-72.00912,42.76509]}},{"properties":{"city":"Ringwood","geo_score":0.714,"total gp":20868.58,"id":"a740zn7mi97l","geo_precision":"city","state":"NJ"},"type":"Feature","geometry":{"type":"Point","coordinates":[-74.293271,41.110445]}},{"properties":{"city":"Rio Rico","geo_score":0.714,"total gp":9188.79,"id":"a740zn8bawfn","geo_precision":"city","state":"AZ"},"type":"Feature","geometry":{"type":"Point","coordinates":[-111.075695,31.508436]}},{"properties":{"city":"Riverhead","geo_score":0.714,"total gp":29158.0,"id":"a740zn6tjhr4","geo_precision":"city","state":"NY"},"type":"Feature","geometry":{"type":"Point","coordinates":[-72.637078,40.922326]}},{"properties":{"city":"Roanoke","geo_score":0.714,"total gp":8507.7,"id":"a740zn1rvyx3","geo_precision":"city","state":"VA"},"type":"Feature","geometry":{"type":"Point","coordinates":[-79.95786,37.274175]}},{"properties":{"city":"Rockford","geo_score":0.0,"total gp":5394.1,"id":"a740znczyznz","geo_precision":"unmatched","state":"IL"},"type":"Feature","geometry":null},{"properties":{"city":"Rockport","geo_score":0.0,"total gp":6749.48,"id":"a740znbbt190","geo_precision":"unmatched","state":"MA"},"type":"Feature","geometry":null},{"properties":{"city":"Rogersville","geo_score":0.714,"total gp":3888.5,"id":"a740zn7p3ut4","geo_precision":"city","state":"TN"},"type":"Feature","geometry":{"type":"Point","coordinates":[-82.949145,36.415976]}},{"properties":{"city":"Round Top","geo_score":0.714,"total gp":2899.4,"id":"a740zn76nixx","geo_precision":"city","state":"NY"},"type":"Feature","geometry":{"type":"Point","coordinates":[-78.707872,42.898958]}},{"properties":{"city":"Sacramento","geo_score":0.714,"total gp":16950.6,"id":"a740zn9m9x4d","geo_precision":"city","state":"CA"},"type":"Feature","geometry":{"type":"Point","coordinates":[-121.555406,38.380456]}},{"properties":{"city":"Salesville","geo_score":0.714,"total gp":16563.6,"id":"a740zne3zu0i","geo_precision":"city","state":"OH"},"type":"Feature","geometry":{"type":"Point","coordinates":[-81.373692,40.015591]}},{"properties":{"city":"San Antonio","geo_score":0.714,"total gp":49498.56,"id":"a740zn799bun","geo_precision":"city","state":"TX"},"type":"Feature","geometry":{"type":"Point","coordinates":[-102.192713,33.770506]}},{"properties":{"city":"San Diego","geo_score":0.714,"total gp":30303.35,"id":"a740zn6pdx1o","geo_precision":"city","state":"CA"},"type":"Feature","geometry":{"type":"Point","coordinates":[-117.174366,32.7211]}},{"properties":{"city":"San Francisco","geo_score":0.714,"total gp":48887.7,"id":"a740znaks40d","geo_precision":"city","state":"CA"},"type":"Feature","geometry":{"type":"Point","coordinates":[-118.298662,33.786594]}},{"properties":{"city":"San Pedro","geo_score":0.714,"total gp":6033.18,"id":"a740zn3vq55p","geo_precision":"city","state":"California"},"type":"Feature","geometry":{"type":"Point","coordinates":[-118.253053,33.753088]}},{"properties":{"city":"Sanbornton","geo_score":0.714,"total gp":19717.06,"id":"a740zncqcklh","geo_precision":"city","state":"NH"},"type":"Feature","geometry":{"type":"Point","coordinates":[-71.514248,43.50178]}},{"properties":{"city":"Sandwich","geo_score":0.714,"total gp":16999.13,"id":"a740zn5ggqds","geo_precision":"city","state":"MA"},"type":"Feature","geometry":{"type":"Point","coordinates":[-70.477482,41.711291]}},{"properties":{"city":"Santa Cruz","geo_score":0.714,"total gp":4976.4,"id":"a740zn3oa08r","geo_precision":"city","state":"CA"},"type":"Feature","geometry":{"type":"Point","coordinates":[-122.111126,37.052748]}},{"properties":{"city":"Santa Fe","geo_score":0.714,"total gp":24783.3,"id":"a740zn85zat1","geo_precision":"city","state":"NM"},"type":"Feature","geometry":{"type":"Point","coordinates":[-105.982146,35.697473]}},{"properties":{"city":"Santa Monica","geo_score":0.714,"total gp":44507.15,"id":"a740zn5qr6ff","geo_precision":"city","state":"CA"},"type":"Feature","geometry":{"type":"Point","coordinates":[-116.994511,32.843956]}},{"properties":{"city":"Santa Rosa","geo_score":0.714,"total gp":12441.83,"id":"a740zn1kj750","geo_precision":"city","state":"CA"},"type":"Feature","geometry":{"type":"Point","coordinates":[-122.561689,38.022322]}},{"properties":{"city":"Sante fe","geo_score":0.714,"total gp":9230.38,"id":"a740zn0x6cym","geo_precision":"city","state":"NM"},"type":"Feature","geometry":{"type":"Point","coordinates":[-105.982146,35.697473]}},{"properties":{"city":"Sarasota","geo_score":0.714,"total gp":36069.75,"id":"a740zna704o2","geo_precision":"city","state":"FL"},"type":"Feature","geometry":{"type":"Point","coordinates":[-82.537169,27.335023]}},{"properties":{"city":"Saugatuck","geo_score":0.0,"total gp":25313.83,"id":"a740znd2ho1f","geo_precision":"unmatched","state":"MI"},"type":"Feature","geometry":null},{"properties":{"city":"Savannah","geo_score":0.714,"total gp":19730.9,"id":"a740zmzh87re","geo_precision":"city","state":"GA"},"type":"Feature","geometry":{"type":"Point","coordinates":[-81.135618,32.072257]}},{"properties":{"city":"Scottsdale","geo_score":0.714,"total gp":22821.43,"id":"a740zn8hu8az","geo_precision":"city","state":"AZ"},"type":"Feature","geometry":{"type":"Point","coordinates":[-111.874248,33.524143]}},{"properties":{"city":"Scottsville","geo_score":0.714,"total gp":3718.81,"id":"a740zn5ee6i7","geo_precision":"city","state":"VA"},"type":"Feature","geometry":{"type":"Point","coordinates":[-78.529827,37.846277]}},{"properties":{"city":"Seaside","geo_score":0.714,"total gp":26555.38,"id":"a740zn20evoq","geo_precision":"city","state":"OR"},"type":"Feature","geometry":{"type":"Point","coordinates":[-123.857394,45.97677]}},{"properties":{"city":"Seattle","geo_score":0.714,"total gp":31350.98,"id":"a740zn7gdz01","geo_precision":"city","state":"WA"},"type":"Feature","geometry":{"type":"Point","coordinates":[-121.803388,47.432251]}},{"properties":{"city":"Seaview","geo_score":0.714,"total gp":45976.98,"id":"a740znc8058l","geo_precision":"city","state":"WA"},"type":"Feature","geometry":{"type":"Point","coordinates":[-124.04553,46.330755]}},{"properties":{"city":"Sebring","geo_score":0.714,"total gp":13285.8,"id":"a740zn9qg95w","geo_precision":"city","state":"FL"},"type":"Feature","geometry":{"type":"Point","coordinates":[-81.373012,27.457947]}},{"properties":{"city":"Sedona","geo_score":0.714,"total gp":78163.49,"id":"a740zn6kscq1","geo_precision":"city","state":"AZ"},"type":"Feature","geometry":{"type":"Point","coordinates":[-111.279927,34.756885]}},{"properties":{"city":"Sequim","geo_score":0.714,"total gp":6792.6,"id":"a740zmy6q31c","geo_precision":"city","state":"WA"},"type":"Feature","geometry":{"type":"Point","coordinates":[-123.080362,48.06773]}},{"properties":{"city":"Sevierville","geo_score":0.714,"total gp":92355.0,"id":"a740zn06l5af","geo_precision":"city","state":"TN"},"type":"Feature","geometry":{"type":"Point","coordinates":[-83.572214,35.833278]}},{"properties":{"city":"Sheboygan Falls","geo_score":0.714,"total gp":4594.72,"id":"a740zn7bpwo1","geo_precision":"city","state":"WI"},"type":"Feature","geometry":{"type":"Point","coordinates":[-87.853069,43.726404]}},{"properties":{"city":"Shelton","geo_score":0.714,"total gp":5464.88,"id":"a740zn6jjtnm","geo_precision":"city","state":"CT"},"type":"Feature","geometry":{"type":"Point","coordinates":[-73.137143,41.314347]}},{"properties":{"city":"Siesta Key","geo_score":0.714,"total gp":30383.75,"id":"a740zn665ghu","geo_precision":"city","state":"FL"},"type":"Feature","geometry":{"type":"Point","coordinates":[-82.551487,27.301992]}},{"properties":{"city":"SIlverthorne","geo_score":0.714,"total gp":1305.0,"id":"a740zndov45d","geo_precision":"city","state":"CO"},"type":"Feature","geometry":{"type":"Point","coordinates":[-106.108002,39.641146]}},{"properties":{"city":"Sisters","geo_score":0.714,"total gp":43967.58,"id":"a740zne65yk8","geo_precision":"city","state":"OR"},"type":"Feature","geometry":{"type":"Point","coordinates":[-121.509124,44.31648]}},{"properties":{"city":"Smithfield","geo_score":0.714,"total gp":39734.18,"id":"a740zmzx61zu","geo_precision":"city","state":"VA"},"type":"Feature","geometry":{"type":"Point","coordinates":[-76.661123,36.990826]}},{"properties":{"city":"Snowmass Village","geo_score":0.714,"total gp":26700.61,"id":"a740zncjqrso","geo_precision":"city","state":"CO"},"type":"Feature","geometry":{"type":"Point","coordinates":[-106.868877,39.206518]}},{"properties":{"city":"Sonoma","geo_score":0.714,"total gp":8094.0,"id":"a740zn2sopmg","geo_precision":"city","state":"CA"},"type":"Feature","geometry":{"type":"Point","coordinates":[-122.476819,38.255943]}},{"properties":{"city":"South Beach","geo_score":0.0,"total gp":6856.5,"id":"a740zn7clzx7","geo_precision":"unmatched","state":"FL"},"type":"Feature","geometry":null},{"properties":{"city":"South Bend","geo_score":0.714,"total gp":3878.09,"id":"a740zn1chisl","geo_precision":"city","state":"IN"},"type":"Feature","geometry":{"type":"Point","coordinates":[-86.250268,39.523937]}},{"properties":{"city":"South Boston","geo_score":0.714,"total gp":7598.85,"id":"a740zmyjc3xq","geo_precision":"city","state":"VA"},"type":"Feature","geometry":{"type":"Point","coordinates":[-78.132778,38.537138]}},{"properties":{"city":"South Fork","geo_score":0.714,"total gp":10154.7,"id":"a740znc3jzcw","geo_precision":"city","state":"CO"},"type":"Feature","geometry":{"type":"Point","coordinates":[-106.597775,37.638307]}},{"properties":{"city":"South Haven","geo_score":0.714,"total gp":15163.2,"id":"a740zmzj7n54","geo_precision":"city","state":"MI"},"type":"Feature","geometry":{"type":"Point","coordinates":[-86.138952,42.363778]}},{"properties":{"city":"South Kent","geo_score":0.714,"total gp":5454.9,"id":"a740znd0r5ef","geo_precision":"city","state":"CT"},"type":"Feature","geometry":{"type":"Point","coordinates":[-73.401908,41.774725]}},{"properties":{"city":"South Lake Tahoe","geo_score":0.714,"total gp":29602.44,"id":"a740zn7nk57a","geo_precision":"city","state":"CA"},"type":"Feature","geometry":{"type":"Point","coordinates":[-120.039632,38.927507]}},{"properties":{"city":"South Padre Island","geo_score":0.714,"total gp":17564.8,"id":"a740znbl3r5u","geo_precision":"city","state":"TX"},"type":"Feature","geometry":{"type":"Point","coordinates":[-97.494039,26.115896]}},{"properties":{"city":"Southern Pines","geo_score":0.714,"total gp":4826.25,"id":"a740zn01r68e","geo_precision":"city","state":"NC"},"type":"Feature","geometry":{"type":"Point","coordinates":[-79.394988,35.218064]}},{"properties":{"city":"Southport","geo_score":0.714,"total gp":13163.85,"id":"a740znbc4000","geo_precision":"city","state":"ME"},"type":"Feature","geometry":{"type":"Point","coordinates":[-69.529648,43.935605]}},{"properties":{"city":"Spokane","geo_score":0.714,"total gp":17196.05,"id":"a740zn3lqb2v","geo_precision":"city","state":"WA"},"type":"Feature","geometry":{"type":"Point","coordinates":[-117.435997,47.66264]}},{"properties":{"city":"Springdale","geo_score":0.714,"total gp":11546.7,"id":"a740zn0dpwjh","geo_precision":"city","state":"UT"},"type":"Feature","geometry":{"type":"Point","coordinates":[-113.013922,37.186249]}},{"properties":{"city":"Springfield","geo_score":0.714,"total gp":10312.5,"id":"a740zn7k426l","geo_precision":"city","state":"IL"},"type":"Feature","geometry":{"type":"Point","coordinates":[-88.252639,42.367273]}},{"properties":{"city":"St. Augustine","geo_score":0.0,"total gp":5609.45,"id":"a740zne23kx4","geo_precision":"unmatched","state":"FL"},"type":"Feature","geometry":null},{"properties":{"city":"St. Charles","geo_score":0.714,"total gp":46677.49,"id":"a740zmz93srf","geo_precision":"city","state":"IL"},"type":"Feature","geometry":{"type":"Point","coordinates":[-90.731564,40.583158]}},{"properties":{"city":"St. George","geo_score":0.0,"total gp":6686.82,"id":"a740zn2dc8ou","geo_precision":"unmatched","state":"Utah"},"type":"Feature","geometry":null},{"properties":{"city":"St. Germain","geo_score":0.714,"total gp":18240.0,"id":"a740zn1vk890","geo_precision":"city","state":"WI"},"type":"Feature","geometry":{"type":"Point","coordinates":[-88.786223,44.216648]}},{"properties":{"city":"St. Louis","geo_score":0.714,"total gp":49879.5,"id":"a740znartr7v","geo_precision":"city","state":"MS"},"type":"Feature","geometry":{"type":"Point","coordinates":[-90.592812,32.980758]}},{"properties":{"city":"St. Michaels","geo_score":0.0,"total gp":15998.15,"id":"a740zn5n1yst","geo_precision":"unmatched","state":"MD"},"type":"Feature","geometry":null},{"properties":{"city":"St. Pete Beach","geo_score":0.0,"total gp":25440.46,"id":"a740zn3kh18g","geo_precision":"unmatched","state":"FL"},"type":"Feature","geometry":null},{"properties":{"city":"St. Simons Island","geo_score":0.714,"total gp":20748.0,"id":"a740zndkbv5k","geo_precision":"city","state":"GA"},"type":"Feature","geometry":{"type":"Point","coordinates":[-84.93687,31.593502]}},{"properties":{"city":"Stateline","geo_score":0.714,"total gp":24342.45,"id":"a740zn2xpk5g","geo_precision":"city","state":"NV"},"type":"Feature","geometry":{"type":"Point","coordinates":[-119.732977,38.860647]}},{"properties":{"city":"Staunton","geo_score":0.714,"total gp":18170.0,"id":"a740zn1pkusn","geo_precision":"city","state":"VA"},"type":"Feature","geometry":{"type":"Point","coordinates":[-79.065116,38.157368]}},{"properties":{"city":"Steamboat Springs","geo_score":0.714,"total gp":25939.9,"id":"a740zn13th4k","geo_precision":"city","state":"CO"},"type":"Feature","geometry":{"type":"Point","coordinates":[-102.677359,37.371522]}},{"properties":{"city":"Stevenson","geo_score":0.714,"total gp":27699.9,"id":"a740znd8af7d","geo_precision":"city","state":"WA"},"type":"Feature","geometry":{"type":"Point","coordinates":[-121.912581,45.673707]}},{"properties":{"city":"Stevensville","geo_score":0.714,"total gp":9686.0,"id":"a740zn5yalqc","geo_precision":"city","state":"MD"},"type":"Feature","geometry":{"type":"Point","coordinates":[-76.730345,39.412905]}},{"properties":{"city":"Stony Brook","geo_score":0.714,"total gp":3689.4,"id":"a740znak4uh9","geo_precision":"city","state":"NY"},"type":"Feature","geometry":{"type":"Point","coordinates":[-73.182803,40.90129]}},{"properties":{"city":"Stowe","geo_score":0.714,"total gp":17511.73,"id":"a740zn26bchy","geo_precision":"city","state":"VT"},"type":"Feature","geometry":{"type":"Point","coordinates":[-72.660043,44.535179]}},{"properties":{"city":"Strasburg","geo_score":0.714,"total gp":6071.1,"id":"a740zmzmifhx","geo_precision":"city","state":"VA"},"type":"Feature","geometry":{"type":"Point","coordinates":[-78.37477,39.056218]}},{"properties":{"city":"Stratton","geo_score":0.714,"total gp":2437.5,"id":"a740zmy2emdh","geo_precision":"city","state":"CO"},"type":"Feature","geometry":{"type":"Point","coordinates":[-104.81164,38.803326]}},{"properties":{"city":"Stuart","geo_score":0.714,"total gp":23452.75,"id":"a740zn47zl82","geo_precision":"city","state":"FL"},"type":"Feature","geometry":{"type":"Point","coordinates":[-80.254768,27.189748]}},{"properties":{"city":"Sudbury","geo_score":0.714,"total gp":15028.2,"id":"a740zne2419d","geo_precision":"city","state":"MA"},"type":"Feature","geometry":{"type":"Point","coordinates":[-71.459405,42.446396]}},{"properties":{"city":"Sugar Hill","geo_score":0.714,"total gp":5980.05,"id":"a740zn5vjb1t","geo_precision":"city","state":"NH"},"type":"Feature","geometry":{"type":"Point","coordinates":[-71.762631,43.443473]}},{"properties":{"city":"Summit County","geo_score":0.714,"total gp":727.1,"id":"a740zn70xant","geo_precision":"city","state":"UT"},"type":"Feature","geometry":{"type":"Point","coordinates":[-112.900041,37.815946]}},{"properties":{"city":"Summit Village","geo_score":0.0,"total gp":11595.75,"id":"a740zmxr6ei9","geo_precision":"unmatched","state":"MI"},"type":"Feature","geometry":null},{"properties":{"city":"Sunny Isles Beach","geo_score":0.714,"total gp":77166.0,"id":"a740zn6mamau","geo_precision":"city","state":"FL"},"type":"Feature","geometry":{"type":"Point","coordinates":[-80.122823,25.950648]}},{"properties":{"city":"Sunriver","geo_score":0.714,"total gp":10560.9,"id":"a740zmyeyts7","geo_precision":"city","state":"OR"},"type":"Feature","geometry":{"type":"Point","coordinates":[-121.43864,43.884007]}},{"properties":{"city":"Sunset Beach","geo_score":0.714,"total gp":35693.4,"id":"a740znblzqta","geo_precision":"city","state":"NC"},"type":"Feature","geometry":{"type":"Point","coordinates":[-82.470127,35.711779]}},{"properties":{"city":"Surfside Beach","geo_score":0.714,"total gp":6289.07,"id":"a740zmz0iph2","geo_precision":"city","state":"SC"},"type":"Feature","geometry":{"type":"Point","coordinates":[-78.973089,33.606003]}},{"properties":{"city":"Susanville","geo_score":0.714,"total gp":3608.15,"id":"a740zn93eru4","geo_precision":"city","state":"CA"},"type":"Feature","geometry":{"type":"Point","coordinates":[-120.664132,40.446063]}},{"properties":{"city":"Swainsboro","geo_score":0.714,"total gp":13025.08,"id":"a740zndinrpy","geo_precision":"city","state":"GA"},"type":"Feature","geometry":{"type":"Point","coordinates":[-82.346181,32.569871]}},{"properties":{"city":"Swoope","geo_score":0.714,"total gp":23821.88,"id":"a740znd9figg","geo_precision":"city","state":"VA"},"type":"Feature","geometry":{"type":"Point","coordinates":[-79.211901,38.188328]}},{"properties":{"city":"Syracuse","geo_score":0.714,"total gp":10530.0,"id":"a740zn93uhwz","geo_precision":"city","state":"NY"},"type":"Feature","geometry":{"type":"Point","coordinates":[-76.197701,43.02143]}},{"properties":{"city":"Tahoe","geo_score":0.0,"total gp":14601.3,"id":"a740zn7hwolu","geo_precision":"unmatched","state":"CA"},"type":"Feature","geometry":null},{"properties":{"city":"Tallahassee","geo_score":0.714,"total gp":4442.9,"id":"a740zn37bu6u","geo_precision":"city","state":"FL"},"type":"Feature","geometry":{"type":"Point","coordinates":[-84.203379,30.418514]}},{"properties":{"city":"Taos","geo_score":0.714,"total gp":12967.5,"id":"a740zn302pmw","geo_precision":"city","state":"NM"},"type":"Feature","geometry":{"type":"Point","coordinates":[-105.554532,36.429239]}},{"properties":{"city":"Telluride","geo_score":0.714,"total gp":41695.8,"id":"a740zn27e0vb","geo_precision":"city","state":"CO"},"type":"Feature","geometry":{"type":"Point","coordinates":[-107.956606,37.983589]}},{"properties":{"city":"Temecula","geo_score":0.714,"total gp":109620.68,"id":"a740zmzpv6im","geo_precision":"city","state":"CA"},"type":"Feature","geometry":{"type":"Point","coordinates":[-116.055617,33.752886]}},{"properties":{"city":"Tempe","geo_score":0.714,"total gp":11882.75,"id":"a740znczah9f","geo_precision":"city","state":"AZ"},"type":"Feature","geometry":{"type":"Point","coordinates":[-111.931298,33.401395]}},{"properties":{"city":"Teton Village","geo_score":0.714,"total gp":10969.2,"id":"a740zn2w1qjg","geo_precision":"city","state":"WY"},"type":"Feature","geometry":{"type":"Point","coordinates":[-110.694002,43.443851]}},{"properties":{"city":"Tomales","geo_score":0.714,"total gp":8176.0,"id":"a740zmzof19j","geo_precision":"city","state":"CA"},"type":"Feature","geometry":{"type":"Point","coordinates":[-122.91446,38.242733]}},{"properties":{"city":"Traverse City","geo_score":0.714,"total gp":32225.19,"id":"a740zn66n5ht","geo_precision":"city","state":"MI"},"type":"Feature","geometry":{"type":"Point","coordinates":[-88.234001,47.194369]}},{"properties":{"city":"Treasure Island","geo_score":0.714,"total gp":52364.63,"id":"a740znau3tp2","geo_precision":"city","state":"FL"},"type":"Feature","geometry":{"type":"Point","coordinates":[-80.252552,25.378169]}},{"properties":{"city":"Trego","geo_score":0.714,"total gp":18637.88,"id":"a740zn3jc2u4","geo_precision":"city","state":"Montana"},"type":"Feature","geometry":{"type":"Point","coordinates":[-115.330964,48.44572]}},{"properties":{"city":"Truckee","geo_score":0.714,"total gp":18584.5,"id":"a740zn9mw3ux","geo_precision":"city","state":"CA"},"type":"Feature","geometry":{"type":"Point","coordinates":[-119.960434,36.913003]}},{"properties":{"city":"Tucson","geo_score":0.714,"total gp":10977.9,"id":"a740znc99vec","geo_precision":"city","state":"AZ"},"type":"Feature","geometry":{"type":"Point","coordinates":[-110.970869,32.217975]}},{"properties":{"city":"Tulsa","geo_score":0.714,"total gp":6816.45,"id":"a740zmxwdb2m","geo_precision":"city","state":"OK"},"type":"Feature","geometry":{"type":"Point","coordinates":[-95.868667,36.039147]}},{"properties":{"city":"Two Harbors","geo_score":0.714,"total gp":10600.13,"id":"a740zn99qsuu","geo_precision":"city","state":"MN"},"type":"Feature","geometry":{"type":"Point","coordinates":[-91.545363,47.134891]}},{"properties":{"city":"Tybee Island","geo_score":0.714,"total gp":13311.0,"id":"a740zn7v96s5","geo_precision":"city","state":"GA"},"type":"Feature","geometry":{"type":"Point","coordinates":[-80.855322,32.00593]}},{"properties":{"city":"Tyngsboro","geo_score":0.714,"total gp":17479.6,"id":"a740zn1bce27","geo_precision":"city","state":"MA"},"type":"Feature","geometry":{"type":"Point","coordinates":[-71.459405,42.446396]}},{"properties":{"city":"Union Pier","geo_score":0.714,"total gp":24246.65,"id":"a740zmyh6yp6","geo_precision":"city","state":"MI"},"type":"Feature","geometry":{"type":"Point","coordinates":[-84.211149,42.823317]}},{"properties":{"city":"Urbanna","geo_score":0.714,"total gp":15428.4,"id":"a740zmz7sk2n","geo_precision":"city","state":"VA"},"type":"Feature","geometry":{"type":"Point","coordinates":[-76.591805,37.635564]}},{"properties":{"city":"Vail","geo_score":0.714,"total gp":27105.4,"id":"a740zn3gesge","geo_precision":"city","state":"CO"},"type":"Feature","geometry":{"type":"Point","coordinates":[-106.44873,39.5824]}},{"properties":{"city":"Vallejo","geo_score":0.714,"total gp":7550.81,"id":"a740znchvh9e","geo_precision":"city","state":"CA"},"type":"Feature","geometry":{"type":"Point","coordinates":[-122.264316,38.107945]}},{"properties":{"city":"Ventnor","geo_score":0.714,"total gp":6063.0,"id":"a740znbr5ews","geo_precision":"city","state":"NJ"},"type":"Feature","geometry":{"type":"Point","coordinates":[-74.66415,39.414646]}},{"properties":{"city":"Versailles","geo_score":0.714,"total gp":16632.38,"id":"a740zn6d8ueq","geo_precision":"city","state":"KY"},"type":"Feature","geometry":{"type":"Point","coordinates":[-84.737666,37.998762]}},{"properties":{"city":"Vicksburg","geo_score":0.0,"total gp":12351.0,"id":"a740zn9vmrzg","geo_precision":"unmatched","state":"MS"},"type":"Feature","geometry":null},{"properties":{"city":"Victor","geo_score":0.714,"total gp":3415.08,"id":"a740zndwt51u","geo_precision":"city","state":"ID"},"type":"Feature","geometry":{"type":"Point","coordinates":[-111.132302,43.63848]}},{"properties":{"city":"Virginia Beach","geo_score":0.714,"total gp":26994.2,"id":"a740znatwgpt","geo_precision":"city","state":"VA"},"type":"Feature","geometry":{"type":"Point","coordinates":[-76.12036,36.844004]}},{"properties":{"city":"Wabash","geo_score":0.714,"total gp":11633.2,"id":"a740zmz7yjzt","geo_precision":"city","state":"Indiana"},"type":"Feature","geometry":{"type":"Point","coordinates":[-85.791823,40.801867]}},{"properties":{"city":"Waimea","geo_score":0.714,"total gp":60528.38,"id":"a740zn3qwrt5","geo_precision":"city","state":"HI"},"type":"Feature","geometry":{"type":"Point","coordinates":[-158.066111,21.648889]}},{"properties":{"city":"Wakefield","geo_score":0.714,"total gp":11529.0,"id":"a740znaz9ur9","geo_precision":"city","state":"NH"},"type":"Feature","geometry":{"type":"Point","coordinates":[-71.030066,43.568135]}},{"properties":{"city":"Wallace","geo_score":0.714,"total gp":851.0,"id":"a740zn5jt06w","geo_precision":"city","state":"ID"},"type":"Feature","geometry":{"type":"Point","coordinates":[-116.01401,47.553491]}},{"properties":{"city":"Warren","geo_score":0.714,"total gp":1302.0,"id":"a740zn1fn79p","geo_precision":"city","state":"MI"},"type":"Feature","geometry":{"type":"Point","coordinates":[-82.995121,42.474786]}},{"properties":{"city":"Washington","geo_score":0.714,"total gp":48992.0,"id":"a740zn970vo9","geo_precision":"city","state":"VA"},"type":"Feature","geometry":{"type":"Point","coordinates":[-78.174894,38.705616]}},{"properties":{"city":"Washington DC","geo_score":0.714,"total gp":47803.44,"id":"a740znaod6xc","geo_precision":"city","state":"DC"},"type":"Feature","geometry":{"type":"Point","coordinates":[-77.036366,38.895112]}},{"properties":{"city":"Waterford","geo_score":0.714,"total gp":8054.4,"id":"a740zna7wo0r","geo_precision":"city","state":"ME"},"type":"Feature","geometry":{"type":"Point","coordinates":[-70.661557,44.566156]}},{"properties":{"city":"Wauchula","geo_score":0.714,"total gp":1023.0,"id":"a740zmylf6za","geo_precision":"city","state":"FL"},"type":"Feature","geometry":{"type":"Point","coordinates":[-81.784123,27.518602]}},{"properties":{"city":"Waynesville","geo_score":0.714,"total gp":36862.65,"id":"a740znaawvig","geo_precision":"city","state":"NC"},"type":"Feature","geometry":{"type":"Point","coordinates":[-82.959617,35.585619]}},{"properties":{"city":"Weatherford","geo_score":0.714,"total gp":2036.0,"id":"a740zmyylcdd","geo_precision":"city","state":"TX"},"type":"Feature","geometry":{"type":"Point","coordinates":[-97.806778,32.780766]}},{"properties":{"city":"Wenatchee","geo_score":0.714,"total gp":32245.95,"id":"a740zmy5l1yb","geo_precision":"city","state":"WA"},"type":"Feature","geometry":{"type":"Point","coordinates":[-120.351884,47.573816]}},{"properties":{"city":"West Columbia","geo_score":0.714,"total gp":3387.68,"id":"a740zn4ua8l1","geo_precision":"city","state":"TX"},"type":"Feature","geometry":{"type":"Point","coordinates":[-97.516401,31.115177]}},{"properties":{"city":"West Dover","geo_score":0.714,"total gp":9284.92,"id":"a740zn4b578v","geo_precision":"city","state":"VT"},"type":"Feature","geometry":{"type":"Point","coordinates":[-72.793787,43.013041]}},{"properties":{"city":"West Orange","geo_score":0.714,"total gp":8211.45,"id":"a740znbd4u1j","geo_precision":"city","state":"NJ"},"type":"Feature","geometry":{"type":"Point","coordinates":[-74.818496,40.263997]}},{"properties":{"city":"West Point","geo_score":0.714,"total gp":20533.83,"id":"a740zndsr3v7","geo_precision":"city","state":"NY"},"type":"Feature","geometry":{"type":"Point","coordinates":[-73.955972,41.391483]}},{"properties":{"city":"West Sacramento","geo_score":0.714,"total gp":9314.25,"id":"a740zmzzoscm","geo_precision":"city","state":"CA"},"type":"Feature","geometry":{"type":"Point","coordinates":[-121.555406,38.380456]}},{"properties":{"city":"West Yarmouth","geo_score":0.714,"total gp":4946.7,"id":"a740zn77i86x","geo_precision":"city","state":"MA"},"type":"Feature","geometry":{"type":"Point","coordinates":[-70.228631,41.705666]}},{"properties":{"city":"Weston","geo_score":0.714,"total gp":2566.32,"id":"a740znc6125i","geo_precision":"city","state":"VT"},"type":"Feature","geometry":{"type":"Point","coordinates":[-72.739715,43.316142]}},{"properties":{"city":"Westport","geo_score":0.714,"total gp":23689.5,"id":"a740znbbj87g","geo_precision":"city","state":"WA"},"type":"Feature","geometry":{"type":"Point","coordinates":[-123.965158,46.894327]}},{"properties":{"city":"Whitefield","geo_score":0.714,"total gp":51353.5,"id":"a740znb1t5a8","geo_precision":"city","state":"NH"},"type":"Feature","geometry":{"type":"Point","coordinates":[-71.610189,44.363681]}},{"properties":{"city":"Whitefish","geo_score":0.714,"total gp":6502.5,"id":"a740zn2qa1pn","geo_precision":"city","state":"MT"},"type":"Feature","geometry":{"type":"Point","coordinates":[-114.365126,48.274564]}},{"properties":{"city":"Whitney","geo_score":0.714,"total gp":19563.75,"id":"a740zn3duehp","geo_precision":"city","state":"TX"},"type":"Feature","geometry":{"type":"Point","coordinates":[-94.639022,31.534162]}},{"properties":{"city":"Williamsburg","geo_score":0.714,"total gp":70439.1,"id":"a740znce3ot2","geo_precision":"city","state":"VA"},"type":"Feature","geometry":{"type":"Point","coordinates":[-76.746769,37.310451]}},{"properties":{"city":"Willowbrook","geo_score":0.714,"total gp":15830.39,"id":"a740zmyxz3ef","geo_precision":"city","state":"IL"},"type":"Feature","geometry":{"type":"Point","coordinates":[-87.935893,41.769753]}},{"properties":{"city":"Wilmington","geo_score":0.714,"total gp":19981.5,"id":"a740zn8v6hm7","geo_precision":"city","state":"NC"},"type":"Feature","geometry":{"type":"Point","coordinates":[-77.898597,34.018784]}},{"properties":{"city":"Wilson","geo_score":0.714,"total gp":19843.27,"id":"a740zmzvo85o","geo_precision":"city","state":"WY"},"type":"Feature","geometry":{"type":"Point","coordinates":[-110.839782,43.482361]}},{"properties":{"city":"Winchester","geo_score":0.714,"total gp":28422.0,"id":"a740zn2nosx8","geo_precision":"city","state":"VA"},"type":"Feature","geometry":{"type":"Point","coordinates":[-78.16856,39.169668]}},{"properties":{"city":"Windsor","geo_score":0.714,"total gp":25765.13,"id":"a740zn2cs2fn","geo_precision":"city","state":"VT"},"type":"Feature","geometry":{"type":"Point","coordinates":[-72.418059,43.5181]}},{"properties":{"city":"Winter Park","geo_score":0.714,"total gp":6113.01,"id":"a740zncax4a7","geo_precision":"city","state":"CO"},"type":"Feature","geometry":{"type":"Point","coordinates":[-105.816439,39.949118]}},{"properties":{"city":"Wisconsin Dells","geo_score":0.714,"total gp":37207.0,"id":"a740zn8ixj9f","geo_precision":"city","state":"WI"},"type":"Feature","geometry":{"type":"Point","coordinates":[-89.918546,44.379694]}},{"properties":{"city":"Woodinville","geo_score":0.714,"total gp":11416.76,"id":"a740zn2l4xpx","geo_precision":"city","state":"WA"},"type":"Feature","geometry":{"type":"Point","coordinates":[-122.090874,47.740741]}},{"properties":{"city":"Wrightsville Beach","geo_score":0.714,"total gp":17896.6,"id":"a740zn6ymssf","geo_precision":"city","state":"NC"},"type":"Feature","geometry":{"type":"Point","coordinates":[-82.470127,35.711779]}},{"properties":{"city":"York","geo_score":0.714,"total gp":4578.2,"id":"a740zn41shf3","geo_precision":"city","state":"PA"},"type":"Feature","geometry":{"type":"Point","coordinates":[-76.727139,39.962998]}},{"properties":{"city":"York Beach","geo_score":0.714,"total gp":21909.88,"id":"a740zn8ri8si","geo_precision":"city","state":"ME"},"type":"Feature","geometry":{"type":"Point","coordinates":[-70.73201,43.211674]}},{"properties":{"city":"York Harbor","geo_score":0.714,"total gp":30868.95,"id":"a740zn4qvce4","geo_precision":"city","state":"ME"},"type":"Feature","geometry":{"type":"Point","coordinates":[-70.69099,43.237891]}},{"properties":{"city":"Yosemite","geo_score":0.0,"total gp":77255.1,"id":"a740zn9p6ha6","geo_precision":"unmatched","state":"CA"},"type":"Feature","geometry":null},{"properties":{"city":"Young Harris","geo_score":0.714,"total gp":34629.4,"id":"a740zn7bh45t","geo_precision":"city","state":"GA"},"type":"Feature","geometry":{"type":"Point","coordinates":[-83.216543,32.366279]}},{"properties":{"city":"Yucca","geo_score":0.0,"total gp":19464.8,"id":"a740zn38379b","geo_precision":"unmatched","state":"AZ"},"type":"Feature","geometry":null}],"is_temporal":false,"author":{"url":"","metadata":"","contact_name":"","contact_address":"","source":"","contact_phone":""},"source":"","pagination":{"sort":null,"start":0,"total":573,"limit":1000000},"state":"complete","tags":"","published":"2014-08-14T16:07:05-04:00","id":260944}