{"type":"FeatureCollection","data_type":"Dataset","url_type":null,"permissions":[{"permissions":{"download":true,"view":true},"group_id":"everyone"}],"classification":null,"title":"63695","count":285,"stream_id":261432,"contributor":{"url":"http://geocommons.com/users/695","name":"Bill"},"data_attributes":null,"calculation_params":null,"icon_link":null,"link":"http://geocommons.com/overlays/261432.json","extent":[61.695,30.9916,71.09,37.12],"geometry_types":["point"],"unique_name":null,"name":"63695","feature_count":285,"description":"","next_feature":null,"is_raster":false,"short_classification":"Y","stats":{"lon":{"max":71.09,"variance":6.47314033236617,"mean":66.9999976550878,"stdev":2.54423668953307,"median":67.42,"min":61.695},"total":{"max":106,"variance":183.18379046207,"mean":6.39649122807018,"stdev":13.5345406446643,"median":4,"min":0},"dead":{"max":41,"variance":20.4747467259698,"mean":2.30877192982456,"stdev":4.52490295210514,"median":1,"min":0},"wounded":{"max":91,"variance":106.392438843588,"mean":4.07368421052632,"stdev":10.3146710487338,"median":2,"min":0},"lat":{"max":37.12,"variance":2.24272983872752,"mean":33.2378493578948,"stdev":1.49757465213842,"median":33.30704,"min":30.9916},"icn":{"max":200909371,"variance":999474.543612554,"mean":200907787.192982,"stdev":999.737237284155,"median":200907861,"min":200906000},"hostages":{"max":4,"variance":0.0561403508771934,"mean":0.0140350877192982,"stdev":0.236939551103638,"median":0,"min":0}},"features":[{"properties":{"city":"None","lon":62.4504,"dead":0,"total":0,"country":"Afghanistan","subject":"Unknown target in IED attack by suspected Taliban in Farah, Afghanistan","wounded":0,"id":"a7782astcuke","icn":200906000,"province":"Farah","lat":33.0446,"incident date":"7/8/2009","hostages":0},"type":"Feature","geometry":{"type":"Point","coordinates":[62.4504,33.0446]}},{"properties":{"city":"Konduz","lon":68.714,"dead":0,"total":0,"country":"Afghanistan","subject":"Police patrol targeted in IED attack by Taliban near Konduz, Kondoz, Afghanistan","wounded":0,"id":"a7782anoulhq","icn":200906002,"province":"Kondoz","lat":36.859,"incident date":"7/8/2009","hostages":0},"type":"Feature","geometry":{"type":"Point","coordinates":[68.714,36.859]}},{"properties":{"city":"Mohammad Agha","lon":69.1,"dead":27,"total":77,"country":"Afghanistan","subject":"12 students, 11 civilians, 4 police officers killed, many people injured in VBIED attack in Mohammad Agha, Lowgar, Afghanistan","wounded":50,"id":"a7782apiujmh","icn":200906004,"province":"Lowgar","lat":34.21,"incident date":"7/8/2009","hostages":0},"type":"Feature","geometry":{"type":"Point","coordinates":[69.1,34.21]}},{"properties":{"city":"Jani Khalil","lon":69.78,"dead":1,"total":1,"country":"Afghanistan","subject":"1 civilian killed in IED attack in Jani Khalil, Paktia, Afghanistan","wounded":0,"id":"a7782b2xmxq7","icn":200906006,"province":"Paktia","lat":33.66,"incident date":"7/9/2009","hostages":0},"type":"Feature","geometry":{"type":"Point","coordinates":[69.78,33.66]}},{"properties":{"city":"Kandahar","lon":65.7615,"dead":6,"total":20,"country":"Afghanistan","subject":"6 civilians killed, 10 others, 4 soldiers injured in suicide VBIED attack by Taliban in Kandahar, Kandahar, Afghanistan","wounded":14,"id":"a7782av9brgi","icn":200906109,"province":"Kandahar","lat":31.603,"incident date":"7/6/2009","hostages":0},"type":"Feature","geometry":{"type":"Point","coordinates":[65.7615,31.603]}},{"properties":{"city":"Sewri","lon":66.808198,"dead":1,"total":4,"country":"Afghanistan","subject":"1 private security guard killed, 3 others injured in IED attack by Taliban in Sewri, Zabol, Afghanistan","wounded":3,"id":"a7782b3w50b8","icn":200906121,"province":"Zabol","lat":32.118956,"incident date":"7/6/2009","hostages":0},"type":"Feature","geometry":{"type":"Point","coordinates":[66.808198,32.118956]}},{"properties":{"city":"Khanabad","lon":69.104,"dead":6,"total":8,"country":"Afghanistan","subject":"4 soldiers, 2 civilians killed, 2 children injured in IED attack by Taliban near Khanabad, Kondoz, Afghanistan","wounded":2,"id":"a7782avd5x6x","icn":200906133,"province":"Kondoz","lat":36.689,"incident date":"7/6/2009","hostages":0},"type":"Feature","geometry":{"type":"Point","coordinates":[69.104,36.689]}},{"properties":{"city":"Ghazni","lon":68.42,"dead":0,"total":2,"country":"Afghanistan","subject":"2 private security guards injured in suicide VBIED attack by Taliban near Ghazni, Ghazni, Afghanistan","wounded":2,"id":"a7782axr8w7y","icn":200906148,"province":"Ghazni","lat":33.55,"incident date":"7/10/2009","hostages":0},"type":"Feature","geometry":{"type":"Point","coordinates":[68.42,33.55]}},{"properties":{"city":"None","lon":70.9995,"dead":0,"total":4,"country":"Afghanistan","subject":"2 contractors, 2 private security guards kidnapped by Taliban in Konar, Afghanistan","wounded":0,"id":"a7782aze9van","icn":200906155,"province":"Konar","lat":35.258,"incident date":"7/10/2009","hostages":4},"type":"Feature","geometry":{"type":"Point","coordinates":[70.9995,35.258]}},{"properties":{"city":"Gereshk","lon":64.56,"dead":1,"total":1,"country":"Afghanistan","subject":"1 civilian killed in IED attack in Gereshk, Helmand, Afghanistan","wounded":0,"id":"a7782as8sl6c","icn":200906185,"province":"Helmand","lat":31.82,"incident date":"7/9/2009","hostages":0},"type":"Feature","geometry":{"type":"Point","coordinates":[64.56,31.82]}},{"properties":{"city":"Gero","lon":67.952363,"dead":2,"total":7,"country":"Afghanistan","subject":"2 police officers killed, 5 others injured in IED attack in Gero, Ghazni, Afghanistan","wounded":5,"id":"a7782b07ubqd","icn":200906186,"province":"Ghazni","lat":33.363407,"incident date":"7/9/2009","hostages":0},"type":"Feature","geometry":{"type":"Point","coordinates":[67.952363,33.363407]}},{"properties":{"city":"Registan","lon":65.56,"dead":8,"total":10,"country":"Afghanistan","subject":"7 police officers, 1 civilian killed, 2 police officers wounded in IED attack by Taliban in Registan, Kandahar, Afghanistan","wounded":2,"id":"a7782b0t2n62","icn":200906194,"province":"Kandahar","lat":31.63,"incident date":"7/4/2009","hostages":0},"type":"Feature","geometry":{"type":"Point","coordinates":[65.56,31.63]}},{"properties":{"city":"None","lon":66.0463,"dead":1,"total":2,"country":"Afghanistan","subject":"1 civilian killed, 1 other wounded in IED attack in Jowzjan, Afghanistan","wounded":1,"id":"a7782asfziz1","icn":200906195,"province":"Jowzjan","lat":36.3363,"incident date":"7/4/2009","hostages":0},"type":"Feature","geometry":{"type":"Point","coordinates":[66.0463,36.3363]}},{"properties":{"city":"Shorawak","lon":64.3511,"dead":2,"total":7,"country":"Afghanistan","subject":"2 police officers killed, 5 others injured in IED attack in Shorawak, Kandahar, Afghanistan","wounded":5,"id":"a7782arz66jn","icn":200906204,"province":"Kandahar","lat":31.822765,"incident date":"7/9/2009","hostages":0},"type":"Feature","geometry":{"type":"Point","coordinates":[64.3511,31.822765]}},{"properties":{"city":"Balabolok","lon":63.203215,"dead":0,"total":0,"country":"Afghanistan","subject":"Unknown target in IED attack in Balabolok, Farah, Afghanistan","wounded":0,"id":"a7782b2ncfpb","icn":200906222,"province":"Farah","lat":32.547685,"incident date":"7/8/2009","hostages":0},"type":"Feature","geometry":{"type":"Point","coordinates":[63.203215,32.547685]}},{"properties":{"city":"None","lon":61.695,"dead":0,"total":0,"country":"Afghanistan","subject":"Unknown target in IED attack by suspected Taliban in Herat, Afghanistan","wounded":0,"id":"a7782axk0dn6","icn":200906224,"province":"Herat","lat":34.1768,"incident date":"7/8/2009","hostages":0},"type":"Feature","geometry":{"type":"Point","coordinates":[61.695,34.1768]}},{"properties":{"city":"Ya'qubi","lon":69.99,"dead":0,"total":2,"country":"Afghanistan","subject":"2 civilians wounded in VBIED attack in Ya'qubi, Khowst, Afghanistan","wounded":2,"id":"a7782anl5er3","icn":200906282,"province":"Khowst","lat":33.46,"incident date":"7/1/2009","hostages":0},"type":"Feature","geometry":{"type":"Point","coordinates":[69.99,33.46]}},{"properties":{"city":"Baharestan","lon":70.8833333,"dead":0,"total":5,"country":"Afghanistan","subject":"5 police officers wounded in IED attack by Taliban in Baharestan, Badakhshan, Afghanistan","wounded":5,"id":"a7782b3700cp","icn":200906284,"province":"Badakhshan","lat":36.9833333,"incident date":"7/2/2009","hostages":0},"type":"Feature","geometry":{"type":"Point","coordinates":[70.8833333,36.9833333]}},{"properties":{"city":"Dwahmande","lon":69.58,"dead":5,"total":11,"country":"Afghanistan","subject":"5 security guards killed, 6 others wounded in IED attack by Taliban in Dwahmande, Khowst, Afghanistan","wounded":6,"id":"a7782avxdnak","icn":200906294,"province":"Khowst","lat":33.28,"incident date":"7/3/2009","hostages":0},"type":"Feature","geometry":{"type":"Point","coordinates":[69.58,33.28]}},{"properties":{"city":"None","lon":69.8574,"dead":0,"total":7,"country":"Afghanistan","subject":"7 security guards wounded in IED attack in Khowst, Afghanistan","wounded":7,"id":"a7782avw2ge8","icn":200906296,"province":"Khowst","lat":33.3593,"incident date":"7/2/2009","hostages":0},"type":"Feature","geometry":{"type":"Point","coordinates":[69.8574,33.3593]}},{"properties":{"city":"Khvajeh Do Kuh","lon":65.62,"dead":1,"total":2,"country":"Afghanistan","subject":"1 civilian killed, 1 other wounded in IED attack in Khvajeh Do Kuh, Jowzjan, Afghanistan","wounded":1,"id":"a7782asqtk1e","icn":200906347,"province":"Jowzjan","lat":36.82,"incident date":"7/3/2009","hostages":0},"type":"Feature","geometry":{"type":"Point","coordinates":[65.62,36.82]}},{"properties":{"city":"None","lon":65.4845,"dead":1,"total":2,"country":"Afghanistan","subject":"1 civilian killed, 1 other wounded in IED attack in Kandahar, Afghanistan","wounded":1,"id":"a7782anu48j3","icn":200906350,"province":"Kandahar","lat":30.9916,"incident date":"7/3/2009","hostages":0},"type":"Feature","geometry":{"type":"Point","coordinates":[65.4845,30.9916]}},{"properties":{"city":"Lashkar Gah","lon":64.36,"dead":1,"total":6,"country":"Afghanistan","subject":"1 security guard killed, 5 others wounded in suicide VBIED attack by Taliban in Lashkar Gah, Helmand, Afghanistan","wounded":5,"id":"a7782aqy12rv","icn":200906355,"province":"Helmand","lat":31.59,"incident date":"7/4/2009","hostages":0},"type":"Feature","geometry":{"type":"Point","coordinates":[64.36,31.59]}},{"properties":{"city":"Delaram","lon":63.43,"dead":0,"total":0,"country":"Afghanistan","subject":"Unknown target in IED attack by suspected Taliban in Delaram, Nimruz, Afghanistan","wounded":0,"id":"a7782aw79wkd","icn":200906360,"province":"Nimruz","lat":32.16,"incident date":"7/4/2009","hostages":0},"type":"Feature","geometry":{"type":"Point","coordinates":[63.43,32.16]}},{"properties":{"city":"Musa Qal'eh","lon":64.77,"dead":1,"total":5,"country":"Afghanistan","subject":"1 police officer killed, 4 others wounded in IED attack by Taliban in Musa Qal'eh, Helmand, Afghanistan","wounded":4,"id":"a7782b1jk9io","icn":200906365,"province":"Helmand","lat":32.35,"incident date":"7/5/2009","hostages":0},"type":"Feature","geometry":{"type":"Point","coordinates":[64.77,32.35]}},{"properties":{"city":"Mazar-e Sharif","lon":67.11,"dead":0,"total":0,"country":"Afghanistan","subject":"Several homes and shops damaged in suicide VBIED attack in Mazar-e Sharif, Balkh, Afghanistan","wounded":0,"id":"a7782aoe4czd","icn":200906367,"province":"Balkh","lat":36.71,"incident date":"7/3/2009","hostages":0},"type":"Feature","geometry":{"type":"Point","coordinates":[67.11,36.71]}},{"properties":{"city":"None","lon":66.2312,"dead":1,"total":2,"country":"Afghanistan","subject":"1 police officer killed, 1 other wounded in IED attack in Oruzgan, Afghanistan","wounded":1,"id":"a7782b25plsh","icn":200906368,"province":"Oruzgan","lat":33.1918,"incident date":"7/2/2009","hostages":0},"type":"Feature","geometry":{"type":"Point","coordinates":[66.2312,33.1918]}},{"properties":{"city":"None","lon":70.9995,"dead":0,"total":0,"country":"Afghanistan","subject":"1 vehicle damaged in IED attack in Konar, Afghanistan","wounded":0,"id":"a7782aryz5y4","icn":200906398,"province":"Konar","lat":35.258,"incident date":"7/4/2009","hostages":0},"type":"Feature","geometry":{"type":"Point","coordinates":[70.9995,35.258]}},{"properties":{"city":"None","lon":69.4757,"dead":5,"total":5,"country":"Afghanistan","subject":"5 security guards killed in IED attack in Paktia, Afghanistan","wounded":0,"id":"a7782asck1qj","icn":200906400,"province":"Paktia","lat":33.6347,"incident date":"7/3/2009","hostages":0},"type":"Feature","geometry":{"type":"Point","coordinates":[69.4757,33.6347]}},{"properties":{"city":"Khash Rud","lon":62.8666667,"dead":3,"total":7,"country":"Afghanistan","subject":"3 police officers killed, 4 others injured in suicide VBIED attack in Khash Rud, Nimruz, Afghanistan","wounded":4,"id":"a7782as1xq24","icn":200906441,"province":"Nimruz","lat":31.6166667,"incident date":"7/16/2009","hostages":0},"type":"Feature","geometry":{"type":"Point","coordinates":[62.8666667,31.6166667]}},{"properties":{"city":"Sabari","lon":69.88,"dead":0,"total":0,"country":"Afghanistan","subject":"1 telephone antenna damaged in IED attack in Sabari, Khowst, Afghanistan","wounded":0,"id":"a7782aruipac","icn":200906442,"province":"Khowst","lat":33.57,"incident date":"7/16/2009","hostages":0},"type":"Feature","geometry":{"type":"Point","coordinates":[69.88,33.57]}},{"properties":{"city":"Meydan Shahr","lon":68.79,"dead":1,"total":1,"country":"Afghanistan","subject":"1 contractor killed in IED attack by Taliban in Meydan Shahr, Vardak, Afghanistan","wounded":0,"id":"a7782at6e71b","icn":200906446,"province":"Vardak","lat":34.45,"incident date":"7/16/2009","hostages":0},"type":"Feature","geometry":{"type":"Point","coordinates":[68.79,34.45]}},{"properties":{"city":"Narkh","lon":68.801389,"dead":0,"total":0,"country":"Afghanistan","subject":"Police patrol targeted in IED attack by Taliban in Narkh, Vardak, Afghanistan","wounded":0,"id":"a7782az77d9q","icn":200906450,"province":"Vardak","lat":34.362778,"incident date":"7/16/2009","hostages":0},"type":"Feature","geometry":{"type":"Point","coordinates":[68.801389,34.362778]}},{"properties":{"city":"Spin Buldak","lon":66.4,"dead":11,"total":14,"country":"Afghanistan","subject":"6 civilians, 5 children killed, 3 civilians injured in IED attack in Spin Buldak, Kandahar, Afghanistan","wounded":3,"id":"a7782b3agrt5","icn":200906455,"province":"Kandahar","lat":31.01,"incident date":"7/17/2009","hostages":0},"type":"Feature","geometry":{"type":"Point","coordinates":[66.4,31.01]}},{"properties":{"city":"Morghab","lon":63.33,"dead":2,"total":3,"country":"Afghanistan","subject":"2 police officers killed, 1 other injured in IED attack by Taliban in Morghab, Badghis, Afghanistan","wounded":1,"id":"a7782atkuv5i","icn":200906468,"province":"Badghis","lat":35.58,"incident date":"7/17/2009","hostages":0},"type":"Feature","geometry":{"type":"Point","coordinates":[63.33,35.58]}},{"properties":{"city":"None","lon":68.7154,"dead":3,"total":5,"country":"Afghanistan","subject":"2 civilians, 1 child killed, 2 civilians injured in VBIED attack in Paktika, Afghanistan","wounded":2,"id":"a7782apfy3hy","icn":200906470,"province":"Paktika","lat":32.4757,"incident date":"7/16/2009","hostages":0},"type":"Feature","geometry":{"type":"Point","coordinates":[68.7154,32.4757]}},{"properties":{"city":"Towr Kham","lon":71.09,"dead":3,"total":6,"country":"Afghanistan","subject":"2 police officers, 1 civilian killed, 2 others, 1 police officer injured in suicide IED attack in Towr Kham, Nangarhar, Afghanistan","wounded":3,"id":"a7782b3iy2q1","icn":200906477,"province":"Nangarhar","lat":34.12,"incident date":"7/19/2009","hostages":0},"type":"Feature","geometry":{"type":"Point","coordinates":[71.09,34.12]}},{"properties":{"city":"Gulistan","lon":63.66,"dead":12,"total":17,"country":"Afghanistan","subject":"12 civilians and children killed, 5 civilians injured in IED attack in Gulistan, Farah, Afghanistan","wounded":5,"id":"a7782ats8xz7","icn":200906485,"province":"Farah","lat":32.62,"incident date":"7/20/2009","hostages":0},"type":"Feature","geometry":{"type":"Point","coordinates":[63.66,32.62]}},{"properties":{"city":"Shindand","lon":62.1309,"dead":1,"total":7,"country":"Afghanistan","subject":"1 police officer killed, 6 others injured in IED attack by Taliban in Shindand, Herat, Afghanistan","wounded":6,"id":"a7782ar4suj0","icn":200906494,"province":"Herat","lat":33.30704,"incident date":"7/20/2009","hostages":0},"type":"Feature","geometry":{"type":"Point","coordinates":[62.1309,33.30704]}},{"properties":{"city":"Jalalabad","lon":70.45,"dead":0,"total":1,"country":"Afghanistan","subject":"1 civilian injured in IED attack in Jalalabad, Nangarhar, Afghanistan","wounded":1,"id":"a7782asvqee7","icn":200906495,"province":"Nangarhar","lat":34.43,"incident date":"7/20/2009","hostages":0},"type":"Feature","geometry":{"type":"Point","coordinates":[70.45,34.43]}},{"properties":{"city":"Chenar Tu","lon":66.27,"dead":3,"total":9,"country":"Afghanistan","subject":"3 civilians killed, 6 others wounded in IED attack by suspected Taliban in Chenar Tu, Oruzgan, Afghanistan","wounded":6,"id":"a7782b0p52zz","icn":200906517,"province":"Oruzgan","lat":32.74,"incident date":"7/14/2009","hostages":0},"type":"Feature","geometry":{"type":"Point","coordinates":[66.27,32.74]}},{"properties":{"city":"None","lon":69.4757,"dead":1,"total":3,"country":"Afghanistan","subject":"1 civilian killed, 2 others injured in IED attack in Paktia, Afghanistan","wounded":2,"id":"a7782atkig99","icn":200906522,"province":"Paktia","lat":33.6347,"incident date":"7/20/2009","hostages":0},"type":"Feature","geometry":{"type":"Point","coordinates":[69.4757,33.6347]}},{"properties":{"city":"Bak","lon":70.05,"dead":2,"total":2,"country":"Afghanistan","subject":"2 contractors killed in IED attack in Bak, Khowst, Afghanistan","wounded":0,"id":"a7782av9x0wb","icn":200906528,"province":"Khowst","lat":33.5,"incident date":"7/20/2009","hostages":0},"type":"Feature","geometry":{"type":"Point","coordinates":[70.05,33.5]}},{"properties":{"city":"Nahr-i-Saraj","lon":64.56,"dead":2,"total":4,"country":"Afghanistan","subject":"2 police officers killed, 2 others wounded in IED attack in Nahr-i-Saraj, Helmand, Afghanistan","wounded":2,"id":"a7782b23zt48","icn":200906549,"province":"Helmand","lat":31.82,"incident date":"7/11/2009","hostages":0},"type":"Feature","geometry":{"type":"Point","coordinates":[64.56,31.82]}},{"properties":{"city":"Charkh","lon":68.94,"dead":4,"total":5,"country":"Afghanistan","subject":"4 police officers killed, 1 other wounded in IED attack in Charkh, Lowgar, Afghanistan","wounded":1,"id":"a7782azybhon","icn":200906550,"province":"Lowgar","lat":33.8,"incident date":"7/11/2009","hostages":0},"type":"Feature","geometry":{"type":"Point","coordinates":[68.94,33.8]}},{"properties":{"city":"Jalrez","lon":68.64,"dead":4,"total":8,"country":"Afghanistan","subject":"4 police officers killed, 4 others wounded in IED attack in Jalrez, Vardak, Afghanistan","wounded":4,"id":"a7782b216xmn","icn":200906562,"province":"Vardak","lat":34.47,"incident date":"7/13/2009","hostages":0},"type":"Feature","geometry":{"type":"Point","coordinates":[68.64,34.47]}},{"properties":{"city":"Ghazni","lon":68.42,"dead":2,"total":4,"country":"Afghanistan","subject":"2 civilians killed, 2 others wounded in VBIED attack by Taliban in Ghazni, Ghazni, Afghanistan","wounded":2,"id":"a7782b0d51e7","icn":200906578,"province":"Ghazni","lat":33.55,"incident date":"7/15/2009","hostages":0},"type":"Feature","geometry":{"type":"Point","coordinates":[68.42,33.55]}},{"properties":{"city":"None","lon":65.4845,"dead":1,"total":1,"country":"Afghanistan","subject":"1 police officer killed in IED attack in Kandahar, Afghanistan","wounded":0,"id":"a7782azy4a63","icn":200906579,"province":"Kandahar","lat":30.9916,"incident date":"7/15/2009","hostages":0},"type":"Feature","geometry":{"type":"Point","coordinates":[65.4845,30.9916]}},{"properties":{"city":"Parian","lon":70.01,"dead":0,"total":0,"country":"Afghanistan","subject":"1 campaign office damaged in IED attack in Parian, Panjshir, Afghanistan","wounded":0,"id":"a7782ayucr4c","icn":200906629,"province":"Panjshir","lat":35.63,"incident date":"7/11/2009","hostages":0},"type":"Feature","geometry":{"type":"Point","coordinates":[70.01,35.63]}},{"properties":{"city":"None","lon":67.1921,"dead":0,"total":4,"country":"Afghanistan","subject":"4 police officers wounded in IED attack by Taliban in Zabol, Afghanistan","wounded":4,"id":"a7782ayj0wvy","icn":200906632,"province":"Zabol","lat":32.1964,"incident date":"7/11/2009","hostages":0},"type":"Feature","geometry":{"type":"Point","coordinates":[67.1921,32.1964]}},{"properties":{"city":"Lashkar Gah","lon":64.36,"dead":2,"total":5,"country":"Afghanistan","subject":"2 police officers killed, 3 others wounded in IED attack by suspected Taliban in Lashkar Gah, Helmand, Afghanistan","wounded":3,"id":"a7782aq9tdc3","icn":200906643,"province":"Helmand","lat":31.59,"incident date":"7/11/2009","hostages":0},"type":"Feature","geometry":{"type":"Point","coordinates":[64.36,31.59]}},{"properties":{"city":"Dehak","lon":68.65,"dead":0,"total":7,"country":"Afghanistan","subject":"5 police officers, 2 intelligence agents wounded in IED attack in Dehak, Ghazni, Afghanistan","wounded":7,"id":"a7782ayjj902","icn":200906670,"province":"Ghazni","lat":33.48,"incident date":"7/15/2009","hostages":0},"type":"Feature","geometry":{"type":"Point","coordinates":[68.65,33.48]}},{"properties":{"city":"Konduz","lon":68.714,"dead":0,"total":0,"country":"Afghanistan","subject":"Government building targeted in IED attack by Taliban in Konduz, Kondoz, Afghanistan","wounded":0,"id":"a7782b22k8xy","icn":200906676,"province":"Kondoz","lat":36.859,"incident date":"7/14/2009","hostages":0},"type":"Feature","geometry":{"type":"Point","coordinates":[68.714,36.859]}},{"properties":{"city":"Kandahar","lon":65.7615,"dead":1,"total":1,"country":"Afghanistan","subject":"1 police officer killed in VBIED attack by Taliban in Kandahar, Kandahar, Afghanistan","wounded":0,"id":"a7782b2o3ze3","icn":200906678,"province":"Kandahar","lat":31.603,"incident date":"7/14/2009","hostages":0},"type":"Feature","geometry":{"type":"Point","coordinates":[65.7615,31.603]}},{"properties":{"city":"Sabari","lon":69.88,"dead":0,"total":0,"country":"Afghanistan","subject":"1 telecommunications antenna damaged in IED attack in Sabari, Khowst, Afghanistan","wounded":0,"id":"a7782aw2lbjn","icn":200906680,"province":"Khowst","lat":33.57,"incident date":"7/15/2009","hostages":0},"type":"Feature","geometry":{"type":"Point","coordinates":[69.88,33.57]}},{"properties":{"city":"Sabari","lon":69.88,"dead":1,"total":6,"country":"Afghanistan","subject":"1 civilian killed, 5 others injured in IED attack in Sabari, Khowst, Afghanistan","wounded":5,"id":"a7782apnads0","icn":200906685,"province":"Khowst","lat":33.57,"incident date":"7/27/2009","hostages":0},"type":"Feature","geometry":{"type":"Point","coordinates":[69.88,33.57]}},{"properties":{"city":"Sabari","lon":69.88,"dead":3,"total":5,"country":"Afghanistan","subject":"3 civilians killed, 2 others injured in IED attack near Sabari, Khowst, Afghanistan","wounded":2,"id":"a7782attj3r4","icn":200906686,"province":"Khowst","lat":33.57,"incident date":"7/27/2009","hostages":0},"type":"Feature","geometry":{"type":"Point","coordinates":[69.88,33.57]}},{"properties":{"city":"Ghazni","lon":68.42,"dead":0,"total":0,"country":"Afghanistan","subject":"1 police vehicle damaged in IED attack by Taliban in Ghazni, Ghazni, Afghanistan","wounded":0,"id":"a7782arkwcdj","icn":200906704,"province":"Ghazni","lat":33.55,"incident date":"7/14/2009","hostages":0},"type":"Feature","geometry":{"type":"Point","coordinates":[68.42,33.55]}},{"properties":{"city":"Gereshk","lon":64.56,"dead":8,"total":12,"country":"Afghanistan","subject":"8 security guards killed, 4 others injured in IED attack in Gereshk, Helmand, Afghanistan","wounded":4,"id":"a7782aw7fsdw","icn":200906705,"province":"Helmand","lat":31.82,"incident date":"7/28/2009","hostages":0},"type":"Feature","geometry":{"type":"Point","coordinates":[64.56,31.82]}},{"properties":{"city":"None","lon":69.4784,"dead":2,"total":6,"country":"Afghanistan","subject":"2 civilians killed, 4 others injured in IED attack by Taliban in Takhar, Afghanistan","wounded":4,"id":"a7782atf4rnq","icn":200906708,"province":"Takhar","lat":36.665423,"incident date":"7/27/2009","hostages":0},"type":"Feature","geometry":{"type":"Point","coordinates":[69.4784,36.665423]}},{"properties":{"city":"Gereshk","lon":64.56,"dead":3,"total":5,"country":"Afghanistan","subject":"3 police officers killed, 2 others wounded in IED attack by Taliban in Gereshk, Helmand, Afghanistan","wounded":2,"id":"a7782b0w7iqy","icn":200906712,"province":"Helmand","lat":31.82,"incident date":"7/13/2009","hostages":0},"type":"Feature","geometry":{"type":"Point","coordinates":[64.56,31.82]}},{"properties":{"city":"Zheray","lon":66.11,"dead":0,"total":2,"country":"Afghanistan","subject":"2 civilians killed in IED attack in Zheray, Kandahar, Afghanistan","wounded":2,"id":"a7782ay77rhh","icn":200906723,"province":"Kandahar","lat":32.12,"incident date":"7/29/2009","hostages":0},"type":"Feature","geometry":{"type":"Point","coordinates":[66.11,32.12]}},{"properties":{"city":"Orgun","lon":69.17,"dead":0,"total":0,"country":"Afghanistan","subject":"1 campaign office, several shops damaged in IED attack in Orgun, Paktika, Afghanistan","wounded":0,"id":"a7782avyauyy","icn":200906725,"province":"Paktika","lat":32.94,"incident date":"7/28/2009","hostages":0},"type":"Feature","geometry":{"type":"Point","coordinates":[69.17,32.94]}},{"properties":{"city":"Guzara","lon":63.18,"dead":0,"total":0,"country":"Afghanistan","subject":"1 campaign office damaged in IED attack in Guzara, Herat, Afghanistan","wounded":0,"id":"a7782asmwzmm","icn":200906752,"province":"Herat","lat":34.35,"incident date":"7/29/2009","hostages":0},"type":"Feature","geometry":{"type":"Point","coordinates":[63.18,34.35]}},{"properties":{"city":"Chowreh","lon":66.08,"dead":0,"total":4,"country":"Afghanistan","subject":"4 civilians wounded in IED attack in Chowreh, Oruzgan, Afghanistan","wounded":4,"id":"a7782awrfek4","icn":200906753,"province":"Oruzgan","lat":32.85,"incident date":"7/12/2009","hostages":0},"type":"Feature","geometry":{"type":"Point","coordinates":[66.08,32.85]}},{"properties":{"city":"Nahr-i-Saraj","lon":64.56,"dead":4,"total":4,"country":"Afghanistan","subject":"4 private security guards killed in IED attack in Nahr-i-Saraj, Helmand, Afghanistan","wounded":0,"id":"a7782b1hb46h","icn":200906754,"province":"Helmand","lat":31.82,"incident date":"7/30/2009","hostages":0},"type":"Feature","geometry":{"type":"Point","coordinates":[64.56,31.82]}},{"properties":{"city":"Aqchah","lon":66.183296,"dead":4,"total":6,"country":"Afghanistan","subject":"4 civilians killed, 2 others injured in IED attack by suspected Taliban in Aqchah, Jowzjan, Afghanistan","wounded":2,"id":"a7782auqg2bz","icn":200906760,"province":"Jowzjan","lat":36.916698,"incident date":"7/30/2009","hostages":0},"type":"Feature","geometry":{"type":"Point","coordinates":[66.183296,36.916698]}},{"properties":{"city":"Sharan","lon":68.79,"dead":1,"total":3,"country":"Afghanistan","subject":"1 contractor killed, 2 others injured in IED attack in Sharan, Paktika, Afghanistan","wounded":2,"id":"a7782aq12vpx","icn":200906771,"province":"Paktika","lat":33.15,"incident date":"7/27/2009","hostages":0},"type":"Feature","geometry":{"type":"Point","coordinates":[68.79,33.15]}},{"properties":{"city":"Sabari","lon":69.88,"dead":1,"total":3,"country":"Afghanistan","subject":"1 civilian killed, 2 others injured in IED attack in Sabari, Khowst, Afghanistan","wounded":2,"id":"a7782apql7uz","icn":200906773,"province":"Khowst","lat":33.57,"incident date":"7/28/2009","hostages":0},"type":"Feature","geometry":{"type":"Point","coordinates":[69.88,33.57]}},{"properties":{"city":"Ma'ruf","lon":67.05,"dead":1,"total":4,"country":"Afghanistan","subject":"1 civilian killed, 3 others injured in IED attack in Ma'ruf, Kandahar, Afghanistan","wounded":3,"id":"a7782ar8j445","icn":200906812,"province":"Kandahar","lat":31.57,"incident date":"7/28/2009","hostages":0},"type":"Feature","geometry":{"type":"Point","coordinates":[67.05,31.57]}},{"properties":{"city":"Kandahar","lon":65.7615,"dead":0,"total":0,"country":"Afghanistan","subject":"Police post targeted in suicide IED attack in Kandahar, Kandahar, Afghanistan","wounded":0,"id":"a7782b13xrur","icn":200906817,"province":"Kandahar","lat":31.603,"incident date":"7/2/2009","hostages":0},"type":"Feature","geometry":{"type":"Point","coordinates":[65.7615,31.603]}},{"properties":{"city":"Rabat-i-Sangi-Pa'in","lon":62.14,"dead":0,"total":0,"country":"Afghanistan","subject":"Several private security vehicles damaged in IED attack by suspected Taliban in Rabat-i-Sangi-Pa'in, Herat, Afghanistan","wounded":0,"id":"a7782b2f7093","icn":200906821,"province":"Herat","lat":34.8,"incident date":"7/30/2009","hostages":0},"type":"Feature","geometry":{"type":"Point","coordinates":[62.14,34.8]}},{"properties":{"city":"Mandozai","lon":69.73,"dead":0,"total":0,"country":"Afghanistan","subject":"1 residence damaged in IED attack in Mandozai, Khowst, Afghanistan","wounded":0,"id":"a7782ap95kjv","icn":200906825,"province":"Khowst","lat":33.55,"incident date":"7/31/2009","hostages":0},"type":"Feature","geometry":{"type":"Point","coordinates":[69.73,33.55]}},{"properties":{"city":"Gardiz","lon":69.23,"dead":6,"total":13,"country":"Afghanistan","subject":"3 intelligence agents, 3 police officers killed, 4 civilians, 3 police officers wounded in armed attack and suicide IED attack by Taliban in Gardiz, Paktia, Afghanistan","wounded":7,"id":"a7782az7996a","icn":200906847,"province":"Paktia","lat":33.6,"incident date":"7/21/2009","hostages":0},"type":"Feature","geometry":{"type":"Point","coordinates":[69.23,33.6]}},{"properties":{"city":"Khowst","lon":69.920293,"dead":0,"total":4,"country":"Afghanistan","subject":"2 police officers, 1 civilian, 1 child wounded in armed and suicide VBIED attack by Taliban in Khowst, Khowst, Afghanistan","wounded":4,"id":"a7782ap7kh37","icn":200906879,"province":"Khowst","lat":33.334208,"incident date":"7/25/2009","hostages":0},"type":"Feature","geometry":{"type":"Point","coordinates":[69.920293,33.334208]}},{"properties":{"city":"Chenar Tu","lon":66.27,"dead":3,"total":3,"country":"Afghanistan","subject":"3 police officers killed in dual IED attack in Chenar Tu, Oruzgan, Afghanistan","wounded":0,"id":"a7782b3w38fh","icn":200906924,"province":"Oruzgan","lat":32.74,"incident date":"7/22/2009","hostages":0},"type":"Feature","geometry":{"type":"Point","coordinates":[66.27,32.74]}},{"properties":{"city":"None","lon":69.4784,"dead":1,"total":4,"country":"Afghanistan","subject":"1 humanitarian worker killed, 3 others wounded in IED attack by suspected Taliban in Takhar, Afghanistan","wounded":3,"id":"a7782auzm1oy","icn":200906935,"province":"Takhar","lat":36.665423,"incident date":"7/22/2009","hostages":0},"type":"Feature","geometry":{"type":"Point","coordinates":[69.4784,36.665423]}},{"properties":{"city":"Sheykhabad","lon":68.76,"dead":0,"total":3,"country":"Afghanistan","subject":"3 road construction workers wounded in IED attack in Sheykhabad, Vardak, Afghanistan","wounded":3,"id":"a7782anwqajc","icn":200906944,"province":"Vardak","lat":34.09,"incident date":"7/23/2009","hostages":0},"type":"Feature","geometry":{"type":"Point","coordinates":[68.76,34.09]}},{"properties":{"city":"Andar","lon":68.435211,"dead":0,"total":0,"country":"Afghanistan","subject":"Unknown target in IED attack in Andar, Ghazni, Afghanistan","wounded":0,"id":"a7782anu8ifn","icn":200906949,"province":"Ghazni","lat":33.332401,"incident date":"7/23/2009","hostages":0},"type":"Feature","geometry":{"type":"Point","coordinates":[68.435211,33.332401]}},{"properties":{"city":"Pachiro Agam","lon":70.28,"dead":2,"total":3,"country":"Afghanistan","subject":"2 road construction workers killed, 1 other wounded in IED attack in Pachiro Agam, Nangarhar, Afghanistan","wounded":1,"id":"a7782anyizeq","icn":200906952,"province":"Nangarhar","lat":34.2,"incident date":"7/25/2009","hostages":0},"type":"Feature","geometry":{"type":"Point","coordinates":[70.28,34.2]}},{"properties":{"city":"Kabul","lon":69.171,"dead":0,"total":1,"country":"Afghanistan","subject":"1 driver wounded in IED attack by Taliban in Kabul, Kabol, Afghanistan","wounded":1,"id":"a7782aqsyrx6","icn":200906954,"province":"Kabol","lat":34.528,"incident date":"7/25/2009","hostages":0},"type":"Feature","geometry":{"type":"Point","coordinates":[69.171,34.528]}},{"properties":{"city":"None","lon":67.9502,"dead":0,"total":0,"country":"Afghanistan","subject":"Unknown target in IED attack by suspected Taliban in Ghazni, Afghanistan","wounded":0,"id":"a7782azxiizt","icn":200906975,"province":"Ghazni","lat":33.3602,"incident date":"7/21/2009","hostages":0},"type":"Feature","geometry":{"type":"Point","coordinates":[67.9502,33.3602]}},{"properties":{"city":"None","lon":70.6244,"dead":2,"total":2,"country":"Afghanistan","subject":"2 road construction workers killed in IED attack in Nangarhar, Afghanistan","wounded":0,"id":"a7782awe5joe","icn":200906978,"province":"Nangarhar","lat":34.1763,"incident date":"7/25/2009","hostages":0},"type":"Feature","geometry":{"type":"Point","coordinates":[70.6244,34.1763]}},{"properties":{"city":"Kandahar","lon":65.7615,"dead":0,"total":1,"country":"Afghanistan","subject":"1 civilian wounded in IED attack in Kandahar, Kandahar, Afghanistan","wounded":1,"id":"a7782aqmfjuo","icn":200906980,"province":"Kandahar","lat":31.603,"incident date":"7/26/2009","hostages":0},"type":"Feature","geometry":{"type":"Point","coordinates":[65.7615,31.603]}},{"properties":{"city":"Nahr-i-Saraj","lon":64.56,"dead":3,"total":5,"country":"Afghanistan","subject":"3 civilians killed, 2 others wounded in IED attack in Nahr-i-Saraj, Helmand, Afghanistan","wounded":2,"id":"a7782avdk0jr","icn":200907031,"province":"Helmand","lat":31.82,"incident date":"7/25/2009","hostages":0},"type":"Feature","geometry":{"type":"Point","coordinates":[64.56,31.82]}},{"properties":{"city":"None","lon":67.9502,"dead":0,"total":2,"country":"Afghanistan","subject":"2 police officers wounded in IED attack in Ghazni, Afghanistan","wounded":2,"id":"a7782b1k2rfc","icn":200907037,"province":"Ghazni","lat":33.3602,"incident date":"7/25/2009","hostages":0},"type":"Feature","geometry":{"type":"Point","coordinates":[67.9502,33.3602]}},{"properties":{"city":"None","lon":67.9502,"dead":0,"total":0,"country":"Afghanistan","subject":"Unknown target in IED attack by suspected Taliban in Ghazni, Afghanistan","wounded":0,"id":"a7782aoiei8c","icn":200907039,"province":"Ghazni","lat":33.3602,"incident date":"7/25/2009","hostages":0},"type":"Feature","geometry":{"type":"Point","coordinates":[67.9502,33.3602]}},{"properties":{"city":"Nawar","lon":67.79,"dead":0,"total":3,"country":"Afghanistan","subject":"3 civilians wounded in IED attack in Nawar, Ghazni, Afghanistan","wounded":3,"id":"a7782b38c6cp","icn":200907042,"province":"Ghazni","lat":33.53,"incident date":"7/21/2009","hostages":0},"type":"Feature","geometry":{"type":"Point","coordinates":[67.79,33.53]}},{"properties":{"city":"Ru'i","lon":67.83,"dead":0,"total":1,"country":"Afghanistan","subject":"1 humanitarian worker wounded in IED attack in Ru'i, Samangan, Afghanistan","wounded":1,"id":"a7782b03z372","icn":200907043,"province":"Samangan","lat":35.56,"incident date":"7/22/2009","hostages":0},"type":"Feature","geometry":{"type":"Point","coordinates":[67.83,35.56]}},{"properties":{"city":"Gereshk","lon":64.56,"dead":3,"total":3,"country":"Afghanistan","subject":"3 security guards killed in IED attack in Gereshk, Helmand, Afghanistan","wounded":0,"id":"a7782as60p7h","icn":200907083,"province":"Helmand","lat":31.82,"incident date":"7/26/2009","hostages":0},"type":"Feature","geometry":{"type":"Point","coordinates":[64.56,31.82]}},{"properties":{"city":"None","lon":63.9695,"dead":0,"total":1,"country":"Afghanistan","subject":"1 intelligence officer wounded in IED attack in Helmand, Afghanistan","wounded":1,"id":"a7782avtp1i8","icn":200907084,"province":"Helmand","lat":31.3636,"incident date":"7/26/2009","hostages":0},"type":"Feature","geometry":{"type":"Point","coordinates":[63.9695,31.3636]}},{"properties":{"city":"None","lon":67.9502,"dead":0,"total":2,"country":"Afghanistan","subject":"2 civilians wounded in IED attack in Ghazni, Afghanistan","wounded":2,"id":"a7782b23q5ed","icn":200907086,"province":"Ghazni","lat":33.3602,"incident date":"7/23/2009","hostages":0},"type":"Feature","geometry":{"type":"Point","coordinates":[67.9502,33.3602]}},{"properties":{"city":"Mazar-e Sharif","lon":67.11,"dead":0,"total":0,"country":"Afghanistan","subject":"District police headquarters targeted in IED attack in Mazar-e Sharif, Balkh, Afghanistan","wounded":0,"id":"a7782ayk89pw","icn":200907087,"province":"Balkh","lat":36.71,"incident date":"7/23/2009","hostages":0},"type":"Feature","geometry":{"type":"Point","coordinates":[67.11,36.71]}},{"properties":{"city":"Khak-e Sefid","lon":62.1,"dead":0,"total":9,"country":"Afghanistan","subject":"8 civilians, 1 police officer wounded in IED attack in Khak-e Sefid, Farah, Afghanistan","wounded":9,"id":"a7782ax60evc","icn":200907088,"province":"Farah","lat":32.65,"incident date":"7/22/2009","hostages":0},"type":"Feature","geometry":{"type":"Point","coordinates":[62.1,32.65]}},{"properties":{"city":"Garmsir","lon":64.2,"dead":26,"total":32,"country":"Afghanistan","subject":"26 civilians and children killed, 6 civilians and children injured in IED attack in Garmsir, Helmand, Afghanistan","wounded":6,"id":"a7782axlsabm","icn":200907130,"province":"Helmand","lat":31.12,"incident date":"8/6/2009","hostages":0},"type":"Feature","geometry":{"type":"Point","coordinates":[64.2,31.12]}},{"properties":{"city":"Hokumati Nad-e 'Ali","lon":64.24,"dead":5,"total":8,"country":"Afghanistan","subject":"5 police officers killed, 3 others injured in IED attack in Hokumati Nad-e 'Ali, Helmand, Afghanistan","wounded":3,"id":"a7782ap5g3ux","icn":200907131,"province":"Helmand","lat":31.64,"incident date":"8/6/2009","hostages":0},"type":"Feature","geometry":{"type":"Point","coordinates":[64.24,31.64]}},{"properties":{"city":"Arghandab","lon":65.65,"dead":4,"total":4,"country":"Afghanistan","subject":"4 police officers killed in IED attack in by suspected Taliban in Arghandab, Kandahar, Afghanistan","wounded":0,"id":"a7782ap8kiet","icn":200907137,"province":"Kandahar","lat":31.66,"incident date":"8/7/2009","hostages":0},"type":"Feature","geometry":{"type":"Point","coordinates":[65.65,31.66]}},{"properties":{"city":"Garmsir","lon":64.2,"dead":5,"total":5,"country":"Afghanistan","subject":"5 civilians killed in IED attack in Garmsir, Helmand, Afghanistan","wounded":0,"id":"a7782auyoquj","icn":200907139,"province":"Helmand","lat":31.12,"incident date":"8/7/2009","hostages":0},"type":"Feature","geometry":{"type":"Point","coordinates":[64.2,31.12]}},{"properties":{"city":"Sarowbi","lon":69.1,"dead":4,"total":4,"country":"Afghanistan","subject":"4 security guards killed in IED attack in Sarowbi, Paktika, Afghanistan","wounded":0,"id":"a7782b3gcnns","icn":200907152,"province":"Paktika","lat":32.8,"incident date":"7/18/2009","hostages":0},"type":"Feature","geometry":{"type":"Point","coordinates":[69.1,32.8]}},{"properties":{"city":"None","lon":67.1921,"dead":0,"total":5,"country":"Afghanistan","subject":"5 private security guards injured in IED attack in Zabol, Afghanistan","wounded":5,"id":"a7782aqd2rdo","icn":200907297,"province":"Zabol","lat":32.1964,"incident date":"8/8/2009","hostages":0},"type":"Feature","geometry":{"type":"Point","coordinates":[67.1921,32.1964]}},{"properties":{"city":"Nawbahar","lon":67.065,"dead":0,"total":0,"country":"Afghanistan","subject":"Unknown target in IED attack by suspected Taliban in Nawbahar, Zabol, Afghanistan","wounded":0,"id":"a7782auhdeoa","icn":200907322,"province":"Zabol","lat":32.258,"incident date":"8/9/2009","hostages":0},"type":"Feature","geometry":{"type":"Point","coordinates":[67.065,32.258]}},{"properties":{"city":"Herat","lon":62.18,"dead":11,"total":39,"country":"Afghanistan","subject":"8 civilians, 3 police officers killed, 27 civilians, 1 police officer wounded in IED attack by the Taliban in Herat, Herat, Afghanistan","wounded":28,"id":"a7782axtfjqe","icn":200907355,"province":"Herat","lat":34.37,"incident date":"8/3/2009","hostages":0},"type":"Feature","geometry":{"type":"Point","coordinates":[62.18,34.37]}},{"properties":{"city":"Pol-e 'Alam","lon":69.02,"dead":7,"total":33,"country":"Afghanistan","subject":"5 police officers, 2 civilians killed, 26 civilians and police injured in suicide IED and armed attack by Taliban in Pol-e 'Alam, Lowgar, Afghanistan","wounded":26,"id":"a7782b0hsku7","icn":200907357,"province":"Lowgar","lat":34.04,"incident date":"8/10/2009","hostages":0},"type":"Feature","geometry":{"type":"Point","coordinates":[69.02,34.04]}},{"properties":{"city":"Khowst","lon":69.920293,"dead":0,"total":6,"country":"Afghanistan","subject":"5 civilians, 1 child injured in IED attack in Khowst, Khowst, Afghanistan","wounded":6,"id":"a7782b0qr3ok","icn":200907361,"province":"Khowst","lat":33.334208,"incident date":"8/10/2009","hostages":0},"type":"Feature","geometry":{"type":"Point","coordinates":[69.920293,33.334208]}},{"properties":{"city":"Yahya Khel","lon":68.65,"dead":2,"total":3,"country":"Afghanistan","subject":"2 private security guards killed, 1 other injured in IED attack in Yahya Khel, Paktika, Afghanistan","wounded":1,"id":"a7782aoqbkcy","icn":200907372,"province":"Paktika","lat":32.94,"incident date":"8/10/2009","hostages":0},"type":"Feature","geometry":{"type":"Point","coordinates":[68.65,32.94]}},{"properties":{"city":"None","lon":68.7154,"dead":4,"total":4,"country":"Afghanistan","subject":"4 civilians killed in IED attack in Paktika, Afghanistan","wounded":0,"id":"a7782awochip","icn":200907373,"province":"Paktika","lat":32.4757,"incident date":"8/9/2009","hostages":0},"type":"Feature","geometry":{"type":"Point","coordinates":[68.7154,32.4757]}},{"properties":{"city":"None","lon":69.3844,"dead":0,"total":0,"country":"Afghanistan","subject":"1 bridge damaged in IED attack by Taliban in Kabol, Afghanistan","wounded":0,"id":"a7782aujihut","icn":200907381,"province":"Kabol","lat":34.5583,"incident date":"8/4/2009","hostages":0},"type":"Feature","geometry":{"type":"Point","coordinates":[69.3844,34.5583]}},{"properties":{"city":"Ya'qubi","lon":69.99,"dead":0,"total":0,"country":"Afghanistan","subject":"Unknown target in IED attack in Ya'qubi, Khowst, Afghanistan","wounded":0,"id":"a7782aqabvst","icn":200907395,"province":"Khowst","lat":33.46,"incident date":"8/7/2009","hostages":0},"type":"Feature","geometry":{"type":"Point","coordinates":[69.99,33.46]}},{"properties":{"city":"Shah Juy","lon":67.42,"dead":5,"total":24,"country":"Afghanistan","subject":"4 civilians, 1 government employee killed, 17 civilians, 2 government employees wounded in suicide IED attack by Taliban in Shah Juy, Zabol, Afghanistan","wounded":19,"id":"a7782aoc604b","icn":200907402,"province":"Zabol","lat":32.52,"incident date":"8/4/2009","hostages":0},"type":"Feature","geometry":{"type":"Point","coordinates":[67.42,32.52]}},{"properties":{"city":"Pachiro Agam","lon":70.28,"dead":6,"total":7,"country":"Afghanistan","subject":"4 security guards, 2 tribal elders killed, 1 security guard wounded in IED attack by suspected Taliban in Pachiro Agam, Nangarhar, Afghanistan","wounded":1,"id":"a7782awdd1g2","icn":200907405,"province":"Nangarhar","lat":34.2,"incident date":"8/5/2009","hostages":0},"type":"Feature","geometry":{"type":"Point","coordinates":[70.28,34.2]}},{"properties":{"city":"Konduz","lon":68.714,"dead":0,"total":0,"country":"Afghanistan","subject":"1 bridge destroyed in IED attack by suspected Taliban in Konduz, Kondoz, Afghanistan","wounded":0,"id":"a7782auweo0d","icn":200907414,"province":"Kondoz","lat":36.859,"incident date":"8/8/2009","hostages":0},"type":"Feature","geometry":{"type":"Point","coordinates":[68.714,36.859]}},{"properties":{"city":"Chaparhar","lon":70.36,"dead":1,"total":1,"country":"Afghanistan","subject":"1 civilian killed in suicide IED attack in Chaparhar, Nangarhar, Afghanistan","wounded":0,"id":"a7782b0xut8i","icn":200907422,"province":"Nangarhar","lat":34.28,"incident date":"8/9/2009","hostages":0},"type":"Feature","geometry":{"type":"Point","coordinates":[70.36,34.28]}},{"properties":{"city":"Shah Juy","lon":67.42,"dead":0,"total":2,"country":"Afghanistan","subject":"2 security guards wounded in IED attack by Taliban in Shah Juy, Zabol, Afghanistan","wounded":2,"id":"a7782avrha5g","icn":200907426,"province":"Zabol","lat":32.52,"incident date":"8/1/2009","hostages":0},"type":"Feature","geometry":{"type":"Point","coordinates":[67.42,32.52]}},{"properties":{"city":"Shindand","lon":62.1309,"dead":0,"total":0,"country":"Afghanistan","subject":"Unknown target in IED attack by Taliban in Shindand, Herat, Afghanistan","wounded":0,"id":"a7782au8qudx","icn":200907429,"province":"Herat","lat":33.30704,"incident date":"8/1/2009","hostages":0},"type":"Feature","geometry":{"type":"Point","coordinates":[62.1309,33.30704]}},{"properties":{"city":"Morghab","lon":63.33,"dead":0,"total":0,"country":"Afghanistan","subject":"1 communications antenna damaged in IED attack in Morghab, Badghis, Afghanistan","wounded":0,"id":"a7782aurss34","icn":200907431,"province":"Badghis","lat":35.58,"incident date":"8/1/2009","hostages":0},"type":"Feature","geometry":{"type":"Point","coordinates":[63.33,35.58]}},{"properties":{"city":"Shorawak","lon":64.3511,"dead":1,"total":2,"country":"Afghanistan","subject":"1 police officer killed, 1 other wounded in IED attack in Shorawak, Kandahar, Afghanistan","wounded":1,"id":"a7782b16ol1m","icn":200907432,"province":"Kandahar","lat":31.822765,"incident date":"8/2/2009","hostages":0},"type":"Feature","geometry":{"type":"Point","coordinates":[64.3511,31.822765]}},{"properties":{"city":"Ghazni","lon":68.42,"dead":1,"total":3,"country":"Afghanistan","subject":"1 private security guard killed, 2 others injured in IED attack in Ghazni, Ghazni, Afghanistan","wounded":2,"id":"a7782arhbin9","icn":200907441,"province":"Ghazni","lat":33.55,"incident date":"8/7/2009","hostages":0},"type":"Feature","geometry":{"type":"Point","coordinates":[68.42,33.55]}},{"properties":{"city":"None","lon":65.4845,"dead":1,"total":5,"country":"Afghanistan","subject":"1 private security guard killed, 4 others injured in IED attack in Kandahar, Afghanistan","wounded":4,"id":"a7782avcsz8o","icn":200907442,"province":"Kandahar","lat":30.9916,"incident date":"8/7/2009","hostages":0},"type":"Feature","geometry":{"type":"Point","coordinates":[65.4845,30.9916]}},{"properties":{"city":"Dahaneh-ye Ghowri","lon":68.49,"dead":3,"total":3,"country":"Afghanistan","subject":"1 government official, 1 security guard, 1 government employee killed in IED attack by Taliban in Dahaneh-ye Ghowri, Baghlan, Afghanistan","wounded":0,"id":"a7782arxuoy7","icn":200907456,"province":"Baghlan","lat":35.91,"incident date":"8/1/2009","hostages":0},"type":"Feature","geometry":{"type":"Point","coordinates":[68.49,35.91]}},{"properties":{"city":"Alaqehdari Shibar","lon":68.16,"dead":0,"total":0,"country":"Afghanistan","subject":"1 vehicle damaged in IED attack by suspected Taliban in 'Alaqehdari Shibar, Bamian, Afghanistan","wounded":0,"id":"a7782b00p6it","icn":200907473,"province":"Bamian","lat":34.88,"incident date":"8/2/2009","hostages":0},"type":"Feature","geometry":{"type":"Point","coordinates":[68.16,34.88]}},{"properties":{"city":"Ma'ruf","lon":67.05,"dead":1,"total":4,"country":"Afghanistan","subject":"1 civilian killed, 3 others wounded in IED attack in Ma'ruf, Kandahar, Afghanistan","wounded":3,"id":"a7782aoxkyqc","icn":200907477,"province":"Kandahar","lat":31.57,"incident date":"8/4/2009","hostages":0},"type":"Feature","geometry":{"type":"Point","coordinates":[67.05,31.57]}},{"properties":{"city":"None","lon":67.1921,"dead":2,"total":5,"country":"Afghanistan","subject":"2 civilians killed, 3 others wounded in IED attack in Zabol, Afghanistan","wounded":3,"id":"a7782asz787l","icn":200907484,"province":"Zabol","lat":32.1964,"incident date":"8/3/2009","hostages":0},"type":"Feature","geometry":{"type":"Point","coordinates":[67.1921,32.1964]}},{"properties":{"city":"None","lon":67.9502,"dead":2,"total":4,"country":"Afghanistan","subject":"2 civilians killed, 2 others wounded in IED attack in Ghazni, Afghanistan","wounded":2,"id":"a7782b3mdsu5","icn":200907487,"province":"Ghazni","lat":33.3602,"incident date":"8/3/2009","hostages":0},"type":"Feature","geometry":{"type":"Point","coordinates":[67.9502,33.3602]}},{"properties":{"city":"Kabul","lon":69.171,"dead":7,"total":98,"country":"Afghanistan","subject":"7 civilians killed, 88 civilians, 3 soldiers wounded in suicide VBIED attack by Taliban in Kabul, Kabol, Afghanistan","wounded":91,"id":"a7782b0mh6i3","icn":200907604,"province":"Kabol","lat":34.528,"incident date":"8/15/2009","hostages":0},"type":"Feature","geometry":{"type":"Point","coordinates":[69.171,34.528]}},{"properties":{"city":"Maywand","lon":65.132,"dead":10,"total":15,"country":"Afghanistan","subject":"9 civilians, 1 child killed, 5 civilians wounded in IED attack by suspected Taliban in Maywand, Kandahar, Afghanistan","wounded":5,"id":"a7782au4c60i","icn":200907652,"province":"Kandahar","lat":31.732517,"incident date":"8/11/2009","hostages":0},"type":"Feature","geometry":{"type":"Point","coordinates":[65.132,31.732517]}},{"properties":{"city":"Zheray","lon":66.11,"dead":0,"total":5,"country":"Afghanistan","subject":"5 civilians wounded in IED attack by suspected Taliban in Zheray, Kandahar, Afghanistan","wounded":5,"id":"a7782atowt9t","icn":200907654,"province":"Kandahar","lat":32.12,"incident date":"8/11/2009","hostages":0},"type":"Feature","geometry":{"type":"Point","coordinates":[66.11,32.12]}},{"properties":{"city":"Paghman","lon":68.95,"dead":5,"total":9,"country":"Afghanistan","subject":"5 police officers killed, 4 others wounded in IED attack by Taliban in Paghman, Kabol, Afghanistan","wounded":4,"id":"a7782ayz58ig","icn":200907675,"province":"Kabol","lat":34.59,"incident date":"8/12/2009","hostages":0},"type":"Feature","geometry":{"type":"Point","coordinates":[68.95,34.59]}},{"properties":{"city":"Gereshk","lon":64.56,"dead":11,"total":12,"country":"Afghanistan","subject":"8 civilians, several children killed, 1 child wounded in IED attack by suspected Taliban in Gereshk, Helmand, Afghanistan","wounded":1,"id":"a7782atm0tgl","icn":200907676,"province":"Helmand","lat":31.82,"incident date":"8/12/2009","hostages":0},"type":"Feature","geometry":{"type":"Point","coordinates":[64.56,31.82]}},{"properties":{"city":"Kandahar","lon":65.7615,"dead":3,"total":3,"country":"Afghanistan","subject":"3 children killed in IED attack by suspected Taliban near Kandahar, Kandahar, Afghanistan","wounded":0,"id":"a7782aruot84","icn":200907677,"province":"Kandahar","lat":31.603,"incident date":"8/12/2009","hostages":0},"type":"Feature","geometry":{"type":"Point","coordinates":[65.7615,31.603]}},{"properties":{"city":"Panjva'i, Zheray","lon":65.46,"dead":9,"total":9,"country":"Afghanistan","subject":"6 civilians, 3 children killed in IED attacks in Panjva'i, Kandahar, Afghanistan and Zheray, Kandahar, Afghanistan","wounded":0,"id":"a7782ard7xtw","icn":200907776,"province":"Kandahar","lat":31.52,"incident date":"8/11/2009","hostages":0},"type":"Feature","geometry":{"type":"Point","coordinates":[65.46,31.52]}},{"properties":{"city":"Zaranj","lon":62.07,"dead":0,"total":1,"country":"Afghanistan","subject":"1 police officer wounded in suicide VBIED and rocket attacks by suspected Taliban near Zaranj, Nimruz, Afghanistan","wounded":1,"id":"a7782b3bwfa9","icn":200907777,"province":"Nimruz","lat":31.17,"incident date":"8/13/2009","hostages":0},"type":"Feature","geometry":{"type":"Point","coordinates":[62.07,31.17]}},{"properties":{"city":"Khowst","lon":69.920293,"dead":1,"total":1,"country":"Afghanistan","subject":"1 civilian killed in IED attack in Khowst, Khowst, Afghanistan","wounded":0,"id":"a7782b0slw27","icn":200907782,"province":"Khowst","lat":33.334208,"incident date":"8/13/2009","hostages":0},"type":"Feature","geometry":{"type":"Point","coordinates":[69.920293,33.334208]}},{"properties":{"city":"Chowreh","lon":66.08,"dead":0,"total":4,"country":"Afghanistan","subject":"4 police officers wounded in IED attack by suspected Taliban in Chowreh, Oruzgan, Afghanistan","wounded":4,"id":"a7782ap2ztqr","icn":200907788,"province":"Oruzgan","lat":32.85,"incident date":"8/15/2009","hostages":0},"type":"Feature","geometry":{"type":"Point","coordinates":[66.08,32.85]}},{"properties":{"city":"Chowreh","lon":66.08,"dead":2,"total":7,"country":"Afghanistan","subject":"2 police officers killed, 5 others wounded in IED attack by suspected Taliban in Chowreh, Oruzgan, Afghanistan","wounded":5,"id":"a7782atqebek","icn":200907789,"province":"Oruzgan","lat":32.85,"incident date":"8/15/2009","hostages":0},"type":"Feature","geometry":{"type":"Point","coordinates":[66.08,32.85]}},{"properties":{"city":"Zormat","lon":69.03,"dead":2,"total":6,"country":"Afghanistan","subject":"2 civilians killed, 4 others wounded in IED attack by Taliban in Zormat, Paktia, Afghanistan","wounded":4,"id":"a7782b0cy4vy","icn":200907790,"province":"Paktia","lat":33.43,"incident date":"8/15/2009","hostages":0},"type":"Feature","geometry":{"type":"Point","coordinates":[69.03,33.43]}},{"properties":{"city":"Kabul","lon":69.171,"dead":8,"total":82,"country":"Afghanistan","subject":"5 civilians, 2 UN workers, 1 soldier killed, 51 civilians, many soldiers, 3 UN workers injured in suicide VBIED attack by Taliban in Kabul, Kabol, Afghanistan","wounded":74,"id":"a7782argjclg","icn":200907818,"province":"Kabol","lat":34.528,"incident date":"8/18/2009","hostages":0},"type":"Feature","geometry":{"type":"Point","coordinates":[69.171,34.528]}},{"properties":{"city":"Yahya Khel","lon":68.65,"dead":2,"total":4,"country":"Afghanistan","subject":"2 police officers killed, 2 others wounded in IED attack by Taliban in Yahya Khel, Paktika, Afghanistan","wounded":2,"id":"a7782b04xfjc","icn":200907822,"province":"Paktika","lat":32.94,"incident date":"8/15/2009","hostages":0},"type":"Feature","geometry":{"type":"Point","coordinates":[68.65,32.94]}},{"properties":{"city":"Shahr-e-Safa","lon":66.32,"dead":1,"total":5,"country":"Afghanistan","subject":"1 police officer killed, 4 others wounded in IED attack in Shahr-e-Safa, Zabol, Afghanistan","wounded":4,"id":"a7782ax9ta8o","icn":200907835,"province":"Zabol","lat":31.8,"incident date":"8/11/2009","hostages":0},"type":"Feature","geometry":{"type":"Point","coordinates":[66.32,31.8]}},{"properties":{"city":"None","lon":67.9502,"dead":0,"total":0,"country":"Afghanistan","subject":"Unknown target in IED attack by suspected Taliban in Ghazni, Afghanistan","wounded":0,"id":"a7782apk5f3u","icn":200907839,"province":"Ghazni","lat":33.3602,"incident date":"8/15/2009","hostages":0},"type":"Feature","geometry":{"type":"Point","coordinates":[67.9502,33.3602]}},{"properties":{"city":"Kabul","lon":69.171,"dead":0,"total":2,"country":"Afghanistan","subject":"1 police officer, 1 civilian wounded in IED attack in Kabul, Kabol, Afghanistan","wounded":2,"id":"a7782ay1qbf1","icn":200907840,"province":"Kabol","lat":34.528,"incident date":"8/14/2009","hostages":0},"type":"Feature","geometry":{"type":"Point","coordinates":[69.171,34.528]}},{"properties":{"city":"Shamal Zay","lon":67.65,"dead":2,"total":6,"country":"Afghanistan","subject":"2 civilians killed, 4 others wounded in IED attack in Shamal Zay, Zabol, Afghanistan","wounded":4,"id":"a7782avxgncz","icn":200907847,"province":"Zabol","lat":31.91,"incident date":"8/12/2009","hostages":0},"type":"Feature","geometry":{"type":"Point","coordinates":[67.65,31.91]}},{"properties":{"city":"None","lon":70.6244,"dead":0,"total":0,"country":"Afghanistan","subject":"Pakistani consulate targeted in IED attack in Nangarhar, Afghanistan","wounded":0,"id":"a7782at189fs","icn":200907860,"province":"Nangarhar","lat":34.1763,"incident date":"8/11/2009","hostages":0},"type":"Feature","geometry":{"type":"Point","coordinates":[70.6244,34.1763]}},{"properties":{"city":"Deh Sabz","lon":69.4,"dead":4,"total":4,"country":"Afghanistan","subject":"4 civilians killed in IED attack by suspected Taliban in Deh Sabz, Kabol, Afghanistan","wounded":0,"id":"a7782b1jk113","icn":200907861,"province":"Kabol","lat":34.64,"incident date":"8/15/2009","hostages":0},"type":"Feature","geometry":{"type":"Point","coordinates":[69.4,34.64]}},{"properties":{"city":"None","lon":65.4845,"dead":0,"total":1,"country":"Afghanistan","subject":"1 humanitarian worker wounded in IED attack in Kandahar, Afghanistan","wounded":1,"id":"a7782azl3g1q","icn":200907893,"province":"Kandahar","lat":30.9916,"incident date":"8/1/2009","hostages":0},"type":"Feature","geometry":{"type":"Point","coordinates":[65.4845,30.9916]}},{"properties":{"city":"Garmsir","lon":64.2,"dead":5,"total":5,"country":"Afghanistan","subject":"5 civilians and children killed in IED attack in Garmsir, Helmand, Afghanistan","wounded":0,"id":"a7782b3d9pjb","icn":200907894,"province":"Helmand","lat":31.12,"incident date":"8/5/2009","hostages":0},"type":"Feature","geometry":{"type":"Point","coordinates":[64.2,31.12]}},{"properties":{"city":"Shah Juy","lon":67.42,"dead":0,"total":0,"country":"Afghanistan","subject":"Unknown target in IED attack by suspected Taliban in Shah Juy, Zabol, Afghanistan","wounded":0,"id":"a7782b3niy1s","icn":200907895,"province":"Zabol","lat":32.52,"incident date":"8/16/2009","hostages":0},"type":"Feature","geometry":{"type":"Point","coordinates":[67.42,32.52]}},{"properties":{"city":"None","lon":63.9695,"dead":5,"total":6,"country":"Afghanistan","subject":"5 police officers killed, 1 other wounded in double IED attack in Helmand, Afghanistan","wounded":1,"id":"a7782aq261vi","icn":200907896,"province":"Helmand","lat":31.3636,"incident date":"8/12/2009","hostages":0},"type":"Feature","geometry":{"type":"Point","coordinates":[63.9695,31.3636]}},{"properties":{"city":"Tarin Kowt","lon":65.88,"dead":0,"total":0,"country":"Afghanistan","subject":"1 police vehicle damaged in IED attack in Tarin Kowt, Oruzgan, Afghanistan","wounded":0,"id":"a7782arcnbxn","icn":200907897,"province":"Oruzgan","lat":32.63,"incident date":"8/12/2009","hostages":0},"type":"Feature","geometry":{"type":"Point","coordinates":[65.88,32.63]}},{"properties":{"city":"Mengeh Jek","lon":66.13,"dead":0,"total":2,"country":"Afghanistan","subject":"2 police officers injured in IED attack in Mengeh Jek, Jowzjan, Afghanistan","wounded":2,"id":"a7782az1glw1","icn":200907898,"province":"Jowzjan","lat":37.03,"incident date":"8/16/2009","hostages":0},"type":"Feature","geometry":{"type":"Point","coordinates":[66.13,37.03]}},{"properties":{"city":"Deh Rawod","lon":65.46,"dead":0,"total":3,"country":"Afghanistan","subject":"3 civilians wounded in IED attack in Deh Rawod, Oruzgan, Afghanistan","wounded":3,"id":"a7782aw53iuf","icn":200907899,"province":"Oruzgan","lat":32.62,"incident date":"8/12/2009","hostages":0},"type":"Feature","geometry":{"type":"Point","coordinates":[65.46,32.62]}},{"properties":{"city":"Chowreh","lon":66.08,"dead":6,"total":12,"country":"Afghanistan","subject":"4 soldiers, 2 civilians killed, 3 soldiers, 3 civilians injured in suicide IED attack in Chowreh, Oruzgan, Afghanistan","wounded":6,"id":"a7782b1ozrxm","icn":200907945,"province":"Oruzgan","lat":32.85,"incident date":"8/18/2009","hostages":0},"type":"Feature","geometry":{"type":"Point","coordinates":[66.08,32.85]}},{"properties":{"city":"Ab Band","lon":67.9666667,"dead":0,"total":0,"country":"Afghanistan","subject":"Bridge targeted in IED attack by Taliban in Ab Band, Ghazni, Afghanistan","wounded":0,"id":"a7782at4slet","icn":200907947,"province":"Ghazni","lat":32.9833333,"incident date":"8/17/2009","hostages":0},"type":"Feature","geometry":{"type":"Point","coordinates":[67.9666667,32.9833333]}},{"properties":{"city":"None","lon":65.4845,"dead":1,"total":3,"country":"Afghanistan","subject":"1 government official killed, 1 tribal leader, 1 civilian injured in IED attack in Kandahar, Afghanistan","wounded":2,"id":"a7782aurm3eq","icn":200907965,"province":"Kandahar","lat":30.9916,"incident date":"8/19/2009","hostages":0},"type":"Feature","geometry":{"type":"Point","coordinates":[65.4845,30.9916]}},{"properties":{"city":"Sharan","lon":68.79,"dead":5,"total":5,"country":"Afghanistan","subject":"5 civilians killed in IED attack in Sharan, Paktika, Afghanistan","wounded":0,"id":"a7782aqfbo16","icn":200907967,"province":"Paktika","lat":33.15,"incident date":"8/19/2009","hostages":0},"type":"Feature","geometry":{"type":"Point","coordinates":[68.79,33.15]}},{"properties":{"city":"Chaparhar","lon":70.36,"dead":0,"total":1,"country":"Afghanistan","subject":"1 contractor injured in IED attack in Chaparhar, Nangarhar, Afghanistan","wounded":1,"id":"a7782av73dk9","icn":200907971,"province":"Nangarhar","lat":34.28,"incident date":"8/19/2009","hostages":0},"type":"Feature","geometry":{"type":"Point","coordinates":[70.36,34.28]}},{"properties":{"city":"Shah Juy","lon":67.42,"dead":4,"total":10,"country":"Afghanistan","subject":"4 civilians killed, 6 others injured in IED attack in Shah Juy, Zabol, Afghanistan","wounded":6,"id":"a7782b1swfny","icn":200907982,"province":"Zabol","lat":32.52,"incident date":"8/18/2009","hostages":0},"type":"Feature","geometry":{"type":"Point","coordinates":[67.42,32.52]}},{"properties":{"city":"Shah Juy","lon":67.42,"dead":1,"total":1,"country":"Afghanistan","subject":"1 civilian killed in IED attack in Shah Juy, Zabol, Afghanistan","wounded":0,"id":"a7782as5h8ep","icn":200907983,"province":"Zabol","lat":32.52,"incident date":"8/18/2009","hostages":0},"type":"Feature","geometry":{"type":"Point","coordinates":[67.42,32.52]}},{"properties":{"city":"Shah Juy","lon":67.42,"dead":1,"total":1,"country":"Afghanistan","subject":"1 civilian killed in IED attack in Shah Juy, Zabol, Afghanistan","wounded":0,"id":"a7782b3wkpxe","icn":200907984,"province":"Zabol","lat":32.52,"incident date":"8/18/2009","hostages":0},"type":"Feature","geometry":{"type":"Point","coordinates":[67.42,32.52]}},{"properties":{"city":"Kandahar","lon":65.7615,"dead":41,"total":106,"country":"Afghanistan","subject":"23 contractors, 14 civilians, several children, 1 humanitarian worker killed, 62 civilians, several children wounded in VBIED attack by suspected Taliban in Kandahar, Kandahar, Afghanistan","wounded":65,"id":"a7782ay1exsi","icn":200908086,"province":"Kandahar","lat":31.603,"incident date":"8/25/2009","hostages":0},"type":"Feature","geometry":{"type":"Point","coordinates":[65.7615,31.603]}},{"properties":{"city":"None","lon":69.8574,"dead":0,"total":0,"country":"Afghanistan","subject":"Unknown target in IED attack in Khowst, Afghanistan","wounded":0,"id":"a7782asmefjv","icn":200908165,"province":"Khowst","lat":33.3593,"incident date":"8/18/2009","hostages":0},"type":"Feature","geometry":{"type":"Point","coordinates":[69.8574,33.3593]}},{"properties":{"city":"None","lon":68.7154,"dead":1,"total":4,"country":"Afghanistan","subject":"1 civilian killed, 3 others injured in IED attack in Paktika, Afghanistan","wounded":3,"id":"a7782au72njc","icn":200908167,"province":"Paktika","lat":32.4757,"incident date":"8/18/2009","hostages":0},"type":"Feature","geometry":{"type":"Point","coordinates":[68.7154,32.4757]}},{"properties":{"city":"Qal'eh-ye Now","lon":63.13,"dead":0,"total":13,"country":"Afghanistan","subject":"13 civilians injured in IED attack in Qal'eh-ye Now, Badghis, Afghanistan","wounded":13,"id":"a7782b06kl77","icn":200908172,"province":"Badghis","lat":34.99,"incident date":"8/19/2009","hostages":0},"type":"Feature","geometry":{"type":"Point","coordinates":[63.13,34.99]}},{"properties":{"city":"Spin Buldak","lon":66.4,"dead":4,"total":4,"country":"Afghanistan","subject":"2 civilians, 2 police officers killed in IED attack in Spin Buldak, Kandahar, Afghanistan","wounded":0,"id":"a7782aqjrplc","icn":200908221,"province":"Kandahar","lat":31.01,"incident date":"8/20/2009","hostages":0},"type":"Feature","geometry":{"type":"Point","coordinates":[66.4,31.01]}},{"properties":{"city":"Qalat","lon":66.91,"dead":0,"total":0,"country":"Afghanistan","subject":"Unknown target in IED explosion in Qalat, Zabol, Afghanistan","wounded":0,"id":"a7782anl6yi5","icn":200908224,"province":"Zabol","lat":32.11,"incident date":"8/20/2009","hostages":0},"type":"Feature","geometry":{"type":"Point","coordinates":[66.91,32.11]}},{"properties":{"city":"Takhar","lon":69.4762,"dead":0,"total":0,"country":"Afghanistan","subject":"1 police headquarters damaged in IED attack in Takhar, Kondoz, Afghanistan","wounded":0,"id":"a7782axkz7xl","icn":200908227,"province":"Kondoz","lat":36.6751,"incident date":"8/20/2009","hostages":0},"type":"Feature","geometry":{"type":"Point","coordinates":[69.4762,36.6751]}},{"properties":{"city":"Yahya Khel","lon":68.65,"dead":4,"total":9,"country":"Afghanistan","subject":"4 construction workers killed, 5 others wounded in IED attack by suspected Taliban in Yahya Khel, Paktika, Afghanistan","wounded":5,"id":"a7782b2izjh3","icn":200908233,"province":"Paktika","lat":32.94,"incident date":"8/24/2009","hostages":0},"type":"Feature","geometry":{"type":"Point","coordinates":[68.65,32.94]}},{"properties":{"city":"Hokumati Nad-e 'Ali","lon":64.24,"dead":2,"total":5,"country":"Afghanistan","subject":"2 police officers killed, 3 others wounded in IED attack in Hokumati Nad-e 'Ali, Helmand, Afghanistan","wounded":3,"id":"a7782b1ea6p7","icn":200908235,"province":"Helmand","lat":31.64,"incident date":"8/25/2009","hostages":0},"type":"Feature","geometry":{"type":"Point","coordinates":[64.24,31.64]}},{"properties":{"city":"Konduz","lon":68.714,"dead":1,"total":1,"country":"Afghanistan","subject":"1 government official killed in IED attack by Taliban in Konduz,  Kondoz, Afghanistan","wounded":0,"id":"a7782auw0mns","icn":200908286,"province":"Kondoz","lat":36.859,"incident date":"8/26/2009","hostages":0},"type":"Feature","geometry":{"type":"Point","coordinates":[68.714,36.859]}},{"properties":{"city":"Khakriz","lon":65.48,"dead":5,"total":5,"country":"Afghanistan","subject":"4 security guards, 1 district chief killed in IED attack in killed in Khakriz, Kandahar, Afghanistan","wounded":0,"id":"a7782aqskfhw","icn":200908287,"province":"Kandahar","lat":31.99,"incident date":"8/25/2009","hostages":0},"type":"Feature","geometry":{"type":"Point","coordinates":[65.48,31.99]}},{"properties":{"city":"Hokumati Nad-e 'Ali","lon":64.24,"dead":6,"total":6,"country":"Afghanistan","subject":"6 civilians killed in IED attack in Hokumati Nad-e 'Ali, Helmand, Afghanistan","wounded":0,"id":"a7782aspyn08","icn":200908291,"province":"Helmand","lat":31.64,"incident date":"8/21/2009","hostages":0},"type":"Feature","geometry":{"type":"Point","coordinates":[64.24,31.64]}},{"properties":{"city":"Konduz","lon":68.714,"dead":0,"total":0,"country":"Afghanistan","subject":"Police vehicle targeted in IED attack in Konduz, Kondoz, Afghanistan","wounded":0,"id":"a7782auu21ar","icn":200908296,"province":"Kondoz","lat":36.859,"incident date":"8/24/2009","hostages":0},"type":"Feature","geometry":{"type":"Point","coordinates":[68.714,36.859]}},{"properties":{"city":"Khugiani","lon":70.29,"dead":0,"total":2,"country":"Afghanistan","subject":"2 police officers wounded in IED attack by Taliban in Khugiani, Nangarhar, Afghanistan","wounded":2,"id":"a7782b1zs7dw","icn":200908298,"province":"Nangarhar","lat":33.99,"incident date":"8/24/2009","hostages":0},"type":"Feature","geometry":{"type":"Point","coordinates":[70.29,33.99]}},{"properties":{"city":"Zaneh Khan","lon":68.63,"dead":0,"total":4,"country":"Afghanistan","subject":"4 civilians wounded in IED attack in Zaneh Khan, Ghazni, Afghanistan","wounded":4,"id":"a7782apqywam","icn":200908300,"province":"Ghazni","lat":33.67,"incident date":"8/25/2009","hostages":0},"type":"Feature","geometry":{"type":"Point","coordinates":[68.63,33.67]}},{"properties":{"city":"Khugiani","lon":70.29,"dead":0,"total":3,"country":"Afghanistan","subject":"3 government contractors wounded in IED attack in Khugiani, Nangarhar, Afghanistan","wounded":3,"id":"a7782ardar0f","icn":200908357,"province":"Nangarhar","lat":33.99,"incident date":"8/26/2009","hostages":0},"type":"Feature","geometry":{"type":"Point","coordinates":[70.29,33.99]}},{"properties":{"city":"Zadran","lon":69.5457,"dead":3,"total":5,"country":"Afghanistan","subject":"3 security guards killed, 2 others wounded in IED attack in Zadran, Paktia, Afghanistan","wounded":2,"id":"a7782b1adkgl","icn":200908361,"province":"Paktia","lat":33.6892,"incident date":"8/25/2009","hostages":0},"type":"Feature","geometry":{"type":"Point","coordinates":[69.5457,33.6892]}},{"properties":{"city":"Spin Buldak","lon":66.4,"dead":0,"total":5,"country":"Afghanistan","subject":"5 police officers wounded in IED attack in Spin Buldak, Kandahar, Afghanistan","wounded":5,"id":"a7782b2z6y74","icn":200908365,"province":"Kandahar","lat":31.01,"incident date":"8/24/2009","hostages":0},"type":"Feature","geometry":{"type":"Point","coordinates":[66.4,31.01]}},{"properties":{"city":"None","lon":67.9502,"dead":0,"total":4,"country":"Afghanistan","subject":"4 government contractors wounded in IED attack in Ghazni, Afghanistan","wounded":4,"id":"a7782axkzm7z","icn":200908368,"province":"Ghazni","lat":33.3602,"incident date":"8/24/2009","hostages":0},"type":"Feature","geometry":{"type":"Point","coordinates":[67.9502,33.3602]}},{"properties":{"city":"Khowst","lon":69.920293,"dead":0,"total":2,"country":"Afghanistan","subject":"2 government contractors wounded in IED attack in Khowst, Khowst, Afghanistan","wounded":2,"id":"a7782at3r40r","icn":200908369,"province":"Khowst","lat":33.334208,"incident date":"8/25/2009","hostages":0},"type":"Feature","geometry":{"type":"Point","coordinates":[69.920293,33.334208]}},{"properties":{"city":"Baghlan","lon":68.7,"dead":6,"total":6,"country":"Afghanistan","subject":"6 police officers killed in IED attack by Taliban in Baghlan, Baghlan, Afghanistan","wounded":0,"id":"a7782aqs3hs7","icn":200908373,"province":"Baghlan","lat":36.12,"incident date":"8/22/2009","hostages":0},"type":"Feature","geometry":{"type":"Point","coordinates":[68.7,36.12]}},{"properties":{"city":"Gulistan","lon":63.66,"dead":1,"total":9,"country":"Afghanistan","subject":"1 police officer killed, 8 others wounded in IED attack in Gulistan, Farah, Afghanistan","wounded":8,"id":"a7782asro7fs","icn":200908381,"province":"Farah","lat":32.62,"incident date":"8/27/2009","hostages":0},"type":"Feature","geometry":{"type":"Point","coordinates":[63.66,32.62]}},{"properties":{"city":"None","lon":67.9502,"dead":0,"total":4,"country":"Afghanistan","subject":"4 police officers wounded in IED attack in Ghazni, Afghanistan","wounded":4,"id":"a7782awmtlen","icn":200908389,"province":"Ghazni","lat":33.3602,"incident date":"8/25/2009","hostages":0},"type":"Feature","geometry":{"type":"Point","coordinates":[67.9502,33.3602]}},{"properties":{"city":"None","lon":62.4504,"dead":0,"total":0,"country":"Afghanistan","subject":"Unknown target in IED attack by suspected Taliban in Farah, Afghanistan","wounded":0,"id":"a7782b2l8w22","icn":200908393,"province":"Farah","lat":33.0446,"incident date":"8/25/2009","hostages":0},"type":"Feature","geometry":{"type":"Point","coordinates":[62.4504,33.0446]}},{"properties":{"city":"None","lon":64.9004,"dead":0,"total":3,"country":"Afghanistan","subject":"3 civilians wounded in IED attacks in Ghowr, Afghanistan","wounded":3,"id":"a7782aou2d3l","icn":200908440,"province":"Ghowr","lat":34.0995,"incident date":"8/21/2009","hostages":0},"type":"Feature","geometry":{"type":"Point","coordinates":[64.9004,34.0995]}},{"properties":{"city":"Charkh","lon":68.94,"dead":0,"total":0,"country":"Afghanistan","subject":"Unknown target in IED explosion in Charkh, Lowgar, Afghanistan","wounded":0,"id":"a7782b0uamjp","icn":200908442,"province":"Lowgar","lat":33.8,"incident date":"8/20/2009","hostages":0},"type":"Feature","geometry":{"type":"Point","coordinates":[68.94,33.8]}},{"properties":{"city":"Shindand","lon":62.1309,"dead":0,"total":0,"country":"Afghanistan","subject":"Unknown target in IED attack in Shindand, Herat, Afghanistan","wounded":0,"id":"a7782asr5unu","icn":200908464,"province":"Herat","lat":33.30704,"incident date":"8/20/2009","hostages":0},"type":"Feature","geometry":{"type":"Point","coordinates":[62.1309,33.30704]}},{"properties":{"city":"Mata Khan","lon":68.87,"dead":1,"total":1,"country":"Afghanistan","subject":"1 civilian killed in IED attack in Mata Khan, Paktika, Afghanistan","wounded":0,"id":"a7782aui6smm","icn":200908469,"province":"Paktika","lat":33.24,"incident date":"8/20/2009","hostages":0},"type":"Feature","geometry":{"type":"Point","coordinates":[68.87,33.24]}},{"properties":{"city":"Sharan","lon":68.79,"dead":1,"total":1,"country":"Afghanistan","subject":"1 civilian killed in IED attack in Sharan, Paktika, Afghanistan","wounded":0,"id":"a7782avxb811","icn":200908471,"province":"Paktika","lat":33.15,"incident date":"8/20/2009","hostages":0},"type":"Feature","geometry":{"type":"Point","coordinates":[68.79,33.15]}},{"properties":{"city":"Gardiz","lon":69.23,"dead":0,"total":0,"country":"Afghanistan","subject":"Unknown target in IED explosion in Gardiz, Paktia, Afghanistan","wounded":0,"id":"a7782axil8zn","icn":200908475,"province":"Paktia","lat":33.6,"incident date":"8/20/2009","hostages":0},"type":"Feature","geometry":{"type":"Point","coordinates":[69.23,33.6]}},{"properties":{"city":"Pol-e 'Alam","lon":69.02,"dead":2,"total":2,"country":"Afghanistan","subject":"1 tribal leader, 1 civilian killed in IED attack by Taliban in Pol-e 'Alam, Lowgar, Afghanistan","wounded":0,"id":"a7782b29zcqk","icn":200908478,"province":"Lowgar","lat":34.04,"incident date":"8/20/2009","hostages":0},"type":"Feature","geometry":{"type":"Point","coordinates":[69.02,34.04]}},{"properties":{"city":"Hokumati Nad-e 'Ali","lon":64.24,"dead":5,"total":5,"country":"Afghanistan","subject":"5 civilians killed in IED attack in Hokumati Nad-e 'Ali, Helmand, Afghanistan","wounded":0,"id":"a7782asyrhmj","icn":200908480,"province":"Helmand","lat":31.64,"incident date":"8/20/2009","hostages":0},"type":"Feature","geometry":{"type":"Point","coordinates":[64.24,31.64]}},{"properties":{"city":"Nahr-i-Saraj","lon":64.56,"dead":3,"total":7,"country":"Afghanistan","subject":"3 children killed, 4 others wounded in IED attack in Nahr-i-Saraj, Helmand, Afghanistan","wounded":4,"id":"a7782atzh170","icn":200908488,"province":"Helmand","lat":31.82,"incident date":"8/25/2009","hostages":0},"type":"Feature","geometry":{"type":"Point","coordinates":[64.56,31.82]}},{"properties":{"city":"None","lon":62.4504,"dead":0,"total":0,"country":"Afghanistan","subject":"1 police vehicle damaged in IED attack in Nimruz, Afghanistan","wounded":0,"id":"a7782b3shrv1","icn":200908495,"province":"Nimruz","lat":31.0214,"incident date":"8/21/2009","hostages":0},"type":"Feature","geometry":{"type":"Point","coordinates":[62.4504,31.0214]}},{"properties":{"city":"None","lon":62.4504,"dead":0,"total":0,"country":"Afghanistan","subject":"1 police vehicle, 1 set of election materials damaged in IED attack in Nimruz, Afghanistan","wounded":0,"id":"a7782b03x875","icn":200908497,"province":"Nimruz","lat":31.0214,"incident date":"8/21/2009","hostages":0},"type":"Feature","geometry":{"type":"Point","coordinates":[62.4504,31.0214]}},{"properties":{"city":"Shorawak","lon":64.3511,"dead":2,"total":2,"country":"Afghanistan","subject":"2 civilians killed in IED attack in Shorawak, Kandahar, Afghanistan","wounded":0,"id":"a7782azv15wp","icn":200908519,"province":"Kandahar","lat":31.822765,"incident date":"8/18/2009","hostages":0},"type":"Feature","geometry":{"type":"Point","coordinates":[64.3511,31.822765]}},{"properties":{"city":"Feyzabad","lon":70.58,"dead":3,"total":3,"country":"Afghanistan","subject":"3 election workers killed in IED attack near Feyzabad, Badakhshan, Afghanistan","wounded":0,"id":"a7782az6y0j2","icn":200908521,"province":"Badakhshan","lat":37.12,"incident date":"8/18/2009","hostages":0},"type":"Feature","geometry":{"type":"Point","coordinates":[70.58,37.12]}},{"properties":{"city":"Samkani","lon":69.5593,"dead":2,"total":2,"country":"Afghanistan","subject":"2 police officers killed in IED attack by Hizb-i-Islami in Samkani, Paktia, Afghanistan","wounded":0,"id":"a7782apv4ux4","icn":200908524,"province":"Paktia","lat":33.6391,"incident date":"8/19/2009","hostages":0},"type":"Feature","geometry":{"type":"Point","coordinates":[69.5593,33.6391]}},{"properties":{"city":"Gorbaz","lon":69.8833333,"dead":4,"total":7,"country":"Afghanistan","subject":"4 police officers killed, 3 others wounded in IED attack by suspected Taliban in Gorbaz, Khowst, Afghanistan","wounded":3,"id":"a7782avj06g0","icn":200908544,"province":"Khowst","lat":33.3833333,"incident date":"8/27/2009","hostages":0},"type":"Feature","geometry":{"type":"Point","coordinates":[69.8833333,33.3833333]}},{"properties":{"city":"None","lon":69.4757,"dead":2,"total":2,"country":"Afghanistan","subject":"1 police chief, 1 security guard killed in IED attack by Taliban in Paktia, Afghanistan","wounded":0,"id":"a7782apznuvi","icn":200908545,"province":"Paktia","lat":33.6347,"incident date":"8/26/2009","hostages":0},"type":"Feature","geometry":{"type":"Point","coordinates":[69.4757,33.6347]}},{"properties":{"city":"None","lon":69.4757,"dead":0,"total":2,"country":"Afghanistan","subject":"2 civilians injured in IED attack in Paktia, Afghanistan","wounded":2,"id":"a7782asan9m7","icn":200908549,"province":"Paktia","lat":33.6347,"incident date":"8/18/2009","hostages":0},"type":"Feature","geometry":{"type":"Point","coordinates":[69.4757,33.6347]}},{"properties":{"city":"Khugiani","lon":70.29,"dead":2,"total":3,"country":"Afghanistan","subject":"2 police officers killed, 1 other injured in IED attack in Khugiani, Nangarhar, Afghanistan","wounded":1,"id":"a7782av7zpjh","icn":200908551,"province":"Nangarhar","lat":33.99,"incident date":"8/20/2009","hostages":0},"type":"Feature","geometry":{"type":"Point","coordinates":[70.29,33.99]}},{"properties":{"city":"Kuhestan","lon":69.3,"dead":0,"total":1,"country":"Afghanistan","subject":"1 civilian injured in VBIED attack in Kuhestan, Kapisa, Afghanistan","wounded":1,"id":"a7782ay5lpzz","icn":200908556,"province":"Kapisa","lat":35.12,"incident date":"8/6/2009","hostages":0},"type":"Feature","geometry":{"type":"Point","coordinates":[69.3,35.12]}},{"properties":{"city":"Pol-e 'Alam","lon":69.02,"dead":2,"total":4,"country":"Afghanistan","subject":"2 civilians killed, 2 others injured in IED attack in Pol-e 'Alam, Lowgar, Afghanistan","wounded":2,"id":"a7782avgt8hi","icn":200908578,"province":"Lowgar","lat":34.04,"incident date":"8/20/2009","hostages":0},"type":"Feature","geometry":{"type":"Point","coordinates":[69.02,34.04]}},{"properties":{"city":"Herat","lon":62.18,"dead":0,"total":0,"country":"Afghanistan","subject":"1 polling center destroyed in IED attack in Herat, Herat, Afghanistan","wounded":0,"id":"a7782asowgwu","icn":200908586,"province":"Herat","lat":34.37,"incident date":"8/19/2009","hostages":0},"type":"Feature","geometry":{"type":"Point","coordinates":[62.18,34.37]}},{"properties":{"city":"Shindand","lon":62.1309,"dead":0,"total":0,"country":"Afghanistan","subject":"Government building targeted in IED attack in Shindand, Herat, Afghanistan","wounded":0,"id":"a7782azq1vjd","icn":200908589,"province":"Herat","lat":33.30704,"incident date":"8/20/2009","hostages":0},"type":"Feature","geometry":{"type":"Point","coordinates":[62.1309,33.30704]}},{"properties":{"city":"Kandahar","lon":65.7615,"dead":1,"total":12,"country":"Afghanistan","subject":"1 police officer killed, 5 police officers, 6 civilians wounded in IED attack in Kandahar, Kandahar, Afghanistan","wounded":11,"id":"a7782asq5fme","icn":200908612,"province":"Kandahar","lat":31.603,"incident date":"8/28/2009","hostages":0},"type":"Feature","geometry":{"type":"Point","coordinates":[65.7615,31.603]}},{"properties":{"city":"Dand Wa Patan","lon":69.573791,"dead":2,"total":3,"country":"Afghanistan","subject":"2 civilians killed, 1 other wounded in IED attack in Dand Wa Patan, Paktia, Afghanistan","wounded":1,"id":"a7782anojizu","icn":200908615,"province":"Paktia","lat":33.739157,"incident date":"8/28/2009","hostages":0},"type":"Feature","geometry":{"type":"Point","coordinates":[69.573791,33.739157]}},{"properties":{"city":"Yahya Khel","lon":68.65,"dead":5,"total":5,"country":"Afghanistan","subject":"2 civilians, several children killed in IED attack in Yahya Khel, Paktika, Afghanistan","wounded":0,"id":"a7782b20opnl","icn":200908616,"province":"Paktika","lat":32.94,"incident date":"8/28/2009","hostages":0},"type":"Feature","geometry":{"type":"Point","coordinates":[68.65,32.94]}},{"properties":{"city":"Orgun","lon":69.17,"dead":0,"total":0,"country":"Afghanistan","subject":"Polling station targeted in IED attack in Orgun, Paktika, Afghanistan","wounded":0,"id":"a7782b1muw9p","icn":200908635,"province":"Paktika","lat":32.94,"incident date":"8/20/2009","hostages":0},"type":"Feature","geometry":{"type":"Point","coordinates":[69.17,32.94]}},{"properties":{"city":"Panjva'i","lon":65.46,"dead":0,"total":0,"country":"Afghanistan","subject":"1 polling center damaged in IED attack in Panjva'i, Kandahar, Afghanistan","wounded":0,"id":"a7782au570dp","icn":200908641,"province":"Kandahar","lat":31.52,"incident date":"8/18/2009","hostages":0},"type":"Feature","geometry":{"type":"Point","coordinates":[65.46,31.52]}},{"properties":{"city":"Mehtar Lam","lon":70.21,"dead":23,"total":77,"country":"Afghanistan","subject":"12 civilians, 3 government officials, several tribal elders, several religious scholars, 2 security guards killed, 48 civilians, several tribal elders, several religious scholars wounded in suicide IED attack by Taliban in Mehtar Lam, Laghman, Afghanistan","wounded":54,"id":"a7782atmjqqx","icn":200908679,"province":"Laghman","lat":34.67,"incident date":"9/2/2009","hostages":0},"type":"Feature","geometry":{"type":"Point","coordinates":[70.21,34.67]}},{"properties":{"city":"Shah Juy","lon":67.42,"dead":2,"total":28,"country":"Afghanistan","subject":"2 civilians killed, 23 others, 3 soldiers wounded in suicide VBIED attack by Taliban in Shah Juy, Zabol, Afghanistan","wounded":26,"id":"a7782b0sexgv","icn":200908737,"province":"Zabol","lat":32.52,"incident date":"8/29/2009","hostages":0},"type":"Feature","geometry":{"type":"Point","coordinates":[67.42,32.52]}},{"properties":{"city":"Panjva'i","lon":65.46,"dead":3,"total":7,"country":"Afghanistan","subject":"3 police officers killed, 4 others wounded in IED attack by Taliban in Panjva'i, Kandahar, Afghanistan","wounded":4,"id":"a7782as00yin","icn":200908738,"province":"Kandahar","lat":31.52,"incident date":"8/29/2009","hostages":0},"type":"Feature","geometry":{"type":"Point","coordinates":[65.46,31.52]}},{"properties":{"city":"Arghandab","lon":65.65,"dead":3,"total":7,"country":"Afghanistan","subject":"3 civilians killed, 4 others wounded in IED attack in Arghandab, Kandahar, Afghanistan","wounded":4,"id":"a7782b3hnhmw","icn":200908739,"province":"Kandahar","lat":31.66,"incident date":"8/29/2009","hostages":0},"type":"Feature","geometry":{"type":"Point","coordinates":[65.65,31.66]}},{"properties":{"city":"Konduz","lon":68.714,"dead":2,"total":6,"country":"Afghanistan","subject":"2 children killed, 4 others injured in IED attack by Taliban in Konduz, Kondoz, Afghanistan","wounded":4,"id":"a7782as55534","icn":200908754,"province":"Kondoz","lat":36.859,"incident date":"8/30/2009","hostages":0},"type":"Feature","geometry":{"type":"Point","coordinates":[68.714,36.859]}},{"properties":{"city":"Shamal Zay","lon":67.65,"dead":0,"total":0,"country":"Afghanistan","subject":"Unknown target in IED attack in Shamal Zay, Zabol, Afghanistan","wounded":0,"id":"a7782aqw0aec","icn":200908756,"province":"Zabol","lat":31.91,"incident date":"8/31/2009","hostages":0},"type":"Feature","geometry":{"type":"Point","coordinates":[67.65,31.91]}},{"properties":{"city":"None","lon":69.8574,"dead":1,"total":1,"country":"Afghanistan","subject":"1 police officer killed in IED attack in Khowst, Afghanistan","wounded":0,"id":"a7782b421yio","icn":200908757,"province":"Khowst","lat":33.3593,"incident date":"8/31/2009","hostages":0},"type":"Feature","geometry":{"type":"Point","coordinates":[69.8574,33.3593]}},{"properties":{"city":"Ghazni","lon":68.42,"dead":0,"total":4,"country":"Afghanistan","subject":"4 police officers injured in IED attack in Ghazni, Ghazni, Afghanistan","wounded":4,"id":"a7782b3m8juk","icn":200908758,"province":"Ghazni","lat":33.55,"incident date":"8/31/2009","hostages":0},"type":"Feature","geometry":{"type":"Point","coordinates":[68.42,33.55]}},{"properties":{"city":"None","lon":67.1921,"dead":1,"total":5,"country":"Afghanistan","subject":"1 private security guard killed, 4 others injured in IED attack in Zabol, Afghanistan","wounded":4,"id":"a7782avkoi4d","icn":200908765,"province":"Zabol","lat":32.1964,"incident date":"8/31/2009","hostages":0},"type":"Feature","geometry":{"type":"Point","coordinates":[67.1921,32.1964]}},{"properties":{"city":"None","lon":69.4757,"dead":2,"total":5,"country":"Afghanistan","subject":"2 private security guards killed, 3 others injured in IED attack in Paktia, Afghanistan","wounded":3,"id":"a7782axeee4l","icn":200908766,"province":"Paktia","lat":33.6347,"incident date":"8/31/2009","hostages":0},"type":"Feature","geometry":{"type":"Point","coordinates":[69.4757,33.6347]}},{"properties":{"city":"Kandahar","lon":65.7615,"dead":0,"total":2,"country":"Afghanistan","subject":"1 police officer, 1 child wounded in IED attack in Kandahar, Kandahar, Afghanistan","wounded":2,"id":"a7782ayj8mig","icn":200908770,"province":"Kandahar","lat":31.603,"incident date":"8/29/2009","hostages":0},"type":"Feature","geometry":{"type":"Point","coordinates":[65.7615,31.603]}},{"properties":{"city":"Kandahar","lon":65.7615,"dead":1,"total":3,"country":"Afghanistan","subject":"1 child killed, 2 children wounded in IED attack in Kandahar, Kandahar, Afghanistan","wounded":2,"id":"a7782b2ouwub","icn":200908771,"province":"Kandahar","lat":31.603,"incident date":"8/29/2009","hostages":0},"type":"Feature","geometry":{"type":"Point","coordinates":[65.7615,31.603]}},{"properties":{"city":"Sheberghan","lon":65.75,"dead":1,"total":7,"country":"Afghanistan","subject":"1 civilian killed, 6 others wounded in VBIED attack in Sheberghan, Jowzjan, Afghanistan","wounded":6,"id":"a7782az0rqen","icn":200908777,"province":"Jowzjan","lat":36.67,"incident date":"9/2/2009","hostages":0},"type":"Feature","geometry":{"type":"Point","coordinates":[65.75,36.67]}},{"properties":{"city":"Arghandab","lon":65.65,"dead":0,"total":0,"country":"Afghanistan","subject":"Unknown target in IED attack by suspected Taliban in Arghandab, Kandahar, Afghanistan","wounded":0,"id":"a7782arrtj0e","icn":200908787,"province":"Kandahar","lat":31.66,"incident date":"9/1/2009","hostages":0},"type":"Feature","geometry":{"type":"Point","coordinates":[65.65,31.66]}},{"properties":{"city":"Gereshk","lon":64.56,"dead":0,"total":1,"country":"Afghanistan","subject":"1 police officer wounded in IED attack in Gereshk, Helmand, Afghanistan","wounded":1,"id":"a7782apz7ll7","icn":200908789,"province":"Helmand","lat":31.82,"incident date":"9/2/2009","hostages":0},"type":"Feature","geometry":{"type":"Point","coordinates":[64.56,31.82]}},{"properties":{"city":"Delaram","lon":63.43,"dead":3,"total":3,"country":"Afghanistan","subject":"3 security guards killed in suicide VBIED attack by Taliban in Delaram, Nimruz, Afghanistan","wounded":0,"id":"a7782b0tqcmt","icn":200908806,"province":"Nimruz","lat":32.16,"incident date":"9/4/2009","hostages":0},"type":"Feature","geometry":{"type":"Point","coordinates":[63.43,32.16]}},{"properties":{"city":"Poshteh","lon":62.96,"dead":0,"total":0,"country":"Afghanistan","subject":"Unknown target in IED explosion in Poshteh, Farah, Afghanistan","wounded":0,"id":"a7782as3rvxd","icn":200908807,"province":"Farah","lat":32.11,"incident date":"8/31/2009","hostages":0},"type":"Feature","geometry":{"type":"Point","coordinates":[62.96,32.11]}},{"properties":{"city":"Herat","lon":62.18,"dead":7,"total":10,"country":"Afghanistan","subject":"7 civilians, 3 children wounded in VBIED attack in Herat, Herat, Afghanistan","wounded":3,"id":"a7782b15nutf","icn":200908808,"province":"Herat","lat":34.37,"incident date":"9/5/2009","hostages":0},"type":"Feature","geometry":{"type":"Point","coordinates":[62.18,34.37]}},{"properties":{"city":"Andar","lon":68.435211,"dead":0,"total":4,"country":"Afghanistan","subject":"4 police officers wounded in IED attack in Andar, Ghazni, Afghanistan","wounded":4,"id":"a7782axiybhs","icn":200908809,"province":"Ghazni","lat":33.332401,"incident date":"9/5/2009","hostages":0},"type":"Feature","geometry":{"type":"Point","coordinates":[68.435211,33.332401]}},{"properties":{"city":"None","lon":69.8574,"dead":1,"total":3,"country":"Afghanistan","subject":"1 security guard killed, 2 others wounded in IED attack by Taliban in Khowst, Afghanistan","wounded":2,"id":"a7782apb5o6r","icn":200908810,"province":"Khowst","lat":33.3593,"incident date":"9/5/2009","hostages":0},"type":"Feature","geometry":{"type":"Point","coordinates":[69.8574,33.3593]}},{"properties":{"city":"None","lon":70.6244,"dead":0,"total":0,"country":"Afghanistan","subject":"1 school damaged in IED attack by suspected Taliban in Nangarhar, Afghanistan","wounded":0,"id":"a7782ayuqy57","icn":200908823,"province":"Nangarhar","lat":34.1763,"incident date":"9/4/2009","hostages":0},"type":"Feature","geometry":{"type":"Point","coordinates":[70.6244,34.1763]}},{"properties":{"city":"Tarin Kowt","lon":65.88,"dead":2,"total":17,"country":"Afghanistan","subject":"2 children killed, 10 civilians and children, 5 police officers injured in IED attack in Tarin Kowt, Oruzgan, Afghanistan","wounded":15,"id":"a7782b433kuw","icn":200908826,"province":"Oruzgan","lat":32.63,"incident date":"9/7/2009","hostages":0},"type":"Feature","geometry":{"type":"Point","coordinates":[65.88,32.63]}},{"properties":{"city":"None","lon":67.1921,"dead":1,"total":4,"country":"Afghanistan","subject":"1 security guard killed, 3 others wounded in IED attack in Zabol, Afghanistan","wounded":3,"id":"a7782aydkr8d","icn":200908830,"province":"Zabol","lat":32.1964,"incident date":"9/1/2009","hostages":0},"type":"Feature","geometry":{"type":"Point","coordinates":[67.1921,32.1964]}},{"properties":{"city":"Kabul","lon":69.171,"dead":2,"total":12,"country":"Afghanistan","subject":"2 civilians killed, 6 civilians, 4 soldiers injured in suicide VBIED attack by Taliban in Kabul, Kabol, Afghanistan","wounded":10,"id":"a7782ao6wghi","icn":200908835,"province":"Kabol","lat":34.528,"incident date":"9/8/2009","hostages":0},"type":"Feature","geometry":{"type":"Point","coordinates":[69.171,34.528]}},{"properties":{"city":"Pol-e Khomri","lon":68.72,"dead":1,"total":21,"country":"Afghanistan","subject":"1 police officer killed, 20 others injured in IED attack by Taliban in Pol-e Khomri, Baghlan, Afghanistan","wounded":20,"id":"a7782b1jz82f","icn":200908841,"province":"Baghlan","lat":35.94,"incident date":"9/7/2009","hostages":0},"type":"Feature","geometry":{"type":"Point","coordinates":[68.72,35.94]}},{"properties":{"city":"None","lon":62.4504,"dead":0,"total":0,"country":"Afghanistan","subject":"Bridge targeted in IED attack by suspected Taliban in Nimruz, Afghanistan","wounded":0,"id":"a7782app9yc4","icn":200908844,"province":"Nimruz","lat":31.0214,"incident date":"9/3/2009","hostages":0},"type":"Feature","geometry":{"type":"Point","coordinates":[62.4504,31.0214]}},{"properties":{"city":"None","lon":62.4504,"dead":0,"total":0,"country":"Afghanistan","subject":"Unknown target in IED attack by suspected Taliban in Farah, Afghanistan","wounded":0,"id":"a7782atwcfkt","icn":200908859,"province":"Farah","lat":33.0446,"incident date":"9/1/2009","hostages":0},"type":"Feature","geometry":{"type":"Point","coordinates":[62.4504,33.0446]}},{"properties":{"city":"Kandahar","lon":65.7615,"dead":2,"total":5,"country":"Afghanistan","subject":"1 government employee, 1 child killed, 3 government employees wounded in suicide VBIED attack in Kandahar, Kandahar, Afghanistan","wounded":3,"id":"a7782aoun7ua","icn":200908875,"province":"Kandahar","lat":31.603,"incident date":"9/12/2009","hostages":0},"type":"Feature","geometry":{"type":"Point","coordinates":[65.7615,31.603]}},{"properties":{"city":"Chowreh","lon":66.08,"dead":14,"total":14,"country":"Afghanistan","subject":"11 civilians, 3 children killed in IED attack by suspected Taliban in Chowreh, Oruzgan, Afghanistan","wounded":0,"id":"a7782axl4jqt","icn":200908879,"province":"Oruzgan","lat":32.85,"incident date":"9/11/2009","hostages":0},"type":"Feature","geometry":{"type":"Point","coordinates":[66.08,32.85]}},{"properties":{"city":"Gereshk","lon":64.56,"dead":0,"total":2,"country":"Afghanistan","subject":"2 police officers injured in suicide IED attack by Taliban in Gereshk, Helmand, Afghanistan","wounded":2,"id":"a7782axfls5g","icn":200908880,"province":"Helmand","lat":31.82,"incident date":"9/9/2009","hostages":0},"type":"Feature","geometry":{"type":"Point","coordinates":[64.56,31.82]}},{"properties":{"city":"Maywand","lon":65.132,"dead":6,"total":8,"country":"Afghanistan","subject":"6 civilians killed, 2 children wounded in IED attack in Maywand, Kandahar, Afghanistan","wounded":2,"id":"a7782avtgzwx","icn":200908881,"province":"Kandahar","lat":31.732517,"incident date":"9/11/2009","hostages":0},"type":"Feature","geometry":{"type":"Point","coordinates":[65.132,31.732517]}},{"properties":{"city":"None","lon":69.8574,"dead":2,"total":5,"country":"Afghanistan","subject":"2 children killed, 3 others wounded in IED attack in Khowst, Afghanistan","wounded":3,"id":"a7782av5zvem","icn":200908883,"province":"Khowst","lat":33.3593,"incident date":"9/11/2009","hostages":0},"type":"Feature","geometry":{"type":"Point","coordinates":[69.8574,33.3593]}},{"properties":{"city":"Sherzad","lon":70.01,"dead":0,"total":0,"country":"Afghanistan","subject":"1 medical clinic destroyed in IED attack and arson by suspected Taliban in Sherzad, Nangarhar, Afghanistan","wounded":0,"id":"a7782atsggk8","icn":200908887,"province":"Nangarhar","lat":34.25,"incident date":"9/9/2009","hostages":0},"type":"Feature","geometry":{"type":"Point","coordinates":[70.01,34.25]}},{"properties":{"city":"Shamal Zay","lon":67.65,"dead":1,"total":5,"country":"Afghanistan","subject":"1 police officer killed, 4 others injured in IED attack by Taliban in Shamal Zay, Zabol, Afghanistan","wounded":4,"id":"a7782awgwq22","icn":200908889,"province":"Zabol","lat":31.91,"incident date":"9/10/2009","hostages":0},"type":"Feature","geometry":{"type":"Point","coordinates":[67.65,31.91]}},{"properties":{"city":"Shavak","lon":69.38,"dead":0,"total":4,"country":"Afghanistan","subject":"4 security guards wounded in IED attack by Taliban in Shavak, Paktia, Afghanistan","wounded":4,"id":"a7782arz8sn5","icn":200908988,"province":"Paktia","lat":33.43,"incident date":"9/11/2009","hostages":0},"type":"Feature","geometry":{"type":"Point","coordinates":[69.38,33.43]}},{"properties":{"city":"Panjva'i","lon":65.46,"dead":0,"total":9,"country":"Afghanistan","subject":"6 police officers, 2 civilians, 1 child wounded in suicide IED attack in Panjva'i, Kandahar, Afghanistan","wounded":9,"id":"a7782b3dk7aq","icn":200908989,"province":"Kandahar","lat":31.52,"incident date":"9/11/2009","hostages":0},"type":"Feature","geometry":{"type":"Point","coordinates":[65.46,31.52]}},{"properties":{"city":"Barmal","lon":68.75,"dead":0,"total":0,"country":"Afghanistan","subject":"Police officers targeted in suicide IED attack in Barmal, Paktika, Afghanistan","wounded":0,"id":"a7782arlmfxa","icn":200909005,"province":"Paktika","lat":32.4166667,"incident date":"9/12/2009","hostages":0},"type":"Feature","geometry":{"type":"Point","coordinates":[68.75,32.4166667]}},{"properties":{"city":"Meydan Shahr","lon":68.79,"dead":1,"total":6,"country":"Afghanistan","subject":"1 police officer killed, 5 others wounded in IED attack by Taliban in Meydan Shahr, Vardak, Afghanistan","wounded":5,"id":"a7782ay0myat","icn":200909007,"province":"Vardak","lat":34.45,"incident date":"9/12/2009","hostages":0},"type":"Feature","geometry":{"type":"Point","coordinates":[68.79,34.45]}},{"properties":{"city":"Chowreh","lon":66.08,"dead":1,"total":4,"country":"Afghanistan","subject":"1 government employee killed, 3 others wounded in IED attack in Chowreh, Oruzgan, Afghanistan","wounded":3,"id":"a7782b13qoib","icn":200909024,"province":"Oruzgan","lat":32.85,"incident date":"9/15/2009","hostages":0},"type":"Feature","geometry":{"type":"Point","coordinates":[66.08,32.85]}},{"properties":{"city":"None","lon":61.695,"dead":0,"total":2,"country":"Afghanistan","subject":"1 government employee, 1 child wounded in IED attack by Al-Fatah in Herat, Afghanistan","wounded":2,"id":"a7782arzx04v","icn":200909026,"province":"Herat","lat":34.1768,"incident date":"9/15/2009","hostages":0},"type":"Feature","geometry":{"type":"Point","coordinates":[61.695,34.1768]}},{"properties":{"city":"Chowreh","lon":66.08,"dead":2,"total":5,"country":"Afghanistan","subject":"2 police officers killed, 3 others injured in IED attack in Chowreh, Oruzgan, Afghanistan","wounded":3,"id":"a7782b2yfcu7","icn":200909030,"province":"Oruzgan","lat":32.85,"incident date":"9/16/2009","hostages":0},"type":"Feature","geometry":{"type":"Point","coordinates":[66.08,32.85]}},{"properties":{"city":"None","lon":69.8574,"dead":0,"total":9,"country":"Afghanistan","subject":"8 children, 1 civilian wounded in IED attack in Khowst, Afghanistan","wounded":9,"id":"a7782b18l7f8","icn":200909032,"province":"Khowst","lat":33.3593,"incident date":"9/11/2009","hostages":0},"type":"Feature","geometry":{"type":"Point","coordinates":[69.8574,33.3593]}},{"properties":{"city":"Nader Shah Kowt","lon":69.69,"dead":3,"total":3,"country":"Afghanistan","subject":"3 civilians killed in IED attack by Taliban in Nader Shah Kowt, Khowst, Afghanistan","wounded":0,"id":"a7782asa04hn","icn":200909033,"province":"Khowst","lat":33.31,"incident date":"9/16/2009","hostages":0},"type":"Feature","geometry":{"type":"Point","coordinates":[69.69,33.31]}},{"properties":{"city":"Kabul","lon":69.171,"dead":16,"total":75,"country":"Afghanistan","subject":"10 civilians, 6 soldiers killed, 55 people, 4 soldiers injured in suicide VBIED attack by Taliban in Kabul, Kabol, Afghanistan","wounded":59,"id":"a7782b094445","icn":200909035,"province":"Kabol","lat":34.528,"incident date":"9/17/2009","hostages":0},"type":"Feature","geometry":{"type":"Point","coordinates":[69.171,34.528]}},{"properties":{"city":"Garmsir","lon":64.2,"dead":1,"total":4,"country":"Afghanistan","subject":"1 civilian killed, 3 others injured in IED attack in Garmsir, Helmand, Afghanistan","wounded":3,"id":"a7782asuxb43","icn":200909037,"province":"Helmand","lat":31.12,"incident date":"9/17/2009","hostages":0},"type":"Feature","geometry":{"type":"Point","coordinates":[64.2,31.12]}},{"properties":{"city":"Hokumati Nad-e 'Ali","lon":64.24,"dead":2,"total":2,"country":"Afghanistan","subject":"2 civilians killed in IED attack in Hokumati Nad-e 'Ali, Helmand, Afghanistan","wounded":0,"id":"a7782axd9fzy","icn":200909038,"province":"Helmand","lat":31.64,"incident date":"9/17/2009","hostages":0},"type":"Feature","geometry":{"type":"Point","coordinates":[64.24,31.64]}},{"properties":{"city":"Khugiani","lon":70.29,"dead":0,"total":1,"country":"Afghanistan","subject":"1 student wounded in IED attack in Khugiani, Nangarhar, Afghanistan","wounded":1,"id":"a7782axalrh9","icn":200909042,"province":"Nangarhar","lat":33.99,"incident date":"9/14/2009","hostages":0},"type":"Feature","geometry":{"type":"Point","coordinates":[70.29,33.99]}},{"properties":{"city":"Khowst","lon":69.920293,"dead":0,"total":8,"country":"Afghanistan","subject":"8 civilians injured in IED attack in Khowst, Khowst, Afghanistan","wounded":8,"id":"a7782antoxbp","icn":200909048,"province":"Khowst","lat":33.334208,"incident date":"9/17/2009","hostages":0},"type":"Feature","geometry":{"type":"Point","coordinates":[69.920293,33.334208]}},{"properties":{"city":"Herat","lon":62.18,"dead":2,"total":5,"country":"Afghanistan","subject":"2 children killed, 2 others, 1 tribal leader injured in suicide IED attack in Herat, Herat, Afghanistan","wounded":3,"id":"a7782axjrceq","icn":200909051,"province":"Herat","lat":34.37,"incident date":"9/19/2009","hostages":0},"type":"Feature","geometry":{"type":"Point","coordinates":[62.18,34.37]}},{"properties":{"city":"Kandahar","lon":65.7615,"dead":6,"total":22,"country":"Afghanistan","subject":"3 civilians, 3 children killed, 16 civilians and children injured in VBIED attack in Kandahar, Kandahar, Afghanistan","wounded":16,"id":"a7782anolwep","icn":200909061,"province":"Kandahar","lat":31.603,"incident date":"9/18/2009","hostages":0},"type":"Feature","geometry":{"type":"Point","coordinates":[65.7615,31.603]}},{"properties":{"city":"Herat","lon":62.18,"dead":0,"total":0,"country":"Afghanistan","subject":"Unknown target in IED attack in Herat, Herat, Afghanistan","wounded":0,"id":"a7782awz9fl7","icn":200909070,"province":"Herat","lat":34.37,"incident date":"9/2/2009","hostages":0},"type":"Feature","geometry":{"type":"Point","coordinates":[62.18,34.37]}},{"properties":{"city":"Andar","lon":68.435211,"dead":1,"total":5,"country":"Afghanistan","subject":"1 civilian killed, 4 others wounded in IED attack in Andar, Ghazni, Afghanistan","wounded":4,"id":"a7782azxv3w3","icn":200909075,"province":"Ghazni","lat":33.332401,"incident date":"9/5/2009","hostages":0},"type":"Feature","geometry":{"type":"Point","coordinates":[68.435211,33.332401]}},{"properties":{"city":"Tarin Kowt","lon":65.88,"dead":0,"total":0,"country":"Afghanistan","subject":"Unknown target in IED attack in Tarin Kowt, Oruzgan, Afghanistan","wounded":0,"id":"a7782ao420z3","icn":200909076,"province":"Oruzgan","lat":32.63,"incident date":"9/3/2009","hostages":0},"type":"Feature","geometry":{"type":"Point","coordinates":[65.88,32.63]}},{"properties":{"city":"Tarin Kowt","lon":65.88,"dead":4,"total":4,"country":"Afghanistan","subject":"4 civilians killed in IED attack in Tarin Kowt, Oruzgan, Afghanistan","wounded":0,"id":"a7782awqbkco","icn":200909077,"province":"Oruzgan","lat":32.63,"incident date":"9/5/2009","hostages":0},"type":"Feature","geometry":{"type":"Point","coordinates":[65.88,32.63]}},{"properties":{"city":"Zheray","lon":66.11,"dead":2,"total":10,"country":"Afghanistan","subject":"2 civilians killed, 5 others, 3 soldiers injured in suicide IED attack by Taliban in Zheray, Kandahar, Afghanistan","wounded":8,"id":"a7782arsex9b","icn":200909080,"province":"Kandahar","lat":32.12,"incident date":"9/16/2009","hostages":0},"type":"Feature","geometry":{"type":"Point","coordinates":[66.11,32.12]}},{"properties":{"city":"Manugay","lon":70.91,"dead":0,"total":0,"country":"Afghanistan","subject":"2 vehicles destroyed in IED attack in Manugay, Konar, Afghanistan","wounded":0,"id":"a7782atkovxt","icn":200909095,"province":"Konar","lat":34.99,"incident date":"9/18/2009","hostages":0},"type":"Feature","geometry":{"type":"Point","coordinates":[70.91,34.99]}},{"properties":{"city":"Khowst","lon":69.920293,"dead":0,"total":0,"country":"Afghanistan","subject":"Unknown target in IED explosion in Khowst, Khowst, Afghanistan","wounded":0,"id":"a7782armydxn","icn":200909097,"province":"Khowst","lat":33.334208,"incident date":"9/18/2009","hostages":0},"type":"Feature","geometry":{"type":"Point","coordinates":[69.920293,33.334208]}},{"properties":{"city":"Chahar Asiab","lon":69.15,"dead":0,"total":2,"country":"Afghanistan","subject":"2 police officers injured in IED attack in Chahar Asiab, Kabol, Afghanistan","wounded":2,"id":"a7782az423bd","icn":200909129,"province":"Kabol","lat":34.41,"incident date":"9/7/2009","hostages":0},"type":"Feature","geometry":{"type":"Point","coordinates":[69.15,34.41]}},{"properties":{"city":"Panjva'i","lon":65.46,"dead":7,"total":7,"country":"Afghanistan","subject":"5 civilians, 2 children killed in IED attack by suspected Taliban in Panjva'i, Kandahar, Afghanistan","wounded":0,"id":"a7782aqccpq4","icn":200909165,"province":"Kandahar","lat":31.52,"incident date":"9/23/2009","hostages":0},"type":"Feature","geometry":{"type":"Point","coordinates":[65.46,31.52]}},{"properties":{"city":"Gereshk","lon":64.56,"dead":3,"total":5,"country":"Afghanistan","subject":"3 police officers killed, 2 others wounded in IED attack in Gereshk, Helmand, Afghanistan","wounded":2,"id":"a7782b32cyg7","icn":200909169,"province":"Helmand","lat":31.82,"incident date":"9/24/2009","hostages":0},"type":"Feature","geometry":{"type":"Point","coordinates":[64.56,31.82]}},{"properties":{"city":"None","lon":62.4504,"dead":0,"total":7,"country":"Afghanistan","subject":"3 security guards, 1 government official, 3 civilians wounded in IED attack by suspected Taliban in Farah, Afghanistan","wounded":7,"id":"a7782ayk90da","icn":200909181,"province":"Farah","lat":33.0446,"incident date":"9/24/2009","hostages":0},"type":"Feature","geometry":{"type":"Point","coordinates":[62.4504,33.0446]}},{"properties":{"city":"Gulistan","lon":63.66,"dead":5,"total":13,"country":"Afghanistan","subject":"3 civilians, 2 children killed, 8 civilians wounded in IED attack in Gulistan, Farah, Afghanistan","wounded":8,"id":"a7782anl524u","icn":200909184,"province":"Farah","lat":32.62,"incident date":"9/22/2009","hostages":0},"type":"Feature","geometry":{"type":"Point","coordinates":[63.66,32.62]}},{"properties":{"city":"Alisher Terizai","lon":70.09,"dead":0,"total":4,"country":"Afghanistan","subject":"4 civilians wounded in IED attack in Alisher Terizai, Khowst, Afghanistan","wounded":4,"id":"a7782aroywbr","icn":200909187,"province":"Khowst","lat":33.46,"incident date":"9/21/2009","hostages":0},"type":"Feature","geometry":{"type":"Point","coordinates":[70.09,33.46]}},{"properties":{"city":"Shahr-e-Safa","lon":66.32,"dead":0,"total":0,"country":"Afghanistan","subject":"Unknown target in IED attack by suspected Taliban in Shahr-e-Safa, Zabol, Afghanistan","wounded":0,"id":"a7782ay3ftlb","icn":200909204,"province":"Zabol","lat":31.8,"incident date":"9/26/2009","hostages":0},"type":"Feature","geometry":{"type":"Point","coordinates":[66.32,31.8]}},{"properties":{"city":"Nejrab","lon":69.57,"dead":0,"total":0,"country":"Afghanistan","subject":"1 mobile phone tower destroyed in IED attack by Taliban in Nejrab, Kapisa, Afghanistan","wounded":0,"id":"a7782b20v3a6","icn":200909208,"province":"Kapisa","lat":34.98,"incident date":"9/26/2009","hostages":0},"type":"Feature","geometry":{"type":"Point","coordinates":[69.57,34.98]}},{"properties":{"city":"Bakawa","lon":62.948611,"dead":0,"total":0,"country":"Afghanistan","subject":"Bridge targeted in IED attack by suspected Taliban in Bakawa, Farah, Afghanistan","wounded":0,"id":"a7782awkjp22","icn":200909253,"province":"Farah","lat":32.240833,"incident date":"9/23/2009","hostages":0},"type":"Feature","geometry":{"type":"Point","coordinates":[62.948611,32.240833]}},{"properties":{"city":"Khash Rud","lon":62.8666667,"dead":0,"total":0,"country":"Afghanistan","subject":"Unknown target in IED attack in Khash Rud, Nimruz, Afghanistan","wounded":0,"id":"a7782aq7c4zy","icn":200909259,"province":"Nimruz","lat":31.6166667,"incident date":"9/23/2009","hostages":0},"type":"Feature","geometry":{"type":"Point","coordinates":[62.8666667,31.6166667]}},{"properties":{"city":"Herat","lon":62.18,"dead":5,"total":22,"country":"Afghanistan","subject":"5 civilians killed, 13 civilians and children, 4 bodyguards injured in IED attack by Taliban in Herat, Herat, Afghanistan","wounded":17,"id":"a7782ap6gl04","icn":200909269,"province":"Herat","lat":34.37,"incident date":"9/27/2009","hostages":0},"type":"Feature","geometry":{"type":"Point","coordinates":[62.18,34.37]}},{"properties":{"city":"Maywand","lon":65.132,"dead":30,"total":69,"country":"Afghanistan","subject":"20 civilians, 10 children killed, 39 civilians and children injured in IED attack by suspected Taliban in Maywand, Kandahar, Afghanistan","wounded":39,"id":"a7782ao4ebf4","icn":200909272,"province":"Kandahar","lat":31.732517,"incident date":"9/29/2009","hostages":0},"type":"Feature","geometry":{"type":"Point","coordinates":[65.132,31.732517]}},{"properties":{"city":"Maywand","lon":65.132,"dead":3,"total":5,"country":"Afghanistan","subject":"3 civilians killed, 2 others injured in IED attack in Maywand, Kandahar, Afghanistan","wounded":2,"id":"a7782av00btr","icn":200909273,"province":"Kandahar","lat":31.732517,"incident date":"9/28/2009","hostages":0},"type":"Feature","geometry":{"type":"Point","coordinates":[65.132,31.732517]}},{"properties":{"city":"Baghlan","lon":68.7,"dead":0,"total":6,"country":"Afghanistan","subject":"6 police officers injured in IED attack by Taliban in Baghlan, Baghlan, Afghanistan","wounded":6,"id":"a7782aplwsh3","icn":200909295,"province":"Baghlan","lat":36.12,"incident date":"9/27/2009","hostages":0},"type":"Feature","geometry":{"type":"Point","coordinates":[68.7,36.12]}},{"properties":{"city":"Bakawa","lon":62.948611,"dead":3,"total":7,"country":"Afghanistan","subject":"3 civilians killed, 3 others, 1 child injured in IED attack by suspected Taliban in Bakawa, Farah, Afghanistan","wounded":4,"id":"a7782b067ytg","icn":200909297,"province":"Farah","lat":32.240833,"incident date":"9/27/2009","hostages":0},"type":"Feature","geometry":{"type":"Point","coordinates":[62.948611,32.240833]}},{"properties":{"city":"Zaranj","lon":62.07,"dead":0,"total":1,"country":"Afghanistan","subject":"1 police officer injured in suicide IED attack by Taliban in Zaranj, Nimruz, Afghanistan","wounded":1,"id":"a7782aqzmpoe","icn":200909299,"province":"Nimruz","lat":31.17,"incident date":"9/27/2009","hostages":0},"type":"Feature","geometry":{"type":"Point","coordinates":[62.07,31.17]}},{"properties":{"city":"Orgun","lon":69.17,"dead":2,"total":4,"country":"Afghanistan","subject":"2 civilians killed, 2 others injured in IED attack by Taliban in Orgun, Paktika, Afghanistan","wounded":2,"id":"a7782atqcpcz","icn":200909324,"province":"Paktika","lat":32.94,"incident date":"9/30/2009","hostages":0},"type":"Feature","geometry":{"type":"Point","coordinates":[69.17,32.94]}},{"properties":{"city":"None","lon":69.8574,"dead":0,"total":2,"country":"Afghanistan","subject":"1 tribal leader, 1 bodyguard injured in IED attack in Khowst, Afghanistan","wounded":2,"id":"a7782b28wbkm","icn":200909362,"province":"Khowst","lat":33.3593,"incident date":"9/30/2009","hostages":0},"type":"Feature","geometry":{"type":"Point","coordinates":[69.8574,33.3593]}},{"properties":{"city":"Almar","lon":64.53,"dead":5,"total":13,"country":"Afghanistan","subject":"5 civilians killed, 8 others injured in IED attack in Almar, Faryab, Afghanistan","wounded":8,"id":"a7782au8xbxp","icn":200909371,"province":"Faryab","lat":35.85,"incident date":"9/28/2009","hostages":0},"type":"Feature","geometry":{"type":"Point","coordinates":[64.53,35.85]}}],"is_temporal":false,"author":{"url":"","metadata":null,"contact_name":null,"contact_address":null,"source":null,"contact_phone":null},"source":"","pagination":{"sort":null,"start":0,"total":285,"limit":1000000},"state":"complete","tags":"","published":"2014-08-14T16:48:49-04:00","id":261432}