{"type":"FeatureCollection","data_type":"Dataset","url_type":null,"permissions":[{"permissions":{"download":true,"view":true},"group_id":"everyone"}],"classification":null,"title":"Mediacom Heatmap 072412","count":27,"stream_id":262911,"contributor":{"url":"http://geocommons.com/users/39387","name":"joshwgnr"},"data_attributes":null,"calculation_params":null,"icon_link":null,"link":"http://geocommons.com/overlays/262911.json","extent":[-123.035,30.4724,-74.2106,48.6283],"geometry_types":["point"],"unique_name":null,"name":"Mediacom Heatmap 072412","feature_count":27,"description":"","next_feature":null,"is_raster":false,"short_classification":"Y","stats":{"count":{"max":14,"variance":7.72934472934473,"mean":2.96296296296296,"stdev":2.78016991015742,"median":2,"min":1}},"features":[{"properties":{"city":"FAIRHOPE","geo_score":0.714,"count":4,"id":"a7d2pxyba46z","geo_precision":"city","state":"AL"},"type":"Feature","geometry":{"type":"Point","coordinates":[-87.810464,30.562883]}},{"properties":{"city":"HUNTSVILLE","geo_score":0.714,"count":2,"id":"a7d2py6mi8z4","geo_precision":"city","state":"AL"},"type":"Feature","geometry":{"type":"Point","coordinates":[-86.556439,34.718428]}},{"properties":{"city":"APACHE JUNCTION","geo_score":0.714,"count":2,"id":"a7d2py8p6h5a","geo_precision":"city","state":"AZ"},"type":"Feature","geometry":{"type":"Point","coordinates":[-111.478975,33.393398]}},{"properties":{"city":"CLEARLAKE OAKS","geo_score":0.714,"count":1,"id":"a7d2py4s53pn","geo_precision":"city","state":"CA"},"type":"Feature","geometry":{"type":"Point","coordinates":[-122.642763,38.955453]}},{"properties":{"city":"RIDGECREST","geo_score":0.714,"count":2,"id":"a7d2pyaxff85","geo_precision":"city","state":"CA"},"type":"Feature","geometry":{"type":"Point","coordinates":[-117.794007,35.540458]}},{"properties":{"city":"SUN CITY","geo_score":0.714,"count":2,"id":"a7d2py4ss4w1","geo_precision":"city","state":"CA"},"type":"Feature","geometry":{"type":"Point","coordinates":[-123.034604,40.672576]}},{"properties":{"city":"DAGSBORO","geo_score":0.714,"count":4,"id":"a7d2py3qcf2k","geo_precision":"city","state":"DE"},"type":"Feature","geometry":{"type":"Point","coordinates":[-75.181502,38.621403]}},{"properties":{"city":"GULF BREEZE","geo_score":0.714,"count":5,"id":"a7d2pxz4hh5e","geo_precision":"city","state":"FL"},"type":"Feature","geometry":{"type":"Point","coordinates":[-85.965214,30.472418]}},{"properties":{"city":"ALBANY","geo_score":0.714,"count":3,"id":"a7d2pxvgys6x","geo_precision":"city","state":"GA"},"type":"Feature","geometry":{"type":"Point","coordinates":[-84.176751,31.560674]}},{"properties":{"city":"COLUMBUS","geo_score":0.714,"count":1,"id":"a7d2pxw8vy9d","geo_precision":"city","state":"GA"},"type":"Feature","geometry":{"type":"Point","coordinates":[-84.97823,32.472864]}},{"properties":{"city":"VALDOSTA","geo_score":0.714,"count":1,"id":"a7d2py837nyz","geo_precision":"city","state":"GA"},"type":"Feature","geometry":{"type":"Point","coordinates":[-83.332068,30.753904]}},{"properties":{"city":"CEDAR RAPIDS","geo_score":0.714,"count":14,"id":"a7d2pxzkev44","geo_precision":"city","state":"IA"},"type":"Feature","geometry":{"type":"Point","coordinates":[-91.657578,41.976612]}},{"properties":{"city":"DUBUQUE","geo_score":0.714,"count":1,"id":"a7d2pxwx5306","geo_precision":"city","state":"IA"},"type":"Feature","geometry":{"type":"Point","coordinates":[-90.877135,42.458876]}},{"properties":{"city":"URBANDALE","geo_score":0.714,"count":3,"id":"a7d2py9unfur","geo_precision":"city","state":"IA"},"type":"Feature","geometry":{"type":"Point","coordinates":[-93.753628,41.630449]}},{"properties":{"city":"CHARLESTON","geo_score":0.714,"count":2,"id":"a7d2pxz64zb4","geo_precision":"city","state":"IL"},"type":"Feature","geometry":{"type":"Point","coordinates":[-88.160348,39.499622]}},{"properties":{"city":"HENRY","geo_score":0.714,"count":5,"id":"a7d2py0d9jvw","geo_precision":"city","state":"IL"},"type":"Feature","geometry":{"type":"Point","coordinates":[-89.339283,41.053004]}},{"properties":{"city":"MARION","geo_score":0.714,"count":1,"id":"a7d2pyb8lr2g","geo_precision":"city","state":"IL"},"type":"Feature","geometry":{"type":"Point","coordinates":[-88.864303,40.519236]}},{"properties":{"city":"MOLINE","geo_score":0.714,"count":8,"id":"a7d2pxxmnukh","geo_precision":"city","state":"IL"},"type":"Feature","geometry":{"type":"Point","coordinates":[-90.595736,41.420305]}},{"properties":{"city":"AUBURN","geo_score":0.714,"count":2,"id":"a7d2pyajpn0s","geo_precision":"city","state":"IN"},"type":"Feature","geometry":{"type":"Point","coordinates":[-85.027689,41.377758]}},{"properties":{"city":"BENTON","geo_score":0.714,"count":2,"id":"a7d2pyavaxtq","geo_precision":"city","state":"KY"},"type":"Feature","geometry":{"type":"Point","coordinates":[-88.948562,37.148007]}},{"properties":{"city":"HIBBING","geo_score":0.714,"count":3,"id":"a7d2py4a5ej4","geo_precision":"city","state":"MN"},"type":"Feature","geometry":{"type":"Point","coordinates":[-92.87621,47.413263]}},{"properties":{"city":"MOUND","geo_score":0.714,"count":5,"id":"a7d2py833a9m","geo_precision":"city","state":"MN"},"type":"Feature","geometry":{"type":"Point","coordinates":[-93.992955,48.628292]}},{"properties":{"city":"COLUMBIA","geo_score":0.714,"count":1,"id":"a7d2py8gbpsa","geo_precision":"city","state":"MO"},"type":"Feature","geometry":{"type":"Point","coordinates":[-92.274145,38.894165]}},{"properties":{"city":"EXCELSIOR SPRINGS","geo_score":0.714,"count":1,"id":"a7d2py0r2m56","geo_precision":"city","state":"MO"},"type":"Feature","geometry":{"type":"Point","coordinates":[-92.02405,37.762541]}},{"properties":{"city":"MOUNT VERNON","geo_score":0.714,"count":2,"id":"a7d2py49qzsw","geo_precision":"city","state":"MO"},"type":"Feature","geometry":{"type":"Point","coordinates":[-93.934986,36.802435]}},{"properties":{"city":"EDENTON","geo_score":0.714,"count":2,"id":"a7d2py5f4uug","geo_precision":"city","state":"NC"},"type":"Feature","geometry":{"type":"Point","coordinates":[-76.580107,36.135621]}},{"properties":{"city":"GOSHEN","geo_score":0.714,"count":1,"id":"a7d2pxxp0qak","geo_precision":"city","state":"NY"},"type":"Feature","geometry":{"type":"Point","coordinates":[-74.210608,41.357428]}}],"is_temporal":false,"author":{"url":"","metadata":"","contact_name":"","contact_address":"","source":"","contact_phone":""},"source":"","pagination":{"sort":null,"start":0,"total":27,"limit":1000000},"state":"complete","tags":"","published":"2014-08-14T18:53:02-04:00","id":262911}