{"type":"FeatureCollection","data_type":"Dataset","url_type":null,"permissions":[{"permissions":{"download":true,"view":true},"group_id":"everyone"}],"classification":null,"title":"Chapters","count":49,"stream_id":263576,"contributor":{"url":"http://geocommons.com/users/47629","name":"bwobst7531"},"data_attributes":null,"calculation_params":null,"icon_link":null,"link":"http://geocommons.com/overlays/263576.json","extent":[0.0,0.0,0.0,0.0],"geometry_types":[],"unique_name":null,"name":"Chapters","feature_count":49,"description":"","next_feature":null,"is_raster":false,"short_classification":"Y","stats":{"technical engineers":{"max":2,"variance":0.0,"mean":2.0,"stdev":0.0,"min":2,"median":2},"market development specialist":{"max":4,"variance":0.306122448979593,"mean":3.83673469387755,"stdev":0.553283335172489,"min":2,"median":4},"vendor licensing reps":{"max":6,"variance":1.22448979591836,"mean":2.3265306122449,"stdev":1.10656667034497,"min":2,"median":2},"id":{"max":5,"variance":1.30612244897959,"mean":3.16326530612245,"stdev":1.14285714285714,"min":1,"median":3},"field marketing manager":{"max":2,"variance":0.0765306122448982,"mean":1.08163265306122,"stdev":0.276641667586244,"min":1,"median":1},"marketing":{"max":3,"variance":0.306122448979591,"mean":1.16326530612245,"stdev":0.553283335172487,"min":1,"median":1},"market development manager":{"max":3,"variance":0.0765306122448982,"mean":2.91836734693878,"stdev":0.276641667586244,"min":2,"median":3},"vendor management":{"max":3,"variance":0.0765306122448982,"mean":2.08163265306122,"stdev":0.276641667586244,"min":2,"median":2}},"features":[{"properties":{"technical engineers":2,"region":"South West","market development specialist":2,"geo_score":0.0,"id":"a7e60cwa4m4c","vendor licensing reps":6,"marketing":3,"field marketing manager":2,"market development manager":2,"vendor management":3,"geo_precision":"unmatched","state":"California"},"type":"Feature","geometry":null},{"properties":{"technical engineers":2,"region":"South West","market development specialist":2,"geo_score":0.0,"id":"a7e60czlh8ro","vendor licensing reps":6,"marketing":3,"field marketing manager":2,"market development manager":2,"vendor management":3,"geo_precision":"unmatched","state":"Utah"},"type":"Feature","geometry":null},{"properties":{"technical engineers":2,"region":"South West","market development specialist":2,"geo_score":0.0,"id":"a7e60csdqigl","vendor licensing reps":6,"marketing":3,"field marketing manager":2,"market development manager":2,"vendor management":3,"geo_precision":"unmatched","state":"Arizona"},"type":"Feature","geometry":null},{"properties":{"technical engineers":2,"region":"South West","market development specialist":2,"geo_score":0.0,"id":"a7e60co0w2hr","vendor licensing reps":6,"marketing":3,"field marketing manager":2,"market development manager":2,"vendor management":3,"geo_precision":"unmatched","state":"Nevada"},"type":"Feature","geometry":null},{"properties":{"technical engineers":2,"region":"North West","market development specialist":4,"geo_score":0.0,"id":"a7e60cv6ata2","vendor licensing reps":2,"marketing":1,"field marketing manager":1,"market development manager":3,"vendor management":2,"geo_precision":"unmatched","state":"North Dakota"},"type":"Feature","geometry":null},{"properties":{"technical engineers":2,"region":"North West","market development specialist":4,"geo_score":0.0,"id":"a7e60cpqj3ur","vendor licensing reps":2,"marketing":1,"field marketing manager":1,"market development manager":3,"vendor management":2,"geo_precision":"unmatched","state":"South Dakota"},"type":"Feature","geometry":null},{"properties":{"technical engineers":2,"region":"North West","market development specialist":4,"geo_score":0.0,"id":"a7e60cn7ppcc","vendor licensing reps":2,"marketing":1,"field marketing manager":1,"market development manager":3,"vendor management":2,"geo_precision":"unmatched","state":"Nebraska"},"type":"Feature","geometry":null},{"properties":{"technical engineers":2,"region":"North West","market development specialist":4,"geo_score":0.0,"id":"a7e60cxssp12","vendor licensing reps":2,"marketing":1,"field marketing manager":1,"market development manager":3,"vendor management":2,"geo_precision":"unmatched","state":"Oregon"},"type":"Feature","geometry":null},{"properties":{"technical engineers":2,"region":"North West","market development specialist":4,"geo_score":0.0,"id":"a7e60ctv30fm","vendor licensing reps":2,"marketing":1,"field marketing manager":1,"market development manager":3,"vendor management":2,"geo_precision":"unmatched","state":"Washington"},"type":"Feature","geometry":null},{"properties":{"technical engineers":2,"region":"North West","market development specialist":4,"geo_score":0.0,"id":"a7e60cpied4e","vendor licensing reps":2,"marketing":1,"field marketing manager":1,"market development manager":3,"vendor management":2,"geo_precision":"unmatched","state":"Idaho"},"type":"Feature","geometry":null},{"properties":{"technical engineers":2,"region":"North West","market development specialist":4,"geo_score":0.0,"id":"a7e60cqftgds","vendor licensing reps":2,"marketing":1,"field marketing manager":1,"market development manager":3,"vendor management":2,"geo_precision":"unmatched","state":"Montana"},"type":"Feature","geometry":null},{"properties":{"technical engineers":2,"region":"North West","market development specialist":4,"geo_score":0.0,"id":"a7e60ct41cfx","vendor licensing reps":2,"marketing":1,"field marketing manager":1,"market development manager":3,"vendor management":2,"geo_precision":"unmatched","state":"Wyoming"},"type":"Feature","geometry":null},{"properties":{"technical engineers":2,"region":"North East","market development specialist":4,"geo_score":0.0,"id":"a7e60cw5jl1x","vendor licensing reps":2,"marketing":1,"field marketing manager":1,"market development manager":3,"vendor management":2,"geo_precision":"unmatched","state":"Iowa"},"type":"Feature","geometry":null},{"properties":{"technical engineers":2,"region":"North East","market development specialist":4,"geo_score":0.0,"id":"a7e60cpmw94v","vendor licensing reps":2,"marketing":1,"field marketing manager":1,"market development manager":3,"vendor management":2,"geo_precision":"unmatched","state":"Michigan"},"type":"Feature","geometry":null},{"properties":{"technical engineers":2,"region":"North East","market development specialist":4,"geo_score":0.0,"id":"a7e60cm0sw2p","vendor licensing reps":2,"marketing":1,"field marketing manager":1,"market development manager":3,"vendor management":2,"geo_precision":"unmatched","state":"Minnesota"},"type":"Feature","geometry":null},{"properties":{"technical engineers":2,"region":"North East","market development specialist":4,"geo_score":0.0,"id":"a7e60cwna3jc","vendor licensing reps":2,"marketing":1,"field marketing manager":1,"market development manager":3,"vendor management":2,"geo_precision":"unmatched","state":"Wisconsin"},"type":"Feature","geometry":null},{"properties":{"technical engineers":2,"region":"North East","market development specialist":4,"geo_score":0.0,"id":"a7e60cz3j5wp","vendor licensing reps":2,"marketing":1,"field marketing manager":1,"market development manager":3,"vendor management":2,"geo_precision":"unmatched","state":"Illinois"},"type":"Feature","geometry":null},{"properties":{"technical engineers":2,"region":"North East","market development specialist":4,"geo_score":0.0,"id":"a7e60cn6gdj5","vendor licensing reps":2,"marketing":1,"field marketing manager":1,"market development manager":3,"vendor management":2,"geo_precision":"unmatched","state":"Indiana"},"type":"Feature","geometry":null},{"properties":{"technical engineers":2,"region":"North East","market development specialist":4,"geo_score":0.0,"id":"a7e60cr6mmtb","vendor licensing reps":2,"marketing":1,"field marketing manager":1,"market development manager":3,"vendor management":2,"geo_precision":"unmatched","state":"West Virginia"},"type":"Feature","geometry":null},{"properties":{"technical engineers":2,"region":"North East","market development specialist":4,"geo_score":0.0,"id":"a7e60cy9sfdb","vendor licensing reps":2,"marketing":1,"field marketing manager":1,"market development manager":3,"vendor management":2,"geo_precision":"unmatched","state":"Virginia"},"type":"Feature","geometry":null},{"properties":{"technical engineers":2,"region":"North East","market development specialist":4,"geo_score":0.0,"id":"a7e60cyqs00t","vendor licensing reps":2,"marketing":1,"field marketing manager":1,"market development manager":3,"vendor management":2,"geo_precision":"unmatched","state":"New Jersey"},"type":"Feature","geometry":null},{"properties":{"technical engineers":2,"region":"North East","market development specialist":4,"geo_score":0.0,"id":"a7e60cwplyqw","vendor licensing reps":2,"marketing":1,"field marketing manager":1,"market development manager":3,"vendor management":2,"geo_precision":"unmatched","state":"Maryland"},"type":"Feature","geometry":null},{"properties":{"technical engineers":2,"region":"North East","market development specialist":4,"geo_score":0.0,"id":"a7e60cud4hrs","vendor licensing reps":2,"marketing":1,"field marketing manager":1,"market development manager":3,"vendor management":2,"geo_precision":"unmatched","state":"Delaware"},"type":"Feature","geometry":null},{"properties":{"technical engineers":2,"region":"North East","market development specialist":4,"geo_score":0.0,"id":"a7e60d1xkcxz","vendor licensing reps":2,"marketing":1,"field marketing manager":1,"market development manager":3,"vendor management":2,"geo_precision":"unmatched","state":"Maine"},"type":"Feature","geometry":null},{"properties":{"technical engineers":2,"region":"North East","market development specialist":4,"geo_score":0.0,"id":"a7e60crmouyy","vendor licensing reps":2,"marketing":1,"field marketing manager":1,"market development manager":3,"vendor management":2,"geo_precision":"unmatched","state":"Vermont"},"type":"Feature","geometry":null},{"properties":{"technical engineers":2,"region":"North East","market development specialist":4,"geo_score":0.0,"id":"a7e60cnplsaa","vendor licensing reps":2,"marketing":1,"field marketing manager":1,"market development manager":3,"vendor management":2,"geo_precision":"unmatched","state":"New Hampshire"},"type":"Feature","geometry":null},{"properties":{"technical engineers":2,"region":"North East","market development specialist":4,"geo_score":0.0,"id":"a7e60crm7mh9","vendor licensing reps":2,"marketing":1,"field marketing manager":1,"market development manager":3,"vendor management":2,"geo_precision":"unmatched","state":"Maryland"},"type":"Feature","geometry":null},{"properties":{"technical engineers":2,"region":"North East","market development specialist":4,"geo_score":0.0,"id":"a7e60csqoj5l","vendor licensing reps":2,"marketing":1,"field marketing manager":1,"market development manager":3,"vendor management":2,"geo_precision":"unmatched","state":"Rhode Island"},"type":"Feature","geometry":null},{"properties":{"technical engineers":2,"region":"North East","market development specialist":4,"geo_score":0.0,"id":"a7e60cokqepy","vendor licensing reps":2,"marketing":1,"field marketing manager":1,"market development manager":3,"vendor management":2,"geo_precision":"unmatched","state":"Connecticut"},"type":"Feature","geometry":null},{"properties":{"technical engineers":2,"region":"North East","market development specialist":4,"geo_score":0.0,"id":"a7e60d1m8tka","vendor licensing reps":2,"marketing":1,"field marketing manager":1,"market development manager":3,"vendor management":2,"geo_precision":"unmatched","state":"Massachusetts"},"type":"Feature","geometry":null},{"properties":{"technical engineers":2,"region":"North East","market development specialist":4,"geo_score":0.0,"id":"a7e60cqcfzxk","vendor licensing reps":2,"marketing":1,"field marketing manager":1,"market development manager":3,"vendor management":2,"geo_precision":"unmatched","state":"New York"},"type":"Feature","geometry":null},{"properties":{"technical engineers":2,"region":"North East","market development specialist":4,"geo_score":0.0,"id":"a7e60crxkf99","vendor licensing reps":2,"marketing":1,"field marketing manager":1,"market development manager":3,"vendor management":2,"geo_precision":"unmatched","state":"Ohio"},"type":"Feature","geometry":null},{"properties":{"technical engineers":2,"region":"North East","market development specialist":4,"geo_score":0.0,"id":"a7e60cs7yukz","vendor licensing reps":2,"marketing":1,"field marketing manager":1,"market development manager":3,"vendor management":2,"geo_precision":"unmatched","state":"Pennsylvania"},"type":"Feature","geometry":null},{"properties":{"technical engineers":2,"region":"South East","market development specialist":4,"geo_score":0.0,"id":"a7e60d2arn55","vendor licensing reps":2,"marketing":1,"field marketing manager":1,"market development manager":3,"vendor management":2,"geo_precision":"unmatched","state":"Florida"},"type":"Feature","geometry":null},{"properties":{"technical engineers":2,"region":"South East","market development specialist":4,"geo_score":0.0,"id":"a7e60cvey85p","vendor licensing reps":2,"marketing":1,"field marketing manager":1,"market development manager":3,"vendor management":2,"geo_precision":"unmatched","state":"Georgia"},"type":"Feature","geometry":null},{"properties":{"technical engineers":2,"region":"South East","market development specialist":4,"geo_score":0.0,"id":"a7e60cvqomb3","vendor licensing reps":2,"marketing":1,"field marketing manager":1,"market development manager":3,"vendor management":2,"geo_precision":"unmatched","state":"South Carolina"},"type":"Feature","geometry":null},{"properties":{"technical engineers":2,"region":"South East","market development specialist":4,"geo_score":0.0,"id":"a7e60cpw9ey3","vendor licensing reps":2,"marketing":1,"field marketing manager":1,"market development manager":3,"vendor management":2,"geo_precision":"unmatched","state":"North Carolina"},"type":"Feature","geometry":null},{"properties":{"technical engineers":2,"region":"South East","market development specialist":4,"geo_score":0.0,"id":"a7e60cquhmmf","vendor licensing reps":2,"marketing":1,"field marketing manager":1,"market development manager":3,"vendor management":2,"geo_precision":"unmatched","state":"Tennessee"},"type":"Feature","geometry":null},{"properties":{"technical engineers":2,"region":"South East","market development specialist":4,"geo_score":0.0,"id":"a7e60cmz36k3","vendor licensing reps":2,"marketing":1,"field marketing manager":1,"market development manager":3,"vendor management":2,"geo_precision":"unmatched","state":"Kentucky"},"type":"Feature","geometry":null},{"properties":{"technical engineers":2,"region":"South East","market development specialist":4,"geo_score":0.0,"id":"a7e60co5d39g","vendor licensing reps":2,"marketing":1,"field marketing manager":1,"market development manager":3,"vendor management":2,"geo_precision":"unmatched","state":"Alabama"},"type":"Feature","geometry":null},{"properties":{"technical engineers":2,"region":"South East","market development specialist":4,"geo_score":0.0,"id":"a7e60cxzbjjq","vendor licensing reps":2,"marketing":1,"field marketing manager":1,"market development manager":3,"vendor management":2,"geo_precision":"unmatched","state":"Mississippi"},"type":"Feature","geometry":null},{"properties":{"technical engineers":2,"region":"South","market development specialist":4,"geo_score":0.0,"id":"a7e60d10pz86","vendor licensing reps":2,"marketing":1,"field marketing manager":1,"market development manager":3,"vendor management":2,"geo_precision":"unmatched","state":"Colorado"},"type":"Feature","geometry":null},{"properties":{"technical engineers":2,"region":"South","market development specialist":4,"geo_score":0.0,"id":"a7e60cxvdxwx","vendor licensing reps":2,"marketing":1,"field marketing manager":1,"market development manager":3,"vendor management":2,"geo_precision":"unmatched","state":"Kansas"},"type":"Feature","geometry":null},{"properties":{"technical engineers":2,"region":"South","market development specialist":4,"geo_score":0.0,"id":"a7e60cnudu5i","vendor licensing reps":2,"marketing":1,"field marketing manager":1,"market development manager":3,"vendor management":2,"geo_precision":"unmatched","state":"Arkansas"},"type":"Feature","geometry":null},{"properties":{"technical engineers":2,"region":"South","market development specialist":4,"geo_score":0.0,"id":"a7e60csgs43d","vendor licensing reps":2,"marketing":1,"field marketing manager":1,"market development manager":3,"vendor management":2,"geo_precision":"unmatched","state":"Texas"},"type":"Feature","geometry":null},{"properties":{"technical engineers":2,"region":"South","market development specialist":4,"geo_score":0.0,"id":"a7e60cwvdhgu","vendor licensing reps":2,"marketing":1,"field marketing manager":1,"market development manager":3,"vendor management":2,"geo_precision":"unmatched","state":"New Mexico"},"type":"Feature","geometry":null},{"properties":{"technical engineers":2,"region":"South","market development specialist":4,"geo_score":0.0,"id":"a7e60ctchit9","vendor licensing reps":2,"marketing":1,"field marketing manager":1,"market development manager":3,"vendor management":2,"geo_precision":"unmatched","state":"Louisiana"},"type":"Feature","geometry":null},{"properties":{"technical engineers":2,"region":"South","market development specialist":4,"geo_score":0.0,"id":"a7e60cqf7r5l","vendor licensing reps":2,"marketing":1,"field marketing manager":1,"market development manager":3,"vendor management":2,"geo_precision":"unmatched","state":"Oklahoma"},"type":"Feature","geometry":null},{"properties":{"technical engineers":2,"region":"South","market development specialist":4,"geo_score":0.0,"id":"a7e60cs80qwu","vendor licensing reps":2,"marketing":1,"field marketing manager":1,"market development manager":3,"vendor management":2,"geo_precision":"unmatched","state":"Missouri"},"type":"Feature","geometry":null}],"is_temporal":false,"author":{"url":"","metadata":"","contact_name":"","contact_address":"","source":"","contact_phone":""},"source":"","pagination":{"sort":null,"start":0,"total":49,"limit":1000000},"state":"complete","tags":"","published":"2014-08-14T19:43:53-04:00","id":263576}