{"type":"FeatureCollection","data_type":"Dataset","url_type":null,"permissions":[{"permissions":{"download":true,"view":true},"group_id":"everyone"}],"classification":null,"title":"CDDS in Hillsborough County","count":67,"stream_id":263776,"contributor":{"url":"http://geocommons.com/users/40762","name":"frangilpin"},"data_attributes":null,"calculation_params":null,"icon_link":null,"link":"http://geocommons.com/overlays/263776.json","extent":[-82.6266,27.7015,-82.0765,28.3234],"geometry_types":["point"],"unique_name":null,"name":"CDDS in Hillsborough County","feature_count":67,"description":"","next_feature":null,"is_raster":false,"short_classification":"Y","stats":{"status code":{"max":3,"variance":0.588873812754409,"mean":2.04477611940298,"stdev":0.767381139170366,"min":1,"median":2}},"features":[{"properties":{"status":"No bonds issued yet","city":"Tampa","zip":"33602","district approved by":"City of Tampa","geo_score":1.0,"id":"a7ety4q0wjcx","bonds issued":"$-","status code":1,"address":"400 West Oak Avenue","geo_precision":"range","community development district":"The Heights","state":"FL"},"type":"Feature","geometry":{"type":"Point","coordinates":[-82.466957,27.961585]}},{"properties":{"status":"No bonds issued yet","city":"Riverview","zip":"33579","district approved by":"Hillsborough County","geo_score":0.902,"id":"a7ety4ro52na","bonds issued":"$-","status code":1,"address":"13230 Balm Riverview Road","geo_precision":"range","community development district":"Triple Creek","state":"FL"},"type":"Feature","geometry":{"type":"Point","coordinates":[-82.287199,27.801302]}},{"properties":{"status":"No bonds issued yet","city":"Lithia","zip":"33547","district approved by":"Hillsborough County","geo_score":0.54,"id":"a7ety4jlvu3l","bonds issued":"$-","status code":1,"address":"13915 Barrington Stowers Drive","geo_precision":"street","community development district":"Circa Fishhawk","state":"FL"},"type":"Feature","geometry":{"type":"Point","coordinates":[-82.249128,28.025192]}},{"properties":{"status":"No bonds issued yet","city":"Plant City","zip":"33565","district approved by":"City of Plant City","geo_score":0.659,"id":"a7ety4q5avn6","bonds issued":"$-","status code":1,"address":"202 East Knights Griffin Road","geo_precision":"range","community development district":"Eagle's Crest","state":"FL"},"type":"Feature","geometry":{"type":"Point","coordinates":[-82.462207,28.101645]}},{"properties":{"status":"No bonds issued yet","city":"Tampa","zip":"33602","district approved by":"City of Tampa","geo_score":0.811,"id":"a7ety4giugzp","bonds issued":"$-","status code":1,"address":"1168 Whitehead Court","geo_precision":"street","community development district":"Encore","state":"FL"},"type":"Feature","geometry":{"type":"Point","coordinates":[-82.451512,27.955496]}},{"properties":{"status":"No bonds issued yet","city":"Wimauma","zip":"33598","district approved by":"Hillsborough County","geo_score":1.0,"id":"a7ety4in9kea","bonds issued":"$-","status code":1,"address":"5250 Brody Boulevard","geo_precision":"range","community development district":"Forest Brooke","state":"FL"},"type":"Feature","geometry":{"type":"Point","coordinates":[-82.335327,27.701476]}},{"properties":{"status":"No bonds issued yet","city":"Tampa","zip":"33634","district approved by":"City of Tampa","geo_score":0.807,"id":"a7ety4h63j07","bonds issued":"$-","status code":1,"address":"3901 George Road","geo_precision":"street","community development district":"Independence Park","state":"FL"},"type":"Feature","geometry":{"type":"Point","coordinates":[-82.550615,27.974586]}},{"properties":{"status":"No bonds issued yet","city":"Wimauma","zip":"33579","district approved by":"Hillsborough County","geo_score":0.806,"id":"a7ety4kfm3dk","bonds issued":"$-","status code":1,"address":"11048 Balm Road","geo_precision":"street","community development district":"Mirabella","state":"FL"},"type":"Feature","geometry":{"type":"Point","coordinates":[-82.314022,27.770104]}},{"properties":{"status":"No bonds issued yet","city":"Plant City","zip":"33565","district approved by":"City of Plant City","geo_score":0.878,"id":"a7ety4lo4lkb","bonds issued":"$-","status code":1,"address":"3405 North Wilder Road","geo_precision":"range","community development district":"North Park Isles","state":"FL"},"type":"Feature","geometry":{"type":"Point","coordinates":[-82.096941,28.051517]}},{"properties":{"status":"No bonds issued yet","city":"Tampa","zip":"33615","district approved by":"Hillsborough County","geo_score":1.0,"id":"a7ety4pg0if8","bonds issued":"$-","status code":1,"address":"10624 Cape Hatteras Drive","geo_precision":"range","community development district":"Palm Bay","state":"FL"},"type":"Feature","geometry":{"type":"Point","coordinates":[-82.60886,28.000621]}},{"properties":{"status":"No bonds issued yet","city":"Ruskin","zip":"33570","district approved by":"Hillsborough County","geo_score":0.941,"id":"a7ety4gnp19g","bonds issued":"$-","status code":1,"address":"100 30th Street Northeast","geo_precision":"range","community development district":"South Shore Corporate Park Industrial","state":"FL"},"type":"Feature","geometry":{"type":"Point","coordinates":[-82.393779,27.734789]}},{"properties":{"status":"No bonds issued yet","city":"Riverview","zip":"33579","district approved by":"Hillsborough County","geo_score":1.0,"id":"a7ety4s8b1ny","bonds issued":"$-","status code":1,"address":"11140 Rhodine Road","geo_precision":"range","community development district":"Spring Lake","state":"FL"},"type":"Feature","geometry":{"type":"Point","coordinates":[-82.319262,27.821583]}},{"properties":{"status":"No bonds issued yet","city":"Sun City Center","zip":"33573","district approved by":"Hillsborough County","geo_score":1.0,"id":"a7ety4so39ay","bonds issued":"$-","status code":1,"address":"1113 Del Webb Boulevard East","geo_precision":"range","community development district":"State Road","state":"FL"},"type":"Feature","geometry":{"type":"Point","coordinates":[-82.33749,27.719174]}},{"properties":{"status":"No bonds issued yet","city":"Riverview","zip":"33569","district approved by":"Hillsborough County","geo_score":0.686,"id":"a7ety4sflwv1","bonds issued":"$-","status code":1,"address":"11919 Whisper Creek Drive","geo_precision":"street","community development district":"Stone Crest","state":"FL"},"type":"Feature","geometry":{"type":"Point","coordinates":[-82.319724,27.828021]}},{"properties":{"status":"No bonds issued yet","city":"Tampa","zip":"33619","district approved by":"Hillsborough County","geo_score":0.935,"id":"a7ety4lyq9c0","bonds issued":"$-","status code":1,"address":"3600 South 78th Street","geo_precision":"range","community development district":"Stone Dairy Creek","state":"FL"},"type":"Feature","geometry":{"type":"Point","coordinates":[-82.368648,27.908295]}},{"properties":{"status":"Bonds paid off","city":"Tampa","zip":"33647","district approved by":"City of Tampa","geo_score":1.0,"id":"a7ety4pjilv5","bonds issued":"$-","status code":1,"address":"16311 Tampa Palms Boulevard West","geo_precision":"range","community development district":"Tampa Palms","state":"FL"},"type":"Feature","geometry":{"type":"Point","coordinates":[-82.401366,28.10056]}},{"properties":{"status":"No bonds issued yet","city":"Riverview","zip":"33579","district approved by":"Hillsborough County","geo_score":0.902,"id":"a7ety4j9akyf","bonds issued":"$-","status code":1,"address":"12492 Big Bend Road","geo_precision":"range","community development district":"Waterleaf (Hillsborough County)","state":"FL"},"type":"Feature","geometry":{"type":"Point","coordinates":[-82.274476,27.80124]}},{"properties":{"status":"No bonds issued yet","city":"Wimauma","zip":"33598","district approved by":"Hillsborough County","geo_score":0.977,"id":"a7ety4qquy6t","bonds issued":"$-","status code":1,"address":"5115 Glengarry Road","geo_precision":"range","community development district":"Westlake Village","state":"FL"},"type":"Feature","geometry":{"type":"Point","coordinates":[-82.321586,27.710963]}},{"properties":{"status":"Bond payments current","city":"Tampa","zip":"33626","district approved by":"Hillsborough County","geo_score":1.0,"id":"a7ety4g9n4fh","bonds issued":"$22,855,000","status code":2,"address":"14562 Race Track Road","geo_precision":"range","community development district":"Waterchase","state":"FL"},"type":"Feature","geometry":{"type":"Point","coordinates":[-82.623384,28.076442]}},{"properties":{"status":"Bond payments current","city":"Apollo Beach","zip":"33572","district approved by":"Hillsborough County","geo_score":0.493,"id":"a7ety4kmg24v","bonds issued":"$35,115,000","status code":2,"address":"7004 Sail View Lane","geo_precision":"street","community development district":"Waterset North","state":"FL"},"type":"Feature","geometry":{"type":"Point","coordinates":[-82.253808,27.957774]}},{"properties":{"status":"Bond payments current","city":"Tampa","zip":"33626","district approved by":"Hillsborough County","geo_score":1.0,"id":"a7ety4sougbd","bonds issued":"$22,375,000","status code":2,"address":"12220 Glencliff Circle","geo_precision":"range","community development district":"Westchase","state":"FL"},"type":"Feature","geometry":{"type":"Point","coordinates":[-82.626621,28.042102]}},{"properties":{"status":"Bond payments current","city":"Tampa","zip":"33626","district approved by":"Hillsborough County","geo_score":0.829,"id":"a7ety4ffje34","bonds issued":"$7,265,000","status code":2,"address":"10029 Bridgeton Drive","geo_precision":"street","community development district":"Westchase East","state":"FL"},"type":"Feature","geometry":{"type":"Point","coordinates":[-82.599353,28.047378]}},{"properties":{"status":"Bond payments current","city":"Tampa","zip":"33647","district approved by":"City of Tampa","geo_score":1.0,"id":"a7ety4loosab","bonds issued":"$8,425,000","status code":2,"address":"18000 Arbor Greene Drive","geo_precision":"range","community development district":"Arbor Greene","state":"FL"},"type":"Feature","geometry":{"type":"Point","coordinates":[-82.317728,28.137228]}},{"properties":{"status":"Bond payments current","city":"Riverview","zip":"33578","district approved by":"Hillsborough County","geo_score":0.454,"id":"a7ety4lovyk7","bonds issued":"$5,155,000","status code":2,"address":"12612 Avelar Creek Drive","geo_precision":"street","community development district":"Avelar Creek","state":"FL"},"type":"Feature","geometry":{"type":"Point","coordinates":[-82.3481,27.741498]}},{"properties":{"status":"Bond payments current","city":"Ruskin","zip":"33570","district approved by":"Hillsborough County","geo_score":0.732,"id":"a7ety4lwp3vq","bonds issued":"$2,915,000","status code":2,"address":"706 Seminole Sky Drive","geo_precision":"range","community development district":"Bahia Lakes","state":"FL"},"type":"Feature","geometry":{"type":"Point","coordinates":[-82.076505,28.036571]}},{"properties":{"status":"Bond payments current","city":"Lithia","zip":"33547","district approved by":"Hillsborough County","geo_score":0.434,"id":"a7ety4ih2ay4","bonds issued":"$7,240,000","status code":2,"address":"11004 Wembley Landing Drive","geo_precision":"street","community development district":"Channing Park","state":"FL"},"type":"Feature","geometry":{"type":"Point","coordinates":[-82.337893,27.710782]}},{"properties":{"status":"Bond payments current","city":"Lutz","zip":"33558","district approved by":"Hillsborough County","geo_score":1.0,"id":"a7ety4jfyn23","bonds issued":"$4,235,000","status code":2,"address":"18813 Chaville Road","geo_precision":"range","community development district":"Cheval West","state":"FL"},"type":"Feature","geometry":{"type":"Point","coordinates":[-82.549302,28.150214]}},{"properties":{"status":"Bond payments current","city":"Apollo Beach","zip":"33572","district approved by":"Hillsborough County","geo_score":0.487,"id":"a7ety4l2i155","bonds issued":"$19,985,000","status code":2,"address":"6907 Covington Stone Avenue","geo_precision":"street","community development district":"Covington Park","state":"FL"},"type":"Feature","geometry":{"type":"Point","coordinates":[-82.264787,28.002139]}},{"properties":{"status":"Bond payments current","city":"Wimauma","zip":"33598","district approved by":"Hillsborough County","geo_score":0.489,"id":"a7ety4kh2uos","bonds issued":"$22,685,000","status code":2,"address":"10834 Standing Stone Drive","geo_precision":"street","community development district":"Cypress Creek of Hillsborough County","state":"FL"},"type":"Feature","geometry":{"type":"Point","coordinates":[-82.349443,28.172411]}},{"properties":{"status":"Bond payments current","city":"Valrico","zip":"33594","district approved by":"Hillsborough County","geo_score":0.404,"id":"a7ety4p1374k","bonds issued":"$3,540,000","status code":2,"address":"1525 Brilliant Cut Way","geo_precision":"street","community development district":"Diamond Hill","state":"FL"},"type":"Feature","geometry":{"type":"Point","coordinates":[-82.458893,28.173382]}},{"properties":{"status":"Bond payments current","city":"Tampa","zip":"33592","district approved by":"City of Tampa","geo_score":0.872,"id":"a7ety4sewr2o","bonds issued":"$7,105,000","status code":2,"address":"15718 Morris Bridge Road","geo_precision":"range","community development district":"Easton Park","state":"FL"},"type":"Feature","geometry":{"type":"Point","coordinates":[-82.265939,28.164403]}},{"properties":{"status":"Bond payments current","city":"Lithia","zip":"33547","district approved by":"Hillsborough County","geo_score":0.878,"id":"a7ety4gq312g","bonds issued":"$13,960,000","status code":2,"address":"14930 Heronglen Drive","geo_precision":"street","community development district":"Fishhawk","state":"FL"},"type":"Feature","geometry":{"type":"Point","coordinates":[-82.239155,27.846369]}},{"properties":{"status":"Bond payments current","city":"Lithia","zip":"33547","district approved by":"Hillsborough County","geo_score":1.0,"id":"a7ety4fkx7wh","bonds issued":"$33,825,000","status code":2,"address":"17507 Crossroads Lane","geo_precision":"range","community development district":"Fishhawk II","state":"FL"},"type":"Feature","geometry":{"type":"Point","coordinates":[-82.20001,27.850041]}},{"properties":{"status":"Bond payments current","city":"Lithia","zip":"33547","district approved by":"Hillsborough County","geo_score":0.487,"id":"a7ety4novocb","bonds issued":"$8,160,000","status code":2,"address":"5016 Sanderling Ridge Drive","geo_precision":"street","community development district":"Fishhawk III","state":"FL"},"type":"Feature","geometry":{"type":"Point","coordinates":[-82.317863,27.912675]}},{"properties":{"status":"Bond payments current","city":"Ruskin","zip":"33570","district approved by":"Hillsborough County","geo_score":0.475,"id":"a7ety4px0zt0","bonds issued":"$11,330,000","status code":2,"address":"1702 Palm Warbler Lane","geo_precision":"street","community development district":"Hawk's Point","state":"FL"},"type":"Feature","geometry":{"type":"Point","coordinates":[-82.169662,28.180414]}},{"properties":{"status":"Bond payments current","city":"Lutz","zip":"33558","district approved by":"Hillsborough County","geo_score":1.0,"id":"a7ety4gx8zzh","bonds issued":"$7,900,000","status code":2,"address":"19408 Heritage Harbor Parkway","geo_precision":"range","community development district":"Heritage Harbor","state":"FL"},"type":"Feature","geometry":{"type":"Point","coordinates":[-82.510075,28.164002]}},{"properties":{"status":"Bond payments current","city":"Tampa","zip":"33647","district approved by":"City of Tampa","geo_score":0.422,"id":"a7ety4pcflh5","bonds issued":"$5,625,000","status code":2,"address":"10311 Stone Moss Avenue","geo_precision":"street","community development district":"K-Bar Ranch","state":"FL"},"type":"Feature","geometry":{"type":"Point","coordinates":[-82.550375,28.048607]}},{"properties":{"status":"Bond payments current","city":"Riverview","zip":"33578","district approved by":"Hillsborough County","geo_score":0.922,"id":"a7ety4exh6ve","bonds issued":"$1,540,000","status code":2,"address":"6614 Colonial Lake Drive","geo_precision":"range","community development district":"Lake St. Charles","state":"FL"},"type":"Feature","geometry":{"type":"Point","coordinates":[-82.344537,27.884153]}},{"properties":{"status":"Bond payments current","city":"Tampa","zip":"33647","district approved by":"Hillsborough County","geo_score":0.53,"id":"a7ety4tv1zpv","bonds issued":"$7,700,000","status code":2,"address":"20026 Nob Oak Avenue","geo_precision":"street","community development district":"Live Oak No. 1","state":"FL"},"type":"Feature","geometry":{"type":"Point","coordinates":[-82.452051,27.961375]}},{"properties":{"status":"Bond payments current","city":"Riverview","zip":"33578","district approved by":"Hillsborough County","geo_score":0.532,"id":"a7ety4ozsrnh","bonds issued":"$40,105,000","status code":2,"address":"9115 English Oaks Lane","geo_precision":"street","community development district":"Magnolia Park","state":"FL"},"type":"Feature","geometry":{"type":"Point","coordinates":[-82.165021,28.32338]}},{"properties":{"status":"Bond payments current","city":"Ruskin","zip":"33570","district approved by":"Hillsborough County","geo_score":0.453,"id":"a7ety4eql1c2","bonds issued":"$4,470,000","status code":2,"address":"1817 Mira Lago Circle","geo_precision":"street","community development district":"Mira Lago West","state":"FL"},"type":"Feature","geometry":{"type":"Point","coordinates":[-82.314098,27.916603]}},{"properties":{"status":"Bond payments current","city":"Riverview","zip":"33579","district approved by":"Hillsborough County","geo_score":0.692,"id":"a7ety4kcoks8","bonds issued":"$8,730,000","status code":2,"address":"11205 Panther Trace Boulevard","geo_precision":"street","community development district":"Panther Trace","state":"FL"},"type":"Feature","geometry":{"type":"Point","coordinates":[-82.326023,27.81015]}},{"properties":{"status":"Bond payments current","city":"Gibsonton","zip":"33534","district approved by":"Hillsborough County","geo_score":0.48,"id":"a7ety4syn9ek","bonds issued":"$3,810,000","status code":2,"address":"8535 Carriage Pointe Drive","geo_precision":"street","community development district":"Panther Trails","state":"FL"},"type":"Feature","geometry":{"type":"Point","coordinates":[-82.143549,27.989462]}},{"properties":{"status":"Bond payments current","city":"Riverview","zip":"33579","district approved by":"Hillsborough County","geo_score":1.0,"id":"a7ety4s9gtkk","bonds issued":"$4,920,000","status code":2,"address":"11521 Big Bend Road","geo_precision":"range","community development district":"South Fork","state":"FL"},"type":"Feature","geometry":{"type":"Point","coordinates":[-82.306736,27.792682]}},{"properties":{"status":"Bond payments current","city":"Lutz","zip":"33558","district approved by":"Hillsborough County","geo_score":1.0,"id":"a7ety4qjwvup","bonds issued":"$7,845,000","status code":2,"address":"2915 West Lutz Lake Fern Road","geo_precision":"range","community development district":"Stonebrier","state":"FL"},"type":"Feature","geometry":{"type":"Point","coordinates":[-82.495729,28.155592]}},{"properties":{"status":"Bond payments current","city":"Thonotosassa","zip":"33592","district approved by":"Hillsborough County","geo_score":0.615,"id":"a7ety4q3cjju","bonds issued":"$3,615,000","status code":2,"address":"12134 StoneLake Ranch Boulevard","geo_precision":"street","community development district":"StoneLake Ranch","state":"FL"},"type":"Feature","geometry":{"type":"Point","coordinates":[-82.223945,28.144123]}},{"properties":{"status":"Bond default","city":"Ruskin","zip":"33578","district approved by":"Hillsborough County","geo_score":0.475,"id":"a7ety4s77bl1","bonds issued":"$29,980,000","status code":3,"address":"10317 Celtic Ash Drive","geo_precision":"street","community development district":"Belmont","state":"FL"},"type":"Feature","geometry":{"type":"Point","coordinates":[-82.322002,27.954511]}},{"properties":{"status":"Monetary default","city":"Lutz","zip":"33559","district approved by":"Hillsborough County","geo_score":1.0,"id":"a7ety4tqrg0v","bonds issued":"$10,220,000","status code":3,"address":"17511 Mallard Court","geo_precision":"range","community development district":"Cordoba Ranch","state":"FL"},"type":"Feature","geometry":{"type":"Point","coordinates":[-82.427389,28.12611]}},{"properties":{"status":"Original developer defaulted on special assessments","city":"Tampa","zip":"33647","district approved by":"City of Tampa","geo_score":1.0,"id":"a7ety4e4ewxc","bonds issued":"$35,960,000","status code":3,"address":"10872 Cory Lake Drive","geo_precision":"range","community development district":"Cory Lakes","state":"FL"},"type":"Feature","geometry":{"type":"Point","coordinates":[-82.30764,28.141583]}},{"properties":{"status":"Original developer's corporate parent filed bankruptcy","city":"Tampa","zip":"33647","district approved by":"City of Tampa","geo_score":0.585,"id":"a7ety4m4hwfg","bonds issued":"$13,945,000","status code":3,"address":"8438 Dunham Station Drive","geo_precision":"zip","community development district":"Grand Hampton","state":"FL"},"type":"Feature","geometry":{"type":"Point","coordinates":[-82.350338,28.127834]}},{"properties":{"status":"Original developer filed bankruptcy","city":"Tampa","zip":"33647","district approved by":"City of Tampa","geo_score":0.585,"id":"a7ety4mdqrbq","bonds issued":"$9,215,000","status code":3,"address":"8505 Trail Wind Drive","geo_precision":"zip","community development district":"Hammocks","state":"FL"},"type":"Feature","geometry":{"type":"Point","coordinates":[-82.350338,28.127834]}},{"properties":{"status":"District had unassigned deficit fund balance due to litigation","city":"Apollo Beach","zip":"33572","district approved by":"Hillsborough County","geo_score":1.0,"id":"a7ety4n9uvpj","bonds issued":"$39,150,000","status code":3,"address":"207 Manns Harbor Drive","geo_precision":"range","community development district":"Harbor Bay","state":"FL"},"type":"Feature","geometry":{"type":"Point","coordinates":[-82.419891,27.744967]}},{"properties":{"status":"District missed interest payment","city":"Apollo Beach","zip":"33572","district approved by":"Hillsborough County","geo_score":0.617,"id":"a7ety4r35r7n","bonds issued":"$5,965,000","status code":3,"address":"5461 Sandy Shell Drive","geo_precision":"street","community development district":"Harbour Isles","state":"FL"},"type":"Feature","geometry":{"type":"Point","coordinates":[-82.416939,27.760562]}},{"properties":{"status":"District missed interest payment","city":"Tampa","zip":"33647","district approved by":"Hillsborough County","geo_score":1.0,"id":"a7ety4ion3vr","bonds issued":"$8,785,000","status code":3,"address":"10777 Plantation Bay Drive","geo_precision":"range","community development district":"Heritage Isles","state":"FL"},"type":"Feature","geometry":{"type":"Point","coordinates":[-82.29952,28.148484]}},{"properties":{"status":"Bond default","city":"Wimauma","zip":"33579","district approved by":"Hillsborough County","geo_score":0.39,"id":"a7ety4i2gtax","bonds issued":"$29,475,000","status code":3,"address":"11102 Ayersworth Glen Boulevard","geo_precision":"street","community development district":"Highlands","state":"FL"},"type":"Feature","geometry":{"type":"Point","coordinates":[-82.536743,28.122339]}},{"properties":{"status":"Original developer filed bankruptcy","city":"Tampa","zip":"33647","district approved by":"Hillsborough County","geo_score":0.52,"id":"a7ety4ehatn8","bonds issued":"$40,565,000","status code":3,"address":"20213 Merry Oak Avenue","geo_precision":"street","community development district":"Live Oak No. 2","state":"FL"},"type":"Feature","geometry":{"type":"Point","coordinates":[-82.452051,27.961375]}},{"properties":{"status":"Bond default","city":"Tampa","zip":"33611","district approved by":"City of Tampa","geo_score":0.902,"id":"a7ety4gz1ust","bonds issued":"$49,565,000","status code":3,"address":"5000 Bridge Street","geo_precision":"range","community development district":"New Port Tampa Bay","state":"FL"},"type":"Feature","geometry":{"type":"Point","coordinates":[-82.529848,27.891555]}},{"properties":{"status":"District missed interest payment","city":"Tampa","zip":"33619","district approved by":"Hillsborough County","geo_score":0.955,"id":"a7ety4srrrpv","bonds issued":"$6,630,000","status code":3,"address":"10274 Palm River Road","geo_precision":"range","community development district":"Palm River","state":"FL"},"type":"Feature","geometry":{"type":"Point","coordinates":[-82.33206,27.939508]}},{"properties":{"status":"District used reserves to make bond payment","city":"Riverview","zip":"33579","district approved by":"Hillsborough County","geo_score":1.0,"id":"a7ety4hywf58","bonds issued":"$39,635,000","status code":3,"address":"12876 Balm Riverview Road","geo_precision":"range","community development district":"Panther Trace II","state":"FL"},"type":"Feature","geometry":{"type":"Point","coordinates":[-82.290564,27.808195]}},{"properties":{"status":"A developer defaulted on debt assessments","city":"Tampa","zip":"33626","district approved by":"Hillsborough County","geo_score":1.0,"id":"a7ety4ls7gzv","bonds issued":"$10,735,000","status code":3,"address":"14812 Race Track Road","geo_precision":"range","community development district":"Park Place","state":"FL"},"type":"Feature","geometry":{"type":"Point","coordinates":[-82.617678,28.081488]}},{"properties":{"status":"Original developer forced district bond default","city":"Riverview","zip":"33578","district approved by":"Hillsborough County","geo_score":0.727,"id":"a7ety4hn2tt5","bonds issued":"$95,215,000","status code":3,"address":"8890 Eagle Palm Drive","geo_precision":"street","community development district":"Parkway Center","state":"FL"},"type":"Feature","geometry":{"type":"Point","coordinates":[-82.358708,27.882908]}},{"properties":{"status":"Bond default","city":"Ruskin","zip":"33570","district approved by":"Hillsborough County","geo_score":0.44,"id":"a7ety4mws6h5","bonds issued":"$19,560,000","status code":3,"address":"615 Wabash Breeze Circle","geo_precision":"street","community development district":"River Bend","state":"FL"},"type":"Feature","geometry":{"type":"Point","coordinates":[-82.295277,27.912931]}},{"properties":{"status":"Bond downgrade due to inadequate funding of reserves","city":"Riverview","zip":"33569","district approved by":"Hillsborough County","geo_score":0.532,"id":"a7ety4l4888v","bonds issued":"$14,355,000","status code":3,"address":"11911 Autumn Creek Drive","geo_precision":"street","community development district":"Rivercrest","state":"FL"},"type":"Feature","geometry":{"type":"Point","coordinates":[-82.2108,27.890718]}},{"properties":{"status":"District foreclosured on original developers for bond default","city":"Ruskin","zip":"33570","district approved by":"Hillsborough County","geo_score":0.948,"id":"a7ety4go5uwi","bonds issued":"$57,445,000","status code":3,"address":"3210 Mangrove Point Drive","geo_precision":"range","community development district":"South Bay (Hillsborough County)","state":"FL"},"type":"Feature","geometry":{"type":"Point","coordinates":[-82.47501,27.724965]}},{"properties":{"status":"Bond default","city":"Riverview","zip":"33579","district approved by":"Hillsborough County","geo_score":1.0,"id":"a7ety4lec6jg","bonds issued":"$23,770,000","status code":3,"address":"11445 Big Bend Road","geo_precision":"range","community development district":"South Fork East","state":"FL"},"type":"Feature","geometry":{"type":"Point","coordinates":[-82.310059,27.792144]}},{"properties":{"status":"Ratings agency outlook negative to assessment delinquencies","city":"Tampa","zip":"33647","district approved by":"Hillsborough County","geo_score":1.0,"id":"a7ety4h9xh9i","bonds issued":"$8,290,000","status code":3,"address":"8401 New Tampa Boulevard","geo_precision":"range","community development district":"Tampa Palms Open Space and Transportation","state":"FL"},"type":"Feature","geometry":{"type":"Point","coordinates":[-82.370245,28.146979]}},{"properties":{"status":"District foreclosured on big landowner for unpaid assessments","city":"Riverview","zip":"33578","district approved by":"Hillsborough County","geo_score":0.512,"id":"a7ety4n36tc9","bonds issued":"$6,475,000","status code":3,"address":"6415 Hollydale Place","geo_precision":"street","community development district":"Villages of Bloomingdale","state":"FL"},"type":"Feature","geometry":{"type":"Point","coordinates":[-82.206373,28.314853]}}],"is_temporal":false,"author":{"url":"","metadata":"","contact_name":"","contact_address":"","source":"","contact_phone":""},"source":"","pagination":{"sort":null,"start":0,"total":67,"limit":1000000},"state":"complete","tags":"cdd","published":"2014-08-14T19:58:44-04:00","id":263776}