{"type":"FeatureCollection","data_type":"Dataset","url_type":null,"permissions":[{"permissions":{"download":true,"view":true},"group_id":"everyone"}],"classification":null,"title":"maptive-spreadsheet-template","count":10,"stream_id":264127,"contributor":{"url":"http://geocommons.com/users/49700","name":"walebel"},"data_attributes":null,"calculation_params":null,"icon_link":null,"link":"http://geocommons.com/overlays/264127.json","extent":[-78.762,40.5842,-73.4124,43.0671],"geometry_types":["point"],"unique_name":null,"name":"maptive-spreadsheet-template","feature_count":10,"description":"","next_feature":null,"is_raster":false,"short_classification":"Y","stats":{},"features":[{"properties":{"city":"Albany","name":"Apple Store Cross Gates","zipcode":"12203","logo":"http://www.apple.com/logos/apple.jpg","geo_score":0.417,"id":"a7gvus6g50ct","address":"1 Crossgates Mall Road","phone number":"(518) 869-3192","group":"Example Group 1","geo_precision":"street","state":"NY","website url":"http://www.apple.com/retail/crossgates/","email":"steve.jobs@apple.com"},"type":"Feature","geometry":{"type":"Point","coordinates":[-73.799712,42.635855]}},{"properties":{"city":"Buffalo","name":"Apple Store Walden Galleria","zipcode":"14225","logo":"http://www.apple.com/logos/apple.jpg","geo_score":1.0,"id":"a7gvus19dgek","address":"Duke Rd &amp; Walden Ave","phone number":"(716) 685-2762","group":"Example Group 2","geo_precision":"street","state":"NY","website url":"http://www.apple.com/retail/walden/","email":"steve.jobs@apple.com"},"type":"Feature","geometry":{"type":"Point","coordinates":[-78.761978,42.908863]}},{"properties":{"city":"Garden City","name":"Apple Store Roosevelt Field","zipcode":"11530","logo":"http://www.apple.com/logos/apple.jpg","geo_score":1.0,"id":"a7gvuseykrn9","address":"630 Old Country Rd.","phone number":"(516) 248-3347","group":"Example Group 3","geo_precision":"range","state":"NY","website url":"http://www.apple.com/retail/rooseveltfield/","email":"steve.jobs@apple.com"},"type":"Feature","geometry":{"type":"Point","coordinates":[-73.611203,40.743649]}},{"properties":{"city":"Huntington Station","name":"Apple Store Walt Whitman","zipcode":"11746","logo":"http://www.apple.com/logos/apple.jpg","geo_score":1.0,"id":"a7gvus0g617t","address":"160 Walt Whitman Rd.","phone number":"(631) 425-1563","group":"Example Group 3","geo_precision":"range","state":"NY","website url":"http://www.apple.com/retail/waltwhitman/","email":"steve.jobs@apple.com"},"type":"Feature","geometry":{"type":"Point","coordinates":[-73.412393,40.824833]}},{"properties":{"city":"Syracuse","name":"Apple Store Carousel","zipcode":"13290","logo":"http://www.apple.com/logos/apple.jpg","geo_score":0.951,"id":"a7gvus6ve36r","address":"9553 Carousel Center Drive","phone number":"(315) 422-8484","group":"Example Group 2","geo_precision":"range","state":"NY","website url":"http://www.apple.com/retail/carousel/","email":"steve.jobs@apple.com"},"type":"Feature","geometry":{"type":"Point","coordinates":[-76.170653,43.067068]}},{"properties":{"city":"Staten Island","name":"Apple Store Staten Island","zipcode":"10314","logo":"http://www.apple.com/logos/apple.jpg","geo_score":0.878,"id":"a7gvus0d578l","address":"2655 Richmond Ave","phone number":"(718) 477-4180","group":"Example Group 1","geo_precision":"range","state":"NY","website url":"http://www.apple.com/retail/statenisland/","email":"steve.jobs@apple.com"},"type":"Feature","geometry":{"type":"Point","coordinates":[-74.168769,40.584188]}},{"properties":{"city":"Victor","name":"Apple Store Eastview","zipcode":"14564","logo":"http://www.apple.com/logos/apple.jpg","geo_score":0.805,"id":"a7gvuscmgpa5","address":"7979 Victor Road","phone number":"(585) 421-3030","group":"Example Group 1","geo_precision":"street","state":"NY","website url":"http://www.apple.com/retail/eastview/","email":"steve.jobs@apple.com"},"type":"Feature","geometry":{"type":"Point","coordinates":[-77.399894,43.038104]}},{"properties":{"city":"West Nyack","name":"Apple Store Palisades","zipcode":"10994","logo":"http://www.apple.com/logos/apple.jpg","geo_score":1.0,"id":"a7gvusama609","address":"1591 Palisades Center Drive","phone number":"(845) 353-6756","group":"Example Group 2","geo_precision":"range","state":"NY","website url":"http://www.apple.com/retail/palisades/","email":"steve.jobs@apple.com"},"type":"Feature","geometry":{"type":"Point","coordinates":[-73.955958,41.099235]}},{"properties":{"city":"White Plains","name":"Apple Store The Westchester","zipcode":"10601","logo":"http://www.apple.com/logos/apple.jpg","geo_score":1.0,"id":"a7gvurzj6t44","address":"125 Westchester Ave.","phone number":"(914) 428-1877","group":"Example Group 3","geo_precision":"range","state":"NY","website url":"http://www.apple.com/retail/thewestchester/","email":"steve.jobs@apple.com"},"type":"Feature","geometry":{"type":"Point","coordinates":[-73.757931,41.032571]}},{"properties":{"city":"New York","name":"Apple Store SoHo","zipcode":"10012","logo":"http://www.apple.com/logos/apple.jpg","geo_score":1.0,"id":"a7gvus8ic5tu","address":"103 Prince Street","phone number":"(212) 226-3126","group":"Example Group 2","geo_precision":"range","state":"NY","website url":"http://www.apple.com/retail/soho/","email":"steve.jobs@apple.com"},"type":"Feature","geometry":{"type":"Point","coordinates":[-73.998892,40.724802]}}],"is_temporal":false,"author":{"url":"","metadata":"","contact_name":"","contact_address":"","source":"","contact_phone":""},"source":"","pagination":{"sort":null,"start":0,"total":10,"limit":1000000},"state":"complete","tags":"","published":"2014-08-14T20:36:34-04:00","id":264127}