{"type":"FeatureCollection","data_type":"Dataset","url_type":null,"permissions":[{"permissions":{"download":true,"view":true},"group_id":"everyone"}],"classification":null,"title":"Winter_2011_Placements","count":69,"stream_id":264346,"contributor":{"url":"http://geocommons.com/users/49771","name":"2door"},"data_attributes":null,"calculation_params":null,"icon_link":null,"link":"http://geocommons.com/overlays/264346.json","extent":[-168.022,19.4644,-70.1388,64.6441],"geometry_types":["point"],"unique_name":null,"name":"Winter_2011_Placements","feature_count":69,"description":"","next_feature":null,"is_raster":false,"short_classification":"Y","stats":{"# pax":{"max":33,"variance":42.2098331870061,"mean":5.61764705882353,"stdev":6.49690951045235,"min":1,"median":4}},"features":[{"properties":{"geo_score":0.714,"emp city":"Anchorage","id":"a7igbqpfno2u","geo_precision":"city","# pax":12,"state":"AK"},"type":"Feature","geometry":{"type":"Point","coordinates":[-149.486981,61.287624]}},{"properties":{"geo_score":0.714,"emp city":"Fairbanks","id":"a7igbqmd8wuw","geo_precision":"city","# pax":4,"state":"AK"},"type":"Feature","geometry":{"type":"Point","coordinates":[-147.522052,64.644047]}},{"properties":{"geo_score":0.714,"emp city":"Valdez","id":"a7igbqozif2x","geo_precision":"city","# pax":1,"state":"AK"},"type":"Feature","geometry":{"type":"Point","coordinates":[-145.775152,61.68557]}},{"properties":{"geo_score":0.714,"emp city":"Tusayan","id":"a7igbqte7yfa","geo_precision":"city","# pax":2,"state":"AZ"},"type":"Feature","geometry":{"type":"Point","coordinates":[-112.126557,35.973595]}},{"properties":{"geo_score":0.714,"emp city":"Kirkwood","id":"a7igbqpjeuz1","geo_precision":"city","# pax":1,"state":"CA"},"type":"Feature","geometry":{"type":"Point","coordinates":[-120.285021,38.575433]}},{"properties":{"geo_score":0.714,"emp city":"Running Springs","id":"a7igbqh9i1qd","geo_precision":"city","# pax":3,"state":"CA"},"type":"Feature","geometry":{"type":"Point","coordinates":[-120.78606,39.894894]}},{"properties":{"geo_score":0.714,"emp city":"San Diego","id":"a7igbqfuyisi","geo_precision":"city","# pax":1,"state":"CA"},"type":"Feature","geometry":{"type":"Point","coordinates":[-117.174366,32.7211]}},{"properties":{"geo_score":0.714,"emp city":"Truckee","id":"a7igbqquk4p2","geo_precision":"city","# pax":9,"state":"CA"},"type":"Feature","geometry":{"type":"Point","coordinates":[-119.960434,36.913003]}},{"properties":{"geo_score":0.714,"emp city":"Aspen","id":"a7igbqvgxylp","geo_precision":"city","# pax":7,"state":"CO"},"type":"Feature","geometry":{"type":"Point","coordinates":[-106.776744,39.169324]}},{"properties":{"geo_score":0.714,"emp city":"Beaver Creek","id":"a7igbqgxt9vr","geo_precision":"city","# pax":1,"state":"CO"},"type":"Feature","geometry":{"type":"Point","coordinates":[-103.074727,40.8523]}},{"properties":{"geo_score":0.714,"emp city":"Estes Park","id":"a7igbqvo7ql8","geo_precision":"city","# pax":1,"state":"CO"},"type":"Feature","geometry":{"type":"Point","coordinates":[-105.569245,40.628112]}},{"properties":{"geo_score":0.714,"emp city":"Granby","id":"a7igbqrr4gxx","geo_precision":"city","# pax":8,"state":"CO"},"type":"Feature","geometry":{"type":"Point","coordinates":[-105.928533,40.073869]}},{"properties":{"geo_score":0.714,"emp city":"Salida","id":"a7igbqlvwjqe","geo_precision":"city","# pax":4,"state":"CO"},"type":"Feature","geometry":{"type":"Point","coordinates":[-106.120582,38.629119]}},{"properties":{"geo_score":0.714,"emp city":"Silverthorne","id":"a7igbqnnt40c","geo_precision":"city","# pax":7,"state":"CO"},"type":"Feature","geometry":{"type":"Point","coordinates":[-106.108002,39.641146]}},{"properties":{"geo_score":0.714,"emp city":"Vail","id":"a7igbqnev9x6","geo_precision":"city","# pax":20,"state":"CO"},"type":"Feature","geometry":{"type":"Point","coordinates":[-106.44873,39.5824]}},{"properties":{"geo_score":0.714,"emp city":"Winter Park","id":"a7igbquh50wc","geo_precision":"city","# pax":8,"state":"CO"},"type":"Feature","geometry":{"type":"Point","coordinates":[-105.816439,39.949118]}},{"properties":{"geo_score":0.714,"emp city":"Captiva Island","id":"a7igbqjo11z2","geo_precision":"city","# pax":29,"state":"FL"},"type":"Feature","geometry":{"type":"Point","coordinates":[-80.252552,25.378169]}},{"properties":{"geo_score":0.714,"emp city":"Fort Lauderdale","id":"a7igbqie5j39","geo_precision":"city","# pax":3,"state":"FL"},"type":"Feature","geometry":{"type":"Point","coordinates":[-80.208381,26.166474]}},{"properties":{"geo_score":0.714,"emp city":"Miami Beach","id":"a7igbqhmamlm","geo_precision":"city","# pax":1,"state":"FL"},"type":"Feature","geometry":{"type":"Point","coordinates":[-80.193659,25.774266]}},{"properties":{"geo_score":0.714,"emp city":"Naples","id":"a7igbqsp6plg","geo_precision":"city","# pax":26,"state":"FL"},"type":"Feature","geometry":{"type":"Point","coordinates":[-81.79481,26.142036]}},{"properties":{"geo_score":0.714,"emp city":"Honolulu","id":"a7igbqrqwuou","geo_precision":"city","# pax":1,"state":"HI"},"type":"Feature","geometry":{"type":"Point","coordinates":[-168.021815,24.859832]}},{"properties":{"geo_score":0.714,"emp city":"Kauai","id":"a7igbqkv4nxu","geo_precision":"city","# pax":2,"state":"HI"},"type":"Feature","geometry":{"type":"Point","coordinates":[-155.927222,19.464444]}},{"properties":{"geo_score":0.714,"emp city":"Lahaina","id":"a7igbqviktzr","geo_precision":"city","# pax":6,"state":"HI"},"type":"Feature","geometry":{"type":"Point","coordinates":[-156.717614,20.919823]}},{"properties":{"geo_score":0.714,"emp city":"Lihue (Kauai)","id":"a7igbqufx9zx","geo_precision":"city","# pax":13,"state":"HI"},"type":"Feature","geometry":{"type":"Point","coordinates":[-155.927222,19.464444]}},{"properties":{"geo_score":0.714,"emp city":"Wailuku","id":"a7igbqt49nep","geo_precision":"city","# pax":6,"state":"HI"},"type":"Feature","geometry":{"type":"Point","coordinates":[-156.566493,20.901536]}},{"properties":{"geo_score":0.714,"emp city":"Sun Valley","id":"a7igbqqaxjrv","geo_precision":"city","# pax":5,"state":"ID"},"type":"Feature","geometry":{"type":"Point","coordinates":[-116.967516,46.871724]}},{"properties":{"geo_score":0.714,"emp city":"Bourne","id":"a7igbqvc09a5","geo_precision":"city","# pax":5,"state":"MA"},"type":"Feature","geometry":{"type":"Point","coordinates":[-70.59892,41.741217]}},{"properties":{"geo_score":0.714,"emp city":"Falmouth","id":"a7igbqj2zbv6","geo_precision":"city","# pax":6,"state":"MA"},"type":"Feature","geometry":{"type":"Point","coordinates":[-70.493263,41.614199]}},{"properties":{"geo_score":0.714,"emp city":"Hyannis","id":"a7igbqoft2m6","geo_precision":"city","# pax":9,"state":"MA"},"type":"Feature","geometry":{"type":"Point","coordinates":[-70.138834,41.829813]}},{"properties":{"geo_score":0.714,"emp city":"Kingston","id":"a7igbqomvsg1","geo_precision":"city","# pax":4,"state":"MA"},"type":"Feature","geometry":{"type":"Point","coordinates":[-70.744813,41.979405]}},{"properties":{"geo_score":0.714,"emp city":"Plymouth","id":"a7igbqt0fyay","geo_precision":"city","# pax":5,"state":"MA"},"type":"Feature","geometry":{"type":"Point","coordinates":[-70.638717,41.886207]}},{"properties":{"geo_score":0.714,"emp city":"South Yarmouth","id":"a7igbqnv7lej","geo_precision":"city","# pax":4,"state":"MA"},"type":"Feature","geometry":{"type":"Point","coordinates":[-70.228631,41.705666]}},{"properties":{"geo_score":0.0,"emp city":"Teaticket","id":"a7igbqgrpp8l","geo_precision":"unmatched","# pax":1,"state":"MA"},"type":"Feature","geometry":null},{"properties":{"geo_score":0.714,"emp city":"West Barnstable","id":"a7igbqs57ybs","geo_precision":"city","# pax":4,"state":"MA"},"type":"Feature","geometry":{"type":"Point","coordinates":[-72.260635,42.175649]}},{"properties":{"geo_score":0.714,"emp city":"Callaway","id":"a7igbqg3319g","geo_precision":"city","# pax":3,"state":"MN"},"type":"Feature","geometry":{"type":"Point","coordinates":[-95.912192,46.979328]}},{"properties":{"geo_score":0.714,"emp city":"Grand Marais","id":"a7igbqjiattf","geo_precision":"city","# pax":4,"state":"MN"},"type":"Feature","geometry":{"type":"Point","coordinates":[-90.42294,47.872285]}},{"properties":{"geo_score":0.714,"emp city":"Lutsen","id":"a7igbqjfywii","geo_precision":"city","# pax":13,"state":"MN"},"type":"Feature","geometry":{"type":"Point","coordinates":[-90.682372,47.7059]}},{"properties":{"geo_score":0.714,"emp city":"Ocean Springs","id":"a7igbqf8gf2c","geo_precision":"city","# pax":10,"state":"MS"},"type":"Feature","geometry":{"type":"Point","coordinates":[-89.766465,31.089626]}},{"properties":{"geo_score":0.714,"emp city":"Big Sky","id":"a7igbqhy9b54","geo_precision":"city","# pax":4,"state":"MT"},"type":"Feature","geometry":{"type":"Point","coordinates":[-107.342553,48.457237]}},{"properties":{"geo_score":0.714,"emp city":"Cooke City","id":"a7igbqvh89yq","geo_precision":"city","# pax":1,"state":"MT"},"type":"Feature","geometry":{"type":"Point","coordinates":[-109.90697,45.023373]}},{"properties":{"geo_score":0.714,"emp city":"Sidney","id":"a7igbqhdeql3","geo_precision":"city","# pax":3,"state":"MT"},"type":"Feature","geometry":{"type":"Point","coordinates":[-104.195206,47.655825]}},{"properties":{"geo_score":0.714,"emp city":"Minot","id":"a7igbqmg3yc6","geo_precision":"city","# pax":1,"state":"ND"},"type":"Feature","geometry":{"type":"Point","coordinates":[-102.636569,48.331131]}},{"properties":{"geo_score":0.714,"emp city":"Riverdale","id":"a7igbqnhiner","geo_precision":"city","# pax":4,"state":"ND"},"type":"Feature","geometry":{"type":"Point","coordinates":[-101.203255,47.396354]}},{"properties":{"geo_score":0.714,"emp city":"North Woodstock","id":"a7igbqpe8x4e","geo_precision":"city","# pax":2,"state":"NH"},"type":"Feature","geometry":{"type":"Point","coordinates":[-71.206731,43.217304]}},{"properties":{"geo_score":0.714,"emp city":"Tilton","id":"a7igbqkl8881","geo_precision":"city","# pax":1,"state":"NH"},"type":"Feature","geometry":{"type":"Point","coordinates":[-71.69481,44.415892]}},{"properties":{"geo_score":0.714,"emp city":"Twin Mountain","id":"a7igbqob6py5","geo_precision":"city","# pax":3,"state":"NH"},"type":"Feature","geometry":{"type":"Point","coordinates":[-71.547061,44.26895]}},{"properties":{"geo_score":0.714,"emp city":"Whitefield","id":"a7igbqqae93k","geo_precision":"city","# pax":14,"state":"NH"},"type":"Feature","geometry":{"type":"Point","coordinates":[-71.610189,44.363681]}},{"properties":{"geo_score":0.714,"emp city":"Oakhurst","id":"a7igbqn8crf3","geo_precision":"city","# pax":2,"state":"NJ"},"type":"Feature","geometry":{"type":"Point","coordinates":[-74.021382,40.261158]}},{"properties":{"geo_score":0.714,"emp city":"Angel Fire","id":"a7igbqgnllms","geo_precision":"city","# pax":1,"state":"NM"},"type":"Feature","geometry":{"type":"Point","coordinates":[-108.078098,32.845353]}},{"properties":{"geo_score":0.714,"emp city":"Santa Fe","id":"a7igbqidpdei","geo_precision":"city","# pax":1,"state":"NM"},"type":"Feature","geometry":{"type":"Point","coordinates":[-105.982146,35.697473]}},{"properties":{"geo_score":0.714,"emp city":"Lake Placid","id":"a7igbqj987sw","geo_precision":"city","# pax":2,"state":"NY"},"type":"Feature","geometry":{"type":"Point","coordinates":[-74.456913,43.667618]}},{"properties":{"geo_score":0.714,"emp city":"Lake Placid","id":"a7igbqgy8aca","geo_precision":"city","# pax":null,"state":"NY"},"type":"Feature","geometry":{"type":"Point","coordinates":[-74.456913,43.667618]}},{"properties":{"geo_score":0.714,"emp city":"Margaretville","id":"a7igbqrams58","geo_precision":"city","# pax":1,"state":"NY"},"type":"Feature","geometry":{"type":"Point","coordinates":[-74.617819,42.185189]}},{"properties":{"geo_score":0.714,"emp city":"Pierre","id":"a7igbqqsznps","geo_precision":"city","# pax":2,"state":"SD"},"type":"Feature","geometry":{"type":"Point","coordinates":[-100.094195,44.334073]}},{"properties":{"geo_score":0.714,"emp city":"Rapid City","id":"a7igbqjn5qhc","geo_precision":"city","# pax":2,"state":"SD"},"type":"Feature","geometry":{"type":"Point","coordinates":[-103.240024,44.004363]}},{"properties":{"geo_score":0.714,"emp city":"Park City","id":"a7igbqvij93g","geo_precision":"city","# pax":4,"state":"UT"},"type":"Feature","geometry":{"type":"Point","coordinates":[-111.448892,40.71188]}},{"properties":{"geo_score":0.714,"emp city":"Arlington","id":"a7igbqrpum2e","geo_precision":"city","# pax":3,"state":"VA"},"type":"Feature","geometry":{"type":"Point","coordinates":[-77.099113,38.885484]}},{"properties":{"geo_score":0.714,"emp city":"Bondville","id":"a7igbqtndcq0","geo_precision":"city","# pax":1,"state":"VT"},"type":"Feature","geometry":{"type":"Point","coordinates":[-72.91514,43.16409]}},{"properties":{"geo_score":0.714,"emp city":"Chittenden","id":"a7igbqfsw55d","geo_precision":"city","# pax":4,"state":"VT"},"type":"Feature","geometry":{"type":"Point","coordinates":[-72.925199,43.713218]}},{"properties":{"geo_score":0.0,"emp city":"Essex Junction","id":"a7igbqnzeako","geo_precision":"unmatched","# pax":1,"state":"VT"},"type":"Feature","geometry":null},{"properties":{"geo_score":0.714,"emp city":"Goshen","id":"a7igbqgy0uuk","geo_precision":"city","# pax":1,"state":"VT"},"type":"Feature","geometry":{"type":"Point","coordinates":[-73.022056,43.849508]}},{"properties":{"geo_score":0.714,"emp city":"Killington","id":"a7igbqir2xo9","geo_precision":"city","# pax":11,"state":"VT"},"type":"Feature","geometry":{"type":"Point","coordinates":[-72.782713,43.656951]}},{"properties":{"geo_score":0.714,"emp city":"Stowe","id":"a7igbqmy6xfp","geo_precision":"city","# pax":4,"state":"VT"},"type":"Feature","geometry":{"type":"Point","coordinates":[-72.660043,44.535179]}},{"properties":{"geo_score":0.714,"emp city":"Snoqualmie Pass","id":"a7igbqo7dmpc","geo_precision":"city","# pax":2,"state":"WA"},"type":"Feature","geometry":{"type":"Point","coordinates":[-121.400094,47.392335]}},{"properties":{"geo_score":0.714,"emp city":"Cable","id":"a7igbqscu8d6","geo_precision":"city","# pax":13,"state":"WI"},"type":"Feature","geometry":{"type":"Point","coordinates":[-91.189305,46.21018]}},{"properties":{"geo_score":0.714,"emp city":"Franklin","id":"a7igbqjklw90","geo_precision":"city","# pax":4,"state":"WI"},"type":"Feature","geometry":{"type":"Point","coordinates":[-87.90148,43.83555]}},{"properties":{"geo_score":0.714,"emp city":"Sister Bay","id":"a7igbqoquskg","geo_precision":"city","# pax":5,"state":"WI"},"type":"Feature","geometry":{"type":"Point","coordinates":[-87.101748,45.178293]}},{"properties":{"geo_score":0.714,"emp city":"Wisconsin Dells","id":"a7igbqqe0rac","geo_precision":"city","# pax":3,"state":"WI"},"type":"Feature","geometry":{"type":"Point","coordinates":[-89.918546,44.379694]}},{"properties":{"geo_score":0.714,"emp city":"Teton Village","id":"a7igbqsz4wwk","geo_precision":"city","# pax":33,"state":"WY"},"type":"Feature","geometry":{"type":"Point","coordinates":[-110.694002,43.443851]}}],"is_temporal":false,"author":{"url":"","metadata":"","contact_name":"","contact_address":"","source":"","contact_phone":""},"source":"","pagination":{"sort":null,"start":0,"total":69,"limit":1000000},"state":"complete","tags":"","published":"2014-08-14T20:54:21-04:00","id":264346}