{"type":"FeatureCollection","data_type":"Dataset","url_type":null,"permissions":[{"permissions":{"download":true,"view":true},"group_id":"everyone"}],"classification":null,"title":"ICBMs","count":3,"stream_id":265070,"contributor":{"url":"http://geocommons.com/users/49907","name":"ctoczauer@hotmail.com"},"data_attributes":null,"calculation_params":null,"icon_link":null,"link":"http://geocommons.com/overlays/265070.json","extent":[-111.301,41.14,-101.32,48.4243],"geometry_types":["point"],"unique_name":null,"name":"ICBMs","feature_count":3,"description":"Nuclear ICBM deployment locations\r\n","next_feature":null,"is_raster":false,"short_classification":"Y","stats":{},"features":[{"properties":{"city":"Malmstrom AFB","details":"Minuteman III is now based here (200 missiles in the 10th, 12th, 490th, and 564th missile squadrons of the 341st Space Wing.","zipcode":"59402","geo_score":0.857,"what":"ICBM","id":"a7kxx55cky4a","geo_precision":"zip","state":"Montana"},"type":"Feature","geometry":{"type":"Point","coordinates":[-111.300808,47.500235]}},{"properties":{"city":"Minot AFB","details":"Minuteman III is now based here (150 missiles in the 740th, 741st, and 742nd missile squadrons of the 91st Space Wing).","zipcode":"58704","geo_score":0.857,"what":"ICBM","id":"a7kxx56044xv","geo_precision":"zip","state":"North Dakota"},"type":"Feature","geometry":{"type":"Point","coordinates":[-101.319942,48.42429]}},{"properties":{"city":"F.E. Warren AFB","details":"Minuteman III is now based here (150 missiles in the 319th, 320th and 321st missile squadrons of the 90th Space Wing.  Warren also hosts the sole Peacekeeper squadron-50 missiles of the 400th missile squadron also of the 90th Space Wing.","zipcode":"82005","geo_score":0.857,"what":"ICBM","id":"a7kxx59sjgie","geo_precision":"zip","state":"Wyoming"},"type":"Feature","geometry":{"type":"Point","coordinates":[-104.820246,41.139981]}}],"is_temporal":false,"author":{"url":"http://nuclearweaponarchive.org/Nwfaq/Nfaq7-2.html","metadata":"","contact_name":"","contact_address":"","source":"","contact_phone":""},"source":"http://nuclearweaponarchive.org/Nwfaq/Nfaq7-2.html","pagination":{"sort":null,"start":0,"total":3,"limit":1000000},"state":"complete","tags":"","published":"2014-08-14T21:57:16-04:00","id":265070}