{"type":"FeatureCollection","data_type":"Dataset","url_type":null,"permissions":[{"permissions":{"download":true,"view":true},"group_id":"everyone"}],"classification":null,"title":"Operational Facilities","count":21,"stream_id":265306,"contributor":{"url":"http://geocommons.com/users/49907","name":"ctoczauer@hotmail.com"},"data_attributes":null,"calculation_params":null,"icon_link":null,"link":"http://geocommons.com/overlays/265306.json","extent":[-121.922,32.4169,-72.8049,45.7386],"geometry_types":["point"],"unique_name":null,"name":"Operational Facilities","feature_count":21,"description":"","next_feature":null,"is_raster":false,"short_classification":"Y","stats":{},"features":[{"properties":{"city":"Armes","details":"N/A","zipcode":"50009","geo_score":0.857,"what":"Armes Laboratory","id":"a7lsddg38mcy","geo_precision":"zip","state":"Iowa"},"type":"Feature","geometry":{"type":"Point","coordinates":[-93.4685,41.65097]}},{"properties":{"city":"Argonne","details":"Conducts research on advanced nuclear reactor technologies.","zipcode":"54511","geo_score":0.714,"what":"Argonne National Laboratory [ANL]","id":"a7lsddlfi628","geo_precision":"zip","state":"Illinois"},"type":"Feature","geometry":{"type":"Point","coordinates":[-88.705393,45.738572]}},{"properties":{"city":"West Mifflin","details":"Designs, builds and tests prototype naval nuclear reactors and trains U.S. Navy personnel in their operation and maintenance.","zipcode":"15122","geo_score":0.857,"what":"Bettis Atomic Power Laboratory","id":"a7lsddet3jma","geo_precision":"zip","state":"Pennsylvania"},"type":"Feature","geometry":{"type":"Point","coordinates":[-79.864771,40.387847]}},{"properties":{"city":"Kingsport","details":"Sole source (since 1961) of a high explosive (HE) chemical powder used to fabricate high explosive lenses for nuclear weapons","zipcode":"37664","geo_score":0.857,"what":"Holston Army Ammunition Plant","id":"a7lsdd5vtbrw","geo_precision":"zip","state":"Tennessee"},"type":"Feature","geometry":{"type":"Point","coordinates":[-82.435702,36.567602]}},{"properties":{"city":"Idaho Falls","details":"Researches, develops, tests and evaluates naval and breeder reactors, manages high-level and transuranic nuclear waste, and produces plutonium-238 fuel in the Advanced Test Reactor. Fabricates depleted uranium armor at the Specific Manufacturing Capability Project for M1-A1 and M1-A2 Abrams tanks. From 1953-1992, the Idaho Chemical Processing Plant (ICPP)2 reprocessed spent naval reactor fuel to recover uranium-235 (some of which was fabricated into fuel for the Savannah River reactors beginning in 1968) and krypton-85. Facilities include 52 reactors (3 still operating, 10 operable but currently shut down for lack of funding) and 11 stainless steel high-level waste underground storage tanks. Four reactors (two submarine prototypes and two aircraft carrier prototypes), all inactivated, are at the Naval Reactors Facility maintained by the Navy's Nuclear Reactors Office.","zipcode":"83403","geo_score":0.857,"what":"Idaho National Engineering and Environmental Laboratory [INEEL]","id":"a7lsddfy4blq","geo_precision":"zip","state":"Idaho"},"type":"Feature","geometry":{"type":"Point","coordinates":[-111.333376,43.421132]}},{"properties":{"city":"Kansas City","details":"Produces or procures electronic, electro-mechanical, rubber, plastic and metal components for nuclear weapons, including arming, fuzing and firing systems, radars and coded safety locks known as PALs (Permissive Action Links).","zipcode":"64101","geo_score":0.857,"what":"Kansas City Plant","id":"a7lsddjb6cj8","geo_precision":"zip","state":"Missouri"},"type":"Feature","geometry":{"type":"Point","coordinates":[-94.598583,39.102404]}},{"properties":{"city":"West Milton","details":"Designs, builds and tests prototype naval nuclear reactors and trains U.S. Navy personnel in their operation and maintenance. Maintains two operational and two inactive (defueled) test reactors at Niskayuna, NY, and an inactive (defueled) reactor at Windsor, CT (shut down in March 1993).","zipcode":"12020","geo_score":0.857,"what":"Knolls Atomic Power Laboratory [KAPL]","id":"a7lsdd8fpy55","geo_precision":"zip","state":"New York"},"type":"Feature","geometry":{"type":"Point","coordinates":[-73.929291,43.037575]}},{"properties":{"city":"Niskayuna","details":"Designs, builds and tests prototype naval nuclear reactors and trains U.S. Navy personnel in their operation and maintenance. Maintains two operational and two inactive (defueled) test reactors at Niskayuna, NY, and an inactive (defueled) reactor at Windsor, CT (shut down in March 1993).","zipcode":"12309","geo_score":0.857,"what":"Knolls Atomic Power Laboratory [KAPL]","id":"a7lsddfefitl","geo_precision":"zip","state":"New York"},"type":"Feature","geometry":{"type":"Point","coordinates":[-73.889012,42.848132]}},{"properties":{"city":"Windsor","details":"Designs, builds and tests prototype naval nuclear reactors and trains U.S. Navy personnel in their operation and maintenance. Maintains two operational and two inactive (defueled) test reactors at Niskayuna, NY, and an inactive (defueled) reactor at Windsor, CT (shut down in March 1993).","zipcode":"6095","geo_score":0.857,"what":"Knolls Atomic Power Laboratory [KAPL]","id":"a7lsddhee1v1","geo_precision":"zip","state":"Connecticut"},"type":"Feature","geometry":{"type":"Point","coordinates":[-72.804935,41.909988]}},{"properties":{"city":"Livermore","details":"Conducts research, development and testing activities associated with all phases of the nuclear weapons life-cycle, as well as research on non-proliferation, arms control and treaty verification technology. Facilities include an explosives test site, a tritium facility, the NOVA laser, the Atomic Vapor Laser Isotope Separation (AVLIS) plant, Inertial Confinement Fusion (ICF) facilities, the National Ignition Facility (NIF, currently under construction) and the High Explosive Application Facility (HEAF).","zipcode":"94551","geo_score":0.857,"what":"Lawrence Livermore National Laboratory [LLNL]","id":"a7lsddjygygw","geo_precision":"zip","state":"California"},"type":"Feature","geometry":{"type":"Point","coordinates":[-121.921498,37.680181]}},{"properties":{"city":"Los Alamos","details":"Conducts research, development and testing activities associated with all phases of the nuclear weapons life-cycle, as well as arms control and nuclear proliferation. Facilities include plutonium and tritium processing plants, an eight megawatt research reactor and various laser and high explosives buildings. Until April 1984, Los Alamos had the capability to fabricate and assemble nuclear weapon test devices.","zipcode":"87544","geo_score":0.857,"what":"Los Alamos National Laboratory [LANL]","id":"a7lsddbcmm4m","geo_precision":"zip","state":"New Mexico"},"type":"Feature","geometry":{"type":"Point","coordinates":[-106.175303,35.875581]}},{"properties":{"city":"Las Vegas","details":"Field tests nuclear weapons for development, safety and weapons effects purposes. From the 1959 through 1972 a portion of the site, designated the Nuclear Rocket Development Station (NRDS), was used to test 21 above-ground prototypes of space nuclear propulsion reactors.9 In mid-1993, construction was completed on the $109 million Device Assembly Facility, (DAF), a 100,000 square foot building within a highly secured 22 acre portion of the test site. The facility includes five high explosives containment cells, called \"Gravel Gerties,\" three weapon assembly bays, two radiographic areas and storage bunkers. In August 2002, the DOE announced that the TA-18 facility at Los Alamos will be relocated to the DAF.","zipcode":"89165","geo_score":0.857,"what":"Nevada Test Site","id":"a7lsddcy5v3d","geo_precision":"zip","state":"Nevada"},"type":"Feature","geometry":{"type":"Point","coordinates":[-115.137223,36.174971]}},{"properties":{"city":"Erwin","details":"Sole facility (since 1978) to convert uranium hexafluoride into the chemical and physical form used in naval reactor fuel elements.","zipcode":"37650","geo_score":0.857,"what":"Nuclear Fuel Services, Inc.","id":"a7lsddb3j34p","geo_precision":"zip","state":"Tennessee"},"type":"Feature","geometry":{"type":"Point","coordinates":[-82.458475,36.181218]}},{"properties":{"city":"Oak Ridge","details":"Produces weapon components to support to support the activities of the design laboratories and the Nevada Test Site, fabricates materials for the naval nuclear reactor program, and stores (in the Y-12 Plant) highly-enriched uranium (HEU) returned from dismantled weapons. Formerly produced uranium-235 (483 metric tons) and lithium-6 deuteride (442.4 metric tons) for nuclear weapons. Site of Oak Ridge National Laboratory (ORNL).","zipcode":"37380","geo_score":0.857,"what":"Oak Ridge Reservation [ORR]","id":"a7lsddhurp4j","geo_precision":"zip","state":"Tennessee"},"type":"Feature","geometry":{"type":"Point","coordinates":[-85.742194,35.12758]}},{"properties":{"city":"Amarillo","details":"Currently evaluates, refurbishes, and modifies stockpiled weapons, fabricates high-explosive components and disassembles retired nuclear weapons. Formerly assembled weapons. Last new nuclear weapon (W88 warhead) assembled on July 31, 1990.","zipcode":"79101","geo_score":0.857,"what":"Pantex Plant","id":"a7lsddbnedp7","geo_precision":"zip","state":"Texas"},"type":"Feature","geometry":{"type":"Point","coordinates":[-101.795512,35.205452]}},{"properties":{"city":"Albuquerque","details":"Responsible for research, development and testing of all non-nuclear components in nuclear weapons; manufactures neutron generators; develops transportation and storage systems for nuclear weapons; assesses nuclear weapons safety, security and control and helps train military personnel in the assembly and maintenance of completed weapons.","zipcode":"87008","geo_score":0.857,"what":"Sandia National Laboratories [SNL]","id":"a7lsdd5d4m5i","geo_precision":"zip","state":"New Mexico"},"type":"Feature","geometry":{"type":"Point","coordinates":[-106.375103,35.124363]}},{"properties":{"city":"Livermore","details":"Responsible for research, development and testing of all non-nuclear components in nuclear weapons; manufactures neutron generators; develops transportation and storage systems for nuclear weapons; assesses nuclear weapons safety, security and control and helps train military personnel in the assembly and maintenance of completed weapons.","zipcode":"94551","geo_score":0.857,"what":"Sandia National Laboratories [SNL]","id":"a7lsddgt764b","geo_precision":"zip","state":"California"},"type":"Feature","geometry":{"type":"Point","coordinates":[-121.921498,37.680181]}},{"properties":{"city":"Tonopah","details":"Responsible for research, development and testing of all non-nuclear components in nuclear weapons; manufactures neutron generators; develops transportation and storage systems for nuclear weapons; assesses nuclear weapons safety, security and control and helps train military personnel in the assembly and maintenance of completed weapons.","zipcode":"89049","geo_score":0.857,"what":"Sandia National Laboratories [SNL]","id":"a7lsddi2r5qw","geo_precision":"zip","state":"Nevada"},"type":"Feature","geometry":{"type":"Point","coordinates":[-116.370054,38.19049]}},{"properties":{"city":"Aiken","details":"Manages high-level nuclear wastes and refills tritium reservoirs. Processes plutonium-238 for use in radioisotope thermoelectric generators (RTGs). Formerly produced weapon-grade plutonium (36.1 metric tons), tritium and deuterium for nuclear weapons. Facilities include five reactors, two chemical separation plants, two tritium facilities, 51 high-level waste underground storage tanks, a high-level waste plant (the Defense Waste Processing Facility) and a completed but unopened naval reactor fuel fabrication facility.","zipcode":"29801","geo_score":0.857,"what":"Savannah River Site [SRS]","id":"a7lsdd6dsl6q","geo_precision":"zip","state":"South Carolina"},"type":"Feature","geometry":{"type":"Point","coordinates":[-81.719275,33.612639]}},{"properties":{"city":"Carlsbad","details":"To assess the feasibility of safe underground storage of transuranic (TRU) waste from nuclear weapons manufacturing processes. The first shipment of waste to WIPP (from Los Alamos National Laboratory) was delivered on March 26, 1999.","zipcode":"88220","geo_score":0.857,"what":"Waste Isolation Pilot Plant [WIPP]","id":"a7lsdd9ao73p","geo_precision":"zip","state":"New Mexico"},"type":"Feature","geometry":{"type":"Point","coordinates":[-104.46539,32.416897]}},{"properties":{"city":"Las Vegas","details":"Designated site for underground geologic storage of some vitrified high-level defense wastes and spent nuclear fuel from commercial power reactors.","zipcode":"89165","geo_score":0.857,"what":"Yucca Mountain Project","id":"a7lsdddqv24c","geo_precision":"zip","state":"Nevada"},"type":"Feature","geometry":{"type":"Point","coordinates":[-115.137223,36.174971]}}],"is_temporal":false,"author":{"url":"http://www.brookings.edu/about/projects/archive/nucweapons/sites","metadata":"","contact_name":"","contact_address":"","source":"","contact_phone":""},"source":"http://www.brookings.edu/about/projects/archive/nucweapons/sites","pagination":{"sort":null,"start":0,"total":21,"limit":1000000},"state":"complete","tags":"","published":"2014-08-14T22:18:03-04:00","id":265306}