{"type":"FeatureCollection","data_type":"Dataset","url_type":null,"permissions":[{"permissions":{"download":true,"view":true},"group_id":"everyone"}],"classification":null,"title":"Book2","count":18,"stream_id":265649,"contributor":{"url":"http://geocommons.com/users/50099","name":"esteinmetz"},"data_attributes":null,"calculation_params":null,"icon_link":null,"link":"http://geocommons.com/overlays/265649.json","extent":[-88.2328,41.7448,-87.6873,42.0066],"geometry_types":["point"],"unique_name":null,"name":"Book2","feature_count":18,"description":"","next_feature":null,"is_raster":false,"short_classification":"Y","stats":{},"features":[{"properties":{"city":"Chicago","zip":"60613","last":"Braham","geo_score":0.857,"first":"Thomas","id":"a7oaumvbjlam","current residence":"Lakeview","geo_precision":"zip","state":"IL"},"type":"Feature","geometry":{"type":"Point","coordinates":[-87.68732,41.811929]}},{"properties":{"city":"Chicago","zip":"60613","last":"Broz","geo_score":0.857,"first":"David","id":"a7oaun1jnc9b","current residence":"Lakeview","geo_precision":"zip","state":"IL"},"type":"Feature","geometry":{"type":"Point","coordinates":[-87.68732,41.811929]}},{"properties":{"city":"Chicago","zip":"60614","last":"Cool","geo_score":0.857,"first":"Nathan","id":"a7oaumzwb56r","current residence":"Logan Square","geo_precision":"zip","state":"IL"},"type":"Feature","geometry":{"type":"Point","coordinates":[-87.68732,41.811929]}},{"properties":{"city":"Chicago","zip":"60613","last":"Fernandes","geo_score":0.857,"first":"Marie","id":"a7oaumw9zudk","current residence":"Lakeview","geo_precision":"zip","state":"IL"},"type":"Feature","geometry":{"type":"Point","coordinates":[-87.68732,41.811929]}},{"properties":{"city":"Chicago","zip":"60605","last":"Godwin","geo_score":0.857,"first":"Audrey","id":"a7oaun72514k","current residence":"South Loop","geo_precision":"zip","state":"IL"},"type":"Feature","geometry":{"type":"Point","coordinates":[-87.68732,41.811929]}},{"properties":{"city":"Chicago","zip":"60646","last":"Hanley","geo_score":0.857,"first":"Michael","id":"a7oaun40j9xh","current residence":"Edgebrook","geo_precision":"zip","state":"IL"},"type":"Feature","geometry":{"type":"Point","coordinates":[-87.75901,42.00663]}},{"properties":{"city":"Chicago","zip":"60625","last":"Hickey","geo_score":0.857,"first":"Susan","id":"a7oaumu2k0sx","current residence":"Logan Square","geo_precision":"zip","state":"IL"},"type":"Feature","geometry":{"type":"Point","coordinates":[-87.68732,41.811929]}},{"properties":{"city":"Chicago","zip":"60610","last":"Jacobson","geo_score":0.857,"first":"Sarah","id":"a7oaun5gfgvy","current residence":"River North","geo_precision":"zip","state":"IL"},"type":"Feature","geometry":{"type":"Point","coordinates":[-87.68732,41.811929]}},{"properties":{"city":"Chicago","zip":"60614","last":"Long","geo_score":0.857,"first":"Neil","id":"a7oaumrquapx","current residence":"Lincoln Park","geo_precision":"zip","state":"IL"},"type":"Feature","geometry":{"type":"Point","coordinates":[-87.68732,41.811929]}},{"properties":{"city":"Chicago","zip":"60618","last":"Riddle","geo_score":0.857,"first":"Shannon","id":"a7oaumv5d25l","current residence":"Albany Park","geo_precision":"zip","state":"IL"},"type":"Feature","geometry":{"type":"Point","coordinates":[-87.68732,41.811929]}},{"properties":{"city":"Chicago","zip":"60614","last":"Schumaker","geo_score":0.857,"first":"Oren","id":"a7oaun3w48b7","current residence":"Lincoln Park","geo_precision":"zip","state":"IL"},"type":"Feature","geometry":{"type":"Point","coordinates":[-87.68732,41.811929]}},{"properties":{"city":"Chicago","zip":"60640","last":"Elizabeth","geo_score":0.857,"first":"Steinmetz","id":"a7oaun5p0erk","current residence":"Uptown","geo_precision":"zip","state":"IL"},"type":"Feature","geometry":{"type":"Point","coordinates":[-87.68732,41.811929]}},{"properties":{"city":"Chicago","zip":"60618","last":"Tabeling","geo_score":0.857,"first":"Amelia","id":"a7oaun0qhsv8","current residence":"West Loop","geo_precision":"zip","state":"IL"},"type":"Feature","geometry":{"type":"Point","coordinates":[-87.68732,41.811929]}},{"properties":{"city":"Naperville","zip":"60540","last":"Tak","geo_score":0.857,"first":"Hyun","id":"a7oaun26dedp","current residence":"Naperville, IL","geo_precision":"zip","state":"IL"},"type":"Feature","geometry":{"type":"Point","coordinates":[-88.232846,41.744752]}},{"properties":{"city":"Chicago","zip":"60622","last":"Trachsel","geo_score":0.857,"first":"Allie","id":"a7oaun4n8zd7","current residence":"Wicker Park","geo_precision":"zip","state":"Il"},"type":"Feature","geometry":{"type":"Point","coordinates":[-87.68732,41.811929]}},{"properties":{"city":"Chicago","zip":"60622","last":"Tracy","geo_score":0.857,"first":"David","id":"a7oaun65cf3a","current residence":"Humboldt Park","geo_precision":"zip","state":"Il"},"type":"Feature","geometry":{"type":"Point","coordinates":[-87.68732,41.811929]}},{"properties":{"city":"Chicago","zip":"60301","last":"Woytek, Jr.","geo_score":0.857,"first":"Bernie","id":"a7oaumzsju0j","current residence":"Oak Park, IL","geo_precision":"zip","state":"Il"},"type":"Feature","geometry":{"type":"Point","coordinates":[-87.68732,41.811929]}},{"properties":{"city":"Chicago","zip":"60301","last":"Webster","geo_score":0.857,"first":"Meghan","id":"a7oaun1enh16","current residence":"Oak Park, IL","geo_precision":"zip","state":"Il"},"type":"Feature","geometry":{"type":"Point","coordinates":[-87.68732,41.811929]}}],"is_temporal":false,"author":{"url":"","metadata":null,"contact_name":null,"contact_address":null,"source":null,"contact_phone":null},"source":"","pagination":{"sort":null,"start":0,"total":18,"limit":1000000},"state":"complete","tags":"","published":"2014-08-14T22:45:32-04:00","id":265649}