{"type":"FeatureCollection","data_type":"Dataset","url_type":null,"permissions":[{"permissions":{"download":true,"view":true},"group_id":"everyone"}],"classification":null,"title":"SNAP_Geocommons","count":77,"stream_id":266918,"contributor":{"url":"http://geocommons.com/users/47962","name":"darrenjaworski"},"data_attributes":null,"calculation_params":null,"icon_link":null,"link":"http://geocommons.com/overlays/266918.json","extent":[0.0,0.0,0.0,0.0],"geometry_types":null,"unique_name":null,"name":"SNAP_Geocommons","feature_count":77,"description":"","next_feature":null,"is_raster":false,"short_classification":"Y","features":[{"properties":{"county":"Adair","total benefits":"$890,374","id":"a7rme1j12zy7"},"type":"Feature","geometry":null},{"properties":{"county":"Alfalfa","total benefits":"$60,769","id":"a7rme1off2k9"},"type":"Feature","geometry":null},{"properties":{"county":"Atoka","total benefits":"$324,198","id":"a7rme1l68ivw"},"type":"Feature","geometry":null},{"properties":{"county":"Beaver","total benefits":"$45,882","id":"a7rme1tqnlvl"},"type":"Feature","geometry":null},{"properties":{"county":"Beckham","total benefits":"$362,562","id":"a7rme1q1sds3"},"type":"Feature","geometry":null},{"properties":{"county":"Blaine","total benefits":"$262,942","id":"a7rme1rntxby"},"type":"Feature","geometry":null},{"properties":{"county":"Bryan","total benefits":"$847,881","id":"a7rme1ulfsdq"},"type":"Feature","geometry":null},{"properties":{"county":"Caddo","total benefits":"$771,855","id":"a7rme1nqlm6x"},"type":"Feature","geometry":null},{"properties":{"county":"Canadian","total benefits":"$1,266,667","id":"a7rme1pk7knn"},"type":"Feature","geometry":null},{"properties":{"county":"Carter","total benefits":"$1,093,091","id":"a7rme1hbj7ov"},"type":"Feature","geometry":null},{"properties":{"county":"Cherokee","total benefits":"$1,657,230","id":"a7rme1umoe73"},"type":"Feature","geometry":null},{"properties":{"county":"Choctaw","total benefits":"$583,054","id":"a7rme1l4sgr9"},"type":"Feature","geometry":null},{"properties":{"county":"Cimarron","total benefits":"$36,838","id":"a7rme1wmobsi"},"type":"Feature","geometry":null},{"properties":{"county":"Cleveland","total benefits":"$3,882,727","id":"a7rme1nk1eqd"},"type":"Feature","geometry":null},{"properties":{"county":"Coal","total benefits":"$139,969","id":"a7rme1q40z92"},"type":"Feature","geometry":null},{"properties":{"county":"Comanche","total benefits":"$2,696,943","id":"a7rme1uq06mc"},"type":"Feature","geometry":null},{"properties":{"county":"Cotton","total benefits":"$101,882","id":"a7rme1vmgkbs"},"type":"Feature","geometry":null},{"properties":{"county":"Craig","total benefits":"$338,253","id":"a7rme1w4uz5m"},"type":"Feature","geometry":null},{"properties":{"county":"Creek","total benefits":"$1,631,751","id":"a7rme1hikzq6"},"type":"Feature","geometry":null},{"properties":{"county":"Custer","total benefits":"$384,605","id":"a7rme1qiu7d1"},"type":"Feature","geometry":null},{"properties":{"county":"Delaware","total benefits":"$996,686","id":"a7rme1h5yssb"},"type":"Feature","geometry":null},{"properties":{"county":"Dewey","total benefits":"$32,138","id":"a7rme1jefpqc"},"type":"Feature","geometry":null},{"properties":{"county":"Ellis","total benefits":"$30,802","id":"a7rme1r71x2u"},"type":"Feature","geometry":null},{"properties":{"county":"Garfield","total benefits":"$1,234,328","id":"a7rme1gxhooy"},"type":"Feature","geometry":null},{"properties":{"county":"Garvin","total benefits":"$557,487","id":"a7rme1mn3o6a"},"type":"Feature","geometry":null},{"properties":{"county":"Grady","total benefits":"$954,180","id":"a7rme1i5gowh"},"type":"Feature","geometry":null},{"properties":{"county":"Grant","total benefits":"$29,262","id":"a7rme1orun0i"},"type":"Feature","geometry":null},{"properties":{"county":"Greer","total benefits":"$128,683","id":"a7rme1r0cqiv"},"type":"Feature","geometry":null},{"properties":{"county":"Harmon","total benefits":"$66,149","id":"a7rme1u3zi7j"},"type":"Feature","geometry":null},{"properties":{"county":"Harper","total benefits":"$29,377","id":"a7rme1n875p0"},"type":"Feature","geometry":null},{"properties":{"county":"Haskell","total benefits":"$414,708","id":"a7rme1nitrcv"},"type":"Feature","geometry":null},{"properties":{"county":"Hughes","total benefits":"$298,948","id":"a7rme1wb1731"},"type":"Feature","geometry":null},{"properties":{"county":"Jackson","total benefits":"$599,014","id":"a7rme1st5tkt"},"type":"Feature","geometry":null},{"properties":{"county":"Jefferson","total benefits":"$168,539","id":"a7rme1ur4n2y"},"type":"Feature","geometry":null},{"properties":{"county":"Johnston","total benefits":"$274,507","id":"a7rme1rwamej"},"type":"Feature","geometry":null},{"properties":{"county":"Kay","total benefits":"$1,209,418","id":"a7rme1qy8iqh"},"type":"Feature","geometry":null},{"properties":{"county":"Kingfisher","total benefits":"$162,432","id":"a7rme1r2gthu"},"type":"Feature","geometry":null},{"properties":{"county":"Kiowa","total benefits":"$224,973","id":"a7rme1u2oed3"},"type":"Feature","geometry":null},{"properties":{"county":"Latimer","total benefits":"$256,930","id":"a7rme1uq7l0j"},"type":"Feature","geometry":null},{"properties":{"county":"LeFlore","total benefits":"$1,551,735","id":"a7rme1n9cbs4"},"type":"Feature","geometry":null},{"properties":{"county":"Lincoln","total benefits":"$595,387","id":"a7rme1v6aop5"},"type":"Feature","geometry":null},{"properties":{"county":"Logan","total benefits":"$785,657","id":"a7rme1rm1o6a"},"type":"Feature","geometry":null},{"properties":{"county":"Love","total benefits":"$226,407","id":"a7rme1pc1iwt"},"type":"Feature","geometry":null},{"properties":{"county":"Major","total benefits":"$92,610","id":"a7rme1sli8du"},"type":"Feature","geometry":null},{"properties":{"county":"Marshall","total benefits":"$301,544","id":"a7rme1mt65e8"},"type":"Feature","geometry":null},{"properties":{"county":"Mayes","total benefits":"$984,682","id":"a7rme1miub1r"},"type":"Feature","geometry":null},{"properties":{"county":"McClain","total benefits":"$515,424","id":"a7rme1lo1966"},"type":"Feature","geometry":null},{"properties":{"county":"McCurtain","total benefits":"$1,171,852","id":"a7rme1mwx9i8"},"type":"Feature","geometry":null},{"properties":{"county":"McIntosh","total benefits":"$548,033","id":"a7rme1w8br0w"},"type":"Feature","geometry":null},{"properties":{"county":"Murray","total benefits":"$236,261","id":"a7rme1t6jalo"},"type":"Feature","geometry":null},{"properties":{"county":"Muskogee","total benefits":"$1,906,568","id":"a7rme1iso35m"},"type":"Feature","geometry":null},{"properties":{"county":"Noble","total benefits":"$176,300","id":"a7rme1i1l6g1"},"type":"Feature","geometry":null},{"properties":{"county":"Nowata","total benefits":"$242,982","id":"a7rme1ojxp3g"},"type":"Feature","geometry":null},{"properties":{"county":"Okfuskee","total benefits":"$312,758","id":"a7rme1j4umav"},"type":"Feature","geometry":null},{"properties":{"county":"Oklahoma","total benefits":"$16,492,193","id":"a7rme1t63r50"},"type":"Feature","geometry":null},{"properties":{"county":"Okmulgee","total benefits":"$1,156,819","id":"a7rme1szly65"},"type":"Feature","geometry":null},{"properties":{"county":"Osage","total benefits":"$701,113","id":"a7rme1t4qzxx"},"type":"Feature","geometry":null},{"properties":{"county":"Ottawa","total benefits":"$880,251","id":"a7rme1jkumlh"},"type":"Feature","geometry":null},{"properties":{"county":"Pawnee","total benefits":"$357,438","id":"a7rme1itnlc8"},"type":"Feature","geometry":null},{"properties":{"county":"Payne","total benefits":"$1,077,212","id":"a7rme1vp77aa"},"type":"Feature","geometry":null},{"properties":{"county":"Pittsburg","total benefits":"$926,189","id":"a7rme1ug75ai"},"type":"Feature","geometry":null},{"properties":{"county":"Pontotoc","total benefits":"$881,695","id":"a7rme1vpqpu9"},"type":"Feature","geometry":null},{"properties":{"county":"Pottawatomie","total benefits":"$1,935,014","id":"a7rme1qbng1s"},"type":"Feature","geometry":null},{"properties":{"county":"Pushmataha","total benefits":"$268,999","id":"a7rme1ijvojd"},"type":"Feature","geometry":null},{"properties":{"county":"Roger Mills","total benefits":"$27,060","id":"a7rme1ucp066"},"type":"Feature","geometry":null},{"properties":{"county":"Rogers","total benefits":"$1,445,595","id":"a7rme1uilr09"},"type":"Feature","geometry":null},{"properties":{"county":"Seminole","total benefits":"$868,714","id":"a7rme1ju1ha9"},"type":"Feature","geometry":null},{"properties":{"county":"Sequoyah","total benefits":"$1,239,921","id":"a7rme1pn6x7q"},"type":"Feature","geometry":null},{"properties":{"county":"Stephens","total benefits":"$819,274","id":"a7rme1h6wqyg"},"type":"Feature","geometry":null},{"properties":{"county":"Texas","total benefits":"$280,364","id":"a7rme1k5kgpb"},"type":"Feature","geometry":null},{"properties":{"county":"Tillman","total benefits":"$210,583","id":"a7rme1qnqi8q"},"type":"Feature","geometry":null},{"properties":{"county":"Tulsa","total benefits":"$11,318,447","id":"a7rme1gwpeo4"},"type":"Feature","geometry":null},{"properties":{"county":"Wagoner","total benefits":"$1,030,129","id":"a7rme1w8v5pd"},"type":"Feature","geometry":null},{"properties":{"county":"Washington","total benefits":"$869,345","id":"a7rme1lj5sda"},"type":"Feature","geometry":null},{"properties":{"county":"Washita","total benefits":"$157,565","id":"a7rme1lrgw4o"},"type":"Feature","geometry":null},{"properties":{"county":"Woods","total benefits":"$86,008","id":"a7rme1vgjz12"},"type":"Feature","geometry":null},{"properties":{"county":"Woodward","total benefits":"$264,577","id":"a7rme1u8b90c"},"type":"Feature","geometry":null}],"is_temporal":false,"author":{"url":"","metadata":null,"contact_name":null,"contact_address":null,"source":null,"contact_phone":null},"source":"","pagination":{"sort":null,"start":0,"total":77,"limit":1000000},"state":"parsed","tags":"","published":"2014-08-15T00:24:17-04:00","id":266918}